#------------------------------------------------------------------------------
# Created by    : vladimir.rabinovich
# Created on    : 09/19/2023 17:22:33
#------------------------------------------------------------------------------
~Version Information Section
VERS.           2.0     :   CWLS log ASCII Standard - VERSION 2.0
WRAP.           NO      :   One line per depth step
~Well Information Section
#MNEM       .UNIT                                         VALUE :DESCRIPTION
#------------------------------------------------------------------------------
STRT        .FT                                            2877 :START DEPTH
STOP        .FT                                            8775 :STOP DEPTH
STEP        .FT                                             0.5 :STEP      
NULL        .                                           -999.25 :NULL      
COMP        .                                       APACHE CORP :COMPANY   
WELL        .                                  HIGH ISLAND 10-L :WELL      
FLD         .                                           WILDCAT :FIELD     
LOC         .                                                   :LOCATION  
CNTY        .                           HIGH ISLAND LARGE BLOCK :LOCATION  
STAT        .                                             TEXAS :STATE     
CTRY        .                                     UNITED STATES :COUNTRY   
SRVC        .                                                   :SERVICE COMPANY
DATE        .                             9/13/2023 11:19:15 AM :LOG DATE  
API         .                                    42708303590000 :API NUMBER
UWI         .                                    42708303590000 :UNIQUE WELL ID
XCOORD      .                                  1323081.96300683 :SURFACE X 
YCOORD      .                                  10736101.4448574 :SURFACE Y 
LAT         .                                        29.5789626 :LATITUDE  
LON         .                                       -93.9986282 :LONGITUDE 
ELEV        .FT                                             100 :ELEVATION VALUE
ELEV_TYPE   .                                                KB :ELEVATION REFERENCE TYPE
~Curve Information Section
#MNEM       .UNIT                                      API CODE :CURVE DESCRIPTION
#------------------------------------------------------------------------------
DEPT        .FT                                                 :DEPTH     
CNCSS       .%                                                  :          
DCAL        .IN                                                 :          
GRR         .GAPI                                               :          
ILD         .OHMM                                               :          
ILM         .OHMM                                               :          
PORZSS      .%                                                  :          
RFOC        .OHMM                                               :          
SP          .MV                                                 :          
SP_NORM     .MV                                                 :SP Normalized
TENR        .LB                                                 :          
VSH_SP      .V/V                                                :Volume of Shale from SP
ZCOR        .G/CM3                                              :          
~A        DEPTH          CNCSS           DCAL            GRR            ILD            ILM         PORZSS           RFOC             SP        SP_NORM           TENR         VSH_SP           ZCOR
# ...
      7202.5000        33.0801         0.6455           36.9         0.3014         0.3272        32.8406         0.7972          -97.4      -88.39819           1260              0        -0.0639
      7203.0000        33.5034         0.6345           35.7         0.2711         0.2918         33.264         0.7615          -92.2      -83.19684           1260     0.02172484        -0.0658
      7203.5000        33.7468         0.6335           33.3         0.2553         0.2761         33.388         0.7274          -88.2      -79.19549           1260     0.06993388        -0.0618
      7204.0000        34.4682         0.6325           32.4         0.2438         0.2601         33.213          0.711          -86.2      -77.19414           1250     0.09404653        -0.0598
      7204.5000        33.8148         0.6315           32.1         0.2328         0.2461        33.0978         0.6982          -86.2      -77.19279           1250     0.09406281        -0.0617
      7205.0000        33.2814         0.6305           31.8         0.2265         0.2318        32.9231         0.6856          -87.4      -78.39144           1250     0.07962119        -0.0657
      7205.5000        33.4648         0.6395          30.75         0.2234         0.2244        32.8679         0.6609            -89      -79.99009           1250     0.06036037        -0.0597
      7206.0000        34.1253         0.6385           30.6         0.2203         0.2193        32.8128         0.6489            -90      -80.98874           1250     0.04832844        -0.0537
      7206.5000        33.5925         0.6275           30.9         0.2183         0.2153        32.4596         0.6371          -90.6      -81.58739           1260     0.04111582        -0.0497
      7207.0000        33.9543         0.6265           30.6         0.2163         0.2114        32.3452         0.6197            -91      -81.98604           1270     0.03631279        -0.0517
      7207.5000        34.6136         0.6255             30         0.2153         0.2114        32.1117         0.6028            -91       -81.9847           1270     0.03632897        -0.0596
      7208.0000        34.7958         0.6245           29.4         0.2173         0.2114        32.1166         0.5919          -91.4      -82.38335           1260     0.03152594        -0.0714
      7208.5000        33.4307         0.6235           28.5         0.2183         0.2153        32.1215         0.5919            -92      -82.98199           1260     0.02431332        -0.0813
      7209.0000        31.3532         0.6225           27.9         0.2213         0.2203        32.0669         0.6028          -92.8      -83.78064           1270     0.01469109        -0.0773
      7209.5000        31.1206         0.6215          27.45         0.2255         0.2244        32.0124         0.6141          -93.6      -84.57929           1270    0.005068767        -0.0694
      7210.0000         31.126         0.6205           27.3         0.2318         0.2296        32.0173         0.6113          -94.2      -85.17794           1270              0        -0.0574
      7210.5000        30.5317         0.6205          26.85         0.2383         0.2339         32.195         0.6056          -95.2      -86.17659           1270              0        -0.0515
      7211.0000        31.5356         0.6315           26.7         0.2461         0.2394        32.4267         0.5892          -96.2      -87.17524           1270              0        -0.0535
      7211.5000        34.0248         0.6425           27.9         0.2553         0.2438         32.599         0.5838          -96.2      -87.17389           1260              0        -0.0574
      7212.0000         36.579         0.6635          29.55         0.2553         0.2495        32.5931         0.6287            -94      -84.97254           1250   0.0003308216        -0.0515
      7212.5000        35.9139         0.6745          30.15         0.2589         0.2495        32.5277          0.713          -90.2      -81.17119           1250     0.04613026        -0.0515
      7213.0000        33.8287         0.6655          28.65         0.2637         0.2507        32.5218         0.7711            -87      -77.96984           1270     0.08470071        -0.0554
      7213.5000        33.1693         0.6665          26.55         0.2711         0.2518        32.5752         0.7364          -85.2      -76.16849           1280      0.1064038        -0.0634
      7214.0000        34.2327         0.6775           25.5           0.28         0.2589         33.401         0.6838          -85.2      -76.16714           1290        0.10642        -0.0752
      7214.5000        35.1772         0.6885          26.85         0.2826         0.2637        33.8109         0.6588            -86      -76.96579           1290     0.09679771        -0.0871
      7215.0000         34.399         0.6795           31.2         0.2761         0.2637        34.0426         0.6775          -86.6      -77.56444           1290     0.08958509        -0.0871
      7215.5000        33.4426         0.6805           35.1         0.2661         0.2553         33.799         0.6967          -87.2      -78.16309           1280     0.08237246        -0.0812
      7216.0000        32.6644         0.6715          35.25         0.2553         0.2484         33.199         0.6903          -87.2      -78.16174           1280     0.08238873        -0.0772
      7216.5000        32.5396         0.6725          31.05         0.2495         0.2416        32.6584         0.6496          -87.2      -78.16039           1270       0.082405        -0.0733
      7217.0000        32.2366         0.6735           27.3         0.2495          0.235        32.0584         0.6085          -87.2      -78.15903           1270     0.08242127        -0.0733
      7217.5000        33.2406         0.6845          25.05         0.2495          0.235        31.7554         0.5785          -87.2      -78.15768           1270     0.08243754        -0.0733
      7218.0000         34.601         0.6955          25.35         0.2405          0.235        32.2842         0.5785          -86.6      -77.55634           1270     0.08968271        -0.0713
      7218.5000        34.9515         0.6965           25.5         0.2275         0.2275        33.1099         0.5865          -86.4      -77.35499           1260     0.09210858        -0.0693
      7219.0000         35.302         0.6775           24.6         0.2143         0.2213        33.9356            0.6          -86.6      -77.55363           1250     0.08971524        -0.0653
      7219.5000         36.189         0.6585           23.1         0.2037         0.2143        34.2861         0.6028          -87.8      -78.75229           1240     0.07527363        -0.0515
      7220.0000         37.383         0.6495          23.55         0.2014         0.2085        33.7455         0.6056            -89      -79.95094           1240     0.06083211        -0.0515
      7220.5000          36.18           0.65        24.9038         0.1991         0.2028        32.9703         0.6085          -89.8      -80.74959           1250     0.05120978        -0.0634
      7221.0000        34.1584           0.64        24.9114         0.1982         0.2019        32.4356          0.584          -89.8      -80.74824           1260     0.05122605        -0.0653
      7221.5000        33.6832           0.64        24.6189         0.1956          0.201        32.2574         0.5381          -89.2      -80.14688           1260     0.05847131        -0.0653
      7222.0000        34.5149           0.65        23.5765         0.1947         0.2029        32.2574          0.505          -88.8      -79.74554           1270     0.06330679        -0.0673
      7222.5000        35.4059           0.68        22.8341         0.1993         0.2135        32.3762         0.4982            -88      -78.94418           1240     0.07296164        -0.0673
