#------------------------------------------------------------------------------
# Created by    : vladimir.rabinovich
# Created on    : 09/19/2023 17:19:20
#------------------------------------------------------------------------------
~Version Information Section
VERS.           2.0     :   CWLS log ASCII Standard - VERSION 2.0
WRAP.           NO      :   One line per depth step
~Well Information Section
#MNEM       .UNIT                                         VALUE :DESCRIPTION
#------------------------------------------------------------------------------
STRT        .FT                                            4783 :START DEPTH
STOP        .FT                                            9473 :STOP DEPTH
STEP        .FT                                             0.5 :STEP      
NULL        .                                           -999.25 :NULL      
COMP        .                                   FOREST OIL CORP :COMPANY   
WELL        .                               OCS G20658 ST00BP00 :WELL      
FLD         .                            HIGH ISLAND BLOCK 0052 :FIELD     
LOC         .                                                   :LOCATION  
CNTY        .                           HIGH ISLAND LARGE BLOCK :LOCATION  
STAT        .                                             TEXAS :STATE     
CTRY        .                                     UNITED STATES :COUNTRY   
SRVC        .                                                   :SERVICE COMPANY
DATE        .                             9/13/2023 11:19:51 AM :LOG DATE  
API         .                                    42708405710000 :API NUMBER
UWI         .                                    42708405710000 :UNIQUE WELL ID
XCOORD      .                                  1254974.65209524 :SURFACE X 
YCOORD      .                                  10682885.5467737 :SURFACE Y 
LAT         .                                         29.430813 :LATITUDE  
LON         .                                        -94.211177 :LONGITUDE 
ELEV        .FT                                             108 :ELEVATION VALUE
ELEV_TYPE   .                                                KB :ELEVATION REFERENCE TYPE
~Curve Information Section
#MNEM       .UNIT                                      API CODE :CURVE DESCRIPTION
#------------------------------------------------------------------------------
DEPT        .FT                                                 :DEPTH     
A28H_COND   .MMHO                                               :          
A28H_UNC    .OHMM                                               :          
AHT10       .OHMM                                               :          
AHT20       .OHMM                                               :          
AHT30       .OHMM                                               :          
AHT60       .OHMM                                               :          
AHT90       .OHMM                                               :          
DCAL        .IN                                                 :          
DPHZ        .V/V                                                :          
DRHO        .G/CC                                               :          
DTCO        .US/F                                               :          
DTSM        .US/F                                               :          
GR          .GAPI                                               :          
GR_ARC_FIL  .GAPI                                               :          
GR_NORM     .GAPI                                               :GammaRay Normalized
GR1         .GAPI                                               :          
GRM1        .GAPI                                               :          
NPOR        .V/V                                                :          
P28H_UNC    .OHMM                                               :          
ROP5        .F/HR                                               :          
ROP5_RM     .F/HR                                               :          
SP          .MV                                                 :          
TENS        .LB                                                 :          
VSH_GR      .V/V                                                :Volume of Shale from GR
~A        DEPTH      A28H_COND       A28H_UNC          AHT10          AHT20          AHT30          AHT60          AHT90           DCAL           DPHZ           DRHO           DTCO           DTSM             GR     GR_ARC_FIL        GR_NORM            GR1           GRM1           NPOR       P28H_UNC           ROP5        ROP5_RM             SP           TENS         VSH_GR
# ...
      8776.0000        -999.25        -999.25         0.5379         0.5354          0.535         0.5343         0.5353         1.1198          0.213          0.023          128.2       341.1881        71.9982        -999.25       83.25751           66.3         85.606         0.4147        -999.25         25.283        -999.25         2.1203           3008              1
      8776.5000        -999.25        -999.25         0.5359         0.5327         0.5294         0.5287         0.5285         1.2202         0.2088          0.025          128.2       342.3762        69.8971        -999.25       85.80624           65.1         87.645         0.4182        -999.25         25.268        -999.25         2.0894           3026              1
      8777.0000        -999.25        -999.25         0.5285         0.5266         0.5256         0.5252         0.5244         1.2202         0.2118          0.024          127.6       342.3762        65.3366        -999.25       80.90375           63.8         83.723         0.4129        -999.25         25.536        -999.25         1.8503           3044              1
      8777.5000        -999.25        -999.25         0.5274         0.5276         0.5237         0.5255         0.5232         1.2626          0.219          0.019            127          339.4        64.8432        -999.25       78.35125             65         81.681         0.4093        -999.25         25.576        -999.25         1.6528           3062      0.9649202
      8778.0000        -999.25        -999.25         0.5365         0.5361         0.5338         0.5342         0.5328         1.2163         0.2226          0.013          126.2          335.2        64.8473        -999.25       78.35125           64.9         81.681         0.4087        -999.25         25.061        -999.25         1.7261           3080      0.9649202
      8778.5000        -999.25        -999.25         0.5452          0.545         0.5427         0.5407         0.5371         1.2742         0.2202          0.011          125.2          330.8        65.7995        -999.25       82.18001           64.4         84.744         0.4093        -999.25         25.336        -999.25         2.0703           3080              1
      8779.0000        -999.25        -999.25         0.5558          0.554           0.55         0.5482         0.5418         1.3012         0.2166          0.011          124.4          323.6         66.092        -999.25       75.79875           63.7         79.639         0.4093        -999.25         25.408        -999.25         2.1852           3044      0.9106117
      8779.5000        -999.25        -999.25          0.587         0.5858         0.5826         0.5772         0.5691         1.3166         0.2136          0.013          123.8       317.8218        65.9312        -999.25       78.35125           63.3         81.681         0.3992        -999.25         25.642        -999.25          1.821           3044      0.9649202
      8780.0000        -999.25        -999.25         0.6245         0.6238         0.6274         0.6204         0.6099         1.5366         0.2118          0.015          123.6       312.8713        66.8417        -999.25         77.075           62.2          80.66         0.3766        -999.25         25.606        -999.25         1.6652           3044      0.9377661
      8780.5000        -999.25        -999.25          0.615         0.6218         0.6204         0.6178         0.6046         1.6138         0.2112          0.012          123.6        310.297         68.074        -999.25       78.35125           60.7         81.681         0.3612        -999.25         25.993        -999.25         1.6552           3044      0.9649202
      8781.0000        -999.25        -999.25         0.5914         0.5933         0.5938         0.5957         0.5819         1.7025         0.2106          0.009          123.8       310.6931        69.7776        -999.25       78.35125           59.3         81.681          0.363        -999.25         27.612        -999.25         2.2077           3044      0.9649202
      8781.5000        -999.25        -999.25         0.5842         0.5846         0.5887         0.5909         0.5796         1.5404         0.2088          0.008          124.6       314.2574        70.2637        -999.25       75.79875           59.2         79.639         0.3731        -999.25         30.135        -999.25         2.6768           3044      0.9106117
      8782.0000        -999.25        -999.25         0.5884         0.5874         0.5933         0.5964         0.5855         1.5713           0.21          0.008          125.4       318.2178        70.9483        -999.25       74.52249             63         78.618          0.382        -999.25         34.659        -999.25          2.896           3044      0.8834572
      8782.5000        -999.25        -999.25         0.5945         0.5928         0.5986         0.6007         0.5912         1.6678         0.2136          0.012          126.2          323.4        71.1683        -999.25       74.52249           66.9         78.618         0.3909        -999.25         39.555        -999.25         2.8652           3026      0.8834572
      8783.0000        -999.25        -999.25          0.586          0.586         0.5931         0.5966         0.5888         1.6871         0.2202          0.017          126.8          329.8        72.2025        -999.25        79.6275           65.4         82.702         0.3992        -999.25         45.245        -999.25         2.8968           3044      0.9920745
      8783.5000        -999.25        -999.25         0.5693           0.57         0.5754          0.578         0.5725         1.6639         0.2226          0.017          127.4          336.4         71.535        -999.25         77.075           65.1          80.66         0.4081        -999.25         53.352        -999.25         2.8452           3008      0.9377661
      8784.0000        -999.25        -999.25         0.5545         0.5564         0.5603         0.5629         0.5597         1.5675         0.2226          0.017          127.8       341.5842        72.1966        -999.25         87.285           66.5         88.828         0.4164        -999.25         59.459        -999.25         2.8351           2990              1
      8784.5000        -999.25        -999.25         0.5456         0.5474         0.5507         0.5548         0.5549         1.5713         0.2244          0.018            128       344.7525        71.3334        -999.25       83.45625           67.2         85.765         0.4248        -999.25         70.847        -999.25         2.5543           3008              1
      8785.0000        -999.25        -999.25         0.5365         0.5388         0.5412         0.5447         0.5461         1.5829         0.2292          0.016          127.6       346.7327        72.6694        -999.25        79.6275             66         82.702         0.4374        -999.25         71.611        -999.25         2.4609           3026      0.9920745
      8785.5000        -999.25        -999.25         0.5328         0.5357          0.537           0.54         0.5402         1.4787          0.234          0.014            127       346.1386        71.8695        -999.25       80.90375           63.7         83.723         0.4482        -999.25         78.442        -999.25         2.3884           3044              1
      8786.0000        -999.25        -999.25         0.5342         0.5367         0.5376         0.5388         0.5383         1.3822         0.2352          0.018          126.2       343.1683        73.0476        -999.25         87.285           61.8         88.828         0.4518        -999.25         70.007        -999.25         2.3784           3044              1
      8786.5000        -999.25        -999.25         0.5422         0.5449         0.5455         0.5469         0.5457         1.3012         0.2262          0.019          125.2          339.8        73.0975        -999.25       83.45625           61.8         85.765         0.4518        -999.25         62.098        -999.25         2.3059           3062              1
