#------------------------------------------------------------------------------
# Created by    : vladimir.rabinovich
# Created on    : 09/19/2023 17:22:48
#------------------------------------------------------------------------------
~Version Information Section
VERS.           2.0     :   CWLS log ASCII Standard - VERSION 2.0
WRAP.           NO      :   One line per depth step
~Well Information Section
#MNEM       .UNIT                                         VALUE :DESCRIPTION
#------------------------------------------------------------------------------
STRT        .FT                                            3512 :START DEPTH
STOP        .FT                                           11028 :STOP DEPTH
STEP        .FT                                             0.5 :STEP      
NULL        .                                           -999.25 :NULL      
COMP        .                          SEAGULL ENERGY E & P INC :COMPANY   
WELL        .                   ST TR 147-L NE/4 /ST LSE 88034/ :WELL      
FLD         .                                           WILDCAT :FIELD     
LOC         .                                                   :LOCATION  
CNTY        .                             GALVESTON LARGE BLOCK :LOCATION  
STAT        .                                             TEXAS :STATE     
CTRY        .                                     UNITED STATES :COUNTRY   
SRVC        .                                                   :SERVICE COMPANY
DATE        .                             9/13/2023 11:18:53 AM :LOG DATE  
API         .                                    42706302000000 :API NUMBER
UWI         .                                    42706302000000 :UNIQUE WELL ID
XCOORD      .                                  1107149.67333588 :SURFACE X 
YCOORD      .                                  10638300.0198507 :SURFACE Y 
LAT         .                                        29.3031745 :LATITUDE  
LON         .                                         -94.67354 :LONGITUDE 
ELEV        .FT                                              25 :ELEVATION VALUE
ELEV_TYPE   .                                                KB :ELEVATION REFERENCE TYPE
~Curve Information Section
#MNEM       .UNIT                                      API CODE :CURVE DESCRIPTION
#------------------------------------------------------------------------------
DEPT        .FT                                                 :DEPTH     
DT          .US/F                                               :          
GR          .GAPI                                               :          
GR_NORM     .GAPI                                               :GammaRay Normalized
ILD         .OHMM                                               :          
ILM         .OHMM                                               :          
SFL         .OHMM                                               :          
SP          .MV                                                 :          
SP_NORM     .MV                                                 :SP Normalized
VSH_GR      .V/V                                                :Volume of Shale from GR
VSH_SP      .V/V                                                :Volume of Shale from SP
~A        DEPTH             DT             GR        GR_NORM            ILD            ILM            SFL             SP        SP_NORM         VSH_GR         VSH_SP
# ...
      8510.0000       113.1893        79.1484       85.60425         0.5069         0.4989         0.5612        -18.008      -2.330997              1      0.9861354
      8510.5000       111.2997        77.1754       83.32913         0.5422         0.5337         0.5567       -17.8022      -2.124259              1      0.9882889
      8511.0000       108.8145        73.2196       78.76512         0.5903         0.5738          0.606       -17.6555       -1.97662       0.973726      0.9898269
      8511.5000        106.676        67.0383       71.63207         0.6431         0.6301         0.7169       -17.5912       -1.91138       0.821959      0.9905065
      8512.0000       106.0054        66.0874       70.53683         0.7137         0.7037         0.7804       -18.2819      -2.601141       0.798656      0.9833214
      8512.5000       105.7948        71.1315       76.36203          0.795         0.7876         0.7914       -19.8308        -4.1491      0.9225964      0.9671969
      8513.0000       105.2605        73.3568       78.93329         0.8818         0.9207         0.8095       -21.3798      -5.697163       0.977304      0.9510712
      8513.5000       101.8096        72.2784       77.69086         0.9549         1.1178         0.9368       -22.8896      -7.206023      0.9508694      0.9353539
      8514.0000        94.4323        68.4844       73.31364         0.9926         1.3336         1.2899       -24.7695      -9.084985      0.8577371      0.9157814
      8514.5000        84.2069        64.8571       69.12886         1.0028          1.272         1.8073       -26.3258      -10.64034      0.7686992      0.8995798
      8515.0000        78.4913        63.7719       67.87858         0.9911         1.0952         1.9773       -26.7547      -11.06831      0.7420974      0.8951218
      8515.5000        75.9473        64.6732       68.92147         0.9675         1.0035         1.9348       -26.5354      -10.84807      0.7642866       0.897416
      8516.0000        77.9423        64.2639       68.45143         0.9323         0.9356         1.5445       -25.1616      -9.473327      0.7542858      0.9117362
      8516.5000        82.5403        62.1561       66.02071         0.8909         0.8914         1.1009       -23.1078      -7.418587      0.7025682      0.9331397
      8517.0000        87.1481        59.3179       62.74681         0.8301         0.8552         0.8719       -21.8945      -6.204349       0.632911       0.945788
      8517.5000        94.3146        57.8807        61.0902         0.7726          0.821         0.8306       -21.3768       -5.68571      0.5976638      0.9511905
      8518.0000        96.8243         60.063       63.61183         0.7148         0.7899         0.9075       -21.0067      -5.314671      0.6513155      0.9550555
      8518.5000        97.7374        65.5188       69.91228         0.6652         0.7305         1.1231       -20.1004      -4.407432      0.7853676      0.9645059
      8519.0000        98.0317        70.4501       75.60726         0.6513          0.697         1.1068       -17.7181      -2.024191      0.9065375      0.9893314
      8519.5000        98.4923        73.2294       78.81805         0.6492         0.6998         0.9315       -15.3677      0.3271484       0.974852              1
      8520.0000       100.6821        76.0579       82.08562         0.6669         0.7035         0.6565       -14.3493       1.346487              1              1
      8520.5000       103.3414        79.9646       86.59785         0.6839          0.723         0.7815       -14.0209       1.675827              1              1
      8521.0000       104.1478        83.4008       90.56694         0.6852         0.7418         1.0138       -14.0016       1.696066              1              1
      8521.5000        99.9518        86.3959       94.02682         0.6649         0.7414         1.2328       -13.6582       2.040404              1              1
      8522.0000        95.0254        88.4302       96.37761         0.6419         0.6811         1.3224       -12.9903       2.709244              1              1
      8522.5000         92.746        82.8322       89.91791         0.6223         0.6373         1.0773       -12.1852       3.515284              1              1
      8523.0000        93.0353        78.4695       84.88419         0.6082         0.6207          0.762       -11.6809       4.020523              1              1
      8523.5000        99.5303        76.5039       82.61761         0.5898          0.603         0.6571       -11.4418       4.260562              1              1
      8524.0000       106.8242        75.5358        81.5025         0.5708         0.5763           0.62       -11.4716       4.231702              1              1
      8524.5000       111.9442        76.5577       82.68462         0.5517         0.5657         0.6101       -11.7486       3.955641              1              1
      8525.0000       112.6599        78.0651       84.42715         0.5301         0.5695         0.5998       -13.1349        2.57028              1              1
      8525.5000       111.7469        77.1411       83.36297         0.5207         0.5897         0.5923       -15.6986    0.007518768              1              1
      8526.0000       110.9982        73.2098       78.82725         0.5389         0.6227          0.613       -19.3652      -3.658142      0.9750478       0.972311
      8526.5000       109.4738        70.3937       75.57887         0.5656         0.6615         0.6955       -22.7131      -7.005103      0.9059333      0.9374468
      8527.0000       106.8047        69.5511       74.60866         0.5955         0.7051         0.8149       -25.8062      -10.09726      0.8852906      0.9052368
      8527.5000       103.5155        71.0554       76.34762         0.6472         0.7459         0.8901       -28.5366      -12.82672      0.9222897      0.8768049
      8528.0000       100.0646        72.6877       78.23434         0.7093         0.7986          0.866       -30.9679      -15.25708      0.9624327      0.8514887
      8528.5000         96.594         66.656       71.27399         0.7649         0.8514          0.832       -33.3134      -17.60165      0.8143402      0.8270662
      8529.0000        92.9127        61.1267       64.89359         0.7818         0.9081         1.1609       -36.0953      -20.38261      0.6785869      0.7980978
      8529.5000        88.8295        61.4993       65.32615         0.7424         0.9125         1.9119       -38.1957      -22.48207      0.6877904      0.7762284
      8530.0000        84.5109        66.2737          70.84         0.6619         0.8649          2.312       -39.9285      -24.21393      0.8051063      0.7581882
      8530.5000        82.4652        70.5873       75.82195          0.605         0.7701         1.8551        -41.252      -25.53649      0.9111052      0.7444116
      8531.0000        84.4961        73.2711       78.92249         0.5705         0.6783         0.9863       -41.9083      -26.19185      0.9770741      0.7375849
      8531.5000        89.2363        74.8225       80.71582         0.5337         0.6185         0.8299       -42.3206      -26.60321              1      0.7332999
      8532.0000        93.3979        75.1019        81.0408         0.4963         0.5804         0.7786       -43.9064      -28.18807              1       0.716791
      8532.5000        97.0205        73.5088       79.20422          0.466         0.5573         0.7767       -46.0215      -30.30223      0.9830684      0.6947684
      8533.0000        99.5278        71.4917       76.87819         0.4454          0.543         0.7954       -47.8524      -32.13219      0.9335785      0.6757063
      8533.5000       100.6884        69.3129       74.36549          0.436          0.531         0.8208       -48.5001      -32.77895      0.8801169      0.6689692
      8534.0000       101.3365        66.1952       70.76898         0.4344         0.5196         0.8719       -46.3304      -30.60831      0.8035954      0.6915801
