#------------------------------------------------------------------------------
# Created by    : vladimir.rabinovich
# Created on    : 09/19/2023 17:20:32
#------------------------------------------------------------------------------
~Version Information Section
VERS.           2.0     :   CWLS log ASCII Standard - VERSION 2.0
WRAP.           NO      :   One line per depth step
~Well Information Section
#MNEM       .UNIT                                         VALUE :DESCRIPTION
#------------------------------------------------------------------------------
STRT        .FT                                             222 :START DEPTH
STOP        .FT                                            9192 :STOP DEPTH
STEP        .FT                                             0.5 :STEP      
NULL        .                                           -999.25 :NULL      
COMP        .                                      PAN AMERICAN :COMPANY   
WELL        .                                     ST TR 00060-L :WELL      
FLD         .                                           WILDCAT :FIELD     
LOC         .                                                   :LOCATION  
CNTY        .                             GALVESTON LARGE BLOCK :LOCATION  
STAT        .                                             TEXAS :STATE     
CTRY        .                                     UNITED STATES :COUNTRY   
SRVC        .                                                   :SERVICE COMPANY
DATE        .                             9/13/2023 11:19:24 AM :LOG DATE  
API         .                                    42706000830000 :API NUMBER
UWI         .                                    42706000830000 :UNIQUE WELL ID
XCOORD      .                                  1150669.84230747 :SURFACE X 
YCOORD      .                                  10684730.4394491 :SURFACE Y 
LAT         .                                        29.4325033 :LATITUDE  
LON         .                                       -94.5389235 :LONGITUDE 
ELEV        .FT                                              11 :ELEVATION VALUE
ELEV_TYPE   .                                                KB :ELEVATION REFERENCE TYPE
~Curve Information Section
#MNEM       .UNIT                                      API CODE :CURVE DESCRIPTION
#------------------------------------------------------------------------------
DEPT        .FT                                                 :DEPTH     
ASN         .OHMM                                               :          
CILD        .MMHO                                               :          
ILD         .OHMM                                               :          
SP          .MV                                                 :          
SP_NORM     .MV                                                 :SP Normalized
VSH_SP      .V/V                                                :Volume of Shale from SP
~A        DEPTH            ASN           CILD            ILD             SP        SP_NORM         VSH_SP
# ...
      6188.0000          0.625        -999.25         0.3747       -63.7576      -11.97697       0.732269
      6188.5000         0.5927        -999.25         0.4097       -61.7006      -9.921349      0.7824062
      6189.0000         0.5685        -999.25         0.4529       -59.6436      -7.865726      0.8325433
      6189.5000         0.5535        -999.25         0.4961       -57.7066      -5.930103      0.8797536
      6190.0000         0.5635        -999.25         0.5394       -56.0586      -4.283482      0.9199151
      6190.5000         0.5593        -999.25         0.5811       -54.4117      -2.637959      0.9600498
      6191.0000         0.5526        -999.25         0.5483        -52.765       -0.99263              1
      6191.5000         0.5611        -999.25         0.5155       -51.1818      0.5891914              1
      6192.0000         0.5695        -999.25         0.4828       -51.8282    -0.05858612              1
      6192.5000         0.5779        -999.25           0.45       -52.8482      -1.079964      0.9980497
      6193.0000         0.5864        -999.25         0.4173       -53.8681      -2.101238      0.9731405
      6193.5000         0.5948        -999.25         0.3892       -55.1685      -3.403015      0.9413899
      6194.0000         0.6013        -999.25         0.3742       -56.7908      -5.026691       0.901788
      6194.5000         0.6019        -999.25         0.3592       -58.4131      -6.650372      0.8621861
      6195.0000         0.6024        -999.25         0.3442       -60.0354      -8.274044      0.8225843
      6195.5000          0.603        -999.25         0.3431       -61.6577       -9.89772      0.7829824
      6196.0000         0.6036        -999.25         0.3526       -63.2299       -11.4713      0.7446025
      6196.5000         0.6034        -999.25          0.362       -64.6158      -12.85857      0.7107665
      6197.0000         0.5984        -999.25         0.3715       -66.0031      -14.24725      0.6768963
      6197.5000         0.5935        -999.25         0.3809        -67.389      -15.63453      0.6430603
      6198.0000         0.5885        -999.25         0.3903       -66.1671      -14.41401      0.6728292
      6198.5000         0.5835        -999.25         0.3998       -64.0857      -12.33398      0.7235615
      6199.0000         0.5785        -999.25         0.4092       -62.0067      -10.25636      0.7742352
      6199.5000         0.5736        -999.25         0.4259       -59.9252      -8.176235      0.8249699
      6200.0000         0.5618        -999.25         0.4438       -57.8462       -6.09861      0.8756437
      6200.5000         0.5497        -999.25         0.4597       -54.6505      -2.904289      0.9535539
      6201.0000         0.5376        -999.25          0.441       -55.1562      -3.411366      0.9411862
      6201.5000         0.5255        -999.25         0.4222       -56.1479      -4.404442      0.9169648
      6202.0000         0.5134        -999.25         0.4035       -57.1397      -5.397617       0.892741
      6202.5000         0.5014        -999.25         0.3848       -58.1315      -6.390793      0.8685172
      6203.0000         0.4992        -999.25         0.3677       -59.1232      -7.383869      0.8442959
      6203.5000         0.4995        -999.25         0.3566        -60.115      -8.377048       0.820072
      6204.0000          0.504        -999.25         0.3455       -61.1068      -9.370224      0.7958482
      6204.5000         0.5196        -999.25         0.3344       -62.0985       -10.3633      0.7716268
      6205.0000         0.5352        -999.25         0.3232        -64.595      -12.86118       0.710703
      6205.5000         0.5508        -999.25         0.3121       -67.1908      -15.45835      0.6473572
      6206.0000         0.5664        -999.25         0.3009       -69.7889      -18.05783      0.5839553
      6206.5000         0.5798        -999.25         0.3134       -72.1765       -20.4468      0.5256877
      6207.0000         0.5671        -999.25         0.3301       -73.8466      -22.11829      0.4849198
      6207.5000         0.5543        -999.25         0.3467       -75.5166      -23.78966      0.4441546
      6208.0000         0.5416        -999.25         0.3634       -71.5668      -19.84124      0.5404575
      6208.5000         0.5289        -999.25           0.38        -65.293      -13.56881      0.6934436
      6209.0000         0.5192        -999.25         0.3967       -57.3785      -5.655689      0.8864466
      6209.5000         0.5108        -999.25         0.4314       -55.2847      -3.563263      0.9374814
      6210.0000         0.5024        -999.25         0.4709       -53.2694      -1.549343      0.9866014
      6210.5000         0.5022        -999.25         0.4932       -51.5908      0.1278801              1
      6211.0000         0.5117        -999.25         0.4924       -50.7545      0.9628029              1
      6211.5000         0.5212        -999.25         0.4916       -49.9182       1.797726              1
      6212.0000         0.5307        -999.25         0.4908       -49.3701       2.344452              1
      6212.5000         0.5402        -999.25           0.49       -49.2863       2.426876              1
      6213.0000         0.5485        -999.25         0.4892       -49.2024       2.509399              1
      6213.5000          0.549        -999.25         0.4878       -49.2012       2.509224              1
      6214.0000         0.5495        -999.25         0.4862       -49.2513       2.457745              1
      6214.5000           0.55        -999.25         0.4846       -49.3016       2.406067              1
      6215.0000         0.5505        -999.25         0.4831       -49.3517       2.354591              1
      6215.5000         0.5512        -999.25         0.4815       -49.4019       2.303013              1
      6216.0000         0.5522        -999.25           0.48        -49.452       2.251541              1
      6216.5000         0.5532        -999.25         0.4784       -49.5023       2.199863              1
      6217.0000         0.5543        -999.25         0.4769       -49.5524       2.148388              1
      6217.5000         0.5553        -999.25         0.4753       -49.6025       2.096909              1
      6218.0000         0.5628        -999.25         0.4738       -49.6542       2.043831              1
      6218.5000         0.5704        -999.25         0.4722       -49.7867       1.909954              1
      6219.0000         0.5779        -999.25         0.4816       -49.9193       1.775978              1
      6219.5000         0.5855        -999.25         0.4917       -50.0518       1.642105              1
      6220.0000          0.595        -999.25         0.5019       -50.1844       1.508129              1
      6220.5000         0.6097        -999.25         0.5121       -50.3168       1.374352              1
      6221.0000         0.6244        -999.25         0.5223       -50.4493       1.240475              1
      6221.5000         0.6392        -999.25         0.5324       -50.5818       1.106598              1
      6222.0000         0.6539        -999.25         0.5426       -50.7144      0.9726181              1
      6222.5000         0.6774        -999.25         0.5579       -50.8469      0.8387413              1
      6223.0000         0.7022        -999.25         0.5753       -51.2148      0.4694633              1
      6223.5000         0.7285        -999.25         0.5927       -51.8448     -0.1619072              1
      6224.0000         0.7258        -999.25         0.5941       -52.4747     -0.7931862              1
      6224.5000         0.7148        -999.25         0.5846       -53.1047      -1.424561      0.9896449
      6225.0000         0.7038        -999.25         0.5751       -53.7347      -2.055939      0.9742454
      6225.5000         0.6931        -999.25         0.5655       -54.3646      -2.687218      0.9588484
