#------------------------------------------------------------------------------
# Created by    : vladimir.rabinovich
# Created on    : 09/19/2023 17:20:30
#------------------------------------------------------------------------------
~Version Information Section
VERS.           2.0     :   CWLS log ASCII Standard - VERSION 2.0
WRAP.           NO      :   One line per depth step
~Well Information Section
#MNEM       .UNIT                                         VALUE :DESCRIPTION
#------------------------------------------------------------------------------
STRT        .FT                                             617 :START DEPTH
STOP        .FT                                           12396 :STOP DEPTH
STEP        .FT                                             0.5 :STEP      
NULL        .                                           -999.25 :NULL      
COMP        .                                        SUN OIL CO :COMPANY   
WELL        .                               OCS G01781 ST00BP00 :WELL      
FLD         .                                           WILDCAT :FIELD     
LOC         .                                                   :LOCATION  
CNTY        .                             GALVESTON LARGE BLOCK :LOCATION  
STAT        .                                             TEXAS :STATE     
CTRY        .                                     UNITED STATES :COUNTRY   
SRVC        .                                                   :SERVICE COMPANY
DATE        .                             9/13/2023 11:19:24 AM :LOG DATE  
API         .                                    42706001390000 :API NUMBER
UWI         .                                    42706001390000 :UNIQUE WELL ID
XCOORD      .                                  1010631.41746955 :SURFACE X 
YCOORD      .                                  10491097.5822315 :SURFACE Y 
LAT         .                                         28.894296 :LATITUDE  
LON         .                                        -94.968586 :LONGITUDE 
ELEV        .FT                                              65 :ELEVATION VALUE
ELEV_TYPE   .                                                KB :ELEVATION REFERENCE TYPE
~Curve Information Section
#MNEM       .UNIT                                      API CODE :CURVE DESCRIPTION
#------------------------------------------------------------------------------
DEPT        .FT                                                 :DEPTH     
ASN         .OHMM                                               :          
CILD        .MMHO                                               :          
DT          .US/F                                               :          
ILD         .OHMM                                               :          
SP          .MV                                                 :          
SP_NORM     .MV                                                 :SP Normalized
VSH_SP      .V/V                                                :Volume of Shale from SP
~A        DEPTH            ASN           CILD             DT            ILD             SP        SP_NORM         VSH_SP
# ...
      1387.5000         1.0247       1199.814       158.8784         0.7635       -99.3428     -0.5768127              1
      1388.0000         1.0188       1208.521       160.6919         0.7616       -99.5886     -0.8250122              1
      1388.5000          1.013       1217.229       162.3279         0.7625      -100.2094      -1.448212              1
      1389.0000         1.0155       1225.938       163.5937         0.7633      -100.8302      -2.071419      0.9935074
      1389.5000          1.023       1216.164       164.1985         0.7642       -101.451      -2.694618      0.9368529
      1390.0000         1.0305       1196.178       164.0295          0.765      -101.6849      -2.930916      0.9153713
      1390.5000         1.0405       1173.979       162.7422         0.7658      -101.8057      -3.054123      0.9041706
      1391.0000         1.0575       1151.773       160.6372         0.7747      -101.1458      -2.396622      0.9639435
      1391.5000         1.0745       1129.574       158.6555         0.7859      -100.4858      -1.739021              1
      1392.0000         1.0915         1112.1       157.5139         0.7971       -99.8258      -1.081421              1
      1392.5000         1.1085       1100.018       158.1362         0.8083        -99.491     -0.7490234              1
      1393.0000         1.1246       1087.936         159.27         0.8195       -99.7662      -1.026619              1
      1393.5000         1.1368       1075.855       161.1587         0.8307       -100.286      -1.548828              1
      1394.0000         1.1491       1063.771       159.0095         0.8419      -100.8242      -2.089432      0.9918699
      1394.5000         1.1614       1057.818       156.1897          0.853      -101.3625      -2.630127      0.9427157
      1395.0000         1.1638       1052.811        154.365         0.8614      -101.9009      -3.170929      0.8935519
      1395.5000         1.1548       1047.801       153.3481         0.8676      -101.6776      -2.950027      0.9136339
      1396.0000         1.1457       1042.793       152.4817         0.8739      -101.3107      -2.585526      0.9467704
      1396.5000         1.1367       1037.785       153.4897         0.8801      -100.9437      -2.220932      0.9799153
      1397.0000          1.136       1032.775       156.0239         0.8863      -100.6246      -1.904236              1
      1397.5000         1.1354       1028.066       157.8088         0.8926      -100.3604      -1.642433              1
      1398.0000         1.1349       1023.368       156.3059         0.8768      -100.0961      -1.380531              1
      1398.5000         1.1343       1018.668       153.4492         0.8541      -100.0618      -1.348633              1
      1399.0000         1.1419       1020.373       151.3337         0.8314      -100.6161      -1.905334              1
      1399.5000         1.1497       1046.104       152.9241          0.807      -101.1703      -2.461937      0.9580057
      1400.0000         1.1576       1091.912       156.7192         0.7791      -101.7245      -3.018539      0.9074055
      1400.5000         1.1476       1137.732       161.0581         0.7512      -102.2788      -3.575241      0.8567963
      1401.0000         1.1314         1185.1        164.585         0.7232      -103.0186      -4.317436       0.789324
      1401.5000         1.1152       1232.875       165.7302         0.6953      -103.8821      -5.183342      0.7106053
      1402.0000          1.101       1379.305       160.3235         0.6674      -104.7456       -6.04924      0.6318873
      1402.5000         1.0872        1419.49       157.1321         0.6572       -105.609      -6.915039      0.5531783
      1403.0000         1.0734       1427.457       155.7859         0.6597      -106.3411      -7.649544      0.4864051
      1403.5000         1.0597       1435.422       155.4053         0.6622      -106.3804      -7.691246       0.482614
      1404.0000         1.0459       1421.234       157.4871         0.6646      -106.2991       -7.61235      0.4897863
      1404.5000         1.0401       1400.236       159.0876         0.6671      -105.6582      -6.973846      0.5478321
      1405.0000         1.0353       1379.244       159.9939         0.6698      -105.0171      -6.335144       0.605896
      1405.5000         1.0306        1351.57       160.5098          0.681      -104.3762      -5.696648      0.6639411
      1406.0000         1.0259       1318.381       160.5815         0.6922      -103.7352      -5.058044      0.7219959
      1406.5000         1.0305       1285.184       160.1184         0.7033      -103.0944      -4.419647      0.7800321
      1407.0000         1.0463       1251.994        159.241         0.7145      -102.2052      -3.532852      0.8606498
      1407.5000         1.0621       1233.088       157.9846         0.7257       -99.5662     -0.8962479              1
      1408.0000         1.0779       1220.361       157.7007         0.7369      -100.5111      -1.843552              1
      1408.5000          1.091       1207.639       158.5542         0.7465      -101.5312      -2.866051      0.9212681
      1409.0000         1.1025       1194.912         161.95         0.7446      -102.5718       -3.90905        0.82645
      1409.5000         1.1141       1190.928       164.3608         0.7427      -103.5773      -4.916954      0.7348223
      1410.0000         1.1085       1198.447       166.5808         0.7409      -103.7822       -5.12426      0.7159764
      1410.5000         1.0897         1253.1       168.3132          0.739      -103.3243      -4.668755       0.757386
      1411.0000          1.071        1304.24       168.7544         0.7371      -102.8665      -4.213356      0.7987858
      1411.5000         1.0522        1328.01       168.6553         0.7304      -102.4086      -3.757858      0.8401947
      1412.0000         1.0267       1351.781       168.7129         0.7222      -101.9507      -3.302361      0.8816036
      1412.5000         0.9996       1375.551       169.8188         0.7139      -101.4927      -2.846756      0.9230222
      1413.0000         0.9724       1390.109       171.2664         0.7056      -100.8766      -2.233063      0.9788125
      1413.5000         0.9566       1393.939       172.5049         0.6973      -100.1804      -1.539261              1
      1414.0000         0.9489       1394.367       173.1479         0.6891       -99.4845     -0.8457565              1
      1414.5000         0.9412       1383.623       173.5493         0.6808       -98.7885     -0.1521606              1
      1415.0000         0.9429       1372.879       173.9001         0.6725       -98.1602       0.473732              1
      1415.5000         0.9477       1362.135       174.9536         0.6709       -97.5831       1.048439              1
      1416.0000         0.9525       1351.391       177.3633         0.6695        -97.006       1.623138              1
      1416.5000         0.9573       1340.646       175.8311         0.6681       -96.4288       2.197929              1
      1417.0000         0.9613        1338.52       177.3037         0.6667       -95.7057       2.918633              1
      1417.5000         0.9641       1342.348       176.5447         0.6653       -94.9067       3.715233              1
      1418.0000         0.9669       1347.186       174.4058          0.664       -94.1075       4.512032              1
      1418.5000         0.9697       1357.338       172.3125         0.6626       -95.0854       3.531731              1
      1419.0000         0.9679       1367.492       170.4255         0.6612       -96.1897       2.425034              1
      1419.5000         0.9641       1377.645       168.6484         0.6598       -96.7327       1.879631              1
      1420.0000         0.9602       1387.797       167.2407         0.6605        -96.712       1.897926              1
      1420.5000          0.957       1397.951       167.0161         0.6617       -96.5385       2.069031              1
