#------------------------------------------------------------------------------
# Created by    : vladimir.rabinovich
# Created on    : 09/19/2023 17:20:33
#------------------------------------------------------------------------------
~Version Information Section
VERS.           2.0     :   CWLS log ASCII Standard - VERSION 2.0
WRAP.           NO      :   One line per depth step
~Well Information Section
#MNEM       .UNIT                                         VALUE :DESCRIPTION
#------------------------------------------------------------------------------
STRT        .FT                                             526 :START DEPTH
STOP        .FT                                            9568 :STOP DEPTH
STEP        .FT                                             0.5 :STEP      
NULL        .                                           -999.25 :NULL      
COMP        .                       BLUE DOLPHIN EXPLORATION CO :COMPANY   
WELL        .                                OCS 00713 ST00BP00 :WELL      
FLD         .                              GALVESTON BLOCK 0288 :FIELD     
LOC         .                                                   :LOCATION  
CNTY        .                             GALVESTON LARGE BLOCK :LOCATION  
STAT        .                                             TEXAS :STATE     
CTRY        .                                     UNITED STATES :COUNTRY   
SRVC        .                                                   :SERVICE COMPANY
DATE        .                             9/13/2023 11:19:25 AM :LOG DATE  
API         .                                    42706000630000 :API NUMBER
UWI         .                                    42706000630000 :UNIQUE WELL ID
XCOORD      .                                  1101981.32688909 :SURFACE X 
YCOORD      .                                  10481575.8265757 :SURFACE Y 
LAT         .                                          28.87198 :LATITUDE  
LON         .                                        -94.682732 :LONGITUDE 
ELEV        .FT                                              58 :ELEVATION VALUE
ELEV_TYPE   .                                                KB :ELEVATION REFERENCE TYPE
~Curve Information Section
#MNEM       .UNIT                                      API CODE :CURVE DESCRIPTION
#------------------------------------------------------------------------------
DEPT        .FT                                                 :DEPTH     
ASN         .OHMM                                               :          
CALI        .IN                                                 :          
DT          .US/F                                               :          
ILD         .OHMM                                               :          
SP          .MV                                                 :          
SP_NORM     .MV                                                 :SP Normalized
VSH_SP      .V/V                                                :Volume of Shale from SP
~A        DEPTH            ASN           CALI             DT            ILD             SP        SP_NORM         VSH_SP
# ...
      9537.5000         0.7513        -999.25        -999.25         0.6852       -38.3748     -0.7637863              1
      9538.0000         0.7705        -999.25        -999.25         0.6947        -38.397     -0.7300224              1
      9538.5000          0.799        -999.25        -999.25         0.7051        -38.378     -0.6550636              1
      9539.0000         0.8304        -999.25        -999.25         0.7255       -38.2214     -0.4425049              1
      9539.5000         0.8503        -999.25        -999.25         0.7465       -38.0802     -0.2453423              1
      9540.0000          0.874        -999.25        -999.25         0.7659       -38.0436     -0.1527786              1
      9540.5000         0.8975        -999.25        -999.25         0.7834       -38.1739     -0.2271194              1
      9541.0000         0.8806        -999.25        -999.25         0.7891       -38.5042      -0.501461              1
      9541.5000         0.8713        -999.25        -999.25         0.7897       -38.8892     -0.8304977              1
      9542.0000         0.9071        -999.25        -999.25         0.7866       -39.3116      -1.196938      0.9949503
      9542.5000         0.9056        -999.25        -999.25         0.7733       -39.1722      -1.001575      0.9999596
      9543.0000         0.8732        -999.25        -999.25         0.7588       -38.8294     -0.6028137              1
      9543.5000         0.8423        -999.25        -999.25         0.7428       -38.7545     -0.4719582              1
      9544.0000         0.8155        -999.25        -999.25          0.722       -38.8489     -0.5103951              1
      9544.5000         0.7919        -999.25        -999.25         0.7083       -38.9509     -0.5564346              1
      9545.0000         0.7814        -999.25        -999.25         0.6982       -38.7855     -0.3350716              1
      9545.5000         0.7868        -999.25        -999.25         0.6919       -38.5723    -0.06591415              1
      9546.0000         0.7927        -999.25        -999.25          0.687       -38.4564      0.1059456              1
      9546.5000         0.7926        -999.25        -999.25         0.6876       -38.5606     0.05770874              1
      9547.0000         0.7877        -999.25        -999.25         0.6887       -38.8322     -0.1579285              1
      9547.5000         0.7913        -999.25        -999.25         0.6927       -39.1077     -0.3774681              1
      9548.0000         0.8062        -999.25        -999.25         0.6995        -38.968     -0.1818085              1
      9548.5000         0.8292        -999.25        -999.25         0.7063       -38.8678    -0.02565002              1
      9549.0000         0.8554        -999.25        -999.25         0.7155       -38.9719    -0.07378769              1
      9549.5000         0.8573        -999.25        -999.25         0.7248       -39.2119     -0.2578239              1
      9550.0000         0.8953        -999.25        -999.25         0.7368       -39.3712     -0.3611641              1
      9550.5000         0.9216        -999.25        -999.25         0.7496       -39.3259     -0.2599068              1
      9551.0000         0.9286        -999.25        -999.25         0.7629       -39.1761    -0.05414581              1
      9551.5000         0.9404        -999.25        -999.25         0.7705       -39.0323      0.1456184              1
      9552.0000          0.975        -999.25        -999.25         0.7731       -39.0714      0.1624794              1
      9552.5000         0.9834        -999.25        -999.25         0.7745       -39.4077     -0.1178589              1
      9553.0000          0.951        -999.25        -999.25         0.7752       -39.6838     -0.3380013              1
      9553.5000          0.919        -999.25        -999.25         0.7781       -39.9252     -0.5234413              1
      9554.0000         0.9014        -999.25        -999.25         0.7832        -39.923     -0.4652786              1
      9554.5000         0.8978        -999.25        -999.25         0.7936       -39.6938     -0.1801186              1
      9555.0000          0.919        -999.25        -999.25         0.8082       -39.4675     0.06738281              1
      9555.5000         0.9908        -999.25        -999.25         0.8263       -39.4009      0.1339798              1
      9556.0000         1.1015        -999.25        -999.25         0.8578       -39.3502      0.1846809              1
      9556.5000         1.1854        -999.25        -999.25         0.8922       -39.3861      0.1487808              1
      9557.0000         1.2395        -999.25        -999.25         0.9211       -39.4604     0.07448196              1
      9557.5000         1.2422        -999.25        -999.25         0.9462       -39.5459    -0.01101685              1
      9558.0000          1.214        -999.25        -999.25         0.9576       -39.6813     -0.1464195              1
      9558.5000         1.1775        -999.25        -999.25         0.9623       -39.8497     -0.3148193              1
      9559.0000         1.1474        -999.25        -999.25         0.9676       -39.8866     -0.3517189              1
      9559.5000         1.1387        -999.25        -999.25         0.9719       -39.6335    -0.09861755              1
      9560.0000         1.1641        -999.25        -999.25         0.9726       -39.4871      0.0477829              1
      9560.5000         1.1888        -999.25        -999.25         0.9721        -39.439     0.09588242              1
      9561.0000         1.1884        -999.25        -999.25         0.9778       -39.8157     -0.2808189              1
      9561.5000         1.1774        -999.25        -999.25         0.9934       -39.8145     -0.2796173              1
      9562.0000         1.1814        -999.25        -999.25         1.0072       -39.5128     0.02208328              1
      9562.5000         1.2193        -999.25        -999.25         1.0159       -39.6033     -0.0684166              1
      9563.0000         1.2231        -999.25        -999.25         1.0166       -39.9503     -0.4154167              1
      9563.5000         1.2313        -999.25        -999.25         1.0173       -40.7706      -1.235718       0.993956
      9564.0000          1.247        -999.25        -999.25         1.0168       -41.7217      -2.186817      0.9695688
      9564.5000         1.2179        -999.25        -999.25         1.0153       -42.2355      -2.700619      0.9563944
      9565.0000         1.1851        -999.25        -999.25         1.0144       -41.8044       -2.26952      0.9674482
      9565.5000         1.1718        -999.25        -999.25         1.0135       -40.9103       -1.37542      0.9903738
      9566.0000         1.1764        -999.25        -999.25         1.0082       -40.2796     -0.7447166              1
      9566.5000         1.1831        -999.25        -999.25         1.0014       -40.2124     -0.6775169              1
      9567.0000         1.1629        -999.25        -999.25          0.996       -40.3448     -0.8099174              1
      9567.5000         1.1236        -999.25        -999.25         0.9896       -40.4333     -0.8984184              1
      9568.0000         1.1004        -999.25        -999.25         0.9878       -40.3823     -0.8474197              1
