#------------------------------------------------------------------------------
# Created by    : vladimir.rabinovich
# Created on    : 09/19/2023 17:19:56
#------------------------------------------------------------------------------
~Version Information Section
VERS.           2.0     :   CWLS log ASCII Standard - VERSION 2.0
WRAP.           NO      :   One line per depth step
~Well Information Section
#MNEM       .UNIT                                         VALUE :DESCRIPTION
#------------------------------------------------------------------------------
STRT        .FT                                            3966 :START DEPTH
STOP        .FT                                           12200 :STOP DEPTH
STEP        .FT                                             0.5 :STEP      
NULL        .                                           -999.25 :NULL      
COMP        .                       HOUSTON OIL & MINERALS CORP :COMPANY   
WELL        .                                ST TR 00526-L SW/4 :WELL      
FLD         .                                           CAVALLO :FIELD     
LOC         .                                                   :LOCATION  
CNTY        .                      MATAGORDA ISLAND LARGE BLOCK :LOCATION  
STAT        .                                             TEXAS :STATE     
CTRY        .                                     UNITED STATES :COUNTRY   
SRVC        .                                                   :SERVICE COMPANY
DATE        .                             9/13/2023 11:19:05 AM :LOG DATE  
API         .                                    42703302090000 :API NUMBER
UWI         .                                    42703302090000 :UNIQUE WELL ID
XCOORD      .                                  601997.830501628 :SURFACE X 
YCOORD      .                                  10286578.1750905 :SURFACE Y 
LAT         .                                        28.3077871 :LATITUDE  
LON         .                                       -96.2273179 :LONGITUDE 
ELEV        .FT                                             113 :ELEVATION VALUE
ELEV_TYPE   .                                                KB :ELEVATION REFERENCE TYPE
~Curve Information Section
#MNEM       .UNIT                                      API CODE :CURVE DESCRIPTION
#------------------------------------------------------------------------------
DEPT        .FT                                                 :DEPTH     
ASFL        .OHMM                                               :          
CILD        .MMHO                                               :          
ILD         .OHMM                                               :          
SP          .MV                                                 :          
SP_NORM     .MV                                                 :SP Normalized
VSH_SP      .V/V                                                :Volume of Shale from SP
~A        DEPTH           ASFL           CILD            ILD             SP        SP_NORM         VSH_SP
# ...
      5600.0000         0.6916           1352         0.6863       -47.6471      -2.797852      0.9757047
      5600.5000         0.6956       1352.124         0.6863       -47.9412      -3.075573      0.9719517
      5601.0000         0.7442        1360.24         0.6863       -48.2353      -3.353287      0.9681988
      5601.5000          0.792       1360.359         0.6863       -48.8235      -3.925106      0.9604715
      5602.0000          0.843       1360.478         0.7059       -49.4118      -4.497021      0.9527429
      5602.5000          0.843       1360.597         0.7059            -50      -5.068836      0.9450157
      5603.0000          0.839       1360.716         0.7059            -50      -5.052452      0.9452372
      5603.5000          0.839       1368.806         0.7059       -49.1176      -4.153667      0.9573829
      5604.0000         0.8159       1368.921         0.7059       -47.9412      -2.960884      0.9735016
      5604.5000          0.788       1369.035         0.7059       -47.0588      -2.062099      0.9856473
      5605.0000         0.7283       1369.149         0.7059       -45.8824     -0.8693161              1
      5605.5000          0.804       1369.262         0.7059            -45     0.02946472              1
      5606.0000          0.804       1369.375         0.7059          -43.8        1.24585              1
      5606.5000          0.804       1369.489         0.7059          -43.8       1.262234              1
      5607.0000            0.8       1369.602         0.7059          -43.5       1.578617              1
      5607.5000          0.796       1369.714         0.7059          -43.5       1.595001              1
      5608.0000         0.7721       1377.764         0.6863          -43.5       1.611385              1
      5608.5000         0.7482       1377.872         0.6863          -43.8        1.32777              1
      5609.0000         0.7243        1377.98         0.6667          -44.1       1.044155              1
      5609.5000         0.7004       1393.939         0.6667          -44.4      0.7605362              1
      5610.0000         0.6717       1398.039         0.6471       -45.5882     -0.4112778              1
      5610.5000         0.6598       1398.039         0.6471       -46.1765     -0.9831963              1
      5611.0000         0.6637       1403.922         0.6471       -46.1765     -0.9668121              1
      5611.5000         0.6677       1403.922         0.6471       -46.1765      -0.950428              1
      5612.0000         0.6837       1403.922         0.6471       -46.1765     -0.9340439              1
      5612.5000         0.7004       1403.922         0.6471       -45.8824     -0.6235619              1
      5613.0000         0.7163       1398.039         0.6471       -45.5882     -0.3129768              1
      5613.5000         0.7323       1398.039         0.6471       -45.5882     -0.2965927              1
      5614.0000         0.7522       1390.118         0.6471       -45.2941     0.01388931              1
      5614.5000         0.7562       1390.118         0.6471            -45      0.3243752              1
      5615.0000         0.7641       1382.196         0.6471            -45      0.3407593              1
      5615.5000         0.7761       1382.196         0.6471       -45.2941     0.06303787              1
      5616.0000         0.7801       1374.275         0.6667       -45.8824     -0.5088768              1
      5616.5000         0.8159       1366.353         0.6667       -46.4706      -1.080692      0.9989096
      5617.0000          0.839       1358.431         0.6863       -47.0588      -1.652508      0.9911823
      5617.5000          0.859        1350.51         0.7059       -47.6471      -2.224422      0.9834538
      5618.0000         0.8821       1342.588         0.7059       -47.9412       -2.50214      0.9797008
      5618.5000          0.906       1334.667         0.7059       -47.9412      -2.485756      0.9799222
      5619.0000          0.902       1326.745         0.7059       -48.2353       -2.76347      0.9761693
      5619.5000         0.8821       1326.745         0.7255       -47.9412      -2.452988       0.980365
      5620.0000          0.843       1317.647         0.7255       -47.9412      -2.436604      0.9805864
      5620.5000         0.8199       1326.745         0.7255       -47.6471      -2.126118      0.9847822
      5621.0000          0.808       1326.745         0.7255       -47.6471      -2.109737      0.9850035
      5621.5000          0.796       1326.745         0.7451       -47.3529      -1.799156      0.9892006
      5622.0000         0.7721       1334.667         0.7451       -47.0588       -1.48867      0.9933963
      5622.5000         0.7442       1334.667         0.7451       -46.7647      -1.178188       0.997592
      5623.0000         0.7402       1342.588         0.7451       -46.4706     -0.8677025              1
      5623.5000         0.7323        1350.51         0.7451       -46.1765     -0.5572166              1
      5624.0000         0.7163       1358.431         0.7451       -45.5882     0.04746628              1
      5624.5000         0.7124       1366.353         0.7255       -45.2941      0.3579483              1
      5625.0000         0.7044       1374.275         0.7255            -45      0.6684341              1
      5625.5000         0.7004       1382.196         0.7059          -44.7      0.9848175              1
      5626.0000         0.7004       1398.039         0.6863          -44.1         1.6012              1
      5626.5000         0.7004       1403.922         0.6863          -43.8       1.917583              1
      5627.0000         0.7084       1411.765         0.6667          -43.5       2.233967              1
      5627.5000         0.7323       1427.451         0.6667          -43.2        2.55035              1
      5628.0000         0.7602       1435.294         0.6471          -42.6       3.166737              1
      5628.5000          0.792        1450.98         0.6471          -42.6       3.183121              1
      5629.0000          0.792       1466.667         0.6471          -42.6       3.199505              1
      5629.5000         0.7801       1482.353         0.6275          -42.3       3.515888              1
      5630.0000         0.6438       1498.039         0.6275          -42.6       3.232273              1
      5630.5000         0.6478       1513.725         0.6275          -44.7       1.148655              1
      5631.0000         0.6876       1529.412         0.6275       -46.7647     -0.8996658              1
      5631.5000         0.7323       1545.098         0.6275       -48.8235      -2.942081      0.9737557
      5632.0000         0.8199       1521.569         0.6275       -50.8824      -4.984596      0.9461541
      5632.5000         0.8629       1505.882         0.6275       -52.9412      -7.027012      0.9185539
      5633.0000          0.906       1498.039         0.6275            -55      -9.069427      0.8909537
      5633.5000          0.906       1482.353         0.6275       -57.3529      -11.40594      0.8593791
      5634.0000          0.906       1466.667         0.6275       -59.4118      -13.44846      0.8317776
      5634.5000         0.9331       1458.823         0.6275          -61.5      -15.52028      0.8037801
      5635.0000          0.941       1443.137         0.6471          -63.6      -17.60389      0.7756231
      5635.5000         1.0558       1427.451         0.6471          -65.7       -19.6875      0.7474661
      5636.0000         1.1721       1419.608         0.6471          -67.8      -21.77113      0.7193091
      5636.5000         1.1641       1403.922         0.6471          -70.8      -24.75475      0.6789899
      5637.0000         1.1363       1382.196         0.6471          -70.5      -24.43836      0.6832654
      5637.5000         1.1044       1358.431         0.6471          -67.2      -21.12197      0.7280815
