#------------------------------------------------------------------------------
# Created by    : vladimir.rabinovich
# Created on    : 09/19/2023 17:22:45
#------------------------------------------------------------------------------
~Version Information Section
VERS.           2.0     :   CWLS log ASCII Standard - VERSION 2.0
WRAP.           NO      :   One line per depth step
~Well Information Section
#MNEM       .UNIT                                         VALUE :DESCRIPTION
#------------------------------------------------------------------------------
STRT        .FT                                            3370 :START DEPTH
STOP        .FT                                           10136 :STOP DEPTH
STEP        .FT                                             0.5 :STEP      
NULL        .                                           -999.25 :NULL      
COMP        .                                  W&T OFFSHORE INC :COMPANY   
WELL        .                               OCS G04565 ST00BP00 :WELL      
FLD         .                              GALVESTON BLOCK 0303 :FIELD     
LOC         .                                                   :LOCATION  
CNTY        .                             GALVESTON LARGE BLOCK :LOCATION  
STAT        .                                             TEXAS :STATE     
CTRY        .                                     UNITED STATES :COUNTRY   
SRVC        .                                                   :SERVICE COMPANY
DATE        .                             9/13/2023 11:19:27 AM :LOG DATE  
API         .                                    42706401000000 :API NUMBER
UWI         .                                    42706401000000 :UNIQUE WELL ID
XCOORD      .                                  988505.563749319 :SURFACE X 
YCOORD      .                                  10486369.8338556 :SURFACE Y 
LAT         .                                        28.8802688 :LATITUDE  
LON         .                                       -95.0374578 :LONGITUDE 
ELEV        .FT                                              93 :ELEVATION VALUE
ELEV_TYPE   .                                                KB :ELEVATION REFERENCE TYPE
~Curve Information Section
#MNEM       .UNIT                                      API CODE :CURVE DESCRIPTION
#------------------------------------------------------------------------------
DEPT        .FT                                                 :DEPTH     
DPHI        .DEC                                                :          
DRHO        .G/C3                                               :          
DT          .US/F                                               :          
GR          .GAPI                                               :          
GR_1        .GAPI                                               :          
GR_NORM     .GAPI                                               :GammaRay Normalized
ILD         .OHMM                                               :          
NPHI        .DEC                                                :          
RHOB        .G/C3                                               :          
SP          .MV                                                 :          
SP_NORM     .MV                                                 :SP Normalized
VSH_GR      .V/V                                                :Volume of Shale from GR
VSH_SP      .V/V                                                :Volume of Shale from SP
~A        DEPTH           DPHI           DRHO             DT             GR           GR_1        GR_NORM            ILD           NPHI           RHOB             SP        SP_NORM         VSH_GR         VSH_SP
# ...
      4795.0000         0.2136        -0.0212       108.4501        65.3657        -999.25       84.54329         0.4869         0.3224         2.2978       -64.1792      -17.97611              1      0.7431984
      4795.5000          0.226         -0.024       109.1515        66.9547        -999.25       86.87091         0.4994         0.3387         2.2785       -63.4792       -17.2773              1      0.7531814
      4796.0000         0.2358         -0.029       109.6299        67.7125        -999.25       87.98098         0.5064         0.3485         2.2577          -63.1      -16.89929              1      0.7585816
      4796.5000         0.2416        -0.0296       108.6547        68.0845        -999.25       88.52591         0.5088         0.3518         2.2425       -63.0027      -16.80318              1      0.7599546
      4797.0000         0.2405        -0.0263       107.4066        68.1864        -999.25       88.67517         0.5079         0.3511         2.2468       -63.6064      -17.40807              1      0.7513133
      4797.5000         0.2367         -0.024       106.7565        68.1399        -999.25       88.60706         0.5037         0.3474          2.252       -64.6481      -18.45095              1      0.7364149
      4798.0000         0.2369        -0.0221       106.0063        67.7845        -999.25       88.08644         0.5008         0.3406         2.2539       -65.6965      -19.50054              1      0.7214208
      4798.5000          0.241        -0.0202       104.9481        67.3839        -999.25       87.49963         0.5093         0.3322         2.2507       -66.5479      -20.35313              1       0.709241
      4799.0000         0.2397        -0.0189       104.0212        66.8678        -999.25       86.74362         0.5204         0.3248         2.2497       -66.8097      -20.61612              1      0.7054841
      4799.5000         0.2315         -0.018       103.2755        66.0586        -999.25       85.55827          0.536          0.317         2.2593       -66.2028       -20.0104              1      0.7141371
      4800.0000         0.2257        -0.0179       103.1392        64.9789        -999.25       83.97667          0.557         0.3253         2.2731       -64.4578      -18.26659              1      0.7390487
      4800.5000         0.2268        -0.0189       106.1614        64.3021        -999.25       82.98528         0.5739         0.3413         2.2714        -63.473      -17.28298              1      0.7531003
      4801.0000         0.2339        -0.0218       109.0551        64.0726        -999.25        82.6491         0.5812         0.3578         2.2636       -63.7427      -17.55386              1      0.7492305
      4801.5000         0.2432        -0.0243       111.1831        65.7611        -999.25       85.12249         0.5876         0.3705         2.2543       -64.3843      -18.19666              1      0.7400478
      4802.0000         0.2513        -0.0276       111.4867        66.5396        -999.25       86.26286         0.5902         0.3662         2.2392       -63.8882      -17.70174              1       0.747118
      4802.5000         0.2481         -0.032         108.85         64.506        -999.25       83.28394          0.585         0.3489         2.2323       -62.8337      -16.64843              1      0.7621654
      4803.0000         0.2337        -0.0348       106.2231        62.8481        -999.25       80.85538         0.5798         0.3364         2.2522       -60.4614      -14.27732              1      0.7960383
      4803.5000         0.2255        -0.0317       105.2346        61.8639        -999.25       79.41369         0.5665         0.3435         2.2692       -57.5781       -11.3952      0.9875253      0.8372114
      4804.0000         0.2257        -0.0287       107.6688        61.7234        -999.25       79.20788         0.5532          0.374         2.2763       -56.3802      -10.19849      0.9831464      0.8543073
      4804.5000         0.2327        -0.0271       120.2174        62.6522        -999.25       80.56843         0.5418         0.4318         2.2599        -56.816      -10.63548              1      0.8480645
      4805.0000         0.2401        -0.0266       123.6338        63.9517        -999.25       82.47199         0.5314         0.4416         2.2444       -59.2438      -13.06447              1      0.8133647
      4805.5000         0.2477        -0.0265       122.6416        64.9734        -999.25       83.96862         0.5225         0.4304         2.2323       -61.6254      -15.44725              1      0.7793249
      4806.0000         0.2528        -0.0281       119.9851          64.99        -999.25       83.99294          0.515         0.3855         2.2242       -63.8499      -17.67294              1      0.7475294
      4806.5000         0.2527        -0.0303       114.8994        63.8809        -999.25       82.36829         0.5103           0.36         2.2258       -64.8859      -18.71013              1      0.7327124
      4807.0000         0.2425        -0.0315        109.873        62.8751        -999.25       80.89494         0.5076          0.338          2.245       -65.3259      -19.15131              1      0.7264098
      4807.5000         0.2294        -0.0293        105.981         61.769        -999.25       79.27469         0.5093         0.3192         2.2689       -65.1376      -18.96421      0.9845678      0.7290827
      4808.0000         0.2319         -0.023       103.8484         63.799        -999.25       82.24832         0.5127          0.325         2.2729       -63.6947      -17.52249              1      0.7496787
      4808.5000         0.2462        -0.0183       103.2991        66.7896        -999.25       86.62907         0.5193         0.3403         2.2521       -61.0692      -14.89818              1      0.7871688
      4809.0000         0.2566          -0.02       105.6523        68.7899        -999.25        89.5592         0.5262          0.352         2.2292       -58.9703      -12.80047              1      0.8171362
      4809.5000         0.2611        -0.0241       108.1062        68.5634        -999.25       89.22742         0.5325         0.3568         2.2164       -57.7454      -11.57676              1      0.8346178
      4810.0000         0.2607        -0.0279       109.1854        67.4104        -999.25       87.53844         0.5361         0.3612         2.2142        -57.035      -10.86755              1      0.8447493
      4810.5000         0.2568        -0.0285       110.4797        66.8542        -999.25       86.72371         0.5327         0.3743         2.2179        -56.549      -10.38273              1      0.8516753
      4811.0000         0.2542         -0.028       112.5271        66.8856        -999.25        86.7697         0.5294         0.3883         2.2199       -56.5359      -10.37082              1      0.8518454
      4811.5000         0.2555        -0.0271       114.9785        67.5212        -999.25       87.70076         0.5262         0.3975         2.2215       -57.8747      -11.71081              1      0.8327028
      4812.0000         0.2491        -0.0263       115.2577        67.9573        -999.25       88.33956         0.5235         0.3801         2.2258       -60.1214      -13.95869              1      0.8005901
      4812.5000         0.2283        -0.0255       112.5345        66.5765        -999.25       86.31692         0.5216          0.364           2.26       -63.0406      -16.87908              1      0.7588702
      4813.0000         0.2196        -0.0255       109.4097        65.4248        -999.25       84.62985         0.5169         0.3538         2.2792       -65.5459      -19.38557              1      0.7230633
      4813.5000         0.2246        -0.0248        108.121        64.7018        -999.25       83.57076         0.5096         0.3621          2.283       -67.4712      -21.31206              1       0.695542
