#------------------------------------------------------------------------------
# Created by    : vladimir.rabinovich
# Created on    : 09/19/2023 17:22:41
#------------------------------------------------------------------------------
~Version Information Section
VERS.           2.0     :   CWLS log ASCII Standard - VERSION 2.0
WRAP.           NO      :   One line per depth step
~Well Information Section
#MNEM       .UNIT                                         VALUE :DESCRIPTION
#------------------------------------------------------------------------------
STRT        .FT                                            4470 :START DEPTH
STOP        .FT                                            9513 :STOP DEPTH
STEP        .FT                                             0.5 :STEP      
NULL        .                                           -999.25 :NULL      
COMP        .                 FAIRWAYS SPEC SALES & SERVICE INC :COMPANY   
WELL        .                               OCS G11315 ST00BP00 :WELL      
FLD         .                              GALVESTON BLOCK 0319 :FIELD     
LOC         .                                                   :LOCATION  
CNTY        .                             GALVESTON LARGE BLOCK :LOCATION  
STAT        .                                             TEXAS :STATE     
CTRY        .                                     UNITED STATES :COUNTRY   
SRVC        .                                                   :SERVICE COMPANY
DATE        .                             9/13/2023 11:19:34 AM :LOG DATE  
API         .                                    42706402650000 :API NUMBER
UWI         .                                    42706402650000 :UNIQUE WELL ID
XCOORD      .                                  1065572.18570413 :SURFACE X 
YCOORD      .                                  10465680.9820926 :SURFACE Y 
LAT         .                                         28.826802 :LATITUDE  
LON         .                                        -94.795723 :LONGITUDE 
ELEV        .FT                                              86 :ELEVATION VALUE
ELEV_TYPE   .                                                KB :ELEVATION REFERENCE TYPE
~Curve Information Section
#MNEM       .UNIT                                      API CODE :CURVE DESCRIPTION
#------------------------------------------------------------------------------
DEPT        .FT                                                 :DEPTH     
DCAL        .IN                                                 :          
DPHI        .%                                                  :          
DRHO        .G/C3                                               :          
GR          .GAPI                                               :          
GR_NORM     .GAPI                                               :GammaRay Normalized
ILD         .OHMM                                               :          
ILM         .OHMM                                               :          
NPHI        .%                                                  :          
SFL         .OHMM                                               :          
SP          .MV                                                 :          
SP_NORM     .MV                                                 :SP Normalized
VSH_GR      .V/V                                                :Volume of Shale from GR
VSH_SP      .V/V                                                :Volume of Shale from SP
~A        DEPTH           DCAL           DPHI           DRHO             GR        GR_NORM            ILD            ILM           NPHI            SFL             SP        SP_NORM         VSH_GR         VSH_SP
# ...
      6864.0000         2.1234        17.3507              0        89.5603       76.93107         0.8849         0.8851        39.3072         0.7858       -35.4174       0.365818      0.9347036              1
      6864.5000         2.1366        16.6494        -0.0001        87.1636       74.36869         0.8777         0.8796        39.1818         0.8118       -35.3164      0.4644279      0.8801849              1
      6865.0000          2.174        16.2339        -0.0011        88.9683       76.28781         0.8731         0.8741        38.6809         0.8409       -35.2155      0.5629387      0.9210173              1
      6865.5000         2.2222        16.1103        -0.0029         93.306        80.9088         0.8707         0.8687        37.9939         0.8366        -35.129       0.647049              1              1
      6866.0000         2.2702        16.6399        -0.0048        98.2751       86.20327         0.8684         0.8633        37.3801         0.8164       -35.0427       0.730957              1              1
      6866.5000         2.2853        17.2155        -0.0067       100.4653       88.53359         0.8615         0.8581        38.7827         0.7822       -34.9564      0.8148689              1              1
      6867.0000         2.2973        17.6634        -0.0086        99.9017       87.92652         0.8542          0.854        40.9582         0.7661       -34.8701      0.8987808              1              1
      6867.5000         2.2274        17.8254          -0.01        96.6852       84.48969         0.8486           0.85        42.7289         0.7543       -34.9963      0.7701912              1              1
      6868.0000         2.1567        18.0117        -0.0099        93.1542       80.71739         0.8473          0.846        43.6642         0.7584       -35.1294      0.6347008              1              1
      6868.5000         2.1121        18.0201        -0.0099        91.2053       78.63267         0.8461         0.8439        43.8258         0.7656       -35.2916      0.4701118      0.9709078              1
      6869.0000         2.1147        18.0274        -0.0086        91.3108        78.7393         0.8448         0.8418        43.7888         0.7734       -35.5217      0.2376175      0.9731767              1
      6869.5000         2.0994        17.8956        -0.0071        92.8424       80.36712         0.8446         0.8397        43.3833         0.7819       -35.7518    0.005130768              1              1
      6870.0000         2.0874        17.6855        -0.0054        95.8207       83.53808         0.8443         0.8381        42.4149         0.7778       -35.7845    -0.02996063              1      0.9995391
      6870.5000         2.0766        17.4251        -0.0033        99.7656       87.74008         0.8441         0.8369        41.4352         0.7671       -35.8011     -0.0489502              1      0.9992469
      6871.0000         2.0658        17.4673        -0.0013       101.3451       89.41898         0.8442         0.8358        40.4477         0.7609       -35.6588     0.09096527              1              1
      6871.5000         2.0642         17.241         0.0009       100.5356       88.54962         0.8445         0.8347         39.449         0.7612       -35.2609      0.4864731              1              1
      6872.0000         2.0941        16.6963         0.0032        96.1455       83.86095         0.8447         0.8361        38.4949         0.7663       -34.8626      0.8823853              1              1
      6872.5000         2.1239        15.8567         0.0056        92.0016       79.43489         0.8456         0.8376        38.2229         0.7742       -34.5065       1.236092      0.9879764              1
      6873.0000         2.1536        15.3251         0.0059        89.8367       77.11977         0.8477         0.8401        39.2884         0.7823       -34.1603       1.579903      0.9387184              1
      6873.5000          2.183        14.9451         0.0058        90.0017       77.28988         0.8498         0.8457        40.0207         0.7966       -33.8219       1.915913      0.9423379              1
      6874.0000         2.2123        14.8197         0.0037        92.3369       79.77486         0.8538         0.8513        40.1229          0.813       -34.1249       1.610523      0.9952097              1
      6874.5000         2.2638        14.6815         0.0016        95.2837        82.9122         0.8591         0.8591        40.1324         0.8396       -34.4274       1.305634              1              1
      6875.0000         2.3196        14.9335         0.0001        97.9869       85.78973         0.8644         0.8692        40.2378         0.8515       -34.7668      0.9638443              1              1
      6875.5000         2.3508        15.5975        -0.0013        99.9908       87.92132         0.8765         0.8796        40.8262         0.8348       -35.1656      0.5626526              1              1
      6876.0000         2.3529        16.2121         -0.002       100.4257       88.37933         0.8928         0.8938         41.105         0.8153       -35.5148      0.2110634              1              1
      6876.5000         2.2647        16.2252        -0.0026        98.7754       86.61311         0.9153         0.9081        39.5778         0.8301       -35.6882     0.03527069              1              1
      6877.0000         2.2005         15.962        -0.0043        96.5254       84.20721         0.9454         0.9307         37.846         0.8915       -35.9259     -0.2048149              1       0.996849
      6877.5000         2.1664        15.6054        -0.0062        94.0421       81.55246         0.9724          0.954        36.3066         0.9545       -36.5487     -0.8300018              1      0.9872307
      6878.0000         2.1339        15.6758        -0.0083        92.7272       80.14401         0.9941          0.975        35.3254         1.0185       -37.1724      -1.456097              1      0.9775985
      6878.5000         2.1247        16.0475        -0.0106        93.9872       81.48211         1.0119         0.9937         34.939         1.0418       -37.7427      -2.028782              1       0.968788
      6879.0000         2.2004        16.5309        -0.0129           96.3       83.94321         1.0085         0.9979        34.8476         1.0313       -38.1415      -2.429974              1      0.9626158
      6879.5000         2.2998        16.9722        -0.0144        98.3616       86.13634          1.005         1.0006        35.1473         1.0004       -38.3848      -2.675663              1       0.958836
      6880.0000         2.2812        16.8355        -0.0157        99.3746       87.21098         0.9974         0.9959        36.0952         0.9618       -38.5115      -2.804756              1      0.9568499
      6880.5000         2.2155        16.4745        -0.0134        99.5608       87.40369         0.9867         0.9912        36.7618          0.921       -38.5314      -2.827042              1       0.956507
      6881.0000         2.1298         16.652        -0.0113        97.9661       85.69679         0.9761         0.9872        36.8489         0.9017       -38.1876      -2.485634              1      0.9617595
      6881.5000         2.0441        16.7895        -0.0102        91.9858        79.3119         0.9707         0.9839        36.1277         0.9111       -37.8438      -2.144222      0.9853597       0.967012
      6882.0000         2.0033        16.7136         -0.009        86.5322       73.48885         0.9658         0.9806        35.3906         0.9391       -37.4622      -1.765015      0.8614648      0.9728459
      6882.5000         1.9683        16.4403        -0.0078        83.1166       69.83963         0.9611         0.9781        35.5926         0.9427        -37.056      -1.361202      0.7838219      0.9790584
