#------------------------------------------------------------------------------
# Created by    : vladimir.rabinovich
# Created on    : 09/19/2023 17:20:37
#------------------------------------------------------------------------------
~Version Information Section
VERS.           2.0     :   CWLS log ASCII Standard - VERSION 2.0
WRAP.           NO      :   One line per depth step
~Well Information Section
#MNEM       .UNIT                                         VALUE :DESCRIPTION
#------------------------------------------------------------------------------
STRT        .FT                                             495 :START DEPTH
STOP        .FT                                            7007 :STOP DEPTH
STEP        .FT                                             0.5 :STEP      
NULL        .                                           -999.25 :NULL      
COMP        .                                      SHELL OIL CO :COMPANY   
WELL        .                                OCS 00718 ST00BP00 :WELL      
FLD         .                                           WILDCAT :FIELD     
LOC         .                                                   :LOCATION  
CNTY        .                             GALVESTON LARGE BLOCK :LOCATION  
STAT        .                                             TEXAS :STATE     
CTRY        .                                     UNITED STATES :COUNTRY   
SRVC        .                                                   :SERVICE COMPANY
DATE        .                             9/13/2023 11:19:25 AM :LOG DATE  
API         .                                    42706000330000 :API NUMBER
UWI         .                                    42706000330000 :UNIQUE WELL ID
XCOORD      .                                  1012682.17104467 :SURFACE X 
YCOORD      .                                  10442833.5651685 :SURFACE Y 
LAT         .                                         28.761679 :LATITUDE  
LON         .                                        -94.959691 :LONGITUDE 
ELEV        .FT                                              75 :ELEVATION VALUE
ELEV_TYPE   .                                                KB :ELEVATION REFERENCE TYPE
~Curve Information Section
#MNEM       .UNIT                                      API CODE :CURVE DESCRIPTION
#------------------------------------------------------------------------------
DEPT        .FT                                                 :DEPTH     
ASN         .OHMM                                               :          
CILD        .MMHO                                               :          
DT          .US/F                                               :          
ILD         .OHMM                                               :          
LAT         .OHMM                                               :          
LN          .OHMM                                               :          
SP          .MV                                                 :          
SP_NORM     .MV                                                 :SP Normalized
VSH_SP      .V/V                                                :Volume of Shale from SP
~A        DEPTH            ASN           CILD             DT            ILD            LAT             LN             SP        SP_NORM         VSH_SP
# ...
      6987.5000         0.9869       1874.867        64.7422         0.5497        -999.25        -999.25       -67.9395      -32.40321      0.5014892
      6988.0000         1.0047       1884.939        64.9515         0.5272        -999.25        -999.25       -74.0127      -39.44669      0.3931279
      6988.5000         1.0255        1895.01        66.8154         0.5344        -999.25        -999.25       -84.5715      -51.69239      0.2047324
      6989.0000         1.0304       1899.666        68.3059         0.5417        -999.25        -999.25       -89.3702      -57.25775      0.1191116
      6989.5000          1.023       1897.211        69.1727         0.5466        -999.25        -999.25       -90.4553       -58.5162      0.0997507
      6990.0000         1.0138       1882.436        67.3541         0.5584        -999.25        -999.25       -87.9551      -55.61657      0.1443605
      6990.5000          1.038       1867.658        67.6981         0.5863        -999.25        -999.25       -83.0294      -49.90393      0.2322473
      6991.0000         1.0574       1848.299        73.3567         0.6196        -999.25        -999.25       -76.3712      -42.18198      0.3510464
      6991.5000         1.0645       1808.955        75.4639         0.6545        -999.25        -999.25       -71.9308      -37.03217      0.4302742
      6992.0000         1.0554       1757.227        76.7122         0.6894        -999.25        -999.25       -67.3181      -31.68253      0.5125765
      6992.5000         1.0328        1598.91        77.0596         0.7168        -999.25        -999.25       -58.5554      -21.51987       0.668925
      6993.0000         1.0173       1552.055         77.399         0.7334        -999.25        -999.25       -49.4569      -10.96777      0.8312651
      6993.5000         1.0171       1500.324        78.1561         0.7499        -999.25        -999.25       -43.0209       -3.50353      0.9460995
      6994.0000         1.0439       1463.887        79.2822         0.7505        -999.25        -999.25       -41.2378      -1.435556      0.9779145
      6994.5000         1.0687       1437.955        78.6213         0.7493        -999.25        -999.25       -40.8262     -0.9581948      0.9852585
      6995.0000         1.0909       1417.008        78.4928         0.7481        -999.25        -999.25       -40.5172     -0.5998302      0.9907718
      6995.5000         1.1041       1396.063        78.9376         0.7549        -999.25        -999.25       -40.2244     -0.2602504      0.9959962
      6996.0000         1.1113       1389.977        79.3405         0.7695        -999.25        -999.25       -39.9397     0.06993248              1
      6996.5000         1.1155       1388.098        78.4153         0.7791        -999.25        -999.25       -39.8564      0.1665425              1
      6997.0000         1.1166       1382.822        77.7578         0.7831        -999.25        -999.25       -39.8979      0.1184123              1
      6997.5000         1.1175       1377.547         79.384         0.7819        -999.25        -999.25       -39.9138     0.09997243              1
      6998.0000         1.1315       1372.271        80.2532         0.7831        -999.25        -999.25        -39.925     0.08698314              1
      6998.5000         1.1608       1361.412        79.3885         0.7845        -999.25        -999.25       -39.9363     0.07387882              1
      6999.0000         1.1818       1345.139        78.5308         0.7868        -999.25        -999.25       -39.9775     0.02609361              1
      6999.5000           1.19       1328.842        77.4727         0.7953        -999.25        -999.25       -39.8291      0.1982017              1
      7000.0000         1.2112       1312.566        77.7544         0.8017        -999.25        -999.25       -39.9667     0.03861837              1
      7000.5000         1.2332       1306.654        78.0696          0.804        -999.25        -999.25       -39.9985    0.001738689              1
      7001.0000         1.2272       1301.758         76.376         0.8058        -999.25        -999.25       -39.6665      0.3867809              1
      7001.5000         1.2227       1296.863        74.7474         0.8107        -999.25        -999.25       -39.7735      0.2626881              1
      7002.0000         1.2086        1292.42        73.8478         0.8146        -999.25        -999.25       -39.6651      0.3884046              1
      7002.5000          1.167       1288.637        73.5334         0.8169        -999.25        -999.25       -39.2714       0.845003              1
      7003.0000         1.1626       1284.857        73.8693         0.8157        -999.25        -999.25       -39.1543      0.9808111              1
      7003.5000         1.1625       1281.074        74.4827         0.8136        -999.25        -999.25       -39.6487       0.407424              1
      7004.0000         1.1172       1279.074        75.4955         0.8085        -999.25        -999.25       -40.7418     -0.8603106      0.9867644
      7004.5000         1.0555        1279.43        -999.25         0.8009        -999.25        -999.25       -42.4562       -2.84861      0.9561752
      7005.0000         1.1298       1279.783        -999.25         0.7965        -999.25        -999.25       -44.2463      -4.924703      0.9242353
      7005.5000         1.1995       1280.137        -999.25         0.7936        -999.25        -999.25       -44.0107      -4.651463       0.928439
      7006.0000         1.2212        1280.49        -999.25         0.7891        -999.25        -999.25       -43.2341      -3.750791      0.9422956
      7006.5000         1.2155       1280.844        -999.25         0.7857        -999.25        -999.25       -42.0661      -2.396188      0.9631355
      7007.0000         1.2395       1281.402        -999.25         0.7871        -999.25        -999.25       -41.2225      -1.417811      0.9781875
