#------------------------------------------------------------------------------
# Created by    : vladimir.rabinovich
# Created on    : 09/19/2023 17:22:17
#------------------------------------------------------------------------------
~Version Information Section
VERS.           2.0     :   CWLS log ASCII Standard - VERSION 2.0
WRAP.           NO      :   One line per depth step
~Well Information Section
#MNEM       .UNIT                                         VALUE :DESCRIPTION
#------------------------------------------------------------------------------
STRT        .FT                                             996 :START DEPTH
STOP        .FT                                            8436 :STOP DEPTH
STEP        .FT                                             0.5 :STEP      
NULL        .                                           -999.25 :NULL      
COMP        .                                    TDC ENERGY LLC :COMPANY   
WELL        .                               OCS G03738 ST00BP00 :WELL      
FLD         .                              GALVESTON BLOCK 0255 :FIELD     
LOC         .                                                   :LOCATION  
CNTY        .                             GALVESTON LARGE BLOCK :LOCATION  
STAT        .                                             TEXAS :STATE     
CTRY        .                                     UNITED STATES :COUNTRY   
SRVC        .                                                   :SERVICE COMPANY
DATE        .                             9/13/2023 11:18:53 AM :LOG DATE  
API         .                                    42706400460000 :API NUMBER
UWI         .                                    42706400460000 :UNIQUE WELL ID
XCOORD      .                                   1080542.6436948 :SURFACE X 
YCOORD      .                                  10548065.2081286 :SURFACE Y 
LAT         .                                        29.0539695 :LATITUDE  
LON         .                                       -94.7527854 :LONGITUDE 
ELEV        .FT                                              94 :ELEVATION VALUE
ELEV_TYPE   .                                                KB :ELEVATION REFERENCE TYPE
~Curve Information Section
#MNEM       .UNIT                                      API CODE :CURVE DESCRIPTION
#------------------------------------------------------------------------------
DEPT        .FT                                                 :DEPTH     
CALI        .IN                                                 :          
CILD        .MMHO                                               :          
DT          .US/F                                               :          
GR          .GAPI                                               :          
GR_NORM     .GAPI                                               :GammaRay Normalized
ILD         .OHMM                                               :          
ILM         .OHMM                                               :          
RHOB        .G/C3                                               :          
SFL         .OHMM                                               :          
SP          .MV                                                 :          
SP_NORM     .MV                                                 :SP Normalized
VSH_GR      .V/V                                                :Volume of Shale from GR
VSH_SP      .V/V                                                :Volume of Shale from SP
~A        DEPTH           CALI           CILD             DT             GR        GR_NORM            ILD            ILM           RHOB            SFL             SP        SP_NORM         VSH_GR         VSH_SP
# ...
      4454.0000        15.1918         3067.5       106.7813        52.8789       66.77597         0.3203          0.406         1.9441         0.6169       -71.1914      -18.74689      0.7186376      0.6591475
      4454.5000        15.2078       3005.313       119.9766        58.4922       74.54812         0.3229         0.3989         1.9658         0.6826       -65.7812      -13.33071      0.8840025      0.7576235
      4455.0000        15.2336       2896.625       128.7422        62.3457       79.88258          0.332         0.4037         1.9836         0.7485       -61.5742      -9.117733      0.9975018       0.834223
      4455.5000        15.2955        2776.25       134.3594         64.623       83.03374         0.3516         0.4137         1.9853         0.6279       -59.0039      -6.541454              1      0.8810645
      4456.0000        15.3575       2641.375       133.0654        65.8359       84.71045         0.3732         0.4314          1.967         0.4972       -58.7222       -6.25378              1      0.8862949
      4456.5000        15.4431       2493.125       131.7715        66.1147       85.09327         0.3909          0.452         1.9595         0.4429       -60.7637      -8.289303              1      0.8492854
      4457.0000        15.5418         2352.5       133.1055        64.9941       83.53764         0.4041         0.4615         1.9529         0.4057       -64.1738      -11.69342              1      0.7873923
      4457.5000        15.6308       2261.563       137.8594        62.8008       80.49612         0.4159         0.4635         1.9455         0.4716       -67.5859      -15.09955              1      0.7254627
      4458.0000        15.6804       2202.875       143.8281         60.666       77.53564         0.4276         0.4659          1.937         0.5794       -73.8281      -21.33577      0.9475667      0.6120768
      4458.5000        15.6982       2152.844       142.8359         58.582       74.64552         0.4383         0.4687         1.9284         0.6194       -81.4219      -28.92359      0.8860748      0.4741165
      4459.0000        15.6842        2107.75        137.707        56.6035       71.90154         0.4485         0.4731         1.9207         0.6326       -88.4375      -35.93322      0.8276922      0.3466687
      4459.5000        15.6408       2133.281       127.4922        54.7051        69.2685         0.4559         0.4766         1.9138         0.5805       -94.2109      -41.70064      0.7716702      0.2418065
      4460.0000        15.5079        2256.25       120.0195         52.999       66.90185         0.4495         0.4788         1.9057         0.5793       -97.6719      -45.15566      0.7213159       0.178988
      4460.5000        15.0757           2457       118.4373        51.1523       64.34045         0.4172         0.4779         1.9021         0.6747       -99.9307      -47.40849       0.666818      0.1380275
      4461.0000         14.219         2781.5       118.0889        49.2207       61.66142         0.3705         0.4486         1.9106         0.7954      -101.4736      -48.94541      0.6098174      0.1100834
      4461.5000         13.936        3022.75       117.7344        47.2578       58.93905         0.3279         0.3971         1.9186          0.652      -102.5371      -50.00293      0.5518947     0.09085575
      4462.0000        13.9172           3430       117.2217        46.0293       57.23396         0.2922         0.3512         1.9241         0.4834      -103.3159      -50.77576      0.5156162     0.07680435
      4462.5000        13.9448           3974       116.2178        45.3154        56.2417         0.2582         0.3148         1.9219         0.4466      -103.8342      -51.28808      0.4945042     0.06748948
      4463.0000        13.9458         4724.5       114.6367         45.111       55.95518         0.2265         0.2816          1.921         0.4514      -104.0388      -51.48671      0.4884082     0.06387807
      4463.5000        13.9169        5254.25       113.0049        45.1495       56.00515         0.1994         0.2566         1.9204         0.4614      -103.7617      -51.20363      0.4894713     0.06902494
      4464.0000        13.8881        5453.75       111.5898        45.1813       56.04582         0.1805         0.2399         1.9207         0.3943      -103.1934      -50.62934      0.4903366     0.07946645
      4464.5000        13.8365        5657.75       117.1797        44.9331       55.69864         0.1659         0.2291         1.9224         0.3362       -102.561      -49.99097      0.4829499     0.09107333
      4465.0000        13.7331       5773.438       113.7773        44.8213        55.5404         0.1619         0.2255         1.9242         0.3093      -101.7544       -49.1784      0.4795829      0.1058473
      4465.5000        13.6297           5679       104.6172        45.2979       56.19721         0.1648         0.2248           1.93         0.3369      -101.0859      -48.50392      0.4935577      0.1181106
      4466.0000        13.6998           5338        91.4922        46.0459       57.22996         0.1731         0.2247         1.9367         0.3724       -100.584      -47.99604      0.5155311      0.1273447
      4466.5000        13.7315           4891        88.0977         46.562       57.94149         0.1867         0.2356          1.947         0.2967      -100.4298      -47.83587      0.5306699       0.130257
      4467.0000        13.6902           3662        91.9023        45.6445       56.66719         0.2303         0.2595          1.963         0.3115      -100.3665      -47.76659      0.5035573      0.1315166
      4467.5000        13.6489        2958.25        88.8281        44.7046       55.36189         0.3205         0.3043         1.9855         0.3868      -100.3031      -47.69721      0.4757848       0.132778
      4468.0000        13.6562         2531.5        80.7734        43.9038       54.24924         0.3929         0.4232         2.0191         0.5012      -100.3248      -47.71293      0.4521115      0.1324921
      4468.5000        13.7515        2094.75        78.9413        43.5537       53.76091         0.4792         0.5629         2.0553         0.6503      -100.4586      -47.84076      0.4417215       0.130168
      4469.0000        13.9028       1324.375        79.0703        43.1833       53.24446         0.5969          0.678         2.0777         0.7909      -100.7932      -48.16938      0.4307331      0.1241932
      4469.5000        13.7003        956.375        79.2238        42.7812        52.6841         0.7024         0.8608         2.0495         0.9824      -101.2886       -48.6588      0.4188107      0.1152946
      4470.0000        13.5061       931.1875       103.4688        42.4897       52.27694         0.8364         1.1101         2.0131         1.6787      -101.8701      -49.23433      0.4101477      0.1048304
      4470.5000        13.7571          960.5       112.7656         43.959       54.30883         0.8885         1.1711         2.0267         3.9653      -102.3472      -49.70545      0.4533795     0.09626458
      4471.0000        13.9225       1040.125       115.9199        47.1348       58.70456         0.9156         1.0247         2.0315         4.3284      -102.8623      -50.21457      0.5469056     0.08700784
      4471.5000        13.8654         1231.5       108.9609        49.1885       61.54596         0.8492         0.8685         2.0049         4.1719      -103.1643      -50.51059      0.6073608     0.08162557
      4472.0000        13.7565        1485.75       112.7891        50.7637       63.72455         0.7057         0.7446         1.9742         1.6309      -103.2142      -50.55452      0.6537138     0.08082692
      4472.5000         13.644       1716.625       114.2559        52.3379       65.90176         0.5739         0.6356         1.9462         1.0062      -102.9028      -50.23714      0.7000374     0.08659744
