#------------------------------------------------------------------------------
# Created by    : vladimir.rabinovich
# Created on    : 09/19/2023 17:22:54
#------------------------------------------------------------------------------
~Version Information Section
VERS.           2.0     :   CWLS log ASCII Standard - VERSION 2.0
WRAP.           NO      :   One line per depth step
~Well Information Section
#MNEM       .UNIT                                         VALUE :DESCRIPTION
#------------------------------------------------------------------------------
STRT        .FT                                             410 :START DEPTH
STOP        .FT                                            7624 :STOP DEPTH
STEP        .FT                                             0.5 :STEP      
NULL        .                                           -999.25 :NULL      
COMP        .                                      SHELL OIL CO :COMPANY   
WELL        .                                     ST TR 00249-L :WELL      
FLD         .                                           WILDCAT :FIELD     
LOC         .                                                   :LOCATION  
CNTY        .                             GALVESTON LARGE BLOCK :LOCATION  
STAT        .                                             TEXAS :STATE     
CTRY        .                                     UNITED STATES :COUNTRY   
SRVC        .                                                   :SERVICE COMPANY
DATE        .                             9/13/2023 11:19:42 AM :LOG DATE  
API         .                                    42706000200000 :API NUMBER
UWI         .                                    42706000200000 :UNIQUE WELL ID
XCOORD      .                                  981084.037319939 :SURFACE X 
YCOORD      .                                  10535303.7769946 :SURFACE Y 
LAT         .                                         29.014458 :LATITUDE  
LON         .                                       -95.0633058 :LONGITUDE 
ELEV        .FT                                              11 :ELEVATION VALUE
ELEV_TYPE   .                                                KB :ELEVATION REFERENCE TYPE
~Curve Information Section
#MNEM       .UNIT                                      API CODE :CURVE DESCRIPTION
#------------------------------------------------------------------------------
DEPT        .FT                                                 :DEPTH     
LAT         .OHMM                                               :          
SN          .OHMM                                               :          
SP          .MV                                                 :          
SP_NORM     .MV                                                 :SP Normalized
VSH_SP      .V/V                                                :Volume of Shale from SP
~A        DEPTH            LAT             SN             SP        SP_NORM         VSH_SP
       410.0000              0         0.1313      -247.7434       3.485217              1
       410.5000              0         0.7594      -237.7493      -1.123283      0.9941294
       411.0000              0         1.2008      -228.2939       2.567806              1
       411.5000              0         1.6568      -219.0928       2.665483              1
       412.0000          0.001         2.0376      -212.4534     -0.5164319              1
       412.5000         0.0077         2.5549      -205.6438     -0.7992243              1
       413.0000         0.0144         2.7384      -191.7798      0.5232742              1
       413.5000          0.021         2.8935      -189.0862     -0.9475235              1
       414.0000         0.0217         3.0345      -186.3926       3.022077              1
       414.5000         0.0205         3.1357      -183.6843       1.289665              1
       415.0000         0.0193         3.1371      -180.3291       0.733416              1
       415.5000          0.018         3.0938      -176.9734      -1.121981      0.9941913
       416.0000         0.0168         3.0504      -173.9517       2.850282              1
       416.5000         0.0096         3.0071      -171.7034       3.074961              1
       417.0000          0.002         2.9527      -169.4551     0.03756788              1
       417.5000              0         2.8948      -167.6628      0.3642058              1
       418.0000              0         2.8576      -166.2419      0.3762782              1
       418.5000              0         2.9912       -164.821        1.51856              1
       419.0000              0         3.1248      -163.4001       1.307514              1
       419.5000              0         3.2584      -162.1377     -0.8353166              1
       420.0000              0          3.392      -161.1211      -1.063611      0.9969709
       420.5000              0         3.5256      -160.1045      0.2521512              1
       421.0000              0         3.6592      -159.0879      -0.786384              1
       421.5000              0          3.852      -158.0713       2.189479              1
       422.0000              0          4.051      -157.1138       3.261198              1
       422.5000              0         4.1345      -156.1694       3.436136              1
       423.0000              0         4.2109      -155.2251       3.567862              1
       423.5000              0         4.2642      -154.2805       2.123749              1
       424.0000              0         4.3118      -153.3362       3.618403              1
       424.5000              0         4.3425      -152.4592       2.132215              1
       425.0000              0         4.3732      -151.6665     -0.4034351              1
       425.5000              0         4.3973      -150.8738        1.55134              1
       426.0000              0         4.4029      -150.0811       3.654842              1
       426.5000              0         4.4085      -149.2883     0.03101249              1
       427.0000              0         4.3881      -148.4492       1.060934              1
       427.5000              0          4.315      -147.5564      0.8443451              1
       428.0000              0         4.2194      -146.6636      0.7077942              1
       428.5000              0         4.1238      -145.7708      0.5712585              1
       429.0000         0.0365         4.0339      -144.8779      0.4348145              1
       429.5000         0.2483         3.9863      -144.3101     -0.0267334              1
       430.0000         1.2211         3.9388      -143.7854     -0.1338348              1
       430.5000         2.4492         3.8912       -143.261    -0.00769043              1
       431.0000         3.2398         3.8635      -142.7366       0.118454              1
       431.5000         3.9931           3.86      -142.2119      0.2448883              1
       432.0000          4.483         3.8565       -141.782       0.276535              1
       432.5000          4.852         3.8531      -141.4521      0.2081757              1
       433.0000         5.0054         3.8573      -141.1223      0.1397247              1
       433.5000         5.1588         3.8663      -140.7925      0.0712738              1
       434.0000         5.3123         3.8752      -140.4624    0.003097534              1
       434.5000         5.4553         3.8841      -140.1326    -0.06535339              1
       435.0000         5.5961          3.887      -139.7671    -0.09811401              1
       435.5000         5.6949          3.886       -139.397     -0.1262665              1
       436.0000         5.7719         3.8851      -139.0266      -0.154129              1
       436.5000         5.8142         3.8841      -138.6562     -0.1819916              1
       437.0000         5.8785         3.8831      -138.3074     -0.2314453              1
       437.5000         5.9858         3.8822      -138.0144     -0.3367004              1
       438.0000         6.1367         3.8883      -137.7214     -0.4419556              1
       438.5000         6.3193         3.8997      -137.4285     -0.5473175              1
       439.0000         6.4204         3.9111      -137.1355     -0.6525726              1
       439.5000         6.5081         3.9225      -136.8425     -0.7578278              1
       440.0000         6.5907         3.9339      -136.5496     -0.8631897              1
       440.5000         6.6617         3.9437      -136.3308      -1.042633      0.9979699
       441.0000         6.6819         3.9522      -136.1973      -1.307404      0.9853618
       441.5000         6.6576         3.9607       -136.064      -1.572357      0.9727449
       442.0000         6.6332         3.9692      -135.9304      -1.837021      0.9601418
       442.5000         6.6287         3.9818      -135.7969      -2.101776      0.9475344
       443.0000         6.6328         4.0017      -135.6636       -2.36673      0.9349176
       443.5000         6.7237         4.0216        -135.53      -2.631393      0.9223146
       444.0000         6.8256         4.0319      -135.3965      -2.896149      0.9097072
       444.5000         6.9275          3.989      -135.2009      -3.098801      0.9000571
       445.0000         7.0294         3.9462      -134.9939      -3.287277       0.891082
       445.5000         7.0987         3.7056      -134.7866       -3.15947      0.8971681
       446.0000         7.1672         3.4101      -134.5796      -3.031952      0.9032404
       446.5000         7.2358         3.2494      -134.3723      -2.904144      0.9093264
       447.0000         7.3016         3.0887       -134.165      -2.776321      0.9154133
       447.5000         7.3297         2.9796       -133.958      -2.648819      0.9214848
       448.0000         7.3362         2.9003      -133.7737      -2.544006      0.9264759
       448.5000         7.2801         2.8209      -133.6692      -2.518997      0.9276668
       449.0000         7.1401         2.7523      -133.5647      -2.493988      0.9288577
       449.5000         7.0001         2.8005      -133.4602      -2.468979      0.9300486
       450.0000         6.8601         2.8887      -133.3557       -2.44397      0.9312395
       450.5000         6.6791          2.973      -133.2512      -2.418961      0.9324304
       451.0000         6.4481         3.0398      -133.1443      -2.391541      0.9337361
       451.5000          6.217         3.0807      -133.0361      -2.362839      0.9351029
       452.0000         5.9963         3.0368       -132.928      -2.334213       0.936466
       452.5000         5.8113          2.892      -132.8198      -2.305496      0.9378335
       453.0000         5.6263         2.7776      -132.7114      -2.276596      0.9392097
       453.5000         5.4751         2.6917      -132.5706      -2.215286      0.9421293
