#------------------------------------------------------------------------------
# Created by    : vladimir.rabinovich
# Created on    : 09/19/2023 17:22:26
#------------------------------------------------------------------------------
~Version Information Section
VERS.           2.0     :   CWLS log ASCII Standard - VERSION 2.0
WRAP.           NO      :   One line per depth step
~Well Information Section
#MNEM       .UNIT                                         VALUE :DESCRIPTION
#------------------------------------------------------------------------------
STRT        .FT                                            3450 :START DEPTH
STOP        .FT                                            9344 :STOP DEPTH
STEP        .FT                                             0.5 :STEP      
NULL        .                                           -999.25 :NULL      
COMP        .                                  W&T OFFSHORE INC :COMPANY   
WELL        .                               OCS G04565 ST00BP00 :WELL      
FLD         .                              GALVESTON BLOCK 0303 :FIELD     
LOC         .                                                   :LOCATION  
CNTY        .                             GALVESTON LARGE BLOCK :LOCATION  
STAT        .                                             TEXAS :STATE     
CTRY        .                                     UNITED STATES :COUNTRY   
SRVC        .                                                   :SERVICE COMPANY
DATE        .                             9/13/2023 11:19:39 AM :LOG DATE  
API         .                                    42706403900000 :API NUMBER
UWI         .                                    42706403900000 :UNIQUE WELL ID
XCOORD      .                                  983096.827540607 :SURFACE X 
YCOORD      .                                  10485968.3003259 :SURFACE Y 
LAT         .                                        28.8789082 :LATITUDE  
LON         .                                       -95.0543314 :LONGITUDE 
ELEV        .FT                                              90 :ELEVATION VALUE
ELEV_TYPE   .                                                KB :ELEVATION REFERENCE TYPE
~Curve Information Section
#MNEM       .UNIT                                      API CODE :CURVE DESCRIPTION
#------------------------------------------------------------------------------
DEPT        .FT                                                 :DEPTH     
CDER        .MMHO                                               :          
DCAL        .IN                                                 :          
DPHI        .DEC                                                :          
DRHO        .G/CC                                               :          
DTLN        .US/F                                               :          
GR          .GAPI                                               :          
GR_NORM     .GAPI                                               :GammaRay Normalized
IDER        .OHMM                                               :          
IMER        .OHMM                                               :          
NPOR        .DEC                                                :          
RWA         .OHMM                                               :          
SFLA        .OHMM                                               :          
SP          .MV                                                 :          
SP_NORM     .MV                                                 :SP Normalized
TENS        .LB                                                 :          
VSH_GR      .V/V                                                :Volume of Shale from GR
VSH_SP      .V/V                                                :Volume of Shale from SP
~A        DEPTH           CDER           DCAL           DPHI           DRHO           DTLN             GR        GR_NORM           IDER           IMER           NPOR            RWA           SFLA             SP        SP_NORM           TENS         VSH_GR         VSH_SP
# ...
      3930.0000       3549.876          7.229            0.6          0.072        131.844         20.298       32.56778          0.282          0.375          0.668          0.152           0.56        -51.278      -58.34778        -999.25              0      0.1664603
      3930.5000       3510.003           6.86           0.61          0.073        131.749         21.275       33.44017          0.285          0.381          0.779          0.187          0.558        -51.493      -58.56112        -999.25    0.009365325      0.1634125
      3931.0000       3469.813           6.55          0.633          0.073        128.642         22.236       34.29827          0.288          0.387          0.926          0.211          0.556        -51.094      -58.16047        -999.25     0.02762287      0.1691362
      3931.5000       3431.709            6.3          0.646          0.073        125.424         22.776       34.78046          0.291          0.394          1.066          0.203          0.557        -50.507       -57.5718        -999.25     0.03788205      0.1775457
      3932.0000       3409.478           6.16           0.64          0.073        123.288         23.317       35.26353          0.293          0.398          1.105          0.178          0.559         -50.04      -57.10315        -999.25     0.04816031      0.1842408
      3932.5000       3418.803          6.392          0.605          0.073        121.208         23.678       35.58588          0.292          0.399           0.75          0.149           0.56        -49.738      -56.79948        -999.25     0.05501865      0.1885788
      3933.0000       3472.222          6.905          0.575          0.073        119.569         23.544       35.46624          0.288          0.395          0.625          0.122          0.563        -49.858      -56.91783        -999.25     0.05247311      0.1868882
      3933.5000       3537.319          7.569          0.495          0.073        120.191         23.291       35.24032          0.283          0.388          0.499          0.097          0.567         -50.02      -57.07817        -999.25     0.04766643      0.1845976
      3934.0000       3616.637          8.134          0.434          0.073        121.316         23.316       35.26264          0.276           0.38          0.459          0.084          0.571        -50.263      -57.31951        -999.25     0.04814124      0.1811498
      3934.5000        3672.42          8.271          0.429          0.072        122.331         24.622       36.42881          0.272          0.369          0.474          0.085          0.574        -50.404      -57.45885        -999.25     0.07295341      0.1791593
      3935.0000       3707.824          8.184          0.443          0.072        123.435          25.94       37.60569           0.27          0.366          0.475          0.086           0.58        -50.242      -57.29519        -999.25     0.09799349      0.1814972
      3935.5000       3658.983          8.042          0.459          0.072        124.535         27.609       39.09599          0.273           0.37          0.456          0.088          0.586        -50.263      -57.31453        -999.25       0.129702      0.1812209
      3936.0000       3559.986           7.92          0.467          0.072        125.542         28.005       39.44959          0.281           0.38          0.448          0.091          0.595        -50.466      -57.51587        -999.25      0.1372253      0.1783447
      3936.5000       3480.682           7.86          0.462          0.073        126.259         27.652       39.13438          0.287           0.39          0.453          0.095          0.604        -50.404      -57.45221        -999.25      0.1305188      0.1792541
      3937.0000       3387.534           8.02          0.455          0.073        126.575          27.55       39.04331          0.295          0.401          0.465          0.102          0.605        -50.303      -57.34956        -999.25       0.128581      0.1807206
      3937.5000       3360.215          8.089          0.456          0.073        126.346         28.333       39.74248          0.298          0.407          0.495          0.106          0.597        -50.141      -57.18589        -999.25       0.143457      0.1830587
      3938.0000       3395.586           7.94          0.476          0.073        125.923         28.005       39.44959          0.294          0.401          0.538          0.112          0.584         -50.04      -57.08324        -999.25      0.1372253      0.1845252
      3938.5000       3468.609          7.664          0.509          0.073        125.956         25.782       37.46461          0.288          0.389          0.559          0.118           0.57        -49.819      -56.86058        -999.25     0.09499165      0.1877061
      3939.0000       3517.411          7.166            0.6          0.072        126.299         23.384       35.32336          0.284          0.377          0.524          0.123          0.556        -49.798      -56.83792        -999.25     0.04943312      0.1880298
      3939.5000       3537.319          6.795          0.622          0.072        126.367         21.338       33.49642          0.283          0.372          0.461          0.135           0.55        -49.798      -56.83626        -999.25     0.01056209      0.1880535
      3940.0000       3459.011          6.683          0.634          0.072        126.284         21.086       33.27141          0.289          0.382          0.426          0.147          0.557        -49.637       -56.6736        -999.25    0.005774721      0.1903772
      3940.5000       3357.958          6.733          0.623          0.073        128.139         22.576       34.60188          0.298          0.398          0.433           0.15          0.567        -49.436      -56.47094        -999.25     0.03408245      0.1932722
      3941.0000       3262.643          6.813          0.602          0.073        130.825         23.636       35.54837          0.306          0.411          0.453          0.143          0.576        -49.234      -56.26728        -999.25     0.05422073      0.1961817
      3941.5000       3210.273          7.259          0.569          0.073        132.325         24.217       36.06717          0.312          0.406          0.475          0.134          0.586        -48.974      -56.00562        -999.25       0.065259      0.1999197
      3942.0000       3216.468          7.526          0.545          0.072        130.578          23.51       35.43587          0.311          0.394          0.518          0.129          0.594        -48.931      -55.96096        -999.25     0.05182697      0.2005576
      3942.5000       3284.072           7.66          0.533          0.073        126.471         22.298       34.35363          0.305          0.386          0.603           0.13          0.594         -48.73       -55.7583        -999.25     0.02880072      0.2034528
      3943.0000       3331.113          7.494          0.536          0.073        122.941         21.136       33.31605            0.3          0.391          0.618          0.135            0.6        -48.586      -55.61264        -999.25      0.0067245      0.2055337
      3943.5000       3220.612          7.285          0.549          0.073        119.388         20.732        32.9553           0.31          0.411          0.608          0.138          0.615        -48.384      -55.40899        -999.25              0      0.2084431
      3944.0000       3025.719          7.068          0.568          0.071         115.72         21.262       33.42856          0.331          0.438          0.554          0.145          0.636          -48.7      -55.72333        -999.25    0.009118344      0.2039525
      3944.5000       2853.067          6.887          0.553          0.055        113.214         22.341       34.39203           0.35          0.467           0.46          0.147          0.667        -48.895      -55.91667        -999.25     0.02961772      0.2011905
