#------------------------------------------------------------------------------
# Created by    : vladimir.rabinovich
# Created on    : 09/19/2023 17:22:54
#------------------------------------------------------------------------------
~Version Information Section
VERS.           2.0     :   CWLS log ASCII Standard - VERSION 2.0
WRAP.           NO      :   One line per depth step
~Well Information Section
#MNEM       .UNIT                                         VALUE :DESCRIPTION
#------------------------------------------------------------------------------
STRT        .FT                                             606 :START DEPTH
STOP        .FT                                           12703 :STOP DEPTH
STEP        .FT                                             0.5 :STEP      
NULL        .                                           -999.25 :NULL      
COMP        .                                       PURE OIL CO :COMPANY   
WELL        .                                OCS 00099 ST00BP00 :WELL      
FLD         .                                           WILDCAT :FIELD     
LOC         .                                                   :LOCATION  
CNTY        .                             GALVESTON LARGE BLOCK :LOCATION  
STAT        .                                             TEXAS :STATE     
CTRY        .                                     UNITED STATES :COUNTRY   
SRVC        .                                                   :SERVICE COMPANY
DATE        .                             9/13/2023 11:19:42 AM :LOG DATE  
API         .                                    42706000130000 :API NUMBER
UWI         .                                    42706000130000 :UNIQUE WELL ID
XCOORD      .                                  1105531.03723184 :SURFACE X 
YCOORD      .                                  10576678.2721464 :SURFACE Y 
LAT         .                                         29.133654 :LATITUDE  
LON         .                                        -94.675857 :LONGITUDE 
ELEV        .FT                                              66 :ELEVATION VALUE
ELEV_TYPE   .                                                KB :ELEVATION REFERENCE TYPE
~Curve Information Section
#MNEM       .UNIT                                      API CODE :CURVE DESCRIPTION
#------------------------------------------------------------------------------
DEPT        .FT                                                 :DEPTH     
LAT         .OHMM                                               :          
LN          .OHMM                                               :          
SN          .OHMM                                               :          
SP          .MV                                                 :          
SP_NORM     .MV                                                 :SP Normalized
VSH_SP      .V/V                                                :Volume of Shale from SP
~A        DEPTH            LAT             LN             SN             SP        SP_NORM         VSH_SP
# ...
      9422.0000         0.3478         0.5403         0.5045       -50.9709      0.6202469              1
      9422.5000         0.3471         0.5403         0.5039       -51.0554      0.5372887              1
      9423.0000         0.3464         0.5403         0.5033         -51.14      0.4542274              1
      9423.5000         0.3457         0.5403         0.5027       -51.2244      0.3713646              1
      9424.0000          0.345         0.5403         0.5021       -51.2886      0.3087006              1
      9424.5000         0.3449         0.5403         0.5014       -51.2809      0.3179398              1
      9425.0000         0.3452         0.5403         0.5008       -51.2732      0.3271751              1
      9425.5000         0.3454         0.5403         0.5002       -51.2655      0.3364143              1
      9426.0000         0.3457         0.5403         0.4995       -51.2578      0.3456497              1
      9426.5000         0.3459         0.5403         0.4984       -51.2502      0.3547935              1
      9427.0000         0.3462         0.5403         0.4972       -51.2425      0.3640289              1
      9427.5000         0.3464         0.5403         0.4961       -51.2348      0.3732681              1
      9428.0000         0.3466         0.5403         0.4949       -51.2271      0.3825035              1
      9428.5000         0.3469         0.5403         0.4938       -51.2194      0.3917427              1
      9429.0000         0.3471         0.5408         0.4926       -51.2117      0.4009781              1
      9429.5000         0.3474         0.5412         0.4914        -51.204      0.4102173              1
      9430.0000         0.3476         0.5417         0.4903       -51.1964      0.4193535              1
      9430.5000         0.3479         0.5421         0.4891       -51.1887      0.4285927              1
      9431.0000         0.3481         0.5426          0.488       -51.1786      0.4402313              1
      9431.5000         0.3484          0.543         0.4868       -51.1619      0.4584694              1
      9432.0000         0.3496         0.5434         0.4857       -51.1451      0.4768066              1
      9432.5000         0.3507         0.5439         0.4845       -51.1284      0.4950447              1
      9433.0000         0.3519         0.5443         0.4834       -51.1116       0.513382              1
      9433.5000          0.353         0.5448         0.4823       -51.0949        0.53162              1
      9434.0000         0.3542         0.5452         0.4813       -51.0782      0.5498543              1
      9434.5000         0.3573         0.5457         0.4802       -51.0614      0.5681953              1
      9435.0000         0.3607         0.5461         0.4791       -51.0447      0.5864334              1
      9435.5000         0.3641         0.5465          0.478       -51.0279      0.6047707              1
      9436.0000         0.3675          0.547          0.477       -51.0112      0.6230087              1
      9436.5000         0.3709         0.5474         0.4759       -50.9944       0.641346              1
      9437.0000         0.3743         0.5479         0.4748       -50.9777       0.659584              1
      9437.5000         0.3777         0.5483         0.4737       -50.9609      0.6779213              1
      9438.0000         0.3811         0.5488         0.4727       -50.9442      0.6961632              1
      9438.5000         0.3845         0.5492         0.4716       -50.9194      0.7224998              1
      9439.0000         0.3879         0.5488         0.4705       -50.8911      0.7523346              1
      9439.5000         0.3913         0.5478         0.4695       -50.8627      0.7822723              1
      9440.0000         0.3947         0.5467         0.4684       -50.8344      0.8121109              1
      9440.5000         0.3981         0.5457         0.4673        -50.806      0.8420486              1
      9441.0000         0.4015         0.5447         0.4667       -50.7777      0.8718872              1
      9441.5000         0.4036         0.5436         0.4665       -50.7494       0.901722              1
      9442.0000         0.4056         0.5426         0.4664        -50.721      0.9316635              1
      9442.5000         0.4076         0.5415         0.4662       -50.6927      0.9615021              1
      9443.0000         0.4095         0.5405         0.4661       -50.6643      0.9914398              1
      9443.5000         0.4115         0.5395         0.4659        -50.636       1.021275              1
      9444.0000         0.4135         0.5384         0.4658       -50.6077       1.051113              1
      9444.5000         0.4155         0.5374         0.4657       -50.5793       1.081051              1
      9445.0000         0.4175         0.5364         0.4655        -50.551       1.110889              1
      9445.5000         0.4195         0.5353         0.4654       -50.6154       1.048027              1
      9446.0000         0.4214         0.5343         0.4652       -50.7155      0.9494667              1
      9446.5000         0.4234         0.5332         0.4651       -50.8155      0.8510056              1
      9447.0000         0.4254         0.5322          0.465       -50.9156      0.7524414              1
      9447.5000         0.4274          0.531         0.4648       -51.0156      0.6539803              1
      9448.0000         0.4294         0.5292         0.4647       -51.1157      0.5554161              1
      9448.5000         0.4313         0.5274         0.4646       -51.2158       0.456852              1
      9449.0000         0.4333         0.5257         0.4645       -51.3159      0.3582916              1
      9449.5000         0.4353         0.5239         0.4644        -51.416      0.2597275              1
      9450.0000         0.4373         0.5221         0.4644       -51.5159      0.1613693              1
      9450.5000         0.4393         0.5203         0.4643       -51.5752      0.1036072              1
      9451.0000         0.4389         0.5185         0.4642       -51.6228     0.05754471              1
      9451.5000         0.4347         0.5167         0.4642       -51.6703     0.01158142              1
      9452.0000         0.4305         0.5149         0.4641       -51.7178    -0.03438187              1
      9452.5000         0.4263         0.5131         0.4641       -51.7653    -0.08034515              1
      9453.0000         0.4221         0.5113          0.464       -51.8128     -0.1263084              1
      9453.5000         0.4178         0.5095         0.4639       -51.8603     -0.1722679              1
      9454.0000         0.4136         0.5077         0.4639       -51.9078     -0.2182274              1
      9454.5000         0.4094         0.5059         0.4638       -51.9026     -0.2114906              1
      9455.0000         0.4052         0.5041         0.4635       -51.8213     -0.1286545              1
      9455.5000          0.401         0.5023         0.4618       -51.7401    -0.04591751              1
      9456.0000         0.3967         0.5005         0.4602       -51.6589     0.03681946              1
      9456.5000         0.3925         0.4987         0.4585       -51.5778      0.1194572              1
      9457.0000         0.3883         0.4972         0.4569       -51.4964      0.2023964              1
      9457.5000         0.3841         0.4958         0.4552       -51.4152      0.2851334              1
      9458.0000         0.3799         0.4944         0.4536        -51.334      0.3678741              1
      9458.5000         0.3755          0.493         0.4519       -51.2529      0.4505119              1
      9459.0000         0.3711         0.4917         0.4502       -51.2217      0.4832497              1
      9459.5000         0.3667         0.4903         0.4486       -51.3731      0.3333855              1
