#------------------------------------------------------------------------------
# Created by    : vladimir.rabinovich
# Created on    : 09/19/2023 17:20:04
#------------------------------------------------------------------------------
~Version Information Section
VERS.           2.0     :   CWLS log ASCII Standard - VERSION 2.0
WRAP.           NO      :   One line per depth step
~Well Information Section
#MNEM       .UNIT                                         VALUE :DESCRIPTION
#------------------------------------------------------------------------------
STRT        .FT                                             627 :START DEPTH
STOP        .FT                                            8077 :STOP DEPTH
STEP        .FT                                             0.5 :STEP      
NULL        .                                           -999.25 :NULL      
COMP        .                                    MOBIL OIL CORP :COMPANY   
WELL        .                               OCS G02338 ST00BP00 :WELL      
FLD         .                                           WILDCAT :FIELD     
LOC         .                                                   :LOCATION  
CNTY        .                             GALVESTON LARGE BLOCK :LOCATION  
STAT        .                                             TEXAS :STATE     
CTRY        .                                     UNITED STATES :COUNTRY   
SRVC        .                                                   :SERVICE COMPANY
DATE        .                             9/13/2023 11:18:53 AM :LOG DATE  
API         .                                    42706400220000 :API NUMBER
UWI         .                                    42706400220000 :UNIQUE WELL ID
XCOORD      .                                  948421.875172236 :SURFACE X 
YCOORD      .                                   10402667.405867 :SURFACE Y 
LAT         .                                         28.648189 :LATITUDE  
LON         .                                        -95.157922 :LONGITUDE 
ELEV        .FT                                              76 :ELEVATION VALUE
ELEV_TYPE   .                                                KB :ELEVATION REFERENCE TYPE
~Curve Information Section
#MNEM       .UNIT                                      API CODE :CURVE DESCRIPTION
#------------------------------------------------------------------------------
DEPT        .FT                                                 :DEPTH     
ASFL        .OHMM                                               :          
CALI        .IN                                                 :          
CILD        .MMHO                                               :          
DT          .US/F                                               :          
DT_1        .US/F                                               :          
GR          .GAPI                                               :          
GR_NORM     .GAPI                                               :GammaRay Normalized
ILD         .OHMM                                               :          
SFL         .OHMM                                               :          
SP          .MV                                                 :          
SP_NORM     .MV                                                 :SP Normalized
VSH_GR      .V/V                                                :Volume of Shale from GR
VSH_SP      .V/V                                                :Volume of Shale from SP
~A        DEPTH           ASFL           CALI           CILD             DT           DT_1             GR        GR_NORM            ILD            SFL             SP        SP_NORM         VSH_GR         VSH_SP
# ...
      4598.0000         0.7889        10.5713       3499.055       123.0345        -999.25        74.1538       39.34167         0.3766         0.7781       -100.578      -38.75982      0.1349293      0.4100028
      4598.5000         0.8041        10.5093       3843.938        118.167        -999.25         70.194       33.58905         0.3328         0.9417      -109.8154      -47.99722      0.0125329      0.2656685
      4599.0000          0.821        10.3814       3985.168       115.8326        -999.25        68.9562       31.78209         0.2938         1.0201      -118.6193      -56.80112              0      0.1281075
      4599.5000         0.8444        10.3715       4055.383       116.2172        -999.25        68.9291       31.73009         0.2608         0.9852      -123.6156      -61.79742              0     0.05004036
      4600.0000         0.8797        10.4591       4122.695       117.4225        -999.25        70.3337       33.75343         0.2396         0.9478      -125.1064      -63.28822     0.01603033     0.02674663
      4600.5000         0.9092        10.6709        4189.57       118.2223        -999.25        72.3588        36.6762         0.2247         0.9181       -125.677      -63.85882     0.07821712     0.01783097
      4601.0000         0.9364        10.9355       4254.984       119.1833        -999.25        74.4008       39.62348         0.2172         0.8972      -125.9175      -64.09932      0.1409251     0.01407313
      4601.5000         0.9592          10.85       4301.383       118.4646        -999.25        74.9554       40.41469         0.2149         0.8793      -125.9546      -64.13641      0.1577593     0.01349354
      4602.0000         0.9587        10.8431       4347.727       117.1586        -999.25        75.1545        40.6906         0.2179         0.8595      -125.4072      -63.58902      0.1636298     0.02204657
      4602.5000         0.9396         10.893       4366.477       115.4948        -999.25        75.3895       41.01854         0.2263         0.8435      -124.3881      -62.56992      0.1706071     0.03797007
      4603.0000         0.9204        10.6678       4383.703       113.7389        -999.25        76.1499       42.10806         0.2404         0.8161      -122.5332      -60.71502      0.1937886     0.06695282
      4603.5000         0.8955        10.5373       4351.969       112.3165        -999.25         78.522       45.53382         0.2665         0.7875      -119.8263      -58.00812      0.2666771      0.1092482
      4604.0000         0.8699        10.5521       4320.234       111.8971        -999.25        82.0034        50.5676         0.2973         0.7785      -115.3376      -53.51942      0.3737786      0.1793841
      4604.5000         0.8444        10.5943       4158.258       114.1646        -999.25        87.2415       58.14776         0.3346          0.784       -102.609      -40.79082      0.5350588      0.3782685
      4605.0000         0.8276        10.6978       2253.367        116.178        -999.25        92.2047       65.32946          0.387         0.7324       -92.8512      -31.03301      0.6878608      0.5307342
      4605.5000         0.8107        10.8183       1955.729       121.0101        -999.25        95.6284       70.27957         0.4461         0.6888       -83.2739      -21.45572      0.7931824      0.6803794
      4606.0000         0.7938        10.9205       1711.723        122.916        -999.25        97.7136       73.28947         0.5313         0.6925       -73.3643      -11.54612      0.8572227      0.8352169
      4606.5000         0.7785        10.9646       1603.256        122.361        -999.25        98.6217       74.59309         0.6161         0.7452       -71.7081      -9.889915      0.8849595      0.8610951
      4607.0000         0.7716        10.9685       1539.832       121.3593        -999.25        98.1049       73.83127          0.678         0.7824       -69.9526      -8.134415      0.8687504      0.8885248
      4607.5000         0.7793        10.9601       1489.443       120.7976        -999.25        97.3763       72.76241          0.713         0.7835       -68.9674      -7.149216      0.8460088      0.9039185
      4608.0000         0.7875        10.9054       1446.295       120.9099        -999.25        96.4879       71.46194         0.7289         0.7873       -70.5092      -8.691017      0.8183392      0.8798279
      4608.5000         0.8041        10.8301       1415.457       121.0237        -999.25        96.1322       70.93363         0.7343          0.843        -73.077      -11.25882      0.8070986      0.8397059
      4609.0000         0.8236        10.7654       1384.596       120.1975        -999.25        95.7504       70.36748         0.7224         0.8426       -74.8966      -13.07841      0.7950527      0.8112748
      4609.5000         0.8431        10.7553       1353.857       121.7281        -999.25        94.7152       68.85421         0.7004         0.8383        -75.469      -13.65082      0.7628555       0.802331
      4610.0000         0.8625        10.8077       1377.928       123.1816        -999.25        92.6456       65.84151         0.6699         0.8386       -74.3437      -12.52551      0.6987556      0.8199139
      4610.5000         0.8646        10.9046       1472.813       127.3506        -999.25        90.5519       62.79388         0.6112          0.835       -72.5339      -10.71571      0.6339124       0.848192
      4611.0000         0.8548         11.012       1562.854       132.1465        -999.25         87.745       58.71245         0.5324         0.7906       -71.5771      -9.758919      0.5470734      0.8631419
      4611.5000          0.845        11.1355       1641.709       131.7708        -999.25        83.9165       53.15014         0.4768         0.7368       -72.2114      -10.39322      0.4287263       0.853231
      4612.0000         0.8352         11.173       1719.314       128.1619        -999.25         80.353       47.97196         0.4267         0.6926       -78.9227      -17.10452      0.3185523       0.748367
      4612.5000         0.8294        11.1189       1784.936       123.6447        -999.25        76.9197       42.98254         0.3846         0.7136       -90.4803      -28.66212      0.2123944      0.5677794
      4613.0000         0.8433        11.0245       1850.555        120.597        -999.25        73.8334       38.49608         0.3413         0.8147      -101.2936      -39.47542      0.1169379      0.3988216
      4613.5000         0.8627        10.9455       2015.654       116.9993        -999.25        72.0179       35.85172         0.3013         0.9725      -114.9618      -53.14362     0.06067495       0.185256
      4614.0000         0.8851        10.9536       3013.645       116.9448        -999.25         71.115       34.53022         0.2765         1.0266      -117.7437      -55.92551     0.03255779      0.1417888
      4614.5000         0.9075        10.9543        3718.34        117.358        -999.25        71.6396       35.27795         0.2601          0.996      -123.5723      -61.75412     0.04846695     0.05071688
      4615.0000         0.9245        11.0156       3796.445       117.3434        -999.25        72.7335       36.85089         0.2501         0.9519       -124.923      -63.10481     0.08193386      0.0296123
      4615.5000          0.941        11.1846        3840.84       116.0504        -999.25        73.5996       38.09365          0.245          0.926      -125.8053      -63.98711      0.1083756     0.01582634
      4616.0000          0.941        10.9864       3881.891       115.1501        -999.25         74.426       39.27886         0.2411         0.9234      -126.1825      -64.36432      0.1335928    0.009932518
      4616.5000         0.9135        10.7935       3918.848       114.9889        -999.25        75.2651       40.48246         0.2384         0.9191      -126.3878      -64.56962      0.1592014    0.006724715
