#------------------------------------------------------------------------------
# Created by    : vladimir.rabinovich
# Created on    : 09/19/2023 17:22:18
#------------------------------------------------------------------------------
~Version Information Section
VERS.           2.0     :   CWLS log ASCII Standard - VERSION 2.0
WRAP.           NO      :   One line per depth step
~Well Information Section
#MNEM       .UNIT                                         VALUE :DESCRIPTION
#------------------------------------------------------------------------------
STRT        .FT                                            4012 :START DEPTH
STOP        .FT                                            9352 :STOP DEPTH
STEP        .FT                                             0.5 :STEP      
NULL        .                                           -999.25 :NULL      
COMP        .                                   KERR-MCGEE CORP :COMPANY   
WELL        .                                ST TR 00007-L SE/4 :WELL      
FLD         .                                           WILDCAT :FIELD     
LOC         .                                                   :LOCATION  
CNTY        .                           HIGH ISLAND LARGE BLOCK :LOCATION  
STAT        .                                             TEXAS :STATE     
CTRY        .                                     UNITED STATES :COUNTRY   
SRVC        .                                                   :SERVICE COMPANY
DATE        .                             9/13/2023 11:19:15 AM :LOG DATE  
API         .                                    42708302700000 :API NUMBER
UWI         .                                    42708302700000 :UNIQUE WELL ID
XCOORD      .                                   1285759.2062487 :SURFACE X 
YCOORD      .                                  10728779.4927599 :SURFACE Y 
LAT         .                                        29.5578886 :LATITUDE  
LON         .                                       -94.1158411 :LONGITUDE 
ELEV        .FT                                             125 :ELEVATION VALUE
ELEV_TYPE   .                                                KB :ELEVATION REFERENCE TYPE
~Curve Information Section
#MNEM       .UNIT                                      API CODE :CURVE DESCRIPTION
#------------------------------------------------------------------------------
DEPT        .FT                                                 :DEPTH     
CALI        .IN                                                 :          
CILD        .MMHO                                               :          
DPHI        .%                                                  :          
ILD         .OHMM                                               :          
ILM         .OHMM                                               :          
SFL         .OHMM                                               :          
SP          .MV                                                 :          
SP_NORM     .MV                                                 :SP Normalized
VSH_SP      .V/V                                                :Volume of Shale from SP
~A        DEPTH           CALI           CILD           DPHI            ILD            ILM            SFL             SP        SP_NORM         VSH_SP
# ...
      9338.5000         9.0685       2549.402        33.1221         0.4013         0.3598         0.5367       -48.0845        -4.4063      0.9370528
      9339.0000         9.0651       2543.629        32.8053         0.4007         0.3645         0.5421       -49.1675        -5.4893      0.9215814
      9339.5000         9.0618       2530.738        32.3697         0.4011         0.3692         0.5475       -49.9183        -6.2401      0.9108557
      9340.0000         9.0584       2513.375        31.9341         0.4026         0.3738         0.5529       -49.9014        -6.2232      0.9110972
      9340.5000         9.0551       2488.504        31.6188          0.404         0.3783         0.5589       -49.5242         -5.846      0.9164857
      9341.0000         9.0518       2462.383        31.5288         0.4055         0.3829         0.5649        -48.196        -4.5178        0.93546
      9341.5000         9.0484        2446.34         31.578         0.4069         0.3876         0.5711       -47.2818        -3.6036        0.94852
      9342.0000         9.0451       2439.156        31.7112         0.4084         0.3908         0.5672       -46.9886        -3.3104      0.9527085
      9342.5000         9.0426        2435.91        31.7774         0.4095         0.3925         0.5607       -46.7863        -3.1081      0.9555986
      9343.0000         9.0401       2434.656        31.6793         0.4104         0.3943         0.5541       -46.8192         -3.141      0.9551286
      9343.5000         9.0376       2436.895         31.433         0.4113          0.396         0.5483       -46.8521        -3.1739      0.9546586
      9344.0000         9.0351       2438.961        30.5519         0.4122         0.3978         0.5445       -47.1349        -3.4567      0.9506186
      9344.5000         9.0326       2439.578         30.347         0.4125         0.3995         0.5407       -47.3838        -3.7056      0.9470628
      9345.0000         9.0301       2440.195         30.142          0.412         0.3995         0.5369        -47.129        -3.4508      0.9507028
      9345.5000         9.0307       2439.168        30.0804         0.4115         0.3994         0.5371       -46.8743        -3.1961      0.9543414
      9346.0000         9.0331       2435.703        30.1071          0.411         0.3993         0.5382       -46.6681        -2.9899      0.9572871
      9346.5000         9.0355       2432.238        30.1337         0.4104         0.3993          0.543       -46.7476        -3.0694      0.9561514
      9347.0000         9.0379       2429.121        30.1604         0.4091         0.3992         0.5504        -46.827        -3.1488      0.9550171
      9347.5000         9.0403       2427.582        30.1867         0.4078          0.399         0.5611       -46.9065        -3.2283      0.9538814
      9348.0000         9.0427       2426.043        30.2128         0.4065         0.3986         0.5739       -47.0282          -3.35      0.9521428
      9348.5000         9.0465       2424.469        30.2388         0.4052         0.3983         0.5856       -47.1924        -3.5142      0.9497972
      9349.0000         9.0513       2421.664        30.2648          0.404          0.398         0.5878       -47.3566        -3.6784      0.9474514
      9349.5000         9.0562       2418.855        30.2713         0.4033         0.3976         0.5711       -47.4227        -3.7445      0.9465072
      9350.0000          9.061       2416.105        30.2515         0.4026         0.3973         0.5581       -47.4791        -3.8009      0.9457014
      9350.5000         9.0658       2413.523        30.2317         0.4019         0.3973         0.5466       -47.5356        -3.8574      0.9448943
      9351.0000         9.0707       2410.938        30.2119         0.4012         0.3973         0.5403       -47.7245        -4.0463      0.9421957
      9351.5000         9.0753       2408.836        30.1641         0.4013         0.3972         0.5389       -47.9642         -4.286      0.9387714
      9352.0000         9.0792       2409.039        30.0695         0.4026         0.3972         0.5375       -47.9838        -4.3056      0.9384914
