#------------------------------------------------------------------------------
# Created by    : vladimir.rabinovich
# Created on    : 09/19/2023 17:20:57
#------------------------------------------------------------------------------
~Version Information Section
VERS.           2.0     :   CWLS log ASCII Standard - VERSION 2.0
WRAP.           NO      :   One line per depth step
~Well Information Section
#MNEM       .UNIT                                         VALUE :DESCRIPTION
#------------------------------------------------------------------------------
STRT        .FT                                             727 :START DEPTH
STOP        .FT                                            8206 :STOP DEPTH
STEP        .FT                                             0.5 :STEP      
NULL        .                                           -999.25 :NULL      
COMP        .                              PHOENIX RESOURCES CO :COMPANY   
WELL        .                                          BLK 335L :WELL      
FLD         .                                 BRAZOS BLOCK 0309 :FIELD     
LOC         .                                                   :LOCATION  
CNTY        .                                BRAZOS LARGE BLOCK :LOCATION  
STAT        .                                             TEXAS :STATE     
CTRY        .                                     UNITED STATES :COUNTRY   
SRVC        .                                                   :SERVICE COMPANY
DATE        .                             9/13/2023 11:18:52 AM :LOG DATE  
API         .                                    42704300210000 :API NUMBER
UWI         .                                    42704300210000 :UNIQUE WELL ID
XCOORD      .                                  898426.347293712 :SURFACE X 
YCOORD      .                                  10460523.5569112 :SURFACE Y 
LAT         .                                        28.8046676 :LATITUDE  
LON         .                                       -95.3172337 :LONGITUDE 
ELEV        .FT                                              70 :ELEVATION VALUE
ELEV_TYPE   .                                                DF :ELEVATION REFERENCE TYPE
~Curve Information Section
#MNEM       .UNIT                                      API CODE :CURVE DESCRIPTION
#------------------------------------------------------------------------------
DEPT        .FT                                                 :DEPTH     
ASN         .OHMM                                               :          
CALI        .IN                                                 :          
DT          .US/F                                               :          
ILD         .OHMM                                               :          
SP          .MV                                                 :          
SP_NORM     .MV                                                 :SP Normalized
VSH_SP      .V/V                                                :Volume of Shale from SP
~A        DEPTH            ASN           CALI             DT            ILD             SP        SP_NORM         VSH_SP
# ...
      5685.0000         0.5242        10.0802       116.2701         0.3155        -89.476       -46.2318      0.3887595
      5685.5000         0.4771        10.0225       114.6501         0.3099       -84.7233      -41.48271      0.4529363
      5686.0000         0.4496         9.9877       112.9203         0.3043       -91.9928      -48.75582      0.3546511
      5686.5000         0.4714          9.961       110.9926         0.2939      -104.0225      -60.78913      0.1920387
      5687.0000         0.5104         9.9391       108.7437         0.2812      -108.8284      -65.59865      0.1270453
      5687.5000          0.529          9.925       107.6329         0.2685      -110.6553      -67.42915      0.1023087
      5688.0000         0.5367         9.9185       107.7694         0.2558      -111.8029      -68.58038     0.08675168
      5688.5000         0.5345         9.9238       107.2344         0.2383       -111.178      -67.95908     0.09514752
      5689.0000         0.5322         9.9855       106.6869         0.2258       -109.413      -66.19769      0.1189501
      5689.5000         0.5299        10.1324       105.9214         0.2453      -106.6608       -63.4491      0.1560932
      5690.0000         0.5269        10.2791       102.7186         0.3457      -103.2892      -60.08112      0.2016065
      5690.5000         0.5236        10.3504        92.8926         0.4412       -99.0878      -55.88333      0.2583334
      5691.0000         0.5558        10.3773        80.3384         0.5159       -94.9209      -51.72004      0.3145941
      5691.5000         0.5965        10.3835        67.0624         0.5809       -93.3801      -50.18285      0.3353669
      5692.0000         0.7034        10.3811        59.5706         0.6469       -96.4916      -53.29797      0.2932707
      5692.5000         0.7816        10.3691        60.2094         0.7138      -102.1744      -58.98438      0.2164273
      5693.0000         0.7925        10.3331        63.7904         0.8088      -106.7598      -63.57339      0.1544136
      5693.5000         0.7986        10.2194        72.8304         0.9158      -109.5244       -66.3416      0.1170054
      5694.0000         0.7743        10.0865        82.6218          0.943      -111.7416      -68.56241     0.08699448
      5694.5000         0.7394        10.0409        98.0775         0.8836      -112.9982      -69.82262     0.06996454
      5695.0000         0.7058        10.0228       104.1075         0.7998      -113.6132      -70.44124     0.06160489
      5695.5000         0.6772        10.0151       107.1034         0.6542      -114.1737      -71.00535     0.05398178
      5696.0000         0.6511        10.0135       107.4972          0.513      -114.6025      -71.43776     0.04813839
      5696.5000           0.63        10.0115       107.7935         0.3939      -114.8983      -71.73717     0.04409233
      5697.0000         0.6129        10.0061       108.1654         0.3068      -115.1401      -71.98258     0.04077592
      5697.5000         0.6021        10.0111       108.6127         0.2642      -115.6149        -72.461     0.03431083
      5698.0000         0.5939        10.0298       108.6199          0.244      -116.4701      -73.31981     0.02270528
      5698.5000          0.593        10.0689       108.1969          0.238        -117.29      -74.14332     0.01157678
      5699.0000         0.5969        10.1031       107.9324         0.2346      -117.9342      -74.79112     0.00282267
      5699.5000         0.6093        10.1205       107.7911         0.2396      -118.2615      -75.12204              0
      5700.0000         0.6219         10.122       107.8651         0.2545      -118.3419      -75.20605              0
      5700.5000         0.6394        10.1121       108.0043          0.269      -118.3182      -75.18597              0
      5701.0000         0.6516        10.0939       108.1072         0.2806      -118.1893      -75.06068              0
      5701.5000         0.6553        10.0746       108.1573         0.2913      -117.7458      -74.62079    0.005124479
      5702.0000         0.6516        10.0549       108.1654         0.2911      -116.8473       -73.7259     0.01721758
      5702.5000         0.6463        10.0501       107.8643         0.2909       -116.083      -72.96521     0.02749716
      5703.0000         0.6356        10.0511       107.4419         0.2907      -116.0759      -72.96172     0.02754438
      5703.5000         0.6249        10.0533       106.9272         0.2904       -116.074      -72.96343     0.02752119
      5704.0000         0.6141        10.0615        106.931         0.2887      -115.8118      -72.70485     0.03101555
      5704.5000          0.604        10.0701       107.3561          0.287      -116.4181      -73.31476     0.02277354
      5705.0000         0.6001        10.0741       107.8058         0.2853      -116.8649      -73.76517     0.01668693
      5705.5000         0.6056        10.0792       107.3264         0.2836      -116.8032      -73.70708     0.01747193
      5706.0000         0.6116        10.0865       106.6473         0.2819      -116.6104      -73.51789      0.0200285
      5706.5000         0.6188        10.0904       106.1494         0.2807      -116.3047      -73.21581     0.02411074
      5707.0000           0.62        10.0912       105.8223         0.2795      -115.7938      -72.70852     0.03096596
      5707.5000         0.6186        10.0864       106.0806         0.2784       -115.198      -72.11633     0.03896847
      5708.0000         0.6162        10.0864       106.4479         0.2772      -114.5465      -71.46844     0.04772372
      5708.5000         0.6113        10.0908       106.8152         0.2769      -113.7637      -70.68925     0.05825331
      5709.0000         0.6064        10.0951       107.1938         0.2768      -113.6472      -70.57637     0.05977878
      5709.5000         0.6016        10.0994       107.3916         0.2766      -114.3009      -71.23368     0.05089621
      5710.0000         0.5946        10.0992       106.7827         0.2736      -113.8021      -70.73849     0.05758791
      5710.5000          0.586        10.0991       105.7448         0.2695      -113.1976       -70.1376     0.06570806
      5711.0000         0.5773        10.0989       105.1639         0.2654      -113.5295      -70.47311     0.06117414
      5711.5000         0.5641        10.1067       104.9502          0.264      -113.4893      -70.43652      0.0616686
      5712.0000         0.5503        10.1148        104.488         0.2639      -113.7054      -70.65623     0.05869953
      5712.5000         0.5376        10.1177       101.7449         0.2637      -113.7012      -70.65565     0.05870737
      5713.0000         0.5264        10.1499        91.5779         0.2668      -111.7168      -68.67485     0.08547499
      5713.5000         0.5165        10.3535        78.8654         0.2702      -110.1722      -67.13387       0.106299
      5714.0000         0.5814        10.5201        64.4427          0.285      -109.5768      -66.54208      0.1142962
      5714.5000         0.6725        10.4598        59.2123         0.3044      -110.5897      -67.55859      0.1005595
      5715.0000         0.8064        10.1856        62.1445         0.3218      -112.1714      -69.14391     0.07913641
      5715.5000         1.0524        10.0466        66.7362          0.338      -113.3629      -70.33902     0.06298622
      5716.0000         1.3698        10.0052        82.9084         0.3435      -114.3279      -71.30763     0.04989686
      5716.5000          1.243        10.0011        87.4904         0.3489       -115.063      -72.04634     0.03991431
      5717.0000         1.0451        10.0687       100.0594         0.3519      -115.6288      -72.61575     0.03221955
      5717.5000         0.8578        10.1033       104.6796         0.3484      -115.9294      -72.91997     0.02810854
      5718.0000         0.7257        10.1082       105.4636         0.3449      -115.9675      -72.96167       0.027545
