#------------------------------------------------------------------------------
# Created by    : vladimir.rabinovich
# Created on    : 09/19/2023 17:22:53
#------------------------------------------------------------------------------
~Version Information Section
VERS.           2.0     :   CWLS log ASCII Standard - VERSION 2.0
WRAP.           NO      :   One line per depth step
~Well Information Section
#MNEM       .UNIT                                         VALUE :DESCRIPTION
#------------------------------------------------------------------------------
STRT        .FT                                             394 :START DEPTH
STOP        .FT                                            7700 :STOP DEPTH
STEP        .FT                                             0.5 :STEP      
NULL        .                                           -999.25 :NULL      
COMP        .                                   MARATHON OIL CO :COMPANY   
WELL        .                                     ST TR 00248-L :WELL      
FLD         .                                           WILDCAT :FIELD     
LOC         .                                                   :LOCATION  
CNTY        .                             GALVESTON LARGE BLOCK :LOCATION  
STAT        .                                             TEXAS :STATE     
CTRY        .                                     UNITED STATES :COUNTRY   
SRVC        .                                                   :SERVICE COMPANY
DATE        .                             9/13/2023 11:19:42 AM :LOG DATE  
API         .                                    42706000210000 :API NUMBER
UWI         .                                    42706000210000 :UNIQUE WELL ID
XCOORD      .                                  969160.596945075 :SURFACE X 
YCOORD      .                                  10521676.5956168 :SURFACE Y 
LAT         .                                        28.9764138 :LATITUDE  
LON         .                                       -95.0998408 :LONGITUDE 
ELEV        .FT                                              10 :ELEVATION VALUE
ELEV_TYPE   .                                                KB :ELEVATION REFERENCE TYPE
~Curve Information Section
#MNEM       .UNIT                                      API CODE :CURVE DESCRIPTION
#------------------------------------------------------------------------------
DEPT        .FT                                                 :DEPTH     
LAT         .OHMM                                               :          
LN          .OHMM                                               :          
SN          .OHMM                                               :          
SP          .MV                                                 :          
SP_NORM     .MV                                                 :SP Normalized
VSH_SP      .V/V                                                :Volume of Shale from SP
~A        DEPTH            LAT             LN             SN             SP        SP_NORM         VSH_SP
# ...
      7652.0000          0.203          0.394          0.617       -47.2515       -3.34906      0.9713529
      7652.5000         0.2029         0.3929         0.6169       -47.0876      -3.185162      0.9733517
      7653.0000         0.2029         0.3917         0.6168       -46.9238      -3.021362      0.9753492
      7653.5000         0.2028         0.3906         0.6168       -46.7598      -2.857361      0.9773493
      7654.0000         0.2027         0.3894         0.6167       -46.5959      -2.693462       0.979348
      7654.5000         0.2026         0.3882         0.6155       -46.4321      -2.529659      0.9813456
      7655.0000         0.2026         0.3871         0.6137       -46.2681      -2.365662      0.9833456
      7655.5000         0.2025         0.3859         0.6119       -46.1042      -2.201759      0.9853444
      7656.0000         0.2024         0.3847           0.61       -45.9401      -2.037663      0.9873456
      7656.5000         0.2023          0.385         0.6082       -45.7761      -1.873661      0.9893456
      7657.0000         0.2032         0.3882         0.6063       -45.6122      -1.709763      0.9913443
      7657.5000         0.2061         0.3913         0.6045       -45.4484      -1.545959       0.993342
      7658.0000          0.209         0.3945         0.6026       -45.2844      -1.381962       0.995342
      7658.5000         0.2119         0.3976         0.6008       -45.2355      -1.333061      0.9959383
      7659.0000         0.2148         0.4008          0.599       -45.2691      -1.366661      0.9955285
      7659.5000         0.2176         0.4039         0.5971       -45.3028       -1.40036      0.9951175
      7660.0000         0.2205          0.407         0.5953       -45.3365      -1.434059      0.9947066
      7660.5000         0.2234         0.4102         0.5934       -45.3702      -1.467762      0.9942956
      7661.0000         0.2263         0.4133         0.5916       -45.4039      -1.501461      0.9938846
      7661.5000         0.2291         0.4165         0.5897       -45.4376       -1.53516      0.9934736
      7662.0000          0.232         0.4196         0.5879       -45.4713      -1.568859      0.9930627
      7662.5000         0.2349         0.4228         0.5856       -45.5049      -1.602463      0.9926529
      7663.0000         0.2378         0.4259         0.5818       -45.5386      -1.636162      0.9922419
      7663.5000         0.2406         0.4308          0.578       -45.5556       -1.65316      0.9920346
      7664.0000         0.2435         0.4361         0.5742       -45.5411       -1.63866      0.9922115
      7664.5000         0.2442         0.4414         0.5704       -45.5267       -1.62426      0.9923871
      7665.0000         0.2431         0.4467         0.5666       -45.5122       -1.60976      0.9925639
      7665.5000          0.242          0.452         0.5628       -45.4978       -1.59536      0.9927395
      7666.0000         0.2408         0.4573          0.559       -45.4833       -1.58086      0.9929163
      7666.5000         0.2397         0.4626         0.5552       -45.4689       -1.56646      0.9930919
      7667.0000         0.2386         0.4679         0.5514       -45.4545      -1.552059      0.9932676
      7667.5000         0.2375         0.4732         0.5476         -45.44       -1.53756      0.9934444
      7668.0000         0.2364         0.4785         0.5438       -45.4255       -1.52306      0.9936212
      7668.5000         0.2353         0.4838           0.54       -45.4111      -1.508659      0.9937968
      7669.0000         0.2342         0.4891         0.5362       -45.3967      -1.494263      0.9939724
      7669.5000          0.233         0.4944         0.5324       -45.3822      -1.479759      0.9941493
      7670.0000         0.2319         0.4997         0.5286       -45.3677       -1.46526      0.9943261
      7670.5000         0.2308          0.505         0.5258       -45.3533      -1.450859      0.9945017
      7671.0000         0.2297         0.5103         0.5236       -45.3101      -1.407661      0.9950285
      7671.5000         0.2303         0.5125         0.5214       -45.2242      -1.321762       0.996076
      7672.0000          0.232         0.5124         0.5192       -45.1384      -1.235962      0.9971224
      7672.5000         0.2336         0.5123          0.517       -45.0524       -1.14996      0.9981712
      7673.0000         0.2353         0.5123         0.5148       -44.9666      -1.064159      0.9992176
      7673.5000          0.237         0.5122         0.5126       -44.8807       -0.97826              1
      7674.0000         0.2387         0.5121         0.5104       -44.7949     -0.8924599              1
      7674.5000         0.2403         0.5121         0.5082       -44.7089     -0.8064613              1
      7675.0000          0.242          0.512         0.5061       -44.6231     -0.7206612              1
      7675.5000         0.2437         0.5119         0.5039       -44.5372     -0.6347618              1
      7676.0000         0.2454         0.5118         0.5017       -44.4514     -0.5489616              1
      7676.5000          0.247         0.5118         0.4995       -44.3654     -0.4629593              1
      7677.0000         0.2487         0.5117         0.4973       -44.2796     -0.3771591              1
      7677.5000         0.2504         0.5116         0.4951       -44.1937     -0.2912598              1
      7678.0000         0.2521         0.5115         0.4929       -44.1078     -0.2053604              1
      7678.5000         0.2537         0.5115         0.4907       -44.0219     -0.1194611              1
      7679.0000         0.2554         0.5114         0.4885       -43.9361    -0.03366089              1
      7679.5000         0.2571         0.5115         0.4863       -43.8502     0.05223846              1
      7680.0000          0.257         0.5123         0.4841       -43.7643      0.1381378              1
      7680.5000          0.257         0.5131         0.4818       -43.6785       0.223938              1
      7681.0000         0.2569         0.5138         0.4792       -43.5926      0.3098373              1
      7681.5000         0.2568         0.5146         0.4766       -43.5687      0.3337402              1
      7682.0000         0.2567         0.5154          0.474       -43.6033      0.2991409              1
      7682.5000         0.2567         0.5162         0.4714       -43.6379      0.2645378              1
      7683.0000         0.2566          0.517         0.4688       -43.6725      0.2299385              1
      7683.5000         0.2565         0.5178         0.4662        -43.707      0.1954384              1
      7684.0000         0.2565         0.5186         0.4636       -43.7416      0.1608391              1
      7684.5000         0.2564         0.5194          0.461       -43.7762      0.1262398              1
      7685.0000         0.2532         0.5202         0.4584       -43.8107     0.09173965              1
      7685.5000         0.2498          0.521         0.4558       -43.8453     0.05714035              1
      7686.0000         0.2464         0.5218         0.4532       -43.8799     0.02253723              1
      7686.5000          0.243         0.5225         0.4506       -43.9145    -0.01206207              1
      7687.0000         0.2396         0.5233          0.448        -43.949    -0.04656219              1
      7687.5000         0.2362         0.5241         0.4454       -43.9836     -0.0811615              1
      7688.0000         0.2328         0.5225         0.4428       -44.0182     -0.1157608              1
      7688.5000         0.2295         0.5162         0.4402       -44.0527     -0.1502609              1
      7689.0000         0.2261         0.5099         0.4376       -44.0873     -0.1848602              1
      7689.5000         0.2227         0.5036          0.435       -44.1219     -0.2194595              1
