#------------------------------------------------------------------------------
# Created by    : vladimir.rabinovich
# Created on    : 09/19/2023 17:20:39
#------------------------------------------------------------------------------
~Version Information Section
VERS.           2.0     :   CWLS log ASCII Standard - VERSION 2.0
WRAP.           NO      :   One line per depth step
~Well Information Section
#MNEM       .UNIT                                         VALUE :DESCRIPTION
#------------------------------------------------------------------------------
STRT        .FT                                             520 :START DEPTH
STOP        .FT                                           11478 :STOP DEPTH
STEP        .FT                                             0.5 :STEP      
NULL        .                                           -999.25 :NULL      
COMP        .                                      SHELL OIL CO :COMPANY   
WELL        .                                OCS 00730 ST00BP00 :WELL      
FLD         .                                           WILDCAT :FIELD     
LOC         .                                                   :LOCATION  
CNTY        .                             GALVESTON LARGE BLOCK :LOCATION  
STAT        .                                             TEXAS :STATE     
CTRY        .                                     UNITED STATES :COUNTRY   
SRVC        .                                                   :SERVICE COMPANY
DATE        .                             9/13/2023 11:19:42 AM :LOG DATE  
API         .                                    42706000260000 :API NUMBER
UWI         .                                    42706000260000 :UNIQUE WELL ID
XCOORD      .                                  961416.888637646 :SURFACE X 
YCOORD      .                                  10353223.2377546 :SURFACE Y 
LAT         .                                         28.512881 :LATITUDE  
LON         .                                        -95.114699 :LONGITUDE 
ELEV        .FT                                              72 :ELEVATION VALUE
ELEV_TYPE   .                                                KB :ELEVATION REFERENCE TYPE
~Curve Information Section
#MNEM       .UNIT                                      API CODE :CURVE DESCRIPTION
#------------------------------------------------------------------------------
DEPT        .FT                                                 :DEPTH     
ASN         .OHMM                                               :          
CILD        .MMHO                                               :          
ILD         .OHMM                                               :          
LAT         .OHMM                                               :          
LN          .OHMM                                               :          
SP          .MV                                                 :          
SP_NORM     .MV                                                 :SP Normalized
VSH_SP      .V/V                                                :Volume of Shale from SP
~A        DEPTH            ASN           CILD            ILD            LAT             LN             SP        SP_NORM         VSH_SP
# ...
      4886.0000         0.6241       1915.979         0.5113        -999.25        -999.25        -51.376       -7.47356      0.7894784
      4886.5000         0.6192       1904.814         0.5117        -999.25        -999.25       -50.0042      -6.101761        0.84224
      4887.0000         0.6142       1896.611          0.512        -999.25        -999.25       -48.7756      -4.873161      0.8894938
      4887.5000         0.6093       1903.652         0.5124        -999.25        -999.25       -48.1454      -4.242962      0.9137322
      4888.0000         0.6044       1910.781         0.5128        -999.25        -999.25       -47.5153      -3.612862      0.9379669
      4888.5000         0.5994       1918.061         0.5132        -999.25        -999.25        -47.013      -3.110561      0.9572861
      4889.0000         0.5952       1925.332         0.5136        -999.25        -999.25       -46.6796      -2.777161      0.9701092
      4889.5000         0.5959       1932.609         0.5138        -999.25        -999.25       -46.3458      -2.443359      0.9829477
      4890.0000         0.5966       1939.883         0.5136        -999.25        -999.25       -46.0123      -2.109859      0.9957746
      4890.5000         0.5973        1947.16         0.5134        -999.25        -999.25       -45.6744      -1.771961              1
      4891.0000          0.598       1954.438         0.5131        -999.25        -999.25       -45.3317       -1.42926              1
      4891.5000         0.5987       1961.709         0.5129        -999.25        -999.25       -45.0164       -1.11396              1
      4892.0000         0.5994        1963.42         0.5127        -999.25        -999.25       -46.0004      -2.097961      0.9962323
      4892.5000         0.6001       1960.615         0.5124        -999.25        -999.25       -46.9843       -3.08186        0.95839
      4893.0000         0.6008       1957.811         0.5122        -999.25        -999.25       -47.9694      -4.066959      0.9205016
      4893.5000         0.6017       1955.008         0.5119        -999.25        -999.25       -48.9534      -5.050961      0.8826554
      4894.0000         0.6028       1957.982         0.5117        -999.25        -999.25       -49.1545       -5.25206      0.8749208
      4894.5000         0.6039        1967.02         0.5115        -999.25        -999.25       -48.2162      -4.313763      0.9110091
      4895.0000         0.6051       1976.055         0.5112        -999.25        -999.25       -47.2785       -3.37606      0.9470746
      4895.5000         0.6062       1979.715          0.511        -999.25        -999.25       -46.0316      -2.129162      0.9950323
      4896.0000         0.6073       1961.797         0.5108        -999.25        -999.25       -44.9378      -1.035362              1
      4896.5000         0.6084       1988.266         0.5118        -999.25        -999.25       -45.7101      -1.807659              1
      4897.0000         0.6095       2014.734         0.5127        -999.25        -999.25       -46.4823      -2.579861      0.9776977
      4897.5000         0.6084       2041.203         0.5137        -999.25        -999.25       -47.2546      -3.352161      0.9479938
      4898.0000         0.6036       2103.797         0.5147        -999.25        -999.25       -47.9176       -4.01516      0.9224939
      4898.5000         0.5966       2150.898         0.5157        -999.25        -999.25       -48.5104       -4.60796      0.8996938
      4899.0000         0.5865       2198.051         0.5166        -999.25        -999.25       -48.9355      -5.033062      0.8833438
      4899.5000         0.5763       2239.391         0.5176        -999.25        -999.25       -48.2485      -4.346062      0.9097669
      4900.0000         0.5662       2270.203         0.5186        -999.25        -999.25       -47.5621       -3.65966      0.9361669
      4900.5000          0.556       2281.844         0.5196        -999.25        -999.25       -46.8751       -2.97266        0.96259
      4901.0000         0.5458       2269.875         0.5205        -999.25        -999.25       -46.1887      -2.286263      0.9889899
      4901.5000         0.5357        2257.02         0.5215        -999.25        -999.25        -45.646      -1.743561              1
      4902.0000         0.5349       2240.617         0.5225        -999.25        -999.25        -45.845      -1.942562              1
      4902.5000         0.5382       2224.223         0.5207        -999.25        -999.25       -46.0441      -2.141663      0.9954302
      4903.0000         0.5415       2207.828         0.5189        -999.25        -999.25       -46.0736      -2.171162      0.9944786
      4903.5000         0.5458       2191.426         0.5171        -999.25        -999.25       -45.8887      -1.986259              1
      4904.0000         0.5529       2175.031         0.5153        -999.25        -999.25       -45.7036      -1.801163              1
      4904.5000         0.5599       2162.348         0.5135        -999.25        -999.25       -45.5186      -1.616161              1
      4905.0000         0.5627       2150.105         0.5117        -999.25        -999.25       -45.2339      -1.331459              1
      4905.5000         0.5593       2137.863         0.5099        -999.25        -999.25       -45.0768      -1.174362              1
      4906.0000         0.5559       2125.621         0.5081        -999.25        -999.25       -45.4928      -1.590363              1
      4906.5000         0.5526       2114.914         0.5063        -999.25        -999.25       -45.9087       -2.00626      0.9997981
      4907.0000         0.5492       2126.359         0.5022        -999.25        -999.25       -46.3246      -2.422161      0.9863819
      4907.5000         0.5458       2137.809         0.4977        -999.25        -999.25       -46.7405      -2.838062      0.9729657
      4908.0000         0.5424       2149.266         0.4933        -999.25        -999.25       -47.1565      -3.254063      0.9595464
      4908.5000         0.5388       2163.594         0.4888        -999.25        -999.25        -46.991      -3.088562      0.9648851
      4909.0000         0.5351       2181.215         0.4844        -999.25        -999.25       -46.7286       -2.82616      0.9733497
      4909.5000         0.5315       2198.832         0.4799        -999.25        -999.25       -46.4745       -2.57206      0.9815465
      4910.0000         0.5279       2216.461         0.4755        -999.25        -999.25        -46.231       -2.32856      0.9894013
      4910.5000         0.5242       2234.082          0.471        -999.25        -999.25       -45.9872      -2.084763      0.9972657
      4911.0000         0.5206       2246.516         0.4666        -999.25        -999.25       -45.7435      -1.841061              1
      4911.5000          0.517        2257.68         0.4622        -999.25        -999.25       -45.4998      -1.597363              1
      4912.0000         0.5128       2262.035         0.4577        -999.25        -999.25       -45.2563      -1.353863              1
      4912.5000          0.508       2220.512          0.463        -999.25        -999.25       -45.9703       -2.06786       0.997811
      4913.0000         0.5032       2179.035          0.471        -999.25        -999.25       -46.9487      -3.046261      0.9662496
      4913.5000         0.5134       2138.555          0.479        -999.25        -999.25       -48.1878      -4.285362      0.9262787
      4914.0000         0.5287       2098.395         0.4871        -999.25        -999.25       -49.4404       -5.53796      0.8858722
      4914.5000         0.5439       2064.043         0.4951        -999.25        -999.25        -54.076      -10.17356      0.7363368
      4915.0000         0.5591       2021.063         0.5031        -999.25        -999.25       -56.4016      -12.49916      0.6613174
