#------------------------------------------------------------------------------
# Created by    : vladimir.rabinovich
# Created on    : 09/19/2023 17:20:45
#------------------------------------------------------------------------------
~Version Information Section
VERS.           2.0     :   CWLS log ASCII Standard - VERSION 2.0
WRAP.           NO      :   One line per depth step
~Well Information Section
#MNEM       .UNIT                                         VALUE :DESCRIPTION
#------------------------------------------------------------------------------
STRT        .FT                                            2110 :START DEPTH
STOP        .FT                                            6746 :STOP DEPTH
STEP        .FT                                             0.5 :STEP      
NULL        .                                           -999.25 :NULL      
COMP        .                       HOUSTON OIL & MINERALS CORP :COMPANY   
WELL        .                                ST TR 00694-L NE/4 :WELL      
FLD         .                                           WILDCAT :FIELD     
LOC         .                                                   :LOCATION  
CNTY        .                      MATAGORDA ISLAND LARGE BLOCK :LOCATION  
STAT        .                                             TEXAS :STATE     
CTRY        .                                     UNITED STATES :COUNTRY   
SRVC        .                                                   :SERVICE COMPANY
DATE        .                             9/13/2023 11:12:01 AM :LOG DATE  
API         .                                    42703302070000 :API NUMBER
UWI         .                                    42703302070000 :UNIQUE WELL ID
XCOORD      .                                  400461.464340365 :SURFACE X 
YCOORD      .                                  10145980.2526086 :SURFACE Y 
LAT         .                                        27.9055609 :LATITUDE  
LON         .                                       -96.8388291 :LONGITUDE 
ELEV        .FT                                              25 :ELEVATION VALUE
ELEV_TYPE   .                                                KB :ELEVATION REFERENCE TYPE
~Curve Information Section
#MNEM       .UNIT                                      API CODE :CURVE DESCRIPTION
#------------------------------------------------------------------------------
DEPT        .FT                                                 :DEPTH     
ASN         .OHMM                                               :          
CILD        .MMHO                                               :          
ILD         .OHMM                                               :          
SP          .MV                                                 :          
SP_NORM     .MV                                                 :SP Normalized
VSH_SP      .V/V                                                :Volume of Shale from SP
~A        DEPTH            ASN           CILD            ILD             SP        SP_NORM         VSH_SP
# ...
      2718.0000         1.4671       784.9414         1.0339       -42.2134        -9.6399      0.8180976
      2718.5000         1.4702       796.3086         0.9667       -42.2834        -9.7078      0.8164809
      2719.0000         1.4712       868.6172         0.8731       -44.2375       -11.6598      0.7700047
      2719.5000         1.4321       1144.865         0.7769       -48.7569        -16.177      0.6624524
      2720.0000         1.3295       1207.143          0.708       -60.7466       -28.1646      0.3770333
      2720.5000         1.2758       1279.625         0.6391       -68.4583       -35.8742      0.1934715
      2721.0000         1.2129       1352.133          0.592       -69.9292       -37.3429      0.1585024
      2721.5000         1.1779       1424.615          0.557       -71.2303       -38.6419      0.1275738
      2722.0000         1.1581       1508.521          0.522        -72.392       -39.8015     0.09996432
      2722.5000         1.1408       1580.084         0.5007       -73.4471       -40.8545     0.07489286
      2723.0000         1.1233       1626.121         0.4859       -74.1826       -41.5878     0.05743336
      2723.5000         1.1206        1663.32         0.4712       -74.9181       -42.3212      0.0399714
      2724.0000         1.1293       1689.082         0.4564       -74.3031       -41.7041     0.05466425
      2724.5000         1.1379       1660.525         0.4472       -73.2896       -40.6885     0.07884525
      2725.0000         1.1426       1625.973         0.4386       -72.2755       -39.6722      0.1030429
      2725.5000         1.1321       1591.432           0.43       -72.1417       -39.5363      0.1062786
      2726.0000         1.1153       1556.879         0.4214        -72.179       -39.5715      0.1054405
      2726.5000         1.0985       1588.727          0.419       -72.2543       -39.6446         0.1037
      2727.0000         1.0816       1702.305          0.419       -72.3502       -39.7384      0.1014667
      2727.5000         1.0648       1785.043          0.419        -72.446       -39.8321     0.09923571
      2728.0000         1.0394       1867.781          0.419        -72.542        -39.926     0.09700003
      2728.5000         0.9983       1931.945         0.4216       -69.4044       -36.7862      0.1717571
      2729.0000         0.9541       1984.264         0.4293       -66.3342       -33.7139      0.2449071
      2729.5000         0.9533       2036.559         0.4371       -62.3178       -29.6954      0.3405857
      2730.0000         0.9642       1945.752         0.4449       -47.8207       -15.1962      0.6858047
      2730.5000         0.9866       1851.393         0.4746       -43.3647        -10.738      0.7919524
      2731.0000         1.0119       1607.301         0.5122       -41.6292        -9.0004      0.8333238
      2731.5000         1.0322       1518.404         0.5498        -41.528        -8.8971      0.8357833
      2732.0000         1.0479       1423.299         0.5875       -41.6292        -8.9961      0.8334262
      2732.5000         1.0647       1258.395         0.6273       -41.7303        -9.0951      0.8310691
      2733.0000         1.0943       1189.389         0.6679       -42.1517        -9.5144      0.8210858
      2733.5000         1.1152       1143.004         0.7086       -42.7275       -10.0881      0.8074262
      2734.0000         1.1287       1113.268         0.7447       -43.5888       -10.9472      0.7869714
      2734.5000          1.131       1146.814         0.7246       -44.7075       -12.0638      0.7603857
      2735.0000         1.1323       1180.361         0.7045       -45.8934       -13.2476         0.7322
      2735.5000         1.1319       1213.908         0.6844       -49.0594       -16.4114      0.6568714
      2736.0000         1.1315       1256.086         0.6584       -52.0052       -19.3551      0.5867833
      2736.5000          1.131        1302.42          0.619       -54.5059       -21.8537      0.5272928
      2737.0000         1.1286       1348.756         0.5796       -56.1991       -23.5448      0.4870286
      2737.5000         1.1249       1466.209         0.5402       -57.8456       -25.1891      0.4478786
      2738.0000         1.1212       1540.801           0.52        -58.785       -26.1264      0.4255619
      2738.5000         1.1174       1598.285         0.5348       -59.7241       -27.0634      0.4032524
      2739.0000         1.1137       1631.547         0.5496       -59.5015       -26.8386      0.4086048
      2739.5000         1.1293       1646.781         0.5644       -55.5872       -22.9222      0.5018524
      2740.0000         1.1887       1550.834         0.5791       -51.6753       -19.0082      0.5950429
      2740.5000         1.2235       1447.039         0.5939       -50.1078       -17.4386      0.6324143
      2741.0000         1.2258       1384.811         0.6062       -51.8016       -19.1302      0.5921381
      2741.5000         1.2165       1322.559         0.6041       -55.5249       -22.8514      0.5035381
      2742.0000         1.2073       1270.736          0.602       -59.9572       -27.2816      0.3980571
      2742.5000         1.1955       1304.506         0.5999       -63.1719       -30.4942      0.3215667
      2743.0000         1.1691       1403.236         0.5911       -65.7205       -33.0406      0.2609381
      2743.5000         1.1377       1517.162         0.5702       -69.5315       -36.8495        0.17025
      2744.0000          1.108       1601.391         0.5493       -72.5177       -39.8336     0.09920003
      2744.5000         1.0917       1636.949         0.5284       -73.6942       -41.0079     0.07124047
      2745.0000         1.0738       1647.775         0.5075       -74.6239       -41.9355     0.04915474
      2745.5000         1.0556        1660.16          0.488       -75.1393       -42.4488     0.03693336
      2746.0000         1.0434       1674.594          0.474       -75.4871       -42.7945     0.02870242
      2746.5000         1.0255       1691.752         0.4599        -75.835       -43.1402     0.02047139
      2747.0000         0.9986       1717.973         0.4459       -75.9639        -43.267     0.01745242
      2747.5000         0.9704       1744.184         0.4318       -76.0828       -43.3838     0.01467142
      2748.0000         0.9467       1787.078         0.4178       -76.2018       -43.5006      0.0118905
      2748.5000         0.9343       1840.045         0.4053       -76.2869       -43.5836    0.009914307
      2749.0000         0.9218       1908.107         0.3981       -76.3478       -43.6424    0.008514313
      2749.5000         0.9107        2001.92         0.3908       -76.4087       -43.7012     0.00711432
      2750.0000         0.9063       2069.336         0.3836       -76.4696       -43.7599    0.005716687
      2750.5000          0.902       2102.461         0.3764       -76.6436       -43.9318    0.001623789
      2751.0000         0.9088       2110.406         0.3691       -76.8894       -44.1755              0
      2751.5000         0.9186       2078.523         0.3619       -77.1351       -44.4191              0
      2752.0000         0.9258       2046.641         0.3551       -76.8574       -44.1392              0
      2752.5000         0.9281       2036.178         0.3545       -76.4919       -43.7716    0.005438123
      2753.0000         0.9303       2034.723         0.3539       -76.3352       -43.6128    0.009219034
      2753.5000         0.9309       2047.621         0.3533       -76.1783       -43.4537     0.01300712
      2754.0000         0.9301        2060.52         0.3528       -76.0216       -43.2949     0.01678812
      2754.5000         0.9293       2073.422         0.3522       -75.8649       -43.1361     0.02056903
      2755.0000          0.929       2088.617         0.3516       -75.7628       -43.0319     0.02305004
      2755.5000         0.9291       2103.828         0.3529       -75.8463       -43.1132     0.02111426
