#------------------------------------------------------------------------------
# Created by    : vladimir.rabinovich
# Created on    : 09/19/2023 17:22:17
#------------------------------------------------------------------------------
~Version Information Section
VERS.           2.0     :   CWLS log ASCII Standard - VERSION 2.0
WRAP.           NO      :   One line per depth step
~Well Information Section
#MNEM       .UNIT                                         VALUE :DESCRIPTION
#------------------------------------------------------------------------------
STRT        .FT                                             996 :START DEPTH
STOP        .FT                                            8436 :STOP DEPTH
STEP        .FT                                             0.5 :STEP      
NULL        .                                           -999.25 :NULL      
COMP        .                                    TDC ENERGY LLC :COMPANY   
WELL        .                               OCS G03738 ST00BP00 :WELL      
FLD         .                              GALVESTON BLOCK 0255 :FIELD     
LOC         .                                                   :LOCATION  
CNTY        .                             GALVESTON LARGE BLOCK :LOCATION  
STAT        .                                             TEXAS :STATE     
CTRY        .                                     UNITED STATES :COUNTRY   
SRVC        .                                                   :SERVICE COMPANY
DATE        .                             9/13/2023 11:18:53 AM :LOG DATE  
API         .                                    42706400460000 :API NUMBER
UWI         .                                    42706400460000 :UNIQUE WELL ID
XCOORD      .                                   1080542.6436948 :SURFACE X 
YCOORD      .                                  10548065.2081286 :SURFACE Y 
LAT         .                                        29.0539695 :LATITUDE  
LON         .                                       -94.7527854 :LONGITUDE 
ELEV        .FT                                              94 :ELEVATION VALUE
ELEV_TYPE   .                                                KB :ELEVATION REFERENCE TYPE
~Curve Information Section
#MNEM       .UNIT                                      API CODE :CURVE DESCRIPTION
#------------------------------------------------------------------------------
DEPT        .FT                                                 :DEPTH     
CALI        .IN                                                 :          
CILD        .MMHO                                               :          
DT          .US/F                                               :          
GR          .GAPI                                               :          
GR_NORM     .GAPI                                               :GammaRay Normalized
ILD         .OHMM                                               :          
ILM         .OHMM                                               :          
RHOB        .G/C3                                               :          
SFL         .OHMM                                               :          
SP          .MV                                                 :          
SP_NORM     .MV                                                 :SP Normalized
VSH_GR      .V/V                                                :Volume of Shale from GR
VSH_SP      .V/V                                                :Volume of Shale from SP
~A        DEPTH           CALI           CILD             DT             GR        GR_NORM            ILD            ILM           RHOB            SFL             SP        SP_NORM         VSH_GR         VSH_SP
# ...
      1984.0000        12.6255       1592.734       156.7073        47.4756        58.6027         0.6077        -999.25         1.9751         0.9946       -67.2803      -12.90621      0.5447384       0.569793
      1984.5000        12.5748       1643.344       156.1711        46.5112       57.17901         0.5846        -999.25         1.9576         1.0345       -70.2021      -15.83065       0.514447      0.4723115
      1985.0000        12.7706       1687.547       155.5574        46.6255       57.34488         0.5684        -999.25         1.9348         1.0422       -71.7944      -17.42559      0.5179762       0.419147
      1985.5000        13.1729       1729.953       154.9563        48.4419         60.019         0.5558        -999.25          1.927         1.0186        -71.751      -17.38482      0.5748723      0.4205059
      1986.0000        13.4845       1768.625       154.3813        50.2637       62.70107         0.5446        -999.25         1.9377         0.9783       -69.6621      -15.29856      0.6319377      0.4900478
      1986.5000          12.75       1805.922       153.9641        51.6318       64.71459         0.5363        -999.25         1.9584          0.922       -68.3481       -13.9872      0.6747786      0.5337601
      1987.0000        12.4497       1833.117       153.7449        52.8511       66.50879         0.5315        -999.25         2.0055         0.8407       -68.1133      -13.75503       0.712953       0.541499
      1987.5000        12.5859       1859.438       153.7629        53.0971       66.86876         0.5307        -999.25         2.0271         0.8006       -69.0164      -14.66078      0.7206119      0.5113074
      1988.0000        12.9996       1867.334       153.8838        53.0139       66.74361         0.5339        -999.25         2.0436         0.8077       -69.4436      -15.09061      0.7179492      0.4969795
      1988.5000        12.7284       1849.641       153.3674        52.8033        66.4307         0.5394        -999.25         2.0608         0.8157       -66.7676      -12.41725      0.7112916      0.5860918
      1989.0000        12.4625       1821.813       152.6121        52.5928       66.11796         0.5485        -999.25         2.0799         0.8133       -62.0977      -7.749985      0.7046374      0.7416672
      1989.5000        12.3888       1778.531       151.7473        53.9121       68.05955         0.5623        -999.25         2.1013         0.8269        -58.709      -4.363922      0.7459478      0.8545359
      1990.0000        12.2258       1725.516       150.8918        55.4473       70.31927         0.5775        -999.25         2.1105         0.8516       -57.7458      -3.403362      0.7940271      0.8865546
      1990.5000        12.0839       1683.391       150.1277        57.0115       72.62176         0.5918        -999.25         2.0865         0.8763       -57.6996      -3.359798      0.8430161      0.8880067
      1991.0000        12.0708       1645.422       149.9556        58.1523        74.3003         0.6022        -999.25         2.0653         0.8958       -57.7454      -3.408234      0.8787298      0.8863922
      1991.5000        12.1001       1604.016       150.6621        59.0308       75.59232         0.6117        -999.25         2.0531         0.8752       -57.2163      -2.881775      0.9062197      0.9039409
      1992.0000         12.144       1578.211       151.3689        59.5867       76.40895         0.6171        -999.25         2.0381          0.848       -56.6423       -2.31041      0.9235947      0.9229863
      1992.5000        12.0677       1576.438       152.0959        60.1426       77.22558         0.6221        -999.25         2.0249         0.8208       -55.9805      -1.651245      0.9409698      0.9449585
      1993.0000        11.9914       1577.408            154        60.4279       77.64344         0.6269        -999.25         2.0208         0.7986       -55.2461      -0.919487      0.9498605      0.9693505
      1993.5000        12.0267       1570.172       155.6069        60.1838       77.28118         0.6321        -999.25         2.0261         0.7828       -54.6443     -0.3203201      0.9421528      0.9893227
      1994.0000        12.1263       1559.184       156.6299        59.6218       76.45047         0.6375        -999.25         2.0236         0.7894       -54.5234     -0.2020569      0.9244781      0.9932648
      1994.5000        12.2642       1548.172       154.9736        58.4775       74.76167         0.6429        -999.25         2.0066         0.8347        -55.313      -0.994297       0.888546      0.9668568
      1995.0000        12.4563       1536.852       152.4653        57.0508       72.65672         0.6483        -999.25          1.997         0.8699       -55.5273      -1.211235      0.8437599      0.9596255
      1995.5000        12.7153       1525.453       151.0347        56.6954       72.13044         0.6537        -999.25         1.9878         0.8542        -55.082     -0.7685738      0.8325626      0.9743809
      1996.0000         13.116       1516.578       151.2397        56.9602        72.5181         0.6566        -999.25         1.9799         0.8373       -53.8428      0.4679909      0.8408106              1
      1996.5000        13.3004       1511.072       151.9873        57.3339       73.06624         0.6574        -999.25         1.9691         0.8198       -53.5122      0.7959557      0.8524731              1
      1997.0000        13.1203       1510.594       152.8479        57.7086       73.61585          0.653        -999.25         1.9659         0.8016       -53.1816       1.123917      0.8641671              1
      1997.5000        13.1517       1520.809       153.4094         56.938       72.47773         0.6454        -999.25         1.9569         0.7819       -53.3735      0.9293785      0.8399517              1
      1998.0000        13.3154        1539.57       153.7363        53.3555       67.19598         0.6353        -999.25          1.931         0.7788       -55.2119     -0.9116554       0.727574      0.9696115
      1998.5000        13.6107       1565.391       153.5581        49.0254       60.81253         0.6229        -999.25         1.9138         0.8061       -58.4121      -4.114498       0.591756      0.8628501
      1999.0000        14.0715       1603.469       152.9258        46.8557       57.61269         0.6077        -999.25          1.901         0.8529       -60.9849      -6.689934      0.5236742      0.7770022
      1999.5000        14.4396       1641.984       152.6155         46.241       56.70432         0.5911        -999.25         1.9043         0.8974        -62.625      -8.332668      0.5043471      0.7222444
      2000.0000        14.2312       1680.938       154.3496        46.1176       56.51991         0.5735        -999.25         1.9107         0.9127       -65.0215      -10.73181      0.5004237      0.6422731
      2000.5000        13.4521       1719.469       157.2515        45.9942       56.33552         0.5591        -999.25         1.9207         0.9285       -67.5078      -13.22074      0.4965004      0.5593086
      2001.0000        13.1593       1758.047       158.4148        45.8734       56.15496         0.5471        -999.25         1.8885         0.9451       -70.5166      -16.23219      0.4926586      0.4589272
      2001.5000        13.2748       1791.531        157.335        45.7604       55.98589         0.5439        -999.25         1.8439         0.9618       -72.6509      -18.36912      0.4890614      0.3876959
      2002.0000        13.5012       1808.789       156.1421        45.3291       55.34777         0.5416        -999.25         1.8508         0.9729       -73.8616      -19.58246      0.4754844      0.3472514
      2002.5000        13.6028       1821.152       155.0039        44.7295       54.46164         0.5402        -999.25         1.9034         0.9818       -74.3527      -20.07619      0.4566306      0.3307935
