#------------------------------------------------------------------------------
# Created by    : vladimir.rabinovich
# Created on    : 09/19/2023 17:22:17
#------------------------------------------------------------------------------
~Version Information Section
VERS.           2.0     :   CWLS log ASCII Standard - VERSION 2.0
WRAP.           NO      :   One line per depth step
~Well Information Section
#MNEM       .UNIT                                         VALUE :DESCRIPTION
#------------------------------------------------------------------------------
STRT        .FT                                            2222 :START DEPTH
STOP        .FT                                            8603 :STOP DEPTH
STEP        .FT                                             0.5 :STEP      
NULL        .                                           -999.25 :NULL      
COMP        .                                    HRUBETZ OIL CO :COMPANY   
WELL        .                                     ST TR 00028-L :WELL      
FLD         .                                           WILDCAT :FIELD     
LOC         .                                                   :LOCATION  
CNTY        .                           HIGH ISLAND LARGE BLOCK :LOCATION  
STAT        .                                             TEXAS :STATE     
CTRY        .                                     UNITED STATES :COUNTRY   
SRVC        .                                                   :SERVICE COMPANY
DATE        .                             9/13/2023 11:19:15 AM :LOG DATE  
API         .                                    42708303040000 :API NUMBER
UWI         .                                    42708303040000 :UNIQUE WELL ID
XCOORD      .                                  1211101.11829014 :SURFACE X 
YCOORD      .                                  10709910.5532953 :SURFACE Y 
LAT         .                                         29.503814 :LATITUDE  
LON         .                                       -94.3499952 :LONGITUDE 
ELEV        .FT                                              60 :ELEVATION VALUE
ELEV_TYPE   .                                                KB :ELEVATION REFERENCE TYPE
~Curve Information Section
#MNEM       .UNIT                                      API CODE :CURVE DESCRIPTION
#------------------------------------------------------------------------------
DEPT        .FT                                                 :DEPTH     
CALI        .IN                                                 :          
GR          .GAPI                                               :          
GR_NORM     .GAPI                                               :GammaRay Normalized
ILD         .OHMM                                               :          
ILM         .OHMM                                               :          
RHOB        .G/C3                                               :          
SFL         .OHMM                                               :          
SP          .MV                                                 :          
SP_NORM     .MV                                                 :SP Normalized
VSH_GR      .V/V                                                :Volume of Shale from GR
VSH_SP      .V/V                                                :Volume of Shale from SP
~A        DEPTH           CALI             GR        GR_NORM            ILD            ILM           RHOB            SFL             SP        SP_NORM         VSH_GR         VSH_SP
# ...
      3077.0000        16.2734        60.0418       70.43931         0.7593         0.7761         2.1699         1.1229       -93.2383      -7.995872       0.796581      0.8667355
      3077.5000        16.2743        58.5414       68.44435         0.7592         0.7807         2.1793         1.1216       -94.2007      -8.962196      0.7541351        0.85063
      3078.0000        16.2752        59.8149        70.1381          0.759         0.7704         2.1864         1.1204       -95.1632      -9.928619      0.7901723       0.834523
      3078.5000        16.2762        61.0884       71.83183         0.7588         0.7602         2.1858         1.1179       -96.1534      -10.92274      0.8262092      0.8179544
      3079.0000        16.2771        60.8143       71.46758         0.7421         0.7501         2.1849         1.1149       -97.2408      -12.01406      0.8184592      0.7997656
      3079.5000        16.2781         60.329       70.82249         0.7249         0.7368         2.1839          1.112       -98.3276      -13.10477      0.8047338      0.7815871
      3080.0000        16.2782        59.9668        70.3411         0.7033         0.7109         2.1883         1.1128       -98.4254       -13.2065      0.7944915      0.7798917
      3080.5000         16.278        59.6327       69.89707         0.6763          0.686         2.2002         1.1148       -97.7898      -12.57482      0.7850441      0.7904196
      3081.0000        16.2777        59.2988       69.45332         0.6504         0.6619         2.2081           1.13       -96.5309      -11.31984      0.7756026       0.811336
      3081.5000        16.2774        59.0468       69.11846         0.6258         0.6333         2.2064         1.1456       -95.2729      -10.06577      0.7684779      0.8322372
      3082.0000        16.2771        58.8223       68.82018          0.604         0.6055         2.1948         1.1547       -94.7089      -9.505676      0.7621314       0.841572
      3082.5000        16.2769        59.3947        69.5816         0.5829          0.579         2.1888         1.1599       -94.8307      -9.631401       0.778332      0.8394766
      3083.0000        16.2828        59.9775       70.35686         0.5626         0.5584         2.1866         1.1563       -95.2386      -10.04322      0.7948269       0.832613
      3083.5000        16.2926        59.5926       69.84529           0.55         0.5433         2.1992         1.1731        -95.917      -10.72554      0.7839423       0.821241
      3084.0000        16.3025        59.0416       69.11284         0.5412         0.5286         2.2118         1.2272       -96.5953      -11.40776      0.7683583      0.8098707
      3084.5000        16.3123        61.0714       71.81228         0.5325          0.526         2.2233         1.2207       -96.7271      -11.54347      0.8257931      0.8076088
      3085.0000        16.3221         63.522       75.07131         0.5241         0.5259         2.2321         1.2642       -96.6707        -11.491      0.8951343      0.8084834
      3085.5000        16.3319        62.5204       73.73967         0.5325         0.5258         2.2235         1.3578       -96.3068      -11.13102      0.8668015       0.814483
      3086.0000        16.3362        56.8117       66.14856         0.5411         0.5309         2.1912         1.4515       -95.6412      -10.46934      0.7052885       0.825511
      3086.5000         16.333        53.3267        61.5145         0.5498         0.5383         2.1519         1.2934       -94.5122      -9.344261      0.6066915      0.8442623
      3087.0000        16.3299        55.0417       63.79535         0.5587         0.5457         2.1096         1.1524       -91.4049      -6.240875      0.6552201      0.8959854
      3087.5000        16.3267        56.7568       66.07632         0.5736          0.554         2.0675          1.029       -88.2678      -3.107697      0.7037514      0.9482051
      3088.0000        16.3236        58.4707       68.35569          0.591         0.5753         2.0488         0.9517       -86.4738      -1.317619      0.7522487      0.9780397
      3088.5000        16.3204        60.5468       71.11672         0.6089         0.5974         2.0524          0.933       -84.8691      0.2831573      0.8109941              1
      3089.0000        16.3148        62.0444       73.10847         0.6274         0.6204         2.0673         0.9559       -83.8851       1.263237      0.8533716              1
      3089.5000        16.3091        62.2363       73.36391         0.6465         0.6471         2.0804         0.9896       -82.9784       2.166016      0.8588066              1
      3090.0000        16.3035        61.9072       72.92654         0.6628         0.6761         2.0922         1.0245       -82.7582       2.382301      0.8495008              1
      3090.5000        16.2978        61.3711       72.21389         0.6787         0.7054          2.104         1.0555       -82.5378       2.598778      0.8343381              1
      3091.0000        16.2944         60.835       71.50125         0.6949         0.7355         2.1121         1.0837       -82.3176       2.815063      0.8191755              1
      3091.5000        16.2922        60.1357       70.57159         0.7115         0.7591         2.1161         1.1126       -82.5714       2.557335      0.7993956              1
      3092.0000          16.29        59.2709       69.42184         0.7288          0.779         2.1362          1.126       -82.8403       2.284515      0.7749329              1
      3092.5000        16.2878         58.406       68.27196         0.7468         0.7897         2.1523         1.1362       -83.1093       2.011604      0.7504672              1
      3093.0000        16.2838        57.8297       67.50585         0.7652         0.8006         2.1656         1.1433       -83.3782       1.738785       0.734167              1
      3093.5000        16.2785        57.2652       66.75546         0.7676         0.7998         2.1673          1.147         -84.37      0.7430573      0.7182012              1
      3094.0000        16.2732        56.5482       65.80225         0.7634          0.797         2.1687         1.1494       -85.3695     -0.2603607      0.6979201      0.9956607
      3094.5000        16.2679        52.4429       60.34333         0.7592         0.7943         2.1628         1.1484       -86.3685      -1.263283       0.581773      0.9789453
      3095.0000        16.2626        52.7081       60.69624         0.7506         0.7704          2.156         1.1322       -88.0675      -2.966194      0.5892818      0.9505634
      3095.5000        16.2606        52.7905       60.80607         0.7308         0.7365         2.1782         1.1279       -90.5852      -5.487816      0.5916185      0.9085364
      3096.0000        16.2588        52.8729        60.9159         0.7117         0.7237         2.2003         1.1277       -93.1047      -8.011238      0.5939553      0.8664793
      3096.5000         16.257        51.1749       58.65818         0.6907         0.7113         2.2226         1.1645       -95.9207      -10.83116      0.5459188      0.8194807
      3097.0000        16.2552        49.5074       56.44102         0.6667          0.699         2.2434         1.1956       -98.7402      -13.65458      0.4987451      0.7724237
      3097.5000        16.2534        48.2364       54.75111         0.6437         0.6936         2.2464         1.2117      -101.3568      -16.27509      0.4627896      0.7287484
      3098.0000        16.2527        49.1512       55.96785         0.6214         0.6892         2.2493         1.2518      -103.9276      -18.84982      0.4886777      0.6858364
      3098.5000        16.2524        49.3432       56.22344         0.6119         0.6848         2.2475         1.2943      -107.0656      -21.99174      0.4941157      0.6334711
      3099.0000        16.2521        49.0493       55.83287         0.6032         0.6802         2.2455         1.3148      -109.3914      -24.32146      0.4858057      0.5946423
