#------------------------------------------------------------------------------
# Created by    : vladimir.rabinovich
# Created on    : 09/19/2023 17:22:53
#------------------------------------------------------------------------------
~Version Information Section
VERS.           2.0     :   CWLS log ASCII Standard - VERSION 2.0
WRAP.           NO      :   One line per depth step
~Well Information Section
#MNEM       .UNIT                                         VALUE :DESCRIPTION
#------------------------------------------------------------------------------
STRT        .FT                                             252 :START DEPTH
STOP        .FT                                           11321 :STOP DEPTH
STEP        .FT                                             0.5 :STEP      
NULL        .                                           -999.25 :NULL      
COMP        .                          HUMBLE OIL & REFINING CO :COMPANY   
WELL        .                                OCS 00615 ST00BP00 :WELL      
FLD         .                                           WILDCAT :FIELD     
LOC         .                                                   :LOCATION  
CNTY        .                             GALVESTON LARGE BLOCK :LOCATION  
STAT        .                                             TEXAS :STATE     
CTRY        .                                     UNITED STATES :COUNTRY   
SRVC        .                                                   :SERVICE COMPANY
DATE        .                             9/13/2023 11:19:42 AM :LOG DATE  
API         .                                    42706000270000 :API NUMBER
UWI         .                                    42706000270000 :UNIQUE WELL ID
XCOORD      .                                  1043929.24471964 :SURFACE X 
YCOORD      .                                  10527500.2798036 :SURFACE Y 
LAT         .                                         28.995876 :LATITUDE  
LON         .                                        -94.866344 :LONGITUDE 
ELEV        .FT                                              67 :ELEVATION VALUE
ELEV_TYPE   .                                                KB :ELEVATION REFERENCE TYPE
~Curve Information Section
#MNEM       .UNIT                                      API CODE :CURVE DESCRIPTION
#------------------------------------------------------------------------------
DEPT        .FT                                                 :DEPTH     
LAT         .OHMM                                               :          
LN          .OHMM                                               :          
SN          .OHMM                                               :          
SP          .MV                                                 :          
SP_NORM     .MV                                                 :SP Normalized
VSH_SP      .V/V                                                :Volume of Shale from SP
~A        DEPTH            LAT             LN             SN             SP        SP_NORM         VSH_SP
# ...
      6142.0000         0.4728         0.6272         0.6155       -82.9941        -6.7603      0.9251909
      6142.5000         0.4791          0.629          0.609       -84.4316      -8.217628      0.9062645
      6143.0000         0.4854         0.6309         0.6025       -85.5723      -9.378166      0.8911927
      6143.5000         0.4917         0.6327         0.5962       -86.7139       -10.5396      0.8761091
      6144.0000          0.498         0.6308          0.591       -91.2109      -15.05643      0.8174489
      6144.5000         0.5042         0.6278         0.5859         -95.75      -19.61537       0.758242
      6145.0000         0.5017         0.6247         0.5807       -97.4551      -21.34031      0.7358401
      6145.5000         0.4908         0.6217         0.5781       -99.5898      -23.49484      0.7078592
      6146.0000         0.4799         0.6196         0.5764       -95.8242      -19.74908      0.7565055
      6146.5000          0.469         0.6224         0.5861       -90.8437      -14.78841      0.8209298
      6147.0000         0.4815         0.6251         0.5997       -85.3125      -9.277046      0.8925059
      6147.5000         0.4966         0.6279         0.6124       -79.7266      -3.710983      0.9647924
      6148.0000         0.5117         0.6306         0.6251       -75.2148       0.780983              1
      6148.5000         0.5268         0.6334         0.6378       -72.7305       3.245445              1
      6149.0000         0.5392         0.6361         0.6506       -70.8105       5.145607              1
      6149.5000         0.5462         0.6389         0.6602       -69.1875       6.748779              1
      6150.0000         0.5533         0.6416         0.6675       -70.3281       5.588341              1
      6150.5000         0.5603         0.6485         0.6749       -71.6973       4.199303              1
      6151.0000         0.5674         0.6556         0.6791       -72.1841       3.692673              1
      6151.5000         0.5719         0.6627         0.6811       -71.6099       4.247032              1
      6152.0000         0.5622         0.6697         0.6831       -71.0361       4.800995              1
      6152.5000         0.5525         0.6768         0.6851       -70.4619       5.355362              1
      6153.0000         0.5428         0.6798         0.6846       -69.8882       5.909233              1
      6153.5000         0.5331         0.6818         0.6835       -69.8165       5.961098              1
      6154.0000         0.5234         0.6837         0.6824       -69.7942       5.963562              1
      6154.5000         0.5137         0.6857         0.6812       -69.7719       5.966026              1
      6155.0000         0.5033         0.6876         0.6801       -69.9766       5.741486              1
      6155.5000         0.4877         0.6895          0.679       -71.8984        3.79985              1
      6156.0000          0.472         0.6915         0.6778       -73.6533       2.025116              1
      6156.5000         0.4564         0.6934         0.6767       -74.8994      0.7591858              1
      6157.0000         0.4551         0.6954         0.6756       -75.3467      0.2920456              1
      6157.5000         0.4552         0.6973         0.6744       -74.6182        1.00071              1
      6158.0000         0.4576         0.6993         0.6733       -73.9082       1.698143              1
      6158.5000         0.4774         0.7012         0.6726       -73.1973       2.402718              1
      6159.0000         0.4973         0.7029         0.6742       -72.4863       3.107391              1
      6159.5000         0.5171         0.7047         0.6758       -71.7754       3.811966              1
      6160.0000         0.5369         0.7064         0.6773       -71.0645       4.516533              1
      6160.5000          0.549         0.7082         0.6789       -70.5498        5.02491              1
      6161.0000         0.5474          0.709         0.6805       -71.5537       4.014671              1
      6161.5000          0.548         0.7091         0.6821       -72.2773       3.284752              1
      6162.0000         0.5595         0.7092         0.6836       -72.8721       2.683617              1
      6162.5000         0.5711         0.7093         0.6872       -73.4673       2.082092              1
      6163.0000         0.5826         0.7094         0.6913        -74.062       1.481064              1
      6163.5000         0.5829         0.7102         0.6954       -74.6572      0.8795319              1
      6164.0000          0.565         0.7112         0.6995       -74.5903      0.9401016              1
      6164.5000         0.5492         0.7121         0.7032       -74.1377       1.386375              1
      6165.0000         0.5433         0.7131         0.7069       -73.6855       1.832245              1
      6165.5000         0.5373         0.7144         0.7106       -73.2664       2.245018              1
      6166.0000         0.5314         0.7159         0.7141       -72.9404        2.56469              1
      6166.5000         0.5255         0.7174         0.7163       -72.6145       2.884262              1
      6167.0000         0.5196         0.7188         0.7185       -72.2886       3.203835              1
      6167.5000         0.5161         0.7203         0.7207       -71.9626       3.523499              1
      6168.0000         0.5134         0.7218         0.7223        -71.637       3.842773              1
      6168.5000         0.5138         0.7232         0.7236       -72.0933       3.380142              1
      6169.0000           0.53         0.7246          0.725       -72.6299       2.837219              1
      6169.5000         0.5463          0.726         0.7263        -73.167       2.293785              1
      6170.0000         0.5625         0.7274         0.7277       -73.7041       1.750359              1
      6170.5000          0.561         0.7288          0.729       -74.2412       1.206924              1
      6171.0000         0.5471         0.7299         0.7319       -74.7783      0.6635056              1
      6171.5000         0.5365         0.7309         0.7348       -75.3872     0.04827118              1
      6172.0000         0.5267         0.7319         0.7377       -76.0356     -0.6064529              1
      6172.5000         0.5319         0.7329         0.7406        -76.333     -0.9101868              1
      6173.0000          0.548         0.7332         0.7434       -75.3496      0.0668869              1
      6173.5000         0.5642         0.7333          0.747       -74.3662       1.043953              1
      6174.0000         0.5804         0.7334         0.7507       -73.3828       2.021034              1
      6174.5000         0.5966          0.725         0.7544       -72.3994         2.9981              1
      6175.0000         0.6054         0.7144         0.7581        -71.416       3.975174              1
      6175.5000         0.6037         0.7046         0.7564       -70.4326        4.95224              1
      6176.0000         0.6021         0.6952         0.7534       -70.0824        5.29612              1
      6176.5000         0.6004         0.6857         0.7503       -70.0713       5.300888              1
      6177.0000         0.5977         0.6866         0.7485       -70.7549       4.610962              1
      6177.5000         0.5907         0.6908         0.7486       -71.4395       3.920029              1
      6178.0000         0.5838         0.6949         0.7487       -72.2031       3.150101              1
      6178.5000         0.5769          0.699         0.7488       -73.5762       1.770668              1
      6179.0000         0.5755         0.7031         0.7489       -74.9492      0.3913422              1
      6179.5000         0.5775         0.7099          0.749       -76.4414      -1.107185       0.998608
