#------------------------------------------------------------------------------
# Created by    : vladimir.rabinovich
# Created on    : 09/19/2023 17:20:09
#------------------------------------------------------------------------------
~Version Information Section
VERS.           2.0     :   CWLS log ASCII Standard - VERSION 2.0
WRAP.           NO      :   One line per depth step
~Well Information Section
#MNEM       .UNIT                                         VALUE :DESCRIPTION
#------------------------------------------------------------------------------
STRT        .FT                                             880 :START DEPTH
STOP        .FT                                           10998 :STOP DEPTH
STEP        .FT                                             0.5 :STEP      
NULL        .                                           -999.25 :NULL      
COMP        .                        HUGHES TEXAS PETROLEUM LTD :COMPANY   
WELL        .                                ST TR 00564-L NE/4 :WELL      
FLD         .                       MATAGORDA ISLAND BLOCK 0565 :FIELD     
LOC         .                                                   :LOCATION  
CNTY        .                      MATAGORDA ISLAND LARGE BLOCK :LOCATION  
STAT        .                                             TEXAS :STATE     
CTRY        .                                     UNITED STATES :COUNTRY   
SRVC        .                                                   :SERVICE COMPANY
DATE        .                             9/13/2023 11:12:01 AM :LOG DATE  
API         .                                    42703303560000 :API NUMBER
UWI         .                                    42703303560000 :UNIQUE WELL ID
XCOORD      .                                  580856.659723482 :SURFACE X 
YCOORD      .                                  10268633.8274002 :SURFACE Y 
LAT         .                                         28.256926 :LATITUDE  
LON         .                                       -96.2914173 :LONGITUDE 
ELEV        .FT                                              25 :ELEVATION VALUE
ELEV_TYPE   .                                                KB :ELEVATION REFERENCE TYPE
~Curve Information Section
#MNEM       .UNIT                                      API CODE :CURVE DESCRIPTION
#------------------------------------------------------------------------------
DEPT        .FT                                                 :DEPTH     
ASFL        .OHMM                                               :          
GR          .GAPI                                               :          
GR_NORM     .GAPI                                               :GammaRay Normalized
ILD         .OHMM                                               :          
SP          .MV                                                 :          
SP_NORM     .MV                                                 :SP Normalized
VSH_GR      .V/V                                                :Volume of Shale from GR
VSH_SP      .V/V                                                :Volume of Shale from SP
~A        DEPTH           ASFL             GR        GR_NORM            ILD             SP        SP_NORM         VSH_GR         VSH_SP
# ...
      9641.5000         0.9245         45.493       59.13579         0.7217       -51.0181      -9.101933      0.5560807      0.8499642
      9642.0000         0.9718        43.0822       54.65987         0.7497       -52.3241      -10.40793      0.4608483       0.825779
      9642.5000         1.0125        47.8367       63.48715         0.7772       -50.9174      -9.001232      0.6486627      0.8518291
      9643.0000         1.0781        53.6312        74.2453         0.7887        -48.751      -6.834831      0.8775596      0.8919476
      9643.5000         0.8612        55.4429       77.60894         0.7736       -48.0609      -6.144733      0.9491264      0.9047272
      9644.0000          0.802        57.0485        80.5899         0.7585       -47.3851      -5.468933              1       0.917242
      9644.5000         0.7614        58.4959       83.27717         0.7261       -46.6686       -4.75243              1      0.9305106
      9645.0000         0.7339        59.6965        85.5062           0.68       -45.8094       -3.89323              1      0.9464217
      9645.5000          0.711        60.8073       87.56852         0.6339       -44.1284      -2.212231              1      0.9775513
      9646.0000         0.6895        61.3476       88.57167         0.5878       -44.0522      -2.136032              1      0.9789624
      9646.5000         0.6739        59.4568        85.0612         0.5653       -44.7946      -2.878433              1      0.9652142
      9647.0000         0.6764        57.5062       81.43967         0.5474       -45.8658      -3.949631              1      0.9453772
      9647.5000          0.679        55.5507       77.80907         0.5296        -47.215      -5.298832      0.9533846       0.920392
      9648.0000         0.6836        53.5425       74.08061          0.518       -48.3604      -6.444233      0.8740556      0.8991809
      9648.5000         0.6914        51.3402        69.9918         0.5234       -49.9205      -8.004333      0.7870595      0.8702901
      9649.0000         0.7691        48.5172       64.75058         0.5288        -59.971      -18.05483      0.6755443      0.6841698
      9649.5000         0.9958        45.8956       59.88328         0.5342       -69.7963      -27.88013      0.5719846      0.5022197
      9650.0000         1.0843        43.9281       56.23038         0.5317       -74.6705      -32.75433      0.4942635      0.4119568
      9650.5000         1.1094        43.2344       54.94246         0.5253       -75.3895      -33.47334      0.4668607      0.3986419
      9651.0000         1.1281        44.2589       56.84455          0.519       -76.1072      -34.19103      0.5073308      0.3853512
      9651.5000         1.1541        45.2833       58.74648         0.5127       -77.0358      -35.11963      0.5477973       0.368155
      9652.0000         1.1572        45.7068       59.53275         0.5064       -77.9392      -36.02303      0.5645265      0.3514253
      9652.5000         1.1198         44.949       58.12581         0.4999        -78.494      -36.57784      0.5345917      0.3411512
      9653.0000         1.0798        43.6621       55.73655         0.4933       -78.1951      -36.27893      0.4837563      0.3466865
      9653.5000         1.0143        42.5166       53.60978         0.4867       -77.0718      -35.15563      0.4385059      0.3674883
      9654.0000         0.9694        45.3779        58.9221         0.4801       -75.5836      -33.66743      0.5515341      0.3950475
      9654.5000         0.9455        47.9805       63.75412         0.4735       -73.9612      -32.04503      0.6543429      0.4250921
      9655.0000          0.937        45.8907       59.87418          0.467       -73.9014      -31.98523      0.5717911      0.4261995
      9655.5000         0.9923        43.6765       55.76326         0.4622       -75.7561      -33.83994      0.4843248      0.3918531
      9656.0000          1.057        41.4286       51.58979          0.458       -77.6205      -35.70433      0.3955274      0.3573272
      9656.5000         1.1289        38.0306       45.28102         0.4538       -79.7222      -37.80603      0.2612984      0.3184069
      9657.0000         1.2218        31.8766       33.85541         0.4496       -83.3792      -41.46304     0.01820024      0.2506845
      9657.5000         1.2708        36.4202       42.29113          0.447       -79.7605      -37.84433      0.1976836      0.3176976
      9658.0000         1.2183        40.9733       50.74447         0.4467       -77.1149      -35.19873       0.377542      0.3666902
      9658.5000          0.956        45.6799       59.48281         0.4558       -74.7521      -32.83593       0.563464      0.4104457
      9659.0000         0.7451         49.459       66.49914         0.4817       -69.8634      -27.94724      0.7127476      0.5009771
      9659.5000         0.7286        51.2132         69.756         0.5076       -54.9002      -12.98403      0.7820425      0.7780735
      9660.0000         0.7168         52.548       72.23422         0.5285       -48.4012      -6.485031      0.8347707      0.8984253
      9660.5000         0.7123        53.9811       74.89491         0.5447       -46.3642      -4.448032      0.8913811      0.9361476
      9661.0000           0.71        55.6418        77.9782          0.561       -46.4229      -4.506733       0.956983      0.9350605
      9661.5000         0.7122        56.0276       78.69448         0.5772       -47.2797      -5.363533       0.972223      0.9191938
      9662.0000         0.7137        55.1852       77.13047         0.5935       -48.2191      -6.302933      0.9389462      0.9017975
      9662.5000         0.7146        54.3441       75.56888         0.6095       -49.2051      -7.288933      0.9057208      0.8835383
      9663.0000         0.7216        53.5988       74.18513         0.6111       -49.9456       -8.02943      0.8762793      0.8698254
      9663.5000         0.7305        52.8895       72.86826         0.6127       -49.1453      -7.229134      0.8482608      0.8846457
      9664.0000          0.741        52.1813       71.55339         0.6143       -48.3448      -6.428631      0.8202849      0.8994698
      9664.5000         0.7557         51.472        70.2365          0.616       -47.5433      -5.627132       0.792266      0.9143124
      9665.0000         0.7703        50.7639       68.92183          0.619       -47.8644      -5.948231      0.7642943      0.9083661
      9665.5000         0.7816        50.0546       67.60493         0.6223        -54.095      -12.17883      0.7362752      0.7929845
      9666.0000         0.7803        49.5674       66.70039         0.6256       -55.3196      -13.40343      0.7170296      0.7703068
      9666.5000         0.7668        50.0276        67.5548         0.6196       -56.0996      -14.18343      0.7352086      0.7558624
      9667.0000         0.7513        50.4877       68.40903         0.6035       -56.5579      -14.64173      0.7533837      0.7473754
      9667.5000         0.7348        51.5271        70.3388         0.5873       -56.8694      -14.95323      0.7944425      0.7416068
      9668.0000           0.71        53.2358        73.5112         0.5711       -57.0103      -15.09413      0.8619404      0.7389976
      9668.5000         0.6788        55.5771       77.85809         0.5575       -57.3014      -15.38523      0.9544274      0.7336068
      9669.0000         0.6385        58.3521       83.01018         0.5461       -57.6363      -15.72013              1       0.727405
      9669.5000         0.5971        57.7147       81.82678         0.5347       -62.8994      -20.98323              1      0.6299402
      9670.0000         0.6531        54.3549       75.58893         0.5325       -64.4355      -22.51933      0.9061474      0.6014938
      9670.5000         0.7865         50.976       69.31561         0.5388       -67.3616      -25.44543      0.7726726      0.5473068
