#------------------------------------------------------------------------------
# Created by    : vladimir.rabinovich
# Created on    : 09/19/2023 17:20:01
#------------------------------------------------------------------------------
~Version Information Section
VERS.           2.0     :   CWLS log ASCII Standard - VERSION 2.0
WRAP.           NO      :   One line per depth step
~Well Information Section
#MNEM       .UNIT                                         VALUE :DESCRIPTION
#------------------------------------------------------------------------------
STRT        .FT                                            3496 :START DEPTH
STOP        .FT                                           13495 :STOP DEPTH
STEP        .FT                                             0.5 :STEP      
NULL        .                                           -999.25 :NULL      
COMP        .                      TEXAS EASTERN EXPLORATION CO :COMPANY   
WELL        .                                ST TR 00798-L NE/4 :WELL      
FLD         .                                           WILDCAT :FIELD     
LOC         .                                                   :LOCATION  
CNTY        .                        MUSTANG ISLAND LARGE BLOCK :LOCATION  
STAT        .                                             TEXAS :STATE     
CTRY        .                                     UNITED STATES :COUNTRY   
SRVC        .                                                   :SERVICE COMPANY
DATE        .                             9/13/2023 11:18:55 AM :LOG DATE  
API         .                                    42702302040000 :API NUMBER
UWI         .                                    42702302040000 :UNIQUE WELL ID
XCOORD      .                                  329124.923046376 :SURFACE X 
YCOORD      .                                  10022065.1107101 :SURFACE Y 
LAT         .                                        27.5591082 :LATITUDE  
LON         .                                       -97.0466418 :LONGITUDE 
ELEV        .FT                                              82 :ELEVATION VALUE
ELEV_TYPE   .                                                KB :ELEVATION REFERENCE TYPE
~Curve Information Section
#MNEM       .UNIT                                      API CODE :CURVE DESCRIPTION
#------------------------------------------------------------------------------
DEPT        .FT                                                 :DEPTH     
ASFL        .OHMM                                               :          
CILD        .MMHO                                               :          
GR          .GAPI                                               :          
GR_NORM     .GAPI                                               :GammaRay Normalized
ILD         .OHMM                                               :          
SFL         .OHMM                                               :          
SP          .MV                                                 :          
SP_NORM     .MV                                                 :SP Normalized
VSH_GR      .V/V                                                :Volume of Shale from GR
VSH_SP      .V/V                                                :Volume of Shale from SP
~A        DEPTH           ASFL           CILD             GR        GR_NORM            ILD            SFL             SP        SP_NORM         VSH_GR         VSH_SP
# ...
     10797.0000          0.599       2265.023        73.3799       86.85593         0.4424         0.5985       -39.6277      -2.707951              1      0.9752471
     10797.5000         0.5983       2262.043        73.4624       86.96302         0.4438         0.5984       -39.4407      -2.524345              1       0.977908
     10798.0000         0.5976       2256.293        73.1384       86.54946         0.4469         0.5983       -39.2539      -2.340939              1      0.9805661
     10798.5000         0.6005       2249.738        72.6863       85.97183         0.4502         0.5982       -39.0634      -2.153835              1      0.9832777
     10799.0000         0.6071       2236.492        72.2046       85.35626         0.4562         0.5982       -38.7974      -1.891232              1      0.9870836
     10799.5000         0.6136       2214.906        71.6271         84.618         0.4644         0.5981       -38.6189      -1.716125              1      0.9896213
     10800.0000          0.626       2176.688        71.3828       84.30653         0.4726         0.5993       -38.6688      -1.769421              1       0.988849
     10800.5000         0.6399       2131.582        71.1899       84.06089         0.4808         0.6063       -38.7185      -1.822514              1      0.9880795
     10801.0000          0.648       2086.473        71.0204       83.84521         0.4894         0.6133       -38.7684      -1.875809              1      0.9873071
     10801.5000         0.6563       2041.369        70.8845       83.67255         0.4979         0.6204       -38.8182      -1.929005              1      0.9865361
     10802.0000         0.6648       1996.262        70.6825       83.41525         0.5057         0.6305       -38.9301        -2.0443              1      0.9848652
     10802.5000         0.6741       1951.154        70.3295       82.96454         0.5123         0.6412       -39.1163      -2.233894              1      0.9821175
     10803.0000         0.6836       1906.047        69.6537       82.10039         0.5189         0.6519       -39.2936      -2.414589              1      0.9794987
     10803.5000         0.6941       1860.941        68.8979       81.13377         0.5253         0.6656       -39.4047      -2.529087              1      0.9778393
     10804.0000         0.7051       1815.834        68.2836       80.34838         0.5314         0.6797       -39.5157      -2.643482              1      0.9761814
     10804.5000         0.7154       1774.445         67.765       79.68556         0.5376         0.6976       -39.4973      -2.628475      0.9933099      0.9763989
     10805.0000         0.7256       1752.436        67.2513       79.02903         0.5416         0.7157       -39.4747      -2.609276      0.9793411      0.9766772
     10805.5000         0.7353       1730.924        66.7415       78.37749         0.5454         0.7086       -39.4523      -2.590271      0.9654785      0.9769526
     10806.0000         0.7356       1734.939        66.2266       77.71941         0.5453         0.7014       -39.5267      -2.668064      0.9514769      0.9758251
     10806.5000         0.7149       1756.848        67.0327       78.75331         0.5452         0.6942         -39.66       -2.80476      0.9734747      0.9738441
     10807.0000         0.6942       1819.699        69.0479       81.33583         0.5431         0.6789       -39.8633      -3.011456              1      0.9708484
     10807.5000         0.6741       1884.635        70.7411       83.50594         0.5194         0.6597       -40.0664      -3.217949              1      0.9678558
     10808.0000         0.6542       1949.469        72.2181       85.39914         0.4957         0.6405       -40.2695      -3.424446              1      0.9648631
     10808.5000         0.6407       2014.402        73.0377       86.45031          0.479         0.6242       -40.3378       -3.49614              1      0.9638241
     10809.0000         0.6285       2079.336        73.5494       87.10714         0.4649         0.6254       -40.4019      -3.563637              1      0.9628459
     10809.5000         0.6178        2144.27         72.572       85.85668         0.4548         0.6266       -40.4659      -3.631031              1      0.9618691
     10810.0000         0.6157       2209.203        69.8232       82.33738         0.4609         0.6277       -40.3638      -3.532326              1      0.9632996
     10810.5000         0.6218       2206.703        70.2754       82.91798          0.467         0.6289       -40.2311      -3.403019              1      0.9651737
     10811.0000         0.6279       2195.152        70.7269        83.4977         0.4704         0.6301       -40.0987      -3.274017              1      0.9670432
     10811.5000         0.6349       2176.984        71.1792       84.07844         0.4723         0.6312       -39.9846      -3.163311              1      0.9686477
     10812.0000         0.6311       2131.977        71.6307       84.65814         0.4743         0.6235       -39.8723      -3.054405              1       0.970226
     10812.5000         0.6245       2097.328        72.3693       85.60559         0.4762         0.6146         -39.76      -2.945499              1      0.9718044
     10813.0000         0.6158       2069.375        73.2196       86.69609         0.4773         0.6057       -39.6479      -2.836796              1      0.9733798
     10813.5000          0.606        2130.91        73.9655       87.65286         0.4782         0.5968       -39.5264      -2.718693              1      0.9750914
     10814.0000         0.5961       2144.891        74.6744       88.56226         0.4791         0.5907       -39.3903      -2.585987              1      0.9770147
     10814.5000         0.5909       2159.066        75.2323       89.27825         0.4799          0.589       -39.2542      -2.453281              1      0.9789379
     10815.0000         0.5862       2174.406        75.1353       89.15543          0.479         0.5874       -39.1181      -2.320576              1      0.9808612
     10815.5000         0.5817       2196.465        74.3955       88.20931          0.477         0.5857       -39.0027      -2.208572              1      0.9824845
     10816.0000         0.5781       2231.707        73.6558       87.26331         0.4749         0.5841       -38.8977      -2.106968              1       0.983957
     10816.5000         0.5744       2271.164        72.9381       86.34549         0.4729         0.5825       -38.7927      -2.005363              1      0.9854295
     10817.0000         0.5753       2310.621         72.223       85.43098         0.4694          0.581       -38.7182      -1.934258              1        0.98646
     10817.5000         0.5762       2308.316        71.5527       84.57386         0.4645         0.5796       -38.7026       -1.92205              1      0.9866369
     10818.0000         0.5799        2296.84        71.2216       84.15122         0.4597         0.5791        -38.687      -1.909847              1      0.9868138
     10818.5000         0.5867       2275.727        71.3662       84.33784          0.456         0.5805       -38.8223      -2.048542              1      0.9848037
     10819.0000         0.5935       2244.199         71.511       84.52473         0.4571         0.5818        -39.056      -2.285637              1      0.9813676
     10819.5000         0.6018         2215.5        71.6556       84.71135         0.4583         0.5823       -39.3098      -2.542831              1      0.9776402
     10820.0000         0.6103       2185.461        71.8003       84.89811         0.4593         0.5822       -39.5635      -2.799927              1      0.9739141
     10820.5000          0.619       2187.719        72.1155       85.30325         0.4569         0.5826       -39.8259      -3.065723              1       0.970062
     10821.0000         0.6187       2190.648         72.454       85.73822         0.4546         0.5901       -40.0913      -3.334518              1      0.9661664
