#------------------------------------------------------------------------------
# Created by    : vladimir.rabinovich
# Created on    : 09/19/2023 17:20:33
#------------------------------------------------------------------------------
~Version Information Section
VERS.           2.0     :   CWLS log ASCII Standard - VERSION 2.0
WRAP.           NO      :   One line per depth step
~Well Information Section
#MNEM       .UNIT                                         VALUE :DESCRIPTION
#------------------------------------------------------------------------------
STRT        .FT                                             526 :START DEPTH
STOP        .FT                                            9568 :STOP DEPTH
STEP        .FT                                             0.5 :STEP      
NULL        .                                           -999.25 :NULL      
COMP        .                       BLUE DOLPHIN EXPLORATION CO :COMPANY   
WELL        .                                OCS 00713 ST00BP00 :WELL      
FLD         .                              GALVESTON BLOCK 0288 :FIELD     
LOC         .                                                   :LOCATION  
CNTY        .                             GALVESTON LARGE BLOCK :LOCATION  
STAT        .                                             TEXAS :STATE     
CTRY        .                                     UNITED STATES :COUNTRY   
SRVC        .                                                   :SERVICE COMPANY
DATE        .                             9/13/2023 11:19:25 AM :LOG DATE  
API         .                                    42706000630000 :API NUMBER
UWI         .                                    42706000630000 :UNIQUE WELL ID
XCOORD      .                                  1101981.32688909 :SURFACE X 
YCOORD      .                                  10481575.8265757 :SURFACE Y 
LAT         .                                          28.87198 :LATITUDE  
LON         .                                        -94.682732 :LONGITUDE 
ELEV        .FT                                              58 :ELEVATION VALUE
ELEV_TYPE   .                                                KB :ELEVATION REFERENCE TYPE
~Curve Information Section
#MNEM       .UNIT                                      API CODE :CURVE DESCRIPTION
#------------------------------------------------------------------------------
DEPT        .FT                                                 :DEPTH     
ASN         .OHMM                                               :          
CALI        .IN                                                 :          
DT          .US/F                                               :          
ILD         .OHMM                                               :          
SP          .MV                                                 :          
SP_NORM     .MV                                                 :SP Normalized
VSH_SP      .V/V                                                :Volume of Shale from SP
~A        DEPTH            ASN           CALI             DT            ILD             SP        SP_NORM         VSH_SP
       526.0000         0.0276        -999.25        -999.25              0        -999.25        -999.25        -999.25
       526.5000         0.0894        -999.25        -999.25              0        -999.25        -999.25        -999.25
       527.0000          0.364        -999.25        -999.25              0        -999.25        -999.25        -999.25
       527.5000         0.6846        -999.25        -999.25              0        -999.25        -999.25        -999.25
       528.0000         0.9034        -999.25        -999.25              0       -24.4258       15.10908              1
       528.5000         1.0691        -999.25        -999.25              0       -27.3056       12.22928              1
       529.0000         1.1653        -999.25        -999.25              0        -29.648       9.886881              1
       529.5000         1.1843        -999.25        -999.25              0       -31.7311       7.803782              1
       530.0000         1.1836        -999.25        -999.25              0       -33.4993       6.035583              1
       530.5000         1.1786        -999.25        -999.25              0       -34.7297       4.805183              1
       531.0000         1.1812        -999.25        -999.25              0       -35.7157       3.819183              1
       531.5000         1.1868        -999.25        -999.25         0.2947       -36.5497        2.98518              1
       532.0000         1.1975        -999.25        -999.25         0.5499       -37.2579       2.276981              1
       532.5000         1.2133        -999.25        -999.25         0.7285        -37.924       1.610882              1
       533.0000         1.2298        -999.25        -999.25          0.897       -38.4266        1.10828              1
       533.5000         1.2443        -999.25        -999.25         1.0199       -38.7545      0.7803802              1
       534.0000         1.2513        -999.25        -999.25         1.0606       -38.6324      0.9024811              1
       534.5000         1.2548        -999.25        -999.25         1.0951       -39.1089      0.4259834              1
       535.0000         1.2552        -999.25        -999.25         1.1248       -38.4683       1.066582              1
       535.5000         1.2536        -999.25        -999.25         1.1621       -39.4074      0.1274834              1
       536.0000         1.2486        -999.25        -999.25            1.2       -40.1284     -0.5935173              1
       536.5000         1.2463        -999.25        -999.25         1.2151       -39.9949     -0.4600182              1
       537.0000         1.2511        -999.25        -999.25         1.2251       -39.7902     -0.2553177              1
       537.5000         1.2498        -999.25        -999.25         1.2426       -39.9071     -0.3722191              1
       538.0000         1.2477        -999.25        -999.25         1.2486       -40.0865     -0.5516167              1
       538.5000         1.2472        -999.25        -999.25         1.2536       -40.4228     -0.8879166              1
       539.0000         1.2451        -999.25        -999.25         1.2605       -40.5708      -1.035919              1
       539.5000          1.241        -999.25        -999.25         1.2714       -40.8121      -1.277218              1
       540.0000         1.2372        -999.25        -999.25         1.2813       -40.9616       -1.42672              1
       540.5000         1.2461        -999.25        -999.25          1.292       -41.0106      -1.475719              1
       541.0000           1.26        -999.25        -999.25         1.2987       -41.1071       -1.57222              1
       541.5000          1.275        -999.25        -999.25         1.3012       -41.1851      -1.650219              1
       542.0000         1.2765        -999.25        -999.25         1.3074       -41.3132       -1.77832              1
       542.5000         1.2747        -999.25        -999.25         1.3126       -41.2167       -1.68182              1
       543.0000         1.2828        -999.25        -999.25         1.3228        -41.113      -1.578117              1
       543.5000         1.2879        -999.25        -999.25         1.3384       -41.2275      -1.692619              1
       544.0000         1.2809        -999.25        -999.25         1.3528       -40.8701      -1.335217              1
       544.5000          1.283        -999.25        -999.25         1.3668       -41.1284      -1.593517              1
       545.0000         1.2851        -999.25        -999.25         1.3634        -41.355      -1.820118              1
       545.5000         1.2762        -999.25        -999.25         1.3769       -41.7446      -2.209717      0.9650472
       546.0000         1.2615        -999.25        -999.25           1.39       -41.2723      -1.737419              1
       546.5000          1.245        -999.25        -999.25         1.4053       -41.1895      -1.654617              1
       547.0000         1.2432        -999.25        -999.25         1.4224       -41.2849      -1.750019              1
       547.5000         1.2437        -999.25        -999.25         1.4438       -41.4746       -1.93972              1
       548.0000         1.2352        -999.25        -999.25         1.4684       -41.9882       -2.45332      0.9244468
       548.5000         1.2441        -999.25        -999.25          1.495       -42.6127       -3.07782      0.8203633
       549.0000         1.2719        -999.25        -999.25         1.5187       -42.2447       -2.70982      0.8816967
       549.5000         1.3146        -999.25        -999.25         1.5557        -41.868      -2.333118      0.9444802
       550.0000         1.3883        -999.25        -999.25         1.5833       -42.1861      -2.651218      0.8914636
       550.5000         1.4651        -999.25        -999.25         1.6101       -42.1125      -2.577618      0.9037304
       551.0000         1.5576        -999.25        -999.25         1.6291        -42.212       -2.67712      0.8871467
       551.5000         1.6093        -999.25        -999.25         1.6435       -42.0439      -2.509018      0.9151637
       552.0000         1.6277        -999.25        -999.25         1.6671       -42.0637       -2.52882      0.9118633
       552.5000         1.6168        -999.25        -999.25         1.6909       -42.0497       -2.51482      0.9141967
       553.0000         1.6161        -999.25        -999.25         1.7167       -42.1316      -2.596718       0.900547
       553.5000         1.6223        -999.25        -999.25         1.7549       -42.1333      -2.598419      0.9002635
       554.0000         1.6025        -999.25        -999.25         1.8006       -42.3959      -2.861019      0.8564968
       554.5000         1.5776        -999.25        -999.25         1.8336       -42.4745      -2.939617      0.8433971
       555.0000         1.5488        -999.25        -999.25         1.8708       -42.2422      -2.707317      0.8821138
       555.5000         1.5123        -999.25        -999.25         1.9123        -42.447      -2.912117      0.8479805
       556.0000         1.4792        -999.25        -999.25         1.9411        -42.662      -3.127117      0.8121471
       556.5000         1.4549        -999.25        -999.25         1.9611       -42.8152      -3.280319      0.7866135
       557.0000         1.4343        -999.25        -999.25         1.9782       -42.9795      -3.444618      0.7592303
       557.5000          1.417        -999.25        -999.25         1.9875       -42.6255      -3.090618      0.8182303
       558.0000         1.4046        -999.25        -999.25         1.9857       -42.8608       -3.32592      0.7790133
       558.5000         1.3996        -999.25        -999.25         1.9769       -42.9477      -3.412819      0.7645302
       559.0000         1.4022        -999.25        -999.25         1.9578       -42.7309      -3.196018      0.8006637
