#------------------------------------------------------------------------------
# Created by    : vladimir.rabinovich
# Created on    : 09/19/2023 17:20:39
#------------------------------------------------------------------------------
~Version Information Section
VERS.           2.0     :   CWLS log ASCII Standard - VERSION 2.0
WRAP.           NO      :   One line per depth step
~Well Information Section
#MNEM       .UNIT                                         VALUE :DESCRIPTION
#------------------------------------------------------------------------------
STRT        .FT                                             520 :START DEPTH
STOP        .FT                                           11478 :STOP DEPTH
STEP        .FT                                             0.5 :STEP      
NULL        .                                           -999.25 :NULL      
COMP        .                                      SHELL OIL CO :COMPANY   
WELL        .                                OCS 00730 ST00BP00 :WELL      
FLD         .                                           WILDCAT :FIELD     
LOC         .                                                   :LOCATION  
CNTY        .                             GALVESTON LARGE BLOCK :LOCATION  
STAT        .                                             TEXAS :STATE     
CTRY        .                                     UNITED STATES :COUNTRY   
SRVC        .                                                   :SERVICE COMPANY
DATE        .                             9/13/2023 11:19:42 AM :LOG DATE  
API         .                                    42706000260000 :API NUMBER
UWI         .                                    42706000260000 :UNIQUE WELL ID
XCOORD      .                                  961416.888637646 :SURFACE X 
YCOORD      .                                  10353223.2377546 :SURFACE Y 
LAT         .                                         28.512881 :LATITUDE  
LON         .                                        -95.114699 :LONGITUDE 
ELEV        .FT                                              72 :ELEVATION VALUE
ELEV_TYPE   .                                                KB :ELEVATION REFERENCE TYPE
~Curve Information Section
#MNEM       .UNIT                                      API CODE :CURVE DESCRIPTION
#------------------------------------------------------------------------------
DEPT        .FT                                                 :DEPTH     
ASN         .OHMM                                               :          
CILD        .MMHO                                               :          
ILD         .OHMM                                               :          
LAT         .OHMM                                               :          
LN          .OHMM                                               :          
SP          .MV                                                 :          
SP_NORM     .MV                                                 :SP Normalized
VSH_SP      .V/V                                                :Volume of Shale from SP
~A        DEPTH            ASN           CILD            ILD            LAT             LN             SP        SP_NORM         VSH_SP
# ...
      9252.0000         0.9685        -999.25        -999.25         0.7793         0.8778       -45.5889      -1.686462              1
      9252.5000         0.9625        -999.25        -999.25         0.7789         0.8793       -46.0377      -2.135262       0.994119
      9253.0000         0.9565        -999.25        -999.25         0.7784         0.8809       -46.4866       -2.58416      0.9746017
      9253.5000         0.9505        -999.25        -999.25         0.7779         0.8832       -46.1418      -2.239361       0.989593
      9254.0000         0.9445        -999.25        -999.25         0.7775         0.8854       -45.7542      -1.851761              1
      9254.5000         0.9385        -999.25        -999.25          0.777         0.8877       -45.3667       -1.46426              1
      9255.0000         0.9325        -999.25        -999.25         0.7765           0.89       -44.9791       -1.07666              1
      9255.5000         0.9265        -999.25        -999.25         0.7761         0.8923        -44.591     -0.6885605              1
      9256.0000         0.9205        -999.25        -999.25         0.7756         0.8945       -44.4037     -0.5012627              1
      9256.5000         0.9145        -999.25        -999.25         0.7741         0.8968       -44.5505     -0.6480598              1
      9257.0000         0.9085        -999.25        -999.25         0.7693         0.8991       -44.6976     -0.7951622              1
      9257.5000         0.9049        -999.25        -999.25         0.7646         0.9013       -44.8444     -0.9419594              1
      9258.0000         0.9052        -999.25        -999.25         0.7599         0.9036       -44.9915      -1.089062              1
      9258.5000         0.9055        -999.25        -999.25         0.7552         0.9059       -45.1383      -1.235863              1
      9259.0000         0.9082        -999.25        -999.25         0.7504         0.9082       -45.2851       -1.38266              1
      9259.5000         0.9153        -999.25        -999.25         0.7457         0.9104       -45.4322      -1.529762              1
      9260.0000         0.9224        -999.25        -999.25          0.741         0.9127        -45.579      -1.676559              1
      9260.5000         0.9295        -999.25        -999.25         0.7363          0.915       -45.6645      -1.762062              1
      9261.0000         0.9366        -999.25        -999.25         0.7315         0.9179       -45.6194      -1.716961              1
      9261.5000         0.9437        -999.25        -999.25         0.7268          0.922       -45.5743       -1.67186              1
      9262.0000         0.9508        -999.25        -999.25         0.7221         0.9261       -45.5292      -1.626762              1
      9262.5000          0.958        -999.25        -999.25         0.7173         0.9303       -45.4842       -1.58176              1
      9263.0000         0.9651        -999.25        -999.25         0.7126         0.9344       -45.4391      -1.536659              1
      9263.5000         0.9722        -999.25        -999.25         0.7079         0.9385        -45.394      -1.491562              1
      9264.0000         0.9793        -999.25        -999.25         0.7032         0.9426       -45.3267      -1.424259              1
      9264.5000         0.9864        -999.25        -999.25         0.6984         0.9468       -45.0685      -1.166061              1
      9265.0000         0.9949        -999.25        -999.25         0.6937         0.9509       -44.8104      -0.907959              1
      9265.5000         1.0035        -999.25        -999.25          0.689          0.955       -44.5527     -0.6502609              1
      9266.0000         1.0121        -999.25        -999.25         0.6882         0.9591       -44.2946     -0.3921623              1
      9266.5000         1.0207        -999.25        -999.25         0.6936         0.9633       -44.9403      -1.037861              1
      9267.0000         1.0293        -999.25        -999.25         0.6991         0.9674       -45.6693      -1.766861              1
      9267.5000          1.038        -999.25        -999.25         0.7045         0.9715       -46.3994       -2.49696      0.9783931
      9268.0000         1.0476        -999.25        -999.25           0.71         0.9791       -47.1284       -3.22596      0.9466974
      9268.5000         1.0597        -999.25        -999.25         0.7154         0.9887       -47.8224       -3.91996      0.9165235
      9269.0000         1.0717        -999.25        -999.25         0.7209         0.9983       -47.3578       -3.45536      0.9367235
      9269.5000         1.0837        -999.25        -999.25         0.7263         1.0079       -46.8927      -2.990261      0.9569452
      9270.0000         1.0958        -999.25        -999.25         0.7318         1.0175       -46.4281      -2.525661      0.9771451
      9270.5000         1.1078        -999.25        -999.25         0.7373         1.0271       -45.9629      -2.060459      0.9973713
      9271.0000          1.121        -999.25        -999.25         0.7427         1.0367       -45.4983       -1.59586              1
      9271.5000         1.1369        -999.25        -999.25         0.7482         1.0462       -45.0331      -1.130661              1
      9272.0000         1.1528        -999.25        -999.25         0.7536         1.0558       -44.5685     -0.6660614              1
      9272.5000         1.1686        -999.25        -999.25         0.7591         1.0654       -44.1033     -0.2008591              1
      9273.0000         1.1845        -999.25        -999.25         0.7645         1.0841       -43.6387      0.2637405              1
      9273.5000         1.2162        -999.25        -999.25         0.7761         1.1055       -43.1736      0.7288399              1
      9274.0000         1.2536        -999.25        -999.25         0.8108         1.1269       -43.2191      0.6833382              1
      9274.5000         1.2679        -999.25        -999.25         0.8455         1.1483       -43.7861      0.1163406              1
      9275.0000         1.2815        -999.25        -999.25         0.8802         1.1697       -44.3542     -0.4517593              1
      9275.5000         1.2951        -999.25        -999.25         0.9149         1.1912       -44.9212      -1.018761              1
      9276.0000         1.3081        -999.25        -999.25         0.9496         1.2126       -45.4893      -1.586861              1
      9276.5000          1.318        -999.25        -999.25         0.9843          1.234       -45.9606      -2.058163      0.9974712
      9277.0000         1.3279        -999.25        -999.25         1.0189         1.2561        -46.301       -2.39856      0.9826713
      9277.5000         1.3499        -999.25        -999.25         1.0536         1.2796       -46.6407      -2.738262      0.9679016
      9278.0000         1.3918        -999.25        -999.25         1.0884         1.3032        -46.981       -3.07856      0.9531061
      9278.5000         1.4291        -999.25        -999.25          1.123         1.3268       -47.3213      -3.418861      0.9383104
      9279.0000         1.4517        -999.25        -999.25          1.098         1.3503       -48.5672      -4.664761      0.8841408
      9279.5000         1.4744        -999.25        -999.25         1.0711         1.3739       -49.8361      -5.933662      0.8289712
      9280.0000          1.497        -999.25        -999.25         1.0443         1.3974       -51.1028      -7.200359      0.7738974
      9280.5000         1.5196        -999.25        -999.25          1.019         1.4089       -52.3673      -8.464859      0.7189192
      9281.0000         1.5452        -999.25        -999.25         1.0055         1.3911       -53.6318      -9.729362      0.6639408
