#------------------------------------------------------------------------------
# Created by    : vladimir.rabinovich
# Created on    : 09/19/2023 17:20:18
#------------------------------------------------------------------------------
~Version Information Section
VERS.           2.0     :   CWLS log ASCII Standard - VERSION 2.0
WRAP.           NO      :   One line per depth step
~Well Information Section
#MNEM       .UNIT                                         VALUE :DESCRIPTION
#------------------------------------------------------------------------------
STRT        .FT                                             780 :START DEPTH
STOP        .FT                                            9803 :STOP DEPTH
STEP        .FT                                             0.5 :STEP      
NULL        .                                           -999.25 :NULL      
COMP        .                                  SAMEDAN OIL CORP :COMPANY   
WELL        .                               OCS G04076 ST00BP00 :WELL      
FLD         .                            HIGH ISLAND BLOCK 0105 :FIELD     
LOC         .                                                   :LOCATION  
CNTY        .                           HIGH ISLAND LARGE BLOCK :LOCATION  
STAT        .                                             TEXAS :STATE     
CTRY        .                                     UNITED STATES :COUNTRY   
SRVC        .                                                   :SERVICE COMPANY
DATE        .                             9/13/2023 11:19:59 AM :LOG DATE  
API         .                                    42708401630000 :API NUMBER
UWI         .                                    42708401630000 :UNIQUE WELL ID
XCOORD      .                                  1167393.84075462 :SURFACE X 
YCOORD      .                                  10652000.2522841 :SURFACE Y 
LAT         .                                        29.3430877 :LATITUDE  
LON         .                                       -94.4850788 :LONGITUDE 
ELEV        .FT                                              87 :ELEVATION VALUE
ELEV_TYPE   .                                                KB :ELEVATION REFERENCE TYPE
~Curve Information Section
#MNEM       .UNIT                                      API CODE :CURVE DESCRIPTION
#------------------------------------------------------------------------------
DEPT        .FT                                                 :DEPTH     
ASFL        .OHMM                                               :          
CILD        .MMHO                                               :          
DT          .US/F                                               :          
GR          .GAPI                                               :          
GR_1        .GAPI                                               :          
GR_NORM     .GAPI                                               :GammaRay Normalized
ILD         .OHMM                                               :          
SP          .MV                                                 :          
SP_NORM     .MV                                                 :SP Normalized
VSH_GR      .V/V                                                :Volume of Shale from GR
VSH_SP      .V/V                                                :Volume of Shale from SP
~A        DEPTH           ASFL           CILD             DT             GR           GR_1        GR_NORM            ILD             SP        SP_NORM         VSH_GR         VSH_SP
# ...
      5595.0000         0.5933       1830.627        -999.25        -999.25         70.051       82.64747         0.5516      -105.6049       -0.94384              1              1
      5595.5000         0.5756       2408.934        -999.25        -999.25        68.8167       80.96342         0.5157      -108.3547      -3.694633              1      0.9578964
      5596.0000         0.5598       2495.582        -999.25        -999.25        66.8756       78.31628         0.4863      -114.2957       -9.63662      0.9641762      0.8650528
      5596.5000         0.5504       2610.949        -999.25        -999.25         64.709       75.36189         0.4583      -116.4623      -11.80421      0.9013169      0.8311841
      5597.0000          0.541       2759.938        -999.25        -999.25        62.6797       72.59458         0.4337      -117.5358       -12.8787      0.8424379      0.8143953
      5597.5000         0.5468       2834.727        -999.25        -999.25        61.4616       70.93262         0.4115      -117.1204      -12.46429       0.807077      0.8208704
      5598.0000         0.5646       2845.996        -999.25        -999.25        60.0303       68.98013         0.3892      -115.8018      -11.14668      0.7655346      0.8414581
      5598.5000         0.5824       2705.832        -999.25        -999.25        58.0892       66.33301         0.4015      -114.3043      -9.650169       0.709213      0.8648411
      5599.0000         0.6669       2478.133        -999.25        -999.25        55.6212       62.96795         0.4211      -112.8068      -8.153664      0.6376159       0.888224
      5599.5000         0.7173       2372.668        -999.25        -999.25        54.8564       61.92361         0.4806       -111.715      -7.062843       0.615396      0.9052681
      5600.0000         0.7475       2242.793        -999.25        -999.25        55.7014       63.07277         0.5401      -110.7028      -6.051636      0.6398461      0.9210682
      5600.5000         0.7714       2071.652        -999.25        -999.25        56.5482       64.22436         0.6536      -109.6918      -5.041634       0.664348      0.9368495
      5601.0000         0.7953       1824.451        -999.25        -999.25        57.3956       65.37678         0.7635      -107.9994      -3.350212      0.6888676      0.9632779
      5601.5000         0.8193       1300.641        -999.25        -999.25        58.0255       66.23284         0.8123       -107.057      -2.408806      0.7070817      0.9779874
      5602.0000         0.8223       1229.627        -999.25        -999.25        58.6021       67.01627         0.8006       -106.334      -1.686798      0.7237505      0.9892688
      5602.5000         0.8028       1274.127        -999.25        -999.25        59.6492        68.4408          0.789      -105.9702       -1.32399      0.7540597      0.9949377
      5603.0000         0.7505       1318.406        -999.25        -999.25        60.7974       70.00307         0.7774      -105.8276      -1.182373      0.7872995      0.9971504
      5603.5000         0.7082       1354.969        -999.25        -999.25        62.0804       71.74905         0.7657      -105.9008      -1.256569      0.8244478      0.9959911
      5604.0000         0.6751       1391.529        -999.25        -999.25        63.0461       73.06266         0.7541      -106.2197      -1.576462       0.852397      0.9909928
      5604.5000          0.652       1454.922        -999.25        -999.25        61.5352       71.00171         0.7448      -106.5387      -1.896439       0.808547      0.9859931
      5605.0000         0.6439       1524.381        -999.25        -999.25         57.947       66.11029         0.7391      -107.5558      -2.914536      0.7044743      0.9700854
      5605.5000         0.6648       1528.666        -999.25        -999.25        56.5892       64.25797         0.7333      -108.8253      -4.185028      0.6650631      0.9502339
      5606.0000         0.6945       1532.951        -999.25        -999.25        55.3276       62.53669         0.7276      -110.0948      -5.455513      0.6284402      0.9303826
      5606.5000         0.7213       1537.236        -999.25        -999.25        54.8608       61.89843         0.7218      -112.2639      -7.625603      0.6148601       0.896475
      5607.0000         0.7434       1541.521        -999.25        -999.25        54.3939       61.26001         0.7161       -114.629      -9.991692      0.6012767      0.8595048
      5607.5000         0.7514       1545.807        -999.25        -999.25        53.7726       60.41121         0.7011      -116.8594      -12.22308      0.5832171      0.8246394
      5608.0000         0.7594       1554.559        -999.25        -999.25        53.0128        59.3737         0.6852      -118.9622      -14.32687      0.5611426      0.7917677
      5608.5000         0.7675       1569.592        -999.25        -999.25        52.2438       58.32366         0.6694      -120.4744      -15.84007      0.5388013       0.768124
      5609.0000         0.7624       1567.895        -999.25        -999.25        51.9552       57.92818           0.65      -121.9878      -17.35445      0.5303869      0.7444617
      5609.5000         0.7572       1563.215        -999.25        -999.25        52.0753       58.08959         0.6166      -123.6104      -18.97803      0.5338211      0.7190932
      5610.0000          0.752       1627.141        -999.25        -999.25        51.5331       57.34859         0.5832      -125.2328      -20.60143       0.518055      0.6937276
      5610.5000         0.7246       1785.881        -999.25        -999.25        47.6019        51.9898         0.5454      -127.4275      -22.79712      0.4040382        0.65942
      5611.0000         0.6865       1844.691        -999.25        -999.25        47.0038        51.1726         0.5069      -129.8293      -25.19991      0.3866511      0.6218765
      5611.5000         0.6578       2057.734        -999.25        -999.25        46.5724       50.58257         0.4688      -132.9885      -28.36009      0.3740972      0.5724986
      5612.0000         0.6378       2226.227        -999.25        -999.25        46.1429       49.99511         0.4317      -137.9294      -33.30199      0.3615981      0.4952815
      5612.5000         0.6218        2428.93        -999.25        -999.25        45.7753         49.492         0.3945      -141.8118      -37.18537      0.3508936      0.4346036
      5613.0000         0.6128       2530.379        -999.25        -999.25        45.4074       48.98848          0.369       -144.874      -40.24856      0.3401804      0.3867413
      5613.5000         0.6492       2701.813        -999.25        -999.25        45.1154       48.58839         0.3518      -146.4624      -41.83796      0.3316678      0.3619069
      5614.0000          0.679       2787.676        -999.25        -999.25         44.832           48.2         0.3346      -147.9023      -43.27885      0.3234043       0.339393
      5614.5000         0.7052       2825.563        -999.25        -999.25        44.5162       47.76748         0.3349      -148.1287      -43.50623      0.3142016      0.3358402
      5615.0000         0.7212       2858.348        -999.25        -999.25          44.79       48.13832         0.3384      -148.1582      -43.53673      0.3220919      0.3353636
      5615.5000          0.726       2803.262        -999.25        -999.25        45.2686       48.78822         0.3418      -147.9478      -43.32732      0.3359196      0.3386357
      5616.0000         0.7198       2727.789        -999.25        -999.25        45.6923       49.36332         0.3453      -147.7373      -43.11781      0.3481556      0.3419093
      5616.5000         0.7094       2622.711        -999.25        -999.25        46.1157         49.938         0.3523      -146.7686      -42.15009      0.3603831      0.3570298
      5617.0000          0.691        2480.34        -999.25        -999.25        46.5394       50.51309          0.366      -145.0837      -40.46618       0.372619       0.383341
