#------------------------------------------------------------------------------
# Created by    : vladimir.rabinovich
# Created on    : 09/19/2023 17:20:12
#------------------------------------------------------------------------------
~Version Information Section
VERS.           2.0     :   CWLS log ASCII Standard - VERSION 2.0
WRAP.           NO      :   One line per depth step
~Well Information Section
#MNEM       .UNIT                                         VALUE :DESCRIPTION
#------------------------------------------------------------------------------
STRT        .FT                                             970 :START DEPTH
STOP        .FT                                            6500 :STOP DEPTH
STEP        .FT                                             0.5 :STEP      
NULL        .                                           -999.25 :NULL      
COMP        .                                CONTINENTAL OIL CO :COMPANY   
WELL        .                               OCS G03106 ST00BP00 :WELL      
FLD         .                       MATAGORDA ISLAND BLOCK 0687 :FIELD     
LOC         .                                                   :LOCATION  
CNTY        .                      MATAGORDA ISLAND LARGE BLOCK :LOCATION  
STAT        .                                             TEXAS :STATE     
CTRY        .                                     UNITED STATES :COUNTRY   
SRVC        .                                                   :SERVICE COMPANY
DATE        .                             9/13/2023 11:12:09 AM :LOG DATE  
API         .                                    42703400330000 :API NUMBER
UWI         .                                    42703400330000 :UNIQUE WELL ID
XCOORD      .                                  468864.661343862 :SURFACE X 
YCOORD      .                                  10154488.9405743 :SURFACE Y 
LAT         .                                         27.934663 :LATITUDE  
LON         .                                        -96.628194 :LONGITUDE 
ELEV        .FT                                              96 :ELEVATION VALUE
ELEV_TYPE   .                                                KB :ELEVATION REFERENCE TYPE
~Curve Information Section
#MNEM       .UNIT                                      API CODE :CURVE DESCRIPTION
#------------------------------------------------------------------------------
DEPT        .FT                                                 :DEPTH     
ASFL        .OHMM                                               :          
CALI        .IN                                                 :          
CILD        .MMHO                                               :          
DRHO        .G/C3                                               :          
DT          .US/F                                               :          
DTL         .US/F                                               :          
GR          .GAPI                                               :          
GR_1        .GAPI                                               :          
GR_NORM     .GAPI                                               :GammaRay Normalized
ILD         .OHMM                                               :          
ILM         .OHMM                                               :          
NPHI        .%                                                  :          
RHOB        .G/C3                                               :          
SFL         .OHMM                                               :          
SP          .MV                                                 :          
SP_NORM     .MV                                                 :SP Normalized
VSH_GR      .V/V                                                :Volume of Shale from GR
VSH_SP      .V/V                                                :Volume of Shale from SP
~A        DEPTH           ASFL           CALI           CILD           DRHO             DT            DTL             GR           GR_1        GR_NORM            ILD            ILM           NPHI           RHOB            SFL             SP        SP_NORM         VSH_GR         VSH_SP
# ...
      3924.0000         0.7057        15.0752       1405.361         0.0662       125.5084        -999.25        -999.25        58.7713       77.30301         0.6773         0.7159        45.7768         2.2691         0.6881       -45.0813        -3.5719      0.9426172      0.9523723
      3924.5000         0.7594        14.8633       1373.199         0.0629       122.4801        -999.25        -999.25        55.5731       72.25985         0.6874         0.7472        44.5722         2.2877         0.7432       -45.6223        -4.1129      0.8353159      0.9423537
      3925.0000         0.8159        14.7871       1347.205         0.0637       118.7599        -999.25        -999.25        52.9271       68.08672         0.6945         0.7792        44.0498         2.3016         0.8055       -47.0317        -5.5223       0.746526      0.9162537
      3925.5000         0.8464        14.7149       1332.748          0.066       113.8145        -999.25        -999.25        49.4119       62.54412         0.6972         0.8131        43.3939         2.2891         0.8725       -49.2881        -7.7787      0.6285984      0.8744685
      3926.0000         0.8769        14.2211       1318.277         0.0677       109.2955        -999.25        -999.25        45.8919       56.99397            0.7         0.8531        42.3705         2.2827         0.9058       -52.9313       -11.4219        0.51051      0.8070018
      3926.5000         0.8971        13.7334       1303.809         0.0689       105.9846        -999.25        -999.25        42.5784       51.76917         0.6871         0.8806        39.5829         2.2768         0.8911       -57.3488       -15.8394       0.399344      0.7251963
      3927.0000          0.907         13.684       1329.121         0.0683       103.2229        -999.25        -999.25        39.5254       46.95479         0.6589          0.889        36.9744         2.2607         0.8965       -63.6013       -22.0919      0.2969105      0.6094093
      3927.5000         0.9169        13.6961       1402.529         0.0671       101.4049        -999.25        -999.25         37.727        44.1171         0.6306         0.8519        35.0843         2.2361         0.9521       -75.4594         -33.95       0.236534      0.3898148
      3928.0000         0.9251        13.6842       1502.264         0.0698       103.8293        -999.25        -999.25        36.9864       42.94599         0.6033         0.7846        34.3928         2.2199         1.0043       -80.4795       -38.9701      0.2116168        0.29685
      3928.5000         0.9286        13.4028       1662.559         0.0748       105.6642        -999.25        -999.25        37.2612       43.37454         0.5799         0.6724         33.816         2.2185         1.0069       -85.8892       -44.3798      0.2207349      0.1966704
      3929.0000         0.9608        12.7192       1765.125         0.0818       102.8818        -999.25        -999.25        37.7985       44.21682         0.5566          0.606        33.1683         2.2608         0.8853       -88.8978       -47.3884      0.2386557      0.1409555
      3929.5000         1.2018        12.5487       1863.248         0.0938         96.364        -999.25        -999.25        37.6393       43.96174         0.5332         0.5807        32.5027         2.2985         0.7941       -91.0723       -49.5629      0.2332286       0.100687
      3930.0000          1.328        12.4376       1947.254          0.099        90.5679        -999.25        -999.25        37.1442       43.17744         0.5098         0.5836        32.0079         2.3062         0.8445       -92.7903       -51.2809      0.2165412     0.06887224
      3930.5000         1.4013        12.3736       2030.773         0.0845        89.9291        -999.25        -999.25         36.499       42.15664         0.5081         0.5997        31.6982         2.2853         1.2176       -93.6168       -52.1074      0.1948222     0.05356669
      3931.0000         1.4529        12.3571        2085.23         0.0762        90.4724        -999.25        -999.25         36.278        41.8042         0.5284         0.6221        31.6995         2.2615         1.5312       -93.8469       -52.3375      0.1873233     0.04930553
      3931.5000         1.5046        12.3615       2133.215         0.0707        92.2941        -999.25        -999.25        36.2761       41.79696         0.5488         0.6375         32.071         2.2448         1.7216       -93.4497       -51.9403      0.1871693     0.05666111
      3932.0000         1.5347        12.4281       2170.262         0.0679        95.3522        -999.25        -999.25        37.2552        43.3353         0.5691         0.6438        32.8906         2.2365         1.7199        -92.334       -50.8246      0.2199001     0.07732221
      3932.5000         1.5253        12.5235       2087.523         0.0741        98.7897        -999.25        -999.25        39.3922       46.69782         0.5894         0.6415        33.7079         2.2441         1.6387       -90.5785       -49.0691       0.291443      0.1098315
      3933.0000         1.3188        12.6717       2004.838         0.0942       102.7802        -999.25        -999.25        41.1378       49.44383         0.6225         0.6345        34.5391         2.2564         1.6308       -87.7683       -46.2589      0.3498687      0.1618722
      3933.5000         1.2545        12.8807       1928.549         0.1065       107.0015        -999.25        -999.25        41.6793       50.29273         0.6616         0.6371        35.5421         2.2682          1.654       -83.0496       -41.5402      0.3679305      0.2492556
      3934.0000         1.1921        12.9429        1882.98         0.1019       110.6969        -999.25        -999.25        40.7505       48.82513         0.7008         0.6465        36.7539         2.2618         1.6287       -77.1646       -35.6552      0.3367048       0.358237
      3934.5000         1.1518        13.0224        1831.99         0.0698       111.4147        -999.25        -999.25        40.1017       47.79865         0.7399         0.6862        35.3484         2.2596         1.3518       -67.1195       -25.6101       0.314865      0.5442574
      3935.0000         1.1115        13.2247       1773.674         0.0551       110.7837        -999.25        -999.25        40.4666       48.36932          0.779         0.7636        32.8302         2.2878         1.0071       -62.4718       -20.9624      0.3270068      0.6303259
      3935.5000         1.0909        13.4323       1630.617         0.0935       106.8055        -999.25        -999.25        41.3466       49.75153         0.8182         0.8555        33.9168         2.3282         0.8952       -59.7878       -18.2784      0.3564156      0.6800296
      3936.0000         1.0751        13.4539       1432.908         0.1268       100.8878        -999.25        -999.25        41.6924        50.2921         0.8573         0.9273        35.0027         2.3306         0.9008       -58.2552       -16.7458      0.3679171      0.7084111
      3936.5000         1.4557        13.2443       1339.572           0.11        97.9749        -999.25        -999.25        39.8256       47.34647         0.8909         0.9901        39.9731         2.2368         1.1345       -58.4788       -16.9694       0.305244      0.7042704
      3937.0000         1.6473        12.9375       1266.213         0.0636        97.8479        -999.25        -999.25        37.3824       43.49286         0.9245         1.0314        37.3296         2.2133         1.1812       -63.4346       -21.9252      0.2232524      0.6124963
      3937.5000         1.7168         12.813       1234.186          0.018        97.2395        -999.25        -999.25        35.4964       40.51714          0.958         1.0581         32.261         2.2312         1.1397       -68.8125       -27.3031      0.1599391      0.5129055
