#------------------------------------------------------------------------------
# Created by    : vladimir.rabinovich
# Created on    : 09/19/2023 17:20:05
#------------------------------------------------------------------------------
~Version Information Section
VERS.           2.0     :   CWLS log ASCII Standard - VERSION 2.0
WRAP.           NO      :   One line per depth step
~Well Information Section
#MNEM       .UNIT                                         VALUE :DESCRIPTION
#------------------------------------------------------------------------------
STRT        .FT                                             712 :START DEPTH
STOP        .FT                                            9469 :STOP DEPTH
STEP        .FT                                             0.5 :STEP      
NULL        .                                           -999.25 :NULL      
COMP        .                                 MESA PETROLEUM CO :COMPANY   
WELL        .                                ST TR 00279-L SW/4 :WELL      
FLD         .                                           WILDCAT :FIELD     
LOC         .                                                   :LOCATION  
CNTY        .                             GALVESTON LARGE BLOCK :LOCATION  
STAT        .                                             TEXAS :STATE     
CTRY        .                                     UNITED STATES :COUNTRY   
SRVC        .                                                   :SERVICE COMPANY
DATE        .                             9/13/2023 11:18:53 AM :LOG DATE  
API         .                                    42706300950000 :API NUMBER
UWI         .                                    42706300950000 :UNIQUE WELL ID
XCOORD      .                                  947289.050530544 :SURFACE X 
YCOORD      .                                  10490529.0152507 :SURFACE Y 
LAT         .                                         28.889695 :LATITUDE  
LON         .                                        -95.166438 :LONGITUDE 
ELEV        .FT                                              84 :ELEVATION VALUE
ELEV_TYPE   .                                                KB :ELEVATION REFERENCE TYPE
~Curve Information Section
#MNEM       .UNIT                                      API CODE :CURVE DESCRIPTION
#------------------------------------------------------------------------------
DEPT        .FT                                                 :DEPTH     
ASFL        .OHMM                                               :          
CILD        .MMHO                                               :          
GR          .GAPI                                               :          
GR_NORM     .GAPI                                               :GammaRay Normalized
ILD         .OHMM                                               :          
SP          .MV                                                 :          
SP_NORM     .MV                                                 :SP Normalized
VSH_GR      .V/V                                                :Volume of Shale from GR
VSH_SP      .V/V                                                :Volume of Shale from SP
~A        DEPTH           ASFL           CILD             GR        GR_NORM            ILD             SP        SP_NORM         VSH_GR         VSH_SP
# ...
      5932.5000         0.8754       1360.902        65.5271       65.22796         0.6372       -36.7978      -3.539669      0.6857013      0.9528044
      5933.0000         0.8633       1353.363        66.4565       66.28216         0.6388       -36.0425      -2.785168       0.708131      0.9628645
      5933.5000         0.8514       1345.824        67.3871       67.33773         0.6404       -36.3276       -3.07106        0.73059      0.9590525
      5934.0000          0.844       1344.941        68.0159       68.05034          0.642       -37.9567      -4.700958      0.7457519      0.9373205
      5934.5000         0.8367       1350.609        68.5818       68.69159         0.6436       -40.2912      -7.036255      0.7593955      0.9061832
      5935.0000         0.8352       1356.277        69.1471       69.33205         0.6434       -42.5692      -9.315048      0.7730223      0.8757994
      5935.5000         0.8525        1368.83         69.624       69.87205         0.6419       -42.8932      -9.639847      0.7845116      0.8714687
      5936.0000         0.8697       1384.143        69.4746       69.70034         0.6405       -41.6482      -8.395645      0.7808583      0.8880581
      5936.5000         0.8869       1399.457        69.3251       69.52864         0.6391       -40.4032      -7.151436      0.7772051      0.9046475
      5937.0000         0.8149       1411.744        69.1758       69.35705         0.6377       -39.1453      -5.894337      0.7735542      0.9214088
      5937.5000         0.7809       1423.797        69.4127       69.62432         0.6362       -37.8817      -4.631531      0.7792408      0.9382463
      5938.0000         0.7516        1435.85        69.6672       69.91159         0.6348       -36.6182      -3.368824       0.785353      0.9550824
      5938.5000         0.7414       1447.902        69.9218       70.19909         0.6334       -35.3547      -2.106121        0.79147      0.9719184
      5939.0000         0.7311       1459.955        70.1989       70.51204         0.6292       -34.2708      -1.023022      0.7981285      0.9863597
      5939.5000         0.7233       1464.244          70.55       70.90909         0.6245       -33.8881     -0.6411133      0.8065764      0.9914518
      5940.0000         0.7256       1462.188        70.9011       71.30625         0.6198       -33.5053     -0.2591095      0.8150266      0.9965452
      5940.5000         0.7279       1460.129        71.2523       71.70341         0.6151       -33.2114     0.03399277      0.8234767              1
      5941.0000         0.7302       1458.072        71.6034       72.10046         0.6104       -33.1681     0.07649994      0.8319246              1
      5941.5000         0.7324       1456.016        71.5425       72.02932         0.6057       -33.1248      0.1189995      0.8304111              1
      5942.0000         0.7319       1453.385         71.328       71.78375         0.6036       -33.1635     0.07950211      0.8251862              1
      5942.5000         0.7313       1447.977        71.0409       71.45557         0.6097       -33.2831    -0.04088974      0.8182037      0.9994548
      5943.0000         0.7307       1442.561         70.351       70.66965         0.6159       -33.4028     -0.1613884       0.801482      0.9978482
      5943.5000         0.7302       1437.152         69.906       70.16204         0.6221       -33.4462     -0.2055855      0.7906817      0.9972588
      5944.0000         0.7296       1431.744        70.8514       71.23454         0.6282       -33.4244     -0.1845779      0.8135009       0.997539
      5944.5000         0.7322       1425.191        71.7969       72.30704         0.6344       -33.4026     -0.1635742      0.8363201       0.997819
      5945.0000         0.7367       1418.344        72.7157       73.34921         0.6406       -33.4131     -0.1748734      0.8584937      0.9976683
      5945.5000         0.7412        1411.49        73.2156       73.91534         0.6467       -33.4329     -0.1954651      0.8705392      0.9973938
      5946.0000          0.755       1404.643        73.7148       74.48079         0.6528       -33.4526     -0.2159615        0.88257      0.9971205
      5946.5000         0.7743       1388.836        74.0443       74.85329          0.659       -34.6133       -1.37746      0.8904956      0.9816338
      5947.0000         0.7937       1359.914        73.2427       73.94046         0.6651        -36.024      -2.788952      0.8710736       0.962814
      5947.5000          0.813       1330.992        72.4404       73.02693         0.6712       -37.4513      -4.217052      0.8516368      0.9437726
      5948.0000         0.8324        1302.91        71.7056       72.18999         0.6773       -38.1062      -4.872749      0.8338297        0.93503
      5948.5000         0.8503       1324.199        71.0316       71.42216         0.6834       -37.5833      -4.350643      0.8174927      0.9419914
      5949.0000          0.865       1345.465        70.4562       70.76636         0.6836       -37.0255       -3.79364      0.8035395      0.9494181
      5949.5000         0.8797        1366.73          70.61       70.93932         0.6774       -36.3582      -3.127136      0.8072196      0.9583048
      5950.0000         0.8642       1388.021        70.7638       71.11216         0.6712       -35.6898       -2.45953       0.810897      0.9672062
      5950.5000         0.8462       1409.359        70.9176         71.285          0.665       -35.6361      -2.406628      0.8145745      0.9679117
      5951.0000         0.8342       1431.861         71.157       71.55511         0.6587        -36.932      -3.703323      0.8203214      0.9506224
      5951.5000          0.828       1454.361        71.4204       71.85262         0.6508       -38.8231      -5.595219      0.8266514      0.9253971
      5952.0000         0.8218       1476.836         71.684       72.15023         0.6428       -42.0925      -8.865414      0.8329836      0.8817945
      5952.5000          0.837       1499.336        71.9474       72.44761         0.6349       -61.1294      -27.90311      0.8393108      0.6279585
      5953.0000         0.8614       1519.121        72.2109       72.74512          0.627       -63.6601       -30.4346      0.8456408      0.5942053
      5953.5000         0.8858       1531.234        71.2192       71.61636          0.619       -66.9331       -33.7084      0.8216248      0.5505546
      5954.0000         0.9133        1543.35         68.256       68.24716         0.6111        -69.873       -36.6491      0.7499396      0.5113453
      5954.5000         0.9574       1555.465        65.3556       64.94932         0.6032       -68.4309      -35.20779      0.6797727      0.5305628
      5955.0000         1.0016       1561.484        64.1324       63.55739         0.5999       -66.9868      -33.76449      0.6501572      0.5498068
      5955.5000         1.0434       1560.822        65.0989       64.65386         0.5987       -65.5188      -32.29728      0.6734864      0.5693696
      5956.0000         1.0836       1560.162        66.2861       66.00102         0.5975       -62.1198      -28.89908      0.7021494      0.6146789
      5956.5000         1.0675         1559.5        68.2954       68.28239         0.5964       -58.7208      -25.50088      0.7506891      0.6599883
      5957.0000          0.925       1558.838        70.3047       70.56386         0.5952       -53.4113      -20.19217       0.799231       0.730771
      5957.5000         0.8672       1554.359        71.9833       72.46943          0.594       -39.5859      -6.367569      0.8397751      0.9150991
      5958.0000         0.8122       1548.215        73.5543       74.25272         0.5929       -37.4272      -4.209667      0.8777176      0.9438711
      5958.5000         0.7785       1542.078        74.5664       75.40091         0.5917        -36.634      -3.417259       0.902147      0.9544365
