#------------------------------------------------------------------------------
# Created by    : vladimir.rabinovich
# Created on    : 09/19/2023 17:20:24
#------------------------------------------------------------------------------
~Version Information Section
VERS.           2.0     :   CWLS log ASCII Standard - VERSION 2.0
WRAP.           NO      :   One line per depth step
~Well Information Section
#MNEM       .UNIT                                         VALUE :DESCRIPTION
#------------------------------------------------------------------------------
STRT        .FT                                            1590 :START DEPTH
STOP        .FT                                            8991 :STOP DEPTH
STEP        .FT                                             0.5 :STEP      
NULL        .                                           -999.25 :NULL      
COMP        .                                 C & K OFFSHORE CO :COMPANY   
WELL        .                                OCS 00507 ST00BP00 :WELL      
FLD         .                                           WILDCAT :FIELD     
LOC         .                                                   :LOCATION  
CNTY        .                           HIGH ISLAND LARGE BLOCK :LOCATION  
STAT        .                                             TEXAS :STATE     
CTRY        .                                     UNITED STATES :COUNTRY   
SRVC        .                                                   :SERVICE COMPANY
DATE        .                             9/13/2023 11:19:15 AM :LOG DATE  
API         .                                    42708300260000 :API NUMBER
UWI         .                                    42708300260000 :UNIQUE WELL ID
XCOORD      .                                  1287575.74118613 :SURFACE X 
YCOORD      .                                  10681645.7296129 :SURFACE Y 
LAT         .                                         29.428295 :LATITUDE  
LON         .                                        -94.108714 :LONGITUDE 
ELEV        .FT                                              73 :ELEVATION VALUE
ELEV_TYPE   .                                                KB :ELEVATION REFERENCE TYPE
~Curve Information Section
#MNEM       .UNIT                                      API CODE :CURVE DESCRIPTION
#------------------------------------------------------------------------------
DEPT        .FT                                                 :DEPTH     
ASN         .OHMM                                               :          
CALI        .IN                                                 :          
CILD        .MMHO                                               :          
DT          .US/F                                               :          
GR          .GAPI                                               :          
GR_NORM     .GAPI                                               :GammaRay Normalized
ILD         .OHMM                                               :          
SP          .MV                                                 :          
SP_NORM     .MV                                                 :SP Normalized
VSH_GR      .V/V                                                :Volume of Shale from GR
VSH_SP      .V/V                                                :Volume of Shale from SP
~A        DEPTH            ASN           CALI           CILD             DT             GR        GR_NORM            ILD             SP        SP_NORM         VSH_GR         VSH_SP
# ...
      7980.0000         0.7804        10.4941       1594.584        110.499        67.4031       69.91946         0.6279       -57.1035        -7.1035      0.7855205      0.8985214
      7980.5000         0.7921        10.6151       1567.113       111.2102        70.0253       73.19653         0.6593       -56.6442      -6.644199      0.8552454      0.9050829
      7981.0000         0.8033        10.7708       1548.742       112.0828        73.5216       77.56623         0.6689       -56.3637      -6.363701      0.9482177        0.90909
      7981.5000         0.8026        10.7752       1534.982       112.8502        76.2291       80.94994         0.6765       -56.0832      -6.083199              1      0.9130971
      7982.0000          0.793        10.5134       1579.395       113.0916        77.1952       82.15687         0.6648        -55.803      -5.803001              1         0.9171
      7982.5000         0.7823        10.1566        1599.48       112.8508         77.712       82.80219          0.651       -55.4573      -5.457298              1      0.9220386
      7983.0000         0.7698         9.9968       1619.543       112.5295        78.0497       83.22364         0.6373       -55.0642      -5.064201              1      0.9276543
      7983.5000         0.7577         9.9765       1631.984       111.9875        78.3624       83.61382         0.6235       -55.2695      -5.269501              1      0.9247214
      7984.0000         0.7578         9.9841       1640.936       111.6831        78.5807       83.88603         0.6098       -55.5016      -5.501598              1      0.9214057
      7984.5000          0.758        10.0017       1649.896       111.7889        76.4738       81.25172         0.5986       -55.7409      -5.740898              1      0.9179872
      7985.0000         0.7581        10.0214        1644.85       112.0945        72.6211       76.43517         0.5933       -55.9927      -5.992699      0.9241526        0.91439
      7985.5000         0.7582        10.0476       1645.023       112.5981        70.5343       73.82599         0.5879       -56.2417      -6.241699       0.868638      0.9108329
      7986.0000         0.7576        10.0728       1651.078       113.3717        69.6641       72.73756         0.5826       -55.9787      -5.978699      0.8454801        0.91459
      7986.5000         0.7571        10.0742       1660.699       114.1038        70.6792       74.00575         0.5773       -55.6302      -5.630199      0.8724628      0.9195686
      7987.0000         0.7565        10.0642       1670.568       114.0021        71.9907       75.64445         0.5719       -55.2583      -5.258301      0.9073287      0.9248814
      7987.5000         0.7559        10.1135       1680.438       113.6918        73.2378       77.20264         0.5666       -54.8864      -4.886398      0.9404818      0.9301943
      7988.0000          0.754        10.1452       1690.307       112.9899        74.7667       79.11309         0.5612       -54.5145        -4.5145      0.9811296      0.9355071
      7988.5000         0.7513        10.1356       1700.113       112.2137        77.4325       82.44467         0.5592       -54.1432        -4.1432              1      0.9408115
      7989.0000         0.7486        10.0591       1690.979       111.5192        76.9465       81.83648         0.5605       -53.7607        -3.7607              1      0.9462757
      7989.5000         0.7433         9.9481        1681.83       110.7418        77.3528       82.34367         0.5618       -53.2721      -3.272099              1      0.9532557
      7990.0000         0.7363         9.8545       1672.693       109.7766         79.281       84.75325         0.5632       -52.7835      -2.783501              1      0.9602357
      7990.5000         0.7293          9.896       1663.545       108.8497        80.5281       86.31143         0.5645       -52.4091        -2.4091              1      0.9655843
      7991.0000         0.7325        10.0391       1663.426       109.2563        81.2539       87.21801          0.564       -52.2556        -2.2556              1      0.9677771
      7991.5000         0.7418        10.1418       1669.803       110.7109        80.8276       86.68446         0.5615       -52.6761      -2.676102              1        0.96177
      7992.0000          0.751        10.2262        1676.18       112.6735        78.2435       83.45364         0.5591       -53.0967      -3.096699              1      0.9557614
      7992.5000         0.7616        10.2989       1682.557       114.6212        76.5286       81.30935         0.5566       -54.1288      -4.128799              1      0.9410172
      7993.0000         0.7595        10.3548       1705.211       115.8138         76.045       80.70416         0.5542       -55.8735      -5.873501              1      0.9160929
      7993.5000         0.7474        10.3055       1731.412       116.4651        76.4757       81.24187         0.5515       -57.2139      -7.213902              1      0.8969443
      7994.0000         0.7352        10.1434       1757.615       115.9374        77.1991       82.14542         0.5465       -58.2684      -8.268398              1        0.88188
      7994.5000         0.7187        10.0182       1784.115       115.9417        78.0879       83.25575         0.5416       -57.9452      -7.945202              1      0.8864971
      7995.0000         0.7033        10.2246       1809.125       116.1749        79.0686       84.48096         0.5366       -57.2357      -7.235699              1      0.8966329
      7995.5000         0.6986        10.4796       1826.203       116.3955        79.2595       84.71889         0.5316       -56.7712      -6.771198              1      0.9032686
      7996.0000         0.6959        10.6867       1848.205       116.2686        79.3516       84.83334         0.5293       -56.5209      -6.520901              1      0.9068443
      7996.5000         0.6933        10.8031       1840.074       115.8169        80.4268       86.17667         0.5273       -56.2704      -6.270401              1      0.9104229
      7997.0000         0.6906         10.903       1820.908       115.1082        79.3477       84.82711         0.5254        -56.059      -6.058998              1      0.9134429
      7997.5000          0.688        10.9223       1804.477       114.4753        76.7596       81.59129         0.5235       -55.9114        -5.9114              1      0.9155514
      7998.0000         0.6913        10.9352       1788.789       115.0513        75.4049       79.89724         0.5218       -55.7637      -5.763699      0.9978136      0.9176614
      7998.5000         0.6979        10.9523       1775.881       116.4354        74.4966       78.76118         0.5232       -55.6161        -5.6161      0.9736422        0.91977
      7999.0000         0.7043        10.9273       1777.916       118.1285        73.2985       77.26288         0.5247       -55.4686      -5.468601      0.9417633      0.9218771
      7999.5000         0.7107        10.8154       1794.109       118.8586        73.4238       77.41882         0.5261        -55.321      -5.320999      0.9450814      0.9239857
      8000.0000         0.6994         10.624       1831.748       118.5253        75.6516        80.2029         0.5563       -55.2043        -5.2043              1      0.9256529
      8000.5000         0.6911        10.7605       1849.955        118.403        79.0344       84.43073         0.5553       -55.0324      -5.032398              1      0.9281086
      8001.0000         0.6829        11.0385       1868.383        118.566        80.9823       86.86491         0.5531       -54.8606        -4.8606              1      0.9305629
      8001.5000         0.6762        11.1539        1883.43       118.6692        79.5591       85.08523         0.5495       -54.6887      -4.688702              1      0.9330186
      8002.0000         0.6742        11.1756       1896.537        118.204        78.1829        83.3643         0.5459       -54.5166      -4.516602              1      0.9354771
