#------------------------------------------------------------------------------
# Created by    : vladimir.rabinovich
# Created on    : 09/19/2023 17:19:22
#------------------------------------------------------------------------------
~Version Information Section
VERS.           2.0     :   CWLS log ASCII Standard - VERSION 2.0
WRAP.           NO      :   One line per depth step
~Well Information Section
#MNEM       .UNIT                                         VALUE :DESCRIPTION
#------------------------------------------------------------------------------
STRT        .FT                                            2350 :START DEPTH
STOP        .FT                                            7008 :STOP DEPTH
STEP        .FT                                             0.5 :STEP      
NULL        .                                           -999.25 :NULL      
COMP        .                                  W&T OFFSHORE INC :COMPANY   
WELL        .                               OCS G04565 ST00BP00 :WELL      
FLD         .                              GALVESTON BLOCK 0303 :FIELD     
LOC         .                                                   :LOCATION  
CNTY        .                             GALVESTON LARGE BLOCK :LOCATION  
STAT        .                                             TEXAS :STATE     
CTRY        .                                     UNITED STATES :COUNTRY   
SRVC        .                                                   :SERVICE COMPANY
DATE        .                             9/13/2023 11:19:03 AM :LOG DATE  
API         .                                    42706403950000 :API NUMBER
UWI         .                                    42706403950000 :UNIQUE WELL ID
XCOORD      .                                  979190.041446607 :SURFACE X 
YCOORD      .                                   10483081.623763 :SURFACE Y 
LAT         .                                        28.8707847 :LATITUDE  
LON         .                                       -95.0663777 :LONGITUDE 
ELEV        .FT                                              91 :ELEVATION VALUE
ELEV_TYPE   .                                                KB :ELEVATION REFERENCE TYPE
~Curve Information Section
#MNEM       .UNIT                                      API CODE :CURVE DESCRIPTION
#------------------------------------------------------------------------------
DEPT        .FT                                                 :DEPTH     
AF20        .OHMM                                               :          
AFCO        .MMHO                                               :          
AO90        .OHMM                                               :          
AT10        .OHMM                                               :          
AT20        .OHMM                                               :          
AT30        .OHMM                                               :          
AT60        .OHMM                                               :          
AT90        .OHMM                                               :          
DCAL        .IN                                                 :          
DPHI        .%                                                  :          
DRHO        .G/C3                                               :          
GR          .GAPI                                               :          
GR_NORM     .GAPI                                               :GammaRay Normalized
GRN         .GAPI                                               :          
NPOR        .%                                                  :          
RWA         .OHMM                                               :          
SP          .MV                                                 :          
SP_NORM     .MV                                                 :SP Normalized
TENR        .LBF                                                :          
TPHI        .%                                                  :          
VSH_GR      .V/V                                                :Volume of Shale from GR
VSH_SP      .V/V                                                :Volume of Shale from SP
~A        DEPTH           AF20           AFCO           AO90           AT10           AT20           AT30           AT60           AT90           DCAL           DPHI           DRHO             GR        GR_NORM            GRN           NPOR            RWA             SP        SP_NORM           TENR           TPHI         VSH_GR         VSH_SP
# ...
      2506.0000        -999.25        -999.25        -999.25        -999.25        -999.25        -999.25        -999.25        -999.25        -999.25        -999.25        -999.25           34.7          36.23        -999.25        69.9005        -999.25        -999.25        -999.25           1775        -999.25        -999.25        -999.25
      2506.5000        -999.25        -999.25        -999.25        -999.25        -999.25        -999.25        -999.25        -999.25        -999.25        -999.25        -999.25           31.8          33.62        -999.25        70.9068        -999.25        -999.25        -999.25           1775        -999.25        -999.25        -999.25
      2507.0000        -999.25        -999.25        -999.25        -999.25        -999.25        -999.25        -999.25        -999.25        -999.25        -999.25        -999.25           33.8       35.42001        -999.25        69.3136        -999.25        -999.25        -999.25           1775        -999.25        -999.25        -999.25
      2507.5000        -999.25        -999.25        -999.25        -999.25        -999.25        -999.25        -999.25        -999.25        -999.25        -999.25        -999.25           42.2          42.98        -999.25        73.5536        -999.25        -999.25        -999.25           1780        -999.25        -999.25        -999.25
      2508.0000        -999.25        -999.25        -999.25        -999.25        -999.25        -999.25        -999.25        -999.25        -999.25        -999.25        -999.25           52.2          51.98        -999.25        78.1893        -999.25        -999.25        -999.25           1780        -999.25        -999.25        -999.25
      2508.5000        -999.25        -999.25        -999.25        -999.25        -999.25        -999.25        -999.25        -999.25        -999.25        -999.25        -999.25           61.7       60.53001        -999.25        66.9722        -999.25        -999.25        -999.25           1780        -999.25        -999.25        -999.25
      2509.0000        -999.25        -999.25        -999.25        -999.25        -999.25        -999.25        -999.25        -999.25        -999.25        -999.25        -999.25           71.2          69.08        -999.25        48.5312        -999.25        -999.25        -999.25           1780        -999.25        -999.25        -999.25
      2509.5000        -999.25        -999.25        -999.25        -999.25        -999.25        -999.25        -999.25        -999.25        -999.25        -999.25        -999.25        82.3999       79.15992        -999.25        48.4428        -999.25        -999.25        -999.25           1720        -999.25        -999.25        -999.25
      2510.0000           1.31        14285.7           0.07           0.28           1.47            0.3           0.26           0.26          1.925        39.9999              0           90.2          86.18        -999.25        53.8178           0.01           -3.1     -0.8777776           1720        -999.25        -999.25      0.9840404
      2510.5000           0.84        14285.7           0.07           0.21           0.49           0.11           0.16           0.15          1.925           40.4              0        90.7999       86.71991        -999.25        58.0892           0.02           -3.1     -0.8777776           1720        -999.25        -999.25      0.9840404
      2511.0000           0.62        14285.7           0.07           0.25           0.44           0.12           0.38            0.3          2.025           38.9          -0.01           92.2          87.98        -999.25        56.2518           0.01           -2.5     -0.2777777           1720        -999.25        -999.25      0.9949495
      2511.5000            0.5        14285.7           0.07           0.37           0.42           0.24           0.82           0.76          2.125        35.9999              0           90.7          86.63        -999.25        53.4428           0.01           -2.3    -0.07777762           1755        -999.25        -999.25      0.9985859
      2512.0000           0.45          12500           0.08            0.5           0.38           0.52            2.3           1.51          2.225           34.7          -0.01             91           86.9        -999.25        51.1887           0.01           -2.8     -0.5777776           1755        -999.25        -999.25       0.989495
      2512.5000           0.42        14285.7           0.07           0.54           0.37            0.8            2.6           1.38          2.425           35.2          -0.01        88.8999       85.00992        -999.25        51.6973           0.01           -2.8     -0.5777776           1755        -999.25        -999.25       0.989495
      2513.0000           0.41       9090.906           0.11           0.53           0.37           0.71           2.13           1.18          2.425           36.7          -0.02        89.2999       85.36991        -999.25        54.2314           0.02           -3.6      -1.377778           1755        -999.25        -999.25      0.9749495
      2513.5000           0.42       8333.328           0.12           0.52           0.39            0.6              2           1.14          2.425        38.4999          -0.02        91.2999       87.16991        -999.25          56.88           0.02           -3.7      -1.477778           1770        -999.25        -999.25      0.9731313
      2514.0000           0.44           5000            0.2           0.52           0.43           0.58           1.27           0.93          2.425        39.7999          -0.03             90       86.00001        -999.25        60.2618           0.04           -3.4      -1.177778           1770        -999.25              1      0.9785858
      2514.5000           0.47       2941.176           0.34           0.52           0.48           0.59           0.88           0.78          2.625        40.5999          -0.03           86.6          82.94        -999.25        60.8787           0.08           -3.9      -1.677778           1770        -999.25              1      0.9694949
      2515.0000           0.49       1333.332           0.75           0.53           0.53           0.62           0.73           0.72          2.625           40.9          -0.03        82.7999       79.51991        -999.25        62.0802           0.18           -3.7      -1.477778           1770        -999.25      0.9897854      0.9731313
      2515.5000           0.52       1298.699           0.77           0.54           0.57           0.64           0.68            0.7          2.925        40.4999          -0.03        84.8999       81.40992        -999.25        59.5966           0.18           -4.3      -2.077778           1780        -999.25              1      0.9622222
      2516.0000           0.54       1176.471           0.85           0.54           0.59           0.65           0.69           0.74          3.125           38.7          -0.03        86.2999       82.66991        -999.25        54.6769           0.18           -4.6      -2.377778           1780        -999.25              1      0.9567677
      2516.5000           0.56         1098.9           0.91           0.54            0.6           0.65           0.74            0.8          2.925           37.1          -0.02           92.1          87.89        -999.25        51.6116           0.17           -4.6      -2.377778           1780        -999.25              1      0.9567677
      2517.0000           0.57       1265.822           0.79           0.53           0.59           0.63           0.75           0.82          2.725        36.7999          -0.02           94.1          89.69        -999.25        49.8788           0.15           -4.6      -2.377778           1755        -999.25              1      0.9567677
      2517.5000           0.57       1265.822           0.79           0.52           0.57           0.62           0.72           0.78          2.725        37.3999          -0.03           97.7          92.93        -999.25        50.5335           0.15           -3.7      -1.477778           1755        -999.25              1      0.9731313
