#------------------------------------------------------------------------------
# Created by    : vladimir.rabinovich
# Created on    : 09/19/2023 17:20:37
#------------------------------------------------------------------------------
~Version Information Section
VERS.           2.0     :   CWLS log ASCII Standard - VERSION 2.0
WRAP.           NO      :   One line per depth step
~Well Information Section
#MNEM       .UNIT                                         VALUE :DESCRIPTION
#------------------------------------------------------------------------------
STRT        .FT                                             254 :START DEPTH
STOP        .FT                                            9030 :STOP DEPTH
STEP        .FT                                             0.5 :STEP      
NULL        .                                           -999.25 :NULL      
COMP        .                                    MOBIL OIL CORP :COMPANY   
WELL        .                                OCS 00724 ST00BP00 :WELL      
FLD         .                                           WILDCAT :FIELD     
LOC         .                                                   :LOCATION  
CNTY        .                             GALVESTON LARGE BLOCK :LOCATION  
STAT        .                                             TEXAS :STATE     
CTRY        .                                     UNITED STATES :COUNTRY   
SRVC        .                                                   :SERVICE COMPANY
DATE        .                             9/13/2023 11:19:25 AM :LOG DATE  
API         .                                    42706000340000 :API NUMBER
UWI         .                                    42706000340000 :UNIQUE WELL ID
XCOORD      .                                  1011870.95166473 :SURFACE X 
YCOORD      .                                   10400634.765487 :SURFACE Y 
LAT         .                                         28.645607 :LATITUDE  
LON         .                                        -94.960058 :LONGITUDE 
ELEV        .FT                                              34 :ELEVATION VALUE
ELEV_TYPE   .                                                KB :ELEVATION REFERENCE TYPE
~Curve Information Section
#MNEM       .UNIT                                      API CODE :CURVE DESCRIPTION
#------------------------------------------------------------------------------
DEPT        .FT                                                 :DEPTH     
ASN         .OHMM                                               :          
CALI        .IN                                                 :          
CILD        .MMHO                                               :          
DT          .US/F                                               :          
ILD         .OHMM                                               :          
SP          .MV                                                 :          
SP_NORM     .MV                                                 :SP Normalized
VSH_SP      .V/V                                                :Volume of Shale from SP
~A        DEPTH            ASN           CALI           CILD             DT            ILD             SP        SP_NORM         VSH_SP
# ...
      9015.5000         0.5966        -999.25       2002.613        -999.25         0.4707       -41.4937      -2.469307      0.9567851
      9016.0000         0.5993        -999.25        2004.18        -999.25         0.4704       -41.5959       -2.57151      0.9537791
      9016.5000         0.6019        -999.25       2005.744        -999.25         0.4701        -41.668      -2.643608      0.9516586
      9017.0000         0.6045        -999.25       2007.313        -999.25         0.4697       -41.7401       -2.71571      0.9495379
      9017.5000         0.6072        -999.25       2009.008        -999.25         0.4694       -41.8123       -2.78791      0.9474144
      9018.0000         0.6098        -999.25       2010.754        -999.25         0.4691       -41.8845      -2.860107       0.945291
      9018.5000         0.6125        -999.25         2012.5        -999.25         0.4687       -41.9567      -2.932308      0.9431674
      9019.0000         0.6135        -999.25       2012.969        -999.25         0.4684       -42.0287      -3.004311      0.9410497
      9019.5000         0.6132        -999.25       2010.768        -999.25         0.4681       -42.1009      -3.076508      0.9389262
      9020.0000         0.6118        -999.25       2007.137        -999.25          0.468       -42.0415      -3.017109      0.9406733
      9020.5000         0.6077        -999.25       2002.908        -999.25         0.4711       -41.9396      -2.915211      0.9436703
      9021.0000         0.6035        -999.25        1998.68        -999.25         0.4741       -41.8376       -2.81321      0.9466703
      9021.5000         0.6032        -999.25       1991.463        -999.25         0.4771       -41.7357      -2.711308      0.9496675
      9022.0000         0.6047        -999.25       1982.588        -999.25         0.4801       -41.6339      -2.609509      0.9526615
      9022.5000         0.6064        -999.25       1961.555        -999.25         0.4831       -41.5531      -2.528709       0.955038
      9023.0000         0.6087        -999.25       1928.273        -999.25         0.4862       -41.6631       -2.63871      0.9518027
      9023.5000          0.611        -999.25        1884.26        -999.25         0.5292       -41.7732       -2.74881      0.9485644
      9024.0000         0.6133        -999.25       1559.504        -999.25         0.5722       -41.8832       -2.85881      0.9453291
      9024.5000          0.613        -999.25       1257.613        -999.25         0.6267       -41.9932      -2.968807      0.9420939
      9025.0000         0.6118        -999.25       1229.551        -999.25         0.6852       -42.0552      -3.030807      0.9402704
      9025.5000         0.6107        -999.25       1237.146        -999.25         0.7188        -42.072      -3.047607      0.9397762
      9026.0000         0.6096        -999.25       1228.691        -999.25         0.7222       -42.0889       -3.06451      0.9392791
      9026.5000         0.6087        -999.25       1240.453        -999.25         0.7255       -42.1057       -3.08131       0.938785
      9027.0000         0.6082        -999.25       1264.768        -999.25         0.7289       -42.1226      -3.098209       0.938288
      9027.5000         0.6077        -999.25        1293.34        -999.25         0.7322       -42.1394      -3.115009      0.9377939
      9028.0000         0.6082        -999.25       1329.928        -999.25         0.7356        -42.149      -3.124607      0.9375116
      9028.5000         0.6097        -999.25       1379.828        -999.25         0.7376       -42.0959       -3.07151      0.9390732
      9029.0000         0.6113        -999.25       1510.781        -999.25         0.7395        -42.043      -3.018608      0.9406292
      9029.5000         0.6122        -999.25       1591.744        -999.25         0.7414         -41.99      -2.965611      0.9421879
      9030.0000         0.6127        -999.25       1800.762        -999.25         0.7433        -41.937      -2.912609      0.9437468
