#------------------------------------------------------------------------------
# Created by    : vladimir.rabinovich
# Created on    : 09/19/2023 17:22:56
#------------------------------------------------------------------------------
~Version Information Section
VERS.           2.0     :   CWLS log ASCII Standard - VERSION 2.0
WRAP.           NO      :   One line per depth step
~Well Information Section
#MNEM       .UNIT                                         VALUE :DESCRIPTION
#------------------------------------------------------------------------------
STRT        .FT                                             890 :START DEPTH
STOP        .FT                                            9495 :STOP DEPTH
STEP        .FT                                             0.5 :STEP      
NULL        .                                           -999.25 :NULL      
COMP        .                                   MARATHON OIL CO :COMPANY   
WELL        .                               OCS G04138 ST00BP00 :WELL      
FLD         .                                           WILDCAT :FIELD     
LOC         .                                                   :LOCATION  
CNTY        .                      MATAGORDA ISLAND LARGE BLOCK :LOCATION  
STAT        .                                             TEXAS :STATE     
CTRY        .                                     UNITED STATES :COUNTRY   
SRVC        .                                                   :SERVICE COMPANY
DATE        .                             9/13/2023 11:12:11 AM :LOG DATE  
API         .                                    42703402070000 :API NUMBER
UWI         .                                    42703402070000 :UNIQUE WELL ID
XCOORD      .                                  590883.400226114 :SURFACE X 
YCOORD      .                                  10259990.6406746 :SURFACE Y 
LAT         .                                         28.233929 :LATITUDE  
LON         .                                        -96.259589 :LONGITUDE 
ELEV        .FT                                              90 :ELEVATION VALUE
ELEV_TYPE   .                                                KB :ELEVATION REFERENCE TYPE
~Curve Information Section
#MNEM       .UNIT                                      API CODE :CURVE DESCRIPTION
#------------------------------------------------------------------------------
DEPT        .FT                                                 :DEPTH     
SP          .MV                                                 :          
SP_NORM     .MV                                                 :SP Normalized
VSH_SP      .V/V                                                :Volume of Shale from SP
~A        DEPTH             SP        SP_NORM         VSH_SP
# ...
      2606.0000        66.9479        -44.794              0
      2606.5000        66.3234      -44.16862              0
      2607.0000        65.6077      -43.45203              0
      2607.5000        64.1051      -41.94856     0.02564481
      2608.0000         62.721      -40.56358     0.05942489
      2608.5000        61.5571       -39.3988     0.08783424
      2609.0000        60.3932      -38.23402      0.1162435
      2609.5000        59.2802      -37.12014      0.1434112
      2610.0000        58.1685      -36.00756      0.1705474
      2610.5000        54.6234      -32.46158      0.2570347
      2611.0000        52.0892       -29.9265      0.3188659
      2611.5000        44.9517      -22.78811      0.4929728
      2612.0000        40.8895      -18.72504      0.5920722
      2612.5000        38.4422      -16.27686       0.651784
      2613.0000        38.0483      -15.88208      0.6614127
      2613.5000        41.4818       -19.3147      0.5776904
      2614.0000        48.3828      -26.21482      0.4093947
      2614.5000        59.9119      -37.74303      0.1282187
      2615.0000        61.7428      -39.57306     0.08358402
      2615.5000        63.0192      -40.84857     0.05247386
      2616.0000        63.5599      -41.38839     0.03930757
      2616.5000        63.9758      -41.80341     0.02918504
      2617.0000        64.3057      -42.13243     0.02116013
      2617.5000        64.3582      -42.18405     0.01990118
      2618.0000        64.2896      -42.11457     0.02159584
      2618.5000        64.0205      -41.84459     0.02818066
      2619.0000        63.5466      -41.36981     0.03976068
      2619.5000        62.8557      -40.67803     0.05663337
      2620.0000        61.7992      -39.62065     0.08242314
      2620.5000        60.5989      -38.41947      0.1117202
      2621.0000        59.0272      -36.84689      0.1500759
      2621.5000        56.5107      -34.32951      0.2114753
      2622.0000        53.2957      -31.11363      0.2899114
      2622.5000        50.4654      -28.28245      0.3589646
      2623.0000        46.8778      -24.69397      0.4464885
      2623.5000        42.3022      -20.11749        0.55811
      2624.0000        40.3373      -18.15171      0.6060559
      2624.5000        37.9998      -15.81333      0.6630895
      2625.0000        35.6259      -13.43855       0.721011
      2625.5000        31.1632      -8.974968      0.8298788
      2626.0000          29.14      -6.950888      0.8792467
      2626.5000        27.7808      -5.590807      0.9124193
      2627.0000        26.7956      -4.604729        0.93647
      2627.5000        26.4466      -4.254847      0.9450037
      2628.0000        26.3057      -4.113068      0.9484618
      2628.5000        26.3207      -4.127186      0.9481174
      2629.0000        26.3357      -4.141306       0.947773
      2629.5000        26.1906      -3.995325      0.9513335
      2630.0000        25.7554      -3.559246      0.9619696
      2630.5000        24.6452      -2.448166      0.9890691
      2631.0000        22.9091     -0.7111855              1
      2631.5000        21.8401       0.358696              1
      2632.0000        20.7943       1.405375              1
      2632.5000        19.6361       2.564455              1
      2633.0000         18.853       3.348434              1
      2633.5000        19.0196       3.182716              1
      2634.0000        19.2231       2.980097              1
      2634.5000        19.4162       2.787876              1
      2635.0000        19.5804       2.624557              1
      2635.5000        19.7447       2.461138              1
      2636.0000        19.9089       2.297819              1
      2636.5000        20.0225       2.185099              1
      2637.0000        19.9278        2.28068              1
      2637.5000         19.833       2.376358              1
      2638.0000        19.7383       2.471939              1
      2638.5000        19.5748       2.636318              1
      2639.0000        19.0929       3.119101              1
      2639.5000        18.6111        3.60178              1
      2640.0000        18.1291        4.08466              1
      2640.5000        17.5313        4.68334              1
      2641.0000        16.8441        5.37142              1
      2641.5000        16.2934          5.923              1
      2642.0000        15.8368       6.380482              1
      2642.5000        15.3862       6.831963              1
      2643.0000        15.0518       7.167242              1
      2643.5000        14.7175       7.502423              1
      2644.0000        14.6275       7.593303              1
      2644.5000        14.5447       7.676984              1
      2645.0000        14.4619       7.760663              1
      2645.5000        14.5349       7.688544              1
      2646.0000        14.6565       7.567823              1
      2646.5000         14.778       7.447205              1
      2647.0000        14.8995       7.326584              1
      2647.5000        14.8584       7.368565              1
      2648.0000        14.7918       7.436045              1
      2648.5000        14.7252       7.503526              1
      2649.0000        14.6753       7.554305              1
      2649.5000        14.6447       7.585786              1
      2650.0000        14.6571       7.574265              1
      2650.5000        15.2078       7.024446              1
      2651.0000        15.7585       6.474626              1
      2651.5000        16.3428       5.891207              1
      2652.0000        17.0009       5.233988              1
      2652.5000        17.6591       4.576668              1
      2653.0000        18.7596       3.477049              1
      2653.5000        20.0849       2.152628              1
      2654.0000        21.2254       1.013008              1
      2654.5000        22.1378      0.1014881              1
      2655.0000        22.6284     -0.3882313              1
      2655.5000        22.8035     -0.5624504              1
      2656.0000        22.2519   -0.009969711              1
      2656.5000        21.6499      0.5929089              1
      2657.0000        21.0513        1.19239              1
      2657.5000        20.4599        1.78467              1
      2658.0000        19.9232        2.32225              1
      2658.5000        19.6528       2.593531              1
      2659.0000        19.4833       2.763912              1
      2659.5000        19.5322       2.715891              1
      2660.0000        19.5811       2.667871              1
      2660.5000          19.63       2.619852              1
      2661.0000        19.6907       2.560032              1
      2661.5000        19.8047       2.446913              1
      2662.0000        19.9186       2.333893              1
      2662.5000        20.0028       2.250574              1
      2663.0000        19.6205       2.633753              1
      2663.5000         19.238       3.017134              1
      2664.0000        18.8391       3.416914              1
      2664.5000        18.3284       3.928495              1
      2665.0000        17.8174       4.440374              1
      2665.5000        17.5005       4.758156              1
      2666.0000        17.2382       5.021336              1
      2666.5000        16.9759       5.284515              1
      2667.0000        16.9542       5.307095              1
      2667.5000        17.0387       5.223476              1
      2668.0000        17.3611       4.901957              1
      2668.5000        18.1391       4.124838              1
      2669.0000        18.9167       3.348116              1
      2669.5000        20.2918       1.973898              1
      2670.0000        21.4363      0.8302784              1
      2670.5000        22.3751     -0.1076412              1
      2671.0000        23.2498     -0.9814606              1
      2671.5000        23.9968      -1.727581              1
