#------------------------------------------------------------------------------
# Created by    : vladimir.rabinovich
# Created on    : 09/19/2023 17:20:32
#------------------------------------------------------------------------------
~Version Information Section
VERS.           2.0     :   CWLS log ASCII Standard - VERSION 2.0
WRAP.           NO      :   One line per depth step
~Well Information Section
#MNEM       .UNIT                                         VALUE :DESCRIPTION
#------------------------------------------------------------------------------
STRT        .FT                                             642 :START DEPTH
STOP        .FT                                           11989 :STOP DEPTH
STEP        .FT                                             0.5 :STEP      
NULL        .                                           -999.25 :NULL      
COMP        .                       CORPUS CHRISTI OIL & GAS CO :COMPANY   
WELL        .                               OCS G05177 ST00BP00 :WELL      
FLD         .                              GALVESTON BLOCK 0151 :FIELD     
LOC         .                                                   :LOCATION  
CNTY        .                             GALVESTON LARGE BLOCK :LOCATION  
STAT        .                                             TEXAS :STATE     
CTRY        .                                     UNITED STATES :COUNTRY   
SRVC        .                                                   :SERVICE COMPANY
DATE        .                             9/13/2023 11:19:27 AM :LOG DATE  
API         .                                    42706401010000 :API NUMBER
UWI         .                                    42706401010000 :UNIQUE WELL ID
XCOORD      .                                   1130272.6689428 :SURFACE X 
YCOORD      .                                  10609756.0111422 :SURFACE Y 
LAT         .                                         29.225567 :LATITUDE  
LON         .                                        -94.599775 :LONGITUDE 
ELEV        .FT                                              83 :ELEVATION VALUE
ELEV_TYPE   .                                                KB :ELEVATION REFERENCE TYPE
~Curve Information Section
#MNEM       .UNIT                                      API CODE :CURVE DESCRIPTION
#------------------------------------------------------------------------------
DEPT        .FT                                                 :DEPTH     
ASN         .OHMM                                               :          
CILD        .MMHO                                               :          
DT          .US/F                                               :          
ILD         .OHMM                                               :          
RHOB        .G/CC                                               :          
SP          .MV                                                 :          
SP_NORM     .MV                                                 :SP Normalized
VSH_SP      .V/V                                                :Volume of Shale from SP
~A        DEPTH            ASN           CILD             DT            ILD           RHOB             SP        SP_NORM         VSH_SP
# ...
     11970.0000         2.5361        657.126        87.5816         1.3494         2.4142       -44.4534      -4.905376      0.9299232
     11970.5000         2.0479       672.2227        88.8251          1.366         2.4334       -43.9685      -4.420475      0.9368504
     11971.0000         1.9699       691.3242        89.7592         1.3825          2.445       -43.6362      -4.088177      0.9415975
     11971.5000         1.9427       708.1367         89.931         1.3991         2.4503       -45.5021      -5.954079      0.9149417
     11972.0000         1.9733         698.71        90.4161         1.4132         2.4418       -48.7267      -9.178677       0.868876
     11972.5000         1.9973       687.1455        -999.25         1.4247         2.4394       -51.0307      -11.48268      0.8359618
     11973.0000         2.0214       673.3916        -999.25         1.4357         2.4425       -52.6381      -13.09008      0.8129989
     11973.5000         2.0453       695.2041        -999.25         1.4295        -999.25       -53.2633      -13.71528      0.8040674
     11974.0000         2.1119       715.7217        -999.25           1.42        -999.25       -54.0313      -14.48328      0.7930961
     11974.5000         2.1851       725.3965        -999.25         1.3928        -999.25       -54.9926      -15.44458      0.7793632
     11975.0000         2.1641       732.9951        -999.25         1.3656        -999.25       -55.7642      -16.21618      0.7683403
     11975.5000          1.965       739.2813        -999.25         1.3384        -999.25       -56.4116      -16.86357      0.7590918
     11976.0000         1.8992       742.6328        -999.25         1.3117        -999.25       -54.5384      -14.99038      0.7858518
     11976.5000         1.7597       740.8662        -999.25         1.2852        -999.25       -53.3286      -13.78058      0.8031346
     11977.0000         1.7142       732.3857        -999.25         1.2585        -999.25       -53.2054      -13.65738      0.8048946
     11977.5000         1.7388       723.8926        -999.25         1.2366        -999.25       -53.6879      -14.13988      0.7980018
     11978.0000         1.7633       713.0605        -999.25         1.2154        -999.25       -54.1716      -14.62358      0.7910917
     11978.5000         1.8736        702.168        -999.25         1.1945        -999.25       -54.6516      -15.10358      0.7842346
     11979.0000         1.9343       687.3447        -999.25         1.1745        -999.25       -55.1218      -15.57378      0.7775175
     11979.5000         2.0112       695.6016        -999.25         1.1544        -999.25       -55.5876      -16.03958      0.7708632
     11980.0000          2.085       725.4961        -999.25         1.1344        -999.25       -55.7003      -16.15228      0.7692532
     11980.5000          2.009       786.3799        -999.25         1.1101        -999.25       -53.7137      -14.16568      0.7976332
     11981.0000          1.971       838.0127        -999.25         1.0852        -999.25       -46.7993      -7.251278      0.8964103
     11981.5000          1.638       896.1104        -999.25         1.0605        -999.25       -44.9409      -5.392876      0.9229589
     11982.0000         1.1527       962.3672        -999.25         1.0331        -999.25       -42.1605      -2.612476      0.9626789
     11982.5000         1.0548       1141.736        -999.25         1.0039        -999.25       -41.4762      -1.928177      0.9724546
     11983.0000         1.0097       1182.225        -999.25         0.9748        -999.25       -40.9248      -1.376778      0.9803317
     11983.5000         0.9737       1304.789        -999.25         0.9455        -999.25       -40.3857      -0.837677      0.9880332
     11984.0000         0.9738        1370.25        -999.25         0.9135        -999.25        -39.867     -0.3189774      0.9954432
     11984.5000         0.9942       1367.066        -999.25         0.8815        -999.25       -39.6553     -0.1072769      0.9984674
     11985.0000         1.0146       1312.947        -999.25         0.9254        -999.25       -39.7424     -0.1943779      0.9972232
     11985.5000         1.0475       1213.463        -999.25         0.9861        -999.25       -39.9316     -0.3835754      0.9945204
     11986.0000         1.0918       991.6152        -999.25          1.066        -999.25       -40.1205     -0.5724754      0.9918218
     11986.5000         1.4168       838.2109        -999.25         1.1438        -999.25       -40.3531     -0.8050766      0.9884989
     11987.0000         1.4701        798.418        -999.25         1.2186        -999.25       -40.6393      -1.091278      0.9844103
     11987.5000         1.6593       753.5508        -999.25         1.2804        -999.25       -40.6553      -1.107277      0.9841818
     11988.0000         1.5625       748.2617        -999.25         1.3359        -999.25       -39.8898     -0.3417778      0.9951175
     11988.5000         1.4792       748.2178        -999.25         1.3599        -999.25        -39.347      0.2010231              1
     11989.0000         1.4397       748.1729        -999.25         1.3619        -999.25       -38.8978      0.6502228              1
