#------------------------------------------------------------------------------
# Created by    : vladimir.rabinovich
# Created on    : 09/19/2023 17:22:28
#------------------------------------------------------------------------------
~Version Information Section
VERS.           2.0     :   CWLS log ASCII Standard - VERSION 2.0
WRAP.           NO      :   One line per depth step
~Well Information Section
#MNEM       .UNIT                                         VALUE :DESCRIPTION
#------------------------------------------------------------------------------
STRT        .FT                                            2981 :START DEPTH
STOP        .FT                                           10477 :STOP DEPTH
STEP        .FT                                             0.5 :STEP      
NULL        .                                           -999.25 :NULL      
COMP        .                          SEAGULL ENERGY E & P INC :COMPANY   
WELL        .                               OCS G13783 ST00BP00 :WELL      
FLD         .                                           WILDCAT :FIELD     
LOC         .                                                   :LOCATION  
CNTY        .                             GALVESTON LARGE BLOCK :LOCATION  
STAT        .                                             TEXAS :STATE     
CTRY        .                                     UNITED STATES :COUNTRY   
SRVC        .                                                   :SERVICE COMPANY
DATE        .                             9/13/2023 11:19:39 AM :LOG DATE  
API         .                                    42706403890000 :API NUMBER
UWI         .                                    42706403890000 :UNIQUE WELL ID
XCOORD      .                                  1047250.65699841 :SURFACE X 
YCOORD      .                                  10470150.2239286 :SURFACE Y 
LAT         .                                         28.838318 :LATITUDE  
LON         .                                         -94.85315 :LONGITUDE 
ELEV        .FT                                              94 :ELEVATION VALUE
ELEV_TYPE   .                                                KB :ELEVATION REFERENCE TYPE
~Curve Information Section
#MNEM       .UNIT                                      API CODE :CURVE DESCRIPTION
#------------------------------------------------------------------------------
DEPT        .FT                                                 :DEPTH     
CILD        .MMHO                                               :          
CNC         .%                                                  :          
DT24        .US/F                                               :          
GR          .GAPI                                               :          
GR_NORM     .GAPI                                               :GammaRay Normalized
PORZ        .%                                                  :          
RFOC        .OHMM                                               :          
RILD        .OHMM                                               :          
RILM        .OHMM                                               :          
RWAZ        .OHMM                                               :          
SP          .MV                                                 :          
SP_NORM     .MV                                                 :SP Normalized
TEN         .LBF                                                :          
VSH_GR      .V/V                                                :Volume of Shale from GR
VSH_SP      .V/V                                                :Volume of Shale from SP
ZCOR        .G/C3                                               :          
ZDEN        .G/C3                                               :          
~A        DEPTH           CILD            CNC           DT24             GR        GR_NORM           PORZ           RFOC           RILD           RILM           RWAZ             SP        SP_NORM            TEN         VSH_GR         VSH_SP           ZCOR           ZDEN
# ...
      5951.0000       1251.113        -999.25       117.6119        84.1849       73.93404        -999.25           1.02          0.799          0.801        -999.25         -0.753      0.4446048         21.245      0.8709369              1        -999.25        -999.25
      5951.5000       1212.953        -999.25        118.684         84.428        74.2245        -999.25          1.007          0.824          0.824        -999.25         -0.678      0.5196048          2.746      0.8771171              1        -999.25        -999.25
      5952.0000       1176.123        -999.25       118.5099        84.9789       74.88432        -999.25          1.014           0.85           0.85        -999.25         -0.956      0.2416048        -11.842      0.8911557              1        -999.25        -999.25
      5952.5000       1148.488        -999.25        116.074        83.7849       73.45026        -999.25          1.058          0.871          0.869        -999.25         -1.274    -0.07639527        -15.423      0.8606437      0.9989086        -999.25        -999.25
      5953.0000       1131.635        -999.25       112.6389        80.8679        69.9486        -999.25          1.117          0.884          0.876        -999.25         -1.302     -0.1043953        -13.254      0.7861404      0.9985086        -999.25        -999.25
      5953.5000       1121.033        -999.25       110.2219          78.58       67.20187        -999.25          1.135          0.892          0.874        -999.25         -0.868      0.3296048         -5.292      0.7276995              1        -999.25        -999.25
      5954.0000       1113.887        -999.25        109.855         79.325       68.09461        -999.25          1.101          0.898          0.867        -999.25         -0.662      0.5356048          0.826      0.7466938              1        -999.25        -999.25
      5954.5000       1116.141        -999.25       111.1489         82.496       71.89855        -999.25          1.055          0.896          0.862        -999.25         -1.253    -0.05539525           -6.2      0.8276288      0.9992086        -999.25        -999.25
      5955.0000        1136.32        -999.25        113.257        85.3949       75.37597        -999.25          1.023           0.88          0.856        -999.25         -2.161     -0.9633952        -11.517      0.9016163      0.9862372        -999.25        -999.25
      5955.5000       1179.402        -999.25       114.8629         86.745       76.99483        -999.25          1.007          0.848          0.848        -999.25         -2.769      -1.571395          7.701      0.9360603      0.9775515        -999.25        -999.25
      5956.0000       1250.078        -999.25         115.62        86.9199       77.20346        -999.25          0.995            0.8          0.833        -999.25         -3.603      -2.405395         30.414      0.9404992      0.9656372        -999.25        -999.25
      5956.5000       1348.771        -999.25       115.7389        86.3679        76.5398        -999.25          0.983          0.741          0.805        -999.25         -6.371      -5.173395         25.418      0.9263788      0.9260944        -999.25        -999.25
      5957.0000       1466.305        -999.25        114.502         83.402       72.97946        -999.25          0.994          0.682          0.762        -999.25        -13.202      -12.00439          3.971      0.8506268      0.8285087        -999.25        -999.25
      5957.5000       1591.889        -999.25       112.8109         77.986       66.47901        -999.25          1.037          0.628           0.71        -999.25        -24.012      -22.81439         -9.458      0.7123194      0.6740801        -999.25        -999.25
      5958.0000       1727.365        -999.25       108.8929        71.9449       59.22842        -999.25           1.09          0.579          0.659        -999.25        -35.099      -33.90139        -17.628      0.5580516      0.5156944        -999.25        -999.25
      5958.5000       1876.857        -999.25       103.5559        65.9709       52.05837        -999.25          1.138          0.533          0.615        -999.25        -42.532       -41.3344        -23.672      0.4054972      0.4095086        -999.25        -999.25
      5959.0000       2017.541        -999.25        103.653         60.882       45.95044        -999.25          1.177          0.496          0.578        -999.25        -45.826       -44.6284        -27.895      0.2755412      0.3624515        -999.25        -999.25
      5959.5000       2110.004        -999.25        105.771         58.756       43.39797        -999.25          1.146          0.474          0.557        -999.25        -46.549      -45.35139        -36.272      0.2212334      0.3521229        -999.25        -999.25
      5960.0000       2145.234        -999.25       108.7319         59.877       44.74191        -999.25          1.028          0.466          0.556        -999.25        -45.309      -44.11139        -45.106      0.2498279      0.3698373        -999.25        -999.25
      5960.5000       2150.879        -999.25        112.167         61.522       46.71465        -999.25          0.936          0.465          0.572        -999.25       -41.8019      -40.60429         -42.43      0.2918011      0.4199387        -999.25        -999.25
      5961.0000       2150.727        -999.25       110.9509         62.981        48.4642        -999.25          0.948          0.465          0.591        -999.25         -37.03      -35.83239        -30.162      0.3290255      0.4881087        -999.25        -999.25
      5961.5000       2142.145        -999.25        108.386        64.1439       49.85842        -999.25           1.05          0.467          0.604        -999.25       -33.2209       -32.0233        -20.586      0.3586898      0.5425243        -999.25        -999.25
      5962.0000       2106.371        -999.25       107.8169        65.9779       52.05796        -999.25          1.133          0.475          0.611        -999.25        -31.366      -30.16839        -15.284      0.4054885       0.569023        -999.25        -999.25
      5962.5000       2037.131        -999.25       108.5039        68.9309       55.60031        -999.25          1.118          0.491          0.616        -999.25        -31.093       -29.8954        -10.222      0.4808577      0.5729229        -999.25        -999.25
      5963.0000       1955.551        -999.25        109.049        70.6439       57.65464        -999.25          1.089          0.511          0.619        -999.25        -31.937       -30.7394         -7.086      0.5245669      0.5608658        -999.25        -999.25
      5963.5000       1888.184        -999.25       110.4409         68.949       55.61951        -999.25          1.083           0.53          0.621        -999.25        -32.924      -31.72639         -4.811      0.4812661      0.5467658        -999.25        -999.25
      5964.0000       1840.564        -999.25       111.9419        67.1539       53.46413        -999.25          1.048          0.543          0.626        -999.25        -32.739      -31.54139         -0.312      0.4354071      0.5494087        -999.25        -999.25
      5964.5000       1800.832        -999.25        112.349        67.4769       53.85047        -999.25          0.994          0.555          0.637        -999.25         -32.05      -30.85239          5.221      0.4436271      0.5592515        -999.25        -999.25
      5965.0000       1756.447        -999.25       113.9679        67.1129       53.41242        -999.25           0.99          0.569          0.653        -999.25        -32.474      -31.27639         15.054      0.4343068      0.5531943        -999.25        -999.25
      5965.5000       1703.004        -999.25       114.4349         65.564       51.55248        -999.25          1.049          0.587           0.67        -999.25        -33.526       -32.3284         28.563      0.3947336      0.5381657        -999.25        -999.25
