#------------------------------------------------------------------------------
# Created by    : vladimir.rabinovich
# Created on    : 09/19/2023 17:20:32
#------------------------------------------------------------------------------
~Version Information Section
VERS.           2.0     :   CWLS log ASCII Standard - VERSION 2.0
WRAP.           NO      :   One line per depth step
~Well Information Section
#MNEM       .UNIT                                         VALUE :DESCRIPTION
#------------------------------------------------------------------------------
STRT        .FT                                             530 :START DEPTH
STOP        .FT                                           15895 :STOP DEPTH
STEP        .FT                                             0.5 :STEP      
NULL        .                                           -999.25 :NULL      
COMP        .                                      SHELL OIL CO :COMPANY   
WELL        .                                OCS 00708 ST00BP00 :WELL      
FLD         .                                FEDERAL BLOCK 0288 :FIELD     
LOC         .                                                   :LOCATION  
CNTY        .                             GALVESTON LARGE BLOCK :LOCATION  
STAT        .                                             TEXAS :STATE     
CTRY        .                                     UNITED STATES :COUNTRY   
SRVC        .                                                   :SERVICE COMPANY
DATE        .                             9/13/2023 11:19:24 AM :LOG DATE  
API         .                                    42706000930000 :API NUMBER
UWI         .                                    42706000930000 :UNIQUE WELL ID
XCOORD      .                                  1077631.85251343 :SURFACE X 
YCOORD      .                                  10490946.9562601 :SURFACE Y 
LAT         .                                         28.896779 :LATITUDE  
LON         .                                        -94.759235 :LONGITUDE 
ELEV        .FT                                              76 :ELEVATION VALUE
ELEV_TYPE   .                                                KB :ELEVATION REFERENCE TYPE
~Curve Information Section
#MNEM       .UNIT                                      API CODE :CURVE DESCRIPTION
#------------------------------------------------------------------------------
DEPT        .FT                                                 :DEPTH     
ASN         .OHMM                                               :          
CILD        .MMHO                                               :          
SP          .MV                                                 :          
SP_NORM     .MV                                                 :SP Normalized
VSH_SP      .V/V                                                :Volume of Shale from SP
~A        DEPTH            ASN           CILD             SP        SP_NORM         VSH_SP
# ...
     13818.0000         0.7999       1561.016       -42.4861      -2.486099      0.9618949
     13818.5000         0.7917       1578.125       -42.4728      -2.472801      0.9622359
     13819.0000         0.7811        1605.25       -42.4601      -2.460098      0.9625616
     13819.5000         0.7685       1664.625       -42.4475      -2.447498      0.9628847
     13820.0000         0.7516        1728.25       -42.4348      -2.434799      0.9632103
     13820.5000         0.7356       1775.813       -42.4222      -2.422199      0.9635333
     13821.0000         0.7216       1802.063       -42.4095        -2.4095       0.963859
     13821.5000         0.7077       1821.688       -42.3968      -2.396801      0.9641846
     13822.0000         0.6949       1833.063       -42.3842      -2.384201      0.9645076
     13822.5000         0.6851       1844.438       -42.3715      -2.371498      0.9648334
     13823.0000         0.6922        1849.32       -42.3588      -2.358799       0.965159
     13823.5000         0.6993       1854.117       -42.3461        -2.3461      0.9654846
     13824.0000         0.7063       1858.914       -42.3334      -2.333401      0.9658102
     13824.5000         0.7109       1864.625       -42.3208      -2.320801      0.9661333
     13825.0000          0.705       1875.438       -42.3081      -2.308102      0.9664589
     13825.5000         0.6991        1886.25       -42.2985        -2.2985      0.9667051
     13826.0000         0.6932       1900.688       -42.2905      -2.290501      0.9669102
     13826.5000         0.6865       1918.969       -42.2827        -2.2827      0.9671103
     13827.0000         0.6781       1938.125       -42.2747        -2.2747      0.9673154
     13827.5000         0.6696       1957.625       -42.2668        -2.2668       0.967518
     13828.0000         0.6612        1976.75       -42.2589        -2.2589      0.9677205
     13828.5000         0.6557       1990.875        -42.251      -2.250999      0.9679231
     13829.0000         0.6575       2001.438       -42.2431      -2.243099      0.9681256
     13829.5000         0.6643       1970.313       -42.2352      -2.235199      0.9683282
     13830.0000         0.6768       1939.125       -42.2273      -2.227299      0.9685308
     13830.5000         0.6931        1881.25       -42.2194      -2.219398      0.9687334
     13831.0000         0.7094       1816.125       -42.2115      -2.211498       0.968936
     13831.5000         0.7261       1750.125       -42.2128      -2.212799      0.9689026
     13832.0000           0.75       1698.625       -42.2176      -2.217602      0.9687794
     13832.5000         0.7717       1652.125       -42.2224      -2.222401      0.9686564
     13833.0000         0.7882       1623.313       -42.2272        -2.2272      0.9685333
     13833.5000          0.798       1599.875        -42.232      -2.231998      0.9684103
     13834.0000         0.7935       1614.813       -42.2368      -2.236801      0.9682872
     13834.5000          0.789        1629.75       -42.2416        -2.2416      0.9681641
     13835.0000         0.7845       1644.688       -42.2464      -2.246399      0.9680411
     13835.5000         0.7811       1664.688       -42.2512      -2.251202      0.9679179
     13836.0000         0.7782       1684.688        -42.256      -2.256001      0.9677948
     13836.5000         0.7753       1702.125       -42.2608      -2.260799      0.9676718
     13837.0000         0.7725        1716.75       -42.2656      -2.265598      0.9675488
     13837.5000         0.7705       1731.406       -42.2704      -2.270401      0.9674256
     13838.0000         0.7688       1742.109       -42.2769      -2.276901      0.9672589
     13838.5000         0.7708       1741.875       -42.2859        -2.2859      0.9670282
     13839.0000         0.7753       1727.219        -42.295      -2.294998      0.9667949
     13839.5000         0.7799       1712.594        -42.304      -2.304001      0.9665641
     13840.0000         0.7847       1695.844        -42.313         -2.313      0.9663333
     13840.5000         0.7894       1678.063       -42.3221      -2.322102         0.9661
     13841.0000         0.7941        1660.25       -42.3311        -2.3311      0.9658692
     13841.5000         0.7988       1642.469       -42.3401      -2.340099      0.9656385
     13842.0000         0.7996       1630.703       -42.3492      -2.349201      0.9654051
     13842.5000         0.7992       1625.453       -42.3583      -2.358299      0.9651718
     13843.0000         0.7984       1620.188       -42.3673      -2.367298      0.9649411
     13843.5000         0.7976       1614.922       -42.3763      -2.376301      0.9647102
     13844.0000         0.7973       1609.672       -42.3534      -2.353401      0.9652974
     13844.5000         0.8008       1604.406       -42.3167        -2.3167      0.9662384
     13845.0000         0.8042       1614.938       -42.2801      -2.280102      0.9671769
     13845.5000         0.8076       1623.625       -42.2434      -2.243401       0.968118
     13846.0000         0.8111       1618.516       -42.2067      -2.206699       0.969059
     13846.5000         0.8124       1613.078       -42.1701      -2.170101      0.9699974
     13847.0000         0.8128       1607.391       -42.1334        -2.1334      0.9709384
     13847.5000         0.8133       1601.688       -42.0967      -2.096699      0.9718795
     13848.0000         0.8137           1596       -42.0601      -2.060101       0.972818
     13848.5000         0.8164       1590.514       -42.0234      -2.023399       0.973759
     13849.0000         0.8195        1589.49       -41.9868      -1.986801      0.9746974
     13849.5000         0.8225       1588.467       -41.9501        -1.9501      0.9756384
     13850.0000         0.8256       1584.703       -41.9135      -1.913502      0.9765769
     13850.5000         0.8286       1579.563       -41.8724      -1.872398      0.9776308
     13851.0000         0.8316       1574.406       -41.8127      -1.812698      0.9791616
     13851.5000         0.8346        1569.25       -41.7531      -1.753101      0.9806897
     13852.0000         0.8351       1564.109       -41.6934      -1.693401      0.9822205
     13852.5000         0.8356       1560.016       -41.6337      -1.633701      0.9837512
     13853.0000         0.8361       1557.844       -41.5739      -1.573898      0.9852847
     13853.5000         0.8356       1555.672       -41.5142      -1.514198      0.9868155
     13854.0000         0.8348       1556.922       -41.4545      -1.454498      0.9883462
     13854.5000         0.8341       1563.672       -41.3948      -1.394798       0.989877
     13855.0000         0.8289       1570.438       -41.3448      -1.344799       0.991159
     13855.5000         0.8076       1580.656       -41.3163      -1.316299      0.9918898
     13856.0000         0.7882       1593.719       -41.2878        -1.2878      0.9926205
     13856.5000         0.7705       1606.781       -41.2593        -1.2593      0.9933513
     13857.0000         0.7563       1619.875       -41.2308      -1.230801       0.994082
     13857.5000         0.7439         1723.5       -41.2023      -1.202301      0.9948128
     13858.0000         0.7325           1798        -41.198      -1.198002      0.9949231
     13858.5000         0.7213         1821.5       -41.2215        -1.2215      0.9943205
     13859.0000         0.7107       1854.688       -41.2451      -1.245098      0.9937154
     13859.5000         0.7003       1900.375       -41.2485      -1.248501      0.9936282
     13860.0000          0.692        1958.75       -41.1864      -1.186401      0.9952205
     13860.5000         0.6846       1988.031       -41.1243      -1.124298      0.9968129
     13861.0000         0.6825       1996.578       -41.0621      -1.062099      0.9984077
     13861.5000          0.683       1989.656       -40.9999     -0.9999008              1
