#------------------------------------------------------------------------------
# Created by    : vladimir.rabinovich
# Created on    : 09/19/2023 17:19:47
#------------------------------------------------------------------------------
~Version Information Section
VERS.           2.0     :   CWLS log ASCII Standard - VERSION 2.0
WRAP.           NO      :   One line per depth step
~Well Information Section
#MNEM       .UNIT                                         VALUE :DESCRIPTION
#------------------------------------------------------------------------------
STRT        .FT                                             380 :START DEPTH
STOP        .FT                                            8002 :STOP DEPTH
STEP        .FT                                             0.5 :STEP      
NULL        .                                           -999.25 :NULL      
COMP        .                               AMOCO PRODUCTION CO :COMPANY   
WELL        .                               OCS G07253 ST00BP00 :WELL      
FLD         .                                           WILDCAT :FIELD     
LOC         .                                                   :LOCATION  
CNTY        .                             GALVESTON LARGE BLOCK :LOCATION  
STAT        .                                             TEXAS :STATE     
CTRY        .                                     UNITED STATES :COUNTRY   
SRVC        .                                                   :SERVICE COMPANY
DATE        .                             9/13/2023 11:19:27 AM :LOG DATE  
API         .                                    42706401230000 :API NUMBER
UWI         .                                    42706401230000 :UNIQUE WELL ID
XCOORD      .                                  925879.569593371 :SURFACE X 
YCOORD      .                                  10358786.1357032 :SURFACE Y 
LAT         .                                         28.526408 :LATITUDE  
LON         .                                        -95.225632 :LONGITUDE 
ELEV        .FT                                             100 :ELEVATION VALUE
ELEV_TYPE   .                                                KB :ELEVATION REFERENCE TYPE
~Curve Information Section
#MNEM       .UNIT                                      API CODE :CURVE DESCRIPTION
#------------------------------------------------------------------------------
DEPT        .FT                                                 :DEPTH     
ASFL        .OHMM                                               :          
CILD        .MMHO                                               :          
GR          .GAPI                                               :          
GR_NORM     .GAPI                                               :GammaRay Normalized
ILD         .OHMM                                               :          
SP          .MV                                                 :          
SP_NORM     .MV                                                 :SP Normalized
VSH_GR      .V/V                                                :Volume of Shale from GR
VSH_SP      .V/V                                                :Volume of Shale from SP
~A        DEPTH           ASFL           CILD             GR        GR_NORM            ILD             SP        SP_NORM         VSH_GR         VSH_SP
# ...
      1943.5000         1.1754       723.1543        59.8812       63.48814         1.3656       -76.6851      -5.256523      0.6486838      0.7673912
      1944.0000         1.1633       727.3486        62.2783       65.88467         1.3647       -75.9474      -4.518829      0.6996739      0.8200836
      1944.5000         1.1586       726.0928        64.6747       68.28051         1.3638       -75.2904      -3.861824      0.7506492      0.8670126
      1945.0000         1.1565       709.6396        67.0712       70.67645         1.3628        -74.796      -3.367424      0.8016265      0.9023269
      1945.5000         1.1672       693.1875        69.4683       73.07298         1.3619        -74.532      -3.103424      0.8526167       0.921184
      1946.0000         1.1779       676.7344        71.8647       75.46882          1.409       -74.2679      -2.839325      0.9035919      0.9400482
      1946.5000         1.2802       660.2822        72.2795       75.88306         1.4674       -73.9656      -2.537025      0.9124054       0.961641
      1947.0000         1.3158       642.4756        72.4176       76.02059         1.5258        -73.663      -2.234428      0.9153317      0.9832551
      1947.5000         1.3491       624.2939        71.0476       74.65002         1.5843       -73.3602      -1.931625      0.8861707              1
      1948.0000         1.3756       606.1133        69.6777       73.27956         1.6016       -72.6543      -1.225723      0.8570119              1
      1948.5000         1.3946       596.8193        67.8615        71.4628         1.6175       -72.6621      -1.233528      0.8183574              1
      1949.0000         1.4121       595.6377         66.011       69.61173         1.6335       -73.5282      -2.099625       0.778973       0.992884
      1949.5000         1.4112       594.4561         63.599       67.19917         1.6494       -74.3942       -2.96563      0.7276418      0.9310265
      1950.0000         1.4104       593.5693        60.7444       64.34399          1.653       -75.2603      -3.831726      0.6668935      0.8691624
      1950.5000         1.4103       592.8184         59.261       62.86003         1.6558       -75.9303      -4.501724      0.6353198      0.8213054
      1951.0000         1.4132       592.0674        57.7153       61.31377         1.6587       -76.5911      -5.162529      0.6024206      0.7741051
      1951.5000         1.4161       591.3164         57.446        61.0439         1.6615       -77.2517      -5.823128      0.5966787      0.7269195
      1952.0000          1.419       590.5654        59.3265       62.92384         1.6643       -77.7684      -6.339828      0.6366774      0.6900123
      1952.5000         1.4256       589.8145        61.2075       64.80428          1.663       -78.2389      -6.810326      0.6766867      0.6564053
      1953.0000         1.4383       589.0635        63.0879        66.6841         1.6523       -78.2809      -6.852325      0.7166831      0.6534053
      1953.5000         1.4424        595.875        64.9689       68.56454         1.6416       -77.9769      -6.548325      0.7566925      0.6751197
      1954.0000         1.4242       604.6504        66.2255       69.82058         1.6272        -77.673      -6.244423      0.7834166      0.6968269
      1954.5000         1.4008       613.4287        65.9861       69.58061         1.6039        -77.369       -5.94043      0.7783109      0.7185407
      1955.0000         1.3775       624.5312        63.5497       67.14365         1.5806       -77.0652      -5.636627      0.7264606      0.7402409
      1955.5000         1.3613       639.8174        60.5662       64.15958         1.5574       -76.7612      -5.332626      0.6629699      0.7619553
      1956.0000         1.3474       655.1035        56.4102       60.00302         1.5341       -76.7943      -5.365723      0.5745323      0.7595912
      1956.5000          1.334       670.3896         52.855       56.44725         1.5108       -76.8639      -5.435326      0.4988777      0.7546196
      1957.0000         1.3233       685.6758        49.6203       53.21199         1.4875       -76.9335      -5.504929      0.4300424       0.749648
      1957.5000         1.3161       700.9609        45.7099       49.30103         1.4643       -77.1449      -5.716324      0.3468303      0.7345483
      1958.0000         1.3149       716.2471        45.5964       49.18696          1.441       -77.5073      -6.078728      0.3444034      0.7086623
      1958.5000         1.3136       724.0186        47.1932        50.7832         1.4224       -77.8698      -6.441223      0.3783659      0.6827698
      1959.0000         1.3125       730.9814        47.3491       50.93852         1.4062       -78.1876      -6.759026      0.3816707      0.6600696
      1959.5000         1.3124       737.9473        45.4643       49.05316         1.3899        -77.963      -6.534424      0.3415565      0.6761126
      1960.0000         1.3123       741.7559        43.6393        47.2276         1.3737       -77.7384       -6.30983      0.3027148       0.692155
      1960.5000         1.3122       736.7461        43.2629       46.85063         1.3574       -77.5375      -6.108925      0.2946943      0.7065054
      1961.0000          1.312       731.7344        46.0452       49.63237         1.3412       -77.7756      -6.347023      0.3538801      0.6894984
      1961.5000         1.3119       726.7227        48.8262        52.4128         1.3297       -78.0137      -6.585129      0.4130383      0.6724908
      1962.0000         1.3118       721.7129        51.4832       55.06924         1.3321       -78.2517      -6.823128      0.4695582      0.6554909
      1962.5000         1.3105       716.7012        53.4085       56.99397         1.3346       -78.4871      -7.058525      0.5105101      0.6386768
      1963.0000         1.3083       715.7812        54.9948       58.57971         1.3371        -78.649      -7.220428      0.5442491      0.6271123
      1963.5000          1.306       715.9873         53.315       56.89934         1.3395       -78.8112      -7.382629      0.5084966      0.6155265
      1964.0000         1.2999       716.1943        51.6933       55.27708          1.342       -78.9733      -7.544724      0.4739804      0.6039483
      1964.5000         1.2923       716.4014        50.1974       53.78061         1.3445       -79.1353      -7.706726      0.4421407      0.5923767
      1965.0000         1.2847       716.6084        48.7009       52.28355          1.347       -79.2861      -7.857529      0.4102883      0.5816051
      1965.5000         1.2771       716.8145         47.632       51.21408         1.3494       -79.4302      -8.001625      0.3875337      0.5713125
      1966.0000         1.2694       718.9033        49.1659       52.74742         1.3519       -79.5741      -8.145523      0.4201579      0.5610341
      1966.5000         1.2616       721.7773        51.9202       55.50116         1.3509       -79.7181      -8.289528       0.478748       0.550748
      1967.0000         1.2538       724.6504        55.1724       58.75279         1.3477       -79.7229      -8.294327      0.5479317      0.5504052
      1967.5000         1.2517       727.5254        58.4246       62.00443         1.3445       -79.1591       -7.73053      0.6171154      0.5906764
      1968.0000         1.2551       730.3994        61.6768       65.25606         1.3413       -78.5084      -7.079826      0.6862991      0.6371552
      1968.5000         1.2585       733.2734        62.7626       66.34129          1.338       -77.8328      -6.404228      0.7093892      0.6854123
      1969.0000         1.2671       736.1484        59.6973       63.27542         1.3348       -77.1571      -5.728523       0.644158      0.7336769
      1969.5000         1.2781        737.209        56.6358       60.21336         1.3316       -77.2129      -5.784325      0.5790077      0.7296911
