#------------------------------------------------------------------------------
# Created by    : vladimir.rabinovich
# Created on    : 09/19/2023 17:22:41
#------------------------------------------------------------------------------
~Version Information Section
VERS.           2.0     :   CWLS log ASCII Standard - VERSION 2.0
WRAP.           NO      :   One line per depth step
~Well Information Section
#MNEM       .UNIT                                         VALUE :DESCRIPTION
#------------------------------------------------------------------------------
STRT        .FT                                            4470 :START DEPTH
STOP        .FT                                            9513 :STOP DEPTH
STEP        .FT                                             0.5 :STEP      
NULL        .                                           -999.25 :NULL      
COMP        .                 FAIRWAYS SPEC SALES & SERVICE INC :COMPANY   
WELL        .                               OCS G11315 ST00BP00 :WELL      
FLD         .                              GALVESTON BLOCK 0319 :FIELD     
LOC         .                                                   :LOCATION  
CNTY        .                             GALVESTON LARGE BLOCK :LOCATION  
STAT        .                                             TEXAS :STATE     
CTRY        .                                     UNITED STATES :COUNTRY   
SRVC        .                                                   :SERVICE COMPANY
DATE        .                             9/13/2023 11:19:34 AM :LOG DATE  
API         .                                    42706402650000 :API NUMBER
UWI         .                                    42706402650000 :UNIQUE WELL ID
XCOORD      .                                  1065572.18570413 :SURFACE X 
YCOORD      .                                  10465680.9820926 :SURFACE Y 
LAT         .                                         28.826802 :LATITUDE  
LON         .                                        -94.795723 :LONGITUDE 
ELEV        .FT                                              86 :ELEVATION VALUE
ELEV_TYPE   .                                                KB :ELEVATION REFERENCE TYPE
~Curve Information Section
#MNEM       .UNIT                                      API CODE :CURVE DESCRIPTION
#------------------------------------------------------------------------------
DEPT        .FT                                                 :DEPTH     
DCAL        .IN                                                 :          
DPHI        .%                                                  :          
DRHO        .G/C3                                               :          
GR          .GAPI                                               :          
GR_NORM     .GAPI                                               :GammaRay Normalized
ILD         .OHMM                                               :          
ILM         .OHMM                                               :          
NPHI        .%                                                  :          
SFL         .OHMM                                               :          
SP          .MV                                                 :          
SP_NORM     .MV                                                 :SP Normalized
VSH_GR      .V/V                                                :Volume of Shale from GR
VSH_SP      .V/V                                                :Volume of Shale from SP
~A        DEPTH           DCAL           DPHI           DRHO             GR        GR_NORM            ILD            ILM           NPHI            SFL             SP        SP_NORM         VSH_GR         VSH_SP
# ...
      4888.0000         2.9914         22.843        -0.0089        101.816       84.43865         1.0024         1.0022        42.5711         0.8207       -41.1452      -1.795231              1      0.9723811
      4888.5000         2.9323        22.7834        -0.0081       103.0122        85.5405         1.0018         0.9933         41.967         0.8178       -40.8297      -1.480354              1      0.9772253
      4889.0000         2.8754        22.6035        -0.0083       102.2283       84.81749         1.0018         0.9901         41.936         0.8464       -40.4439      -1.095173              1      0.9831512
      4889.5000         2.8461        22.8448        -0.0088       100.3949       83.12724         1.0022         0.9901        42.4711         0.8828       -39.9487     -0.6005936              1      0.9907601
      4890.0000         2.8268        23.2391        -0.0088        98.2866       81.18367          1.005         0.9916        42.9658         0.9129       -39.9286     -0.5811157              1      0.9910598
      4890.5000         2.8666        23.6462        -0.0088        96.9767        79.9759         1.0077         0.9946        42.9536         0.9324       -40.3006     -0.9537315      0.9994872      0.9853272
      4891.0000         2.9034        23.7144        -0.0086          95.88       78.96461           1.01         0.9977        42.3097         0.9314        -40.813      -1.466755      0.9779704      0.9774345
      4891.5000         2.9113        23.4297        -0.0083        95.0065       78.15902         1.0114         0.9953        41.5793         0.9101       -40.7429      -1.397278      0.9608302      0.9785034
      4892.0000         2.9181         23.131         -0.008        94.3958       77.59562         1.0127         0.9927        40.9691            0.9       -40.6147      -1.269699      0.9488429      0.9804662
      4892.5000          2.902        22.8305        -0.0076        94.9365       78.09337         1.0134         0.9893        40.7148         0.9198       -40.4125      -1.068115      0.9594334      0.9835675
      4893.0000         2.8858        22.7904        -0.0072        96.7712       79.78366         1.0134         0.9854        40.6176         0.9625       -40.2102     -0.8664398       0.995397      0.9866701
      4893.5000         2.8487        22.9147        -0.0068        98.5092       81.38483         1.0134         0.9806        41.5388         0.9876       -40.1133     -0.7701607              1      0.9881514
      4894.0000         2.8215         23.228        -0.0063        99.7471       82.52511         1.0115         0.9752         43.663         0.9341       -40.0726     -0.7300797              1       0.988768
      4894.5000         2.8476        23.3772        -0.0059        99.3558       82.16391         1.0091         0.9711        44.7579         0.9145       -40.0319     -0.6899986              1      0.9893847
      4895.0000         2.8702        23.3557        -0.0057         97.453       80.40971         1.0046         0.9681        45.3265         0.9043        -39.978     -0.6367226              1      0.9902043
      4895.5000         2.8813        22.9777        -0.0074        94.2521       77.45919         0.9953         0.9633        45.0898         0.9081       -39.9158     -0.5751381      0.9459402      0.9911518
      4896.0000         2.8924        22.9638        -0.0091         93.762       77.00695         0.9861          0.961        44.7568         0.9293       -39.8535     -0.5134621      0.9363181      0.9921006
      4896.5000          2.899        23.3117        -0.0116        96.1915       79.24541         0.9781         0.9474        44.5269         0.9202       -39.6268      -0.287384      0.9839448      0.9955787
      4897.0000         2.9054        23.9933        -0.0144        97.7802       80.70898         0.9702         0.9333        44.5964         0.8805       -39.2971     0.04169846              1              1
      4897.5000         2.8994         24.596        -0.0141         99.115       81.93856         0.9625         0.9229        44.8677         0.8311       -39.0482       0.289978              1              1
      4898.0000         2.8706        25.1526        -0.0135       100.2654       82.99821         0.9549         0.9161        44.5759         0.7946       -38.9613       0.376255              1              1
      4898.5000         2.8418        25.1201        -0.0121        98.6989       81.55394         0.9472         0.9116        43.9454           0.79        -38.912      0.4249344              1              1
      4899.0000         2.8203        25.0739        -0.0105        95.8486       78.92654         0.9379         0.9083        43.2059         0.8037       -39.0342      0.3021164      0.9771605              1
      4899.5000         2.8021        24.9886        -0.0089        93.5624         76.819          0.929         0.9045        42.3275         0.8267       -39.1807       0.154995      0.9323192              1
      4900.0000         2.7838        24.9065        -0.0073        93.0193       76.31791         0.9226         0.8999        41.8633         0.8447       -39.5191     -0.1840286      0.9216576      0.9971688
      4900.5000         2.8051        24.8682        -0.0058        96.4375       79.46755         0.9162         0.8964        42.6279         0.8586       -39.8253     -0.4908447      0.9886713      0.9924486
      4901.0000         2.8304          24.83        -0.0052         98.182       81.07471          0.918         0.8939        42.9605         0.8571       -39.7499      -0.416069              1      0.9935989
      4901.5000         2.8525        24.3623        -0.0056         97.593       80.53132          0.925         0.8922        42.6965         0.8474       -39.6327     -0.2994919              1      0.9953924
      4902.0000          2.872        24.1743        -0.0062        95.8788       78.95094         0.9315         0.8914        41.6253         0.8422        -39.404    -0.07140732      0.9776796      0.9989014
      4902.5000         2.8842        24.2374         -0.008        95.4231        78.5304         0.9369         0.8909        41.2429         0.8374       -39.2238      0.1081696       0.968732              1
      4903.0000         2.8843        24.8943        -0.0097         96.736       79.73979         0.9423         0.8909        42.6243         0.8407       -39.1557      0.1756477      0.9944637              1
      4903.5000         2.8793        25.5023        -0.0109        98.1349       81.02845         0.9381         0.8909        45.1063           0.85        -39.088      0.2427292              1              1
      4904.0000          2.869        25.6874         -0.012        99.4082       82.20136         0.9332         0.8899        48.4818         0.8602       -39.0212      0.3089104              1              1
      4904.5000         2.8867         25.282        -0.0125        99.7938       82.55615         0.9274         0.8888         50.911         0.8699       -38.9758      0.3536873              1              1
      4905.0000         2.9055        25.2401        -0.0117        99.9525       82.70184           0.92         0.8876        51.0677         0.8769       -39.0001      0.3287697              1              1
      4905.5000         2.9214        25.3032         -0.011       100.4734       83.18133         0.9127          0.885        50.5511         0.8607       -39.0328      0.2954483              1              1
      4906.0000         2.8571         25.595        -0.0111       101.7689       84.37469         0.9064         0.8823         49.142         0.8237        -39.118      0.2096252              1              1
      4906.5000         2.8749         25.713        -0.0112       102.8044       85.32844         0.9012         0.8796        47.5494         0.7882       -39.2032      0.1238022              1              1
