#------------------------------------------------------------------------------
# Created by    : vladimir.rabinovich
# Created on    : 09/19/2023 17:21:52
#------------------------------------------------------------------------------
~Version Information Section
VERS.           2.0     :   CWLS log ASCII Standard - VERSION 2.0
WRAP.           NO      :   One line per depth step
~Well Information Section
#MNEM       .UNIT                                         VALUE :DESCRIPTION
#------------------------------------------------------------------------------
STRT        .FT                                            1924 :START DEPTH
STOP        .FT                                            6497 :STOP DEPTH
STEP        .FT                                             0.5 :STEP      
NULL        .                                           -999.25 :NULL      
COMP        .                                ATP OIL & GAS CORP :COMPANY   
WELL        .                               OCS G12451 ST00BP00 :WELL      
FLD         .                                           WILDCAT :FIELD     
LOC         .                                                   :LOCATION  
CNTY        .                                BRAZOS LARGE BLOCK :LOCATION  
STAT        .                                             TEXAS :STATE     
CTRY        .                                     UNITED STATES :COUNTRY   
SRVC        .                                                   :SERVICE COMPANY
DATE        .                             9/13/2023 11:09:51 AM :LOG DATE  
API         .                                    42704402900000 :API NUMBER
UWI         .                                    42704402900000 :UNIQUE WELL ID
XCOORD      .                                  861130.254262163 :SURFACE X 
YCOORD      .                                  10349158.9913488 :SURFACE Y 
LAT         .                                        28.4964901 :LATITUDE  
LON         .                                       -95.4265639 :LONGITUDE 
ELEV        .FT                                              91 :ELEVATION VALUE
ELEV_TYPE   .                                                KB :ELEVATION REFERENCE TYPE
~Curve Information Section
#MNEM       .UNIT                                      API CODE :CURVE DESCRIPTION
#------------------------------------------------------------------------------
DEPT        .FT                                                 :DEPTH     
CALI        .IN                                                 :          
DPHI        .G/C3                                               :          
DRHO        .G/C3                                               :          
GR          .GAPI                                               :          
GR_NORM     .GAPI                                               :GammaRay Normalized
ILD         .OHMM                                               :          
ILM         .OHMM                                               :          
NPHI        .%                                                  :          
SFL         .OHMM                                               :          
SP          .MV                                                 :          
SP_NORM     .MV                                                 :SP Normalized
VSH_GR      .V/V                                                :Volume of Shale from GR
VSH_SP      .V/V                                                :Volume of Shale from SP
~A        DEPTH           CALI           DPHI           DRHO             GR        GR_NORM            ILD            ILM           NPHI            SFL             SP        SP_NORM         VSH_GR         VSH_SP
# ...
      2589.0000        -999.25        -999.25        -999.25       117.0675       85.85745         0.6547         0.6173        -999.25          0.655       -61.8322      0.9584961              1              1
      2589.5000        -999.25        -999.25        -999.25       119.4083       88.20095         0.6501         0.6131        -999.25         0.6226       -61.6133       1.177395              1              1
      2590.0000        -999.25        -999.25        -999.25       121.5214       90.31675         0.6558         0.6087        -999.25         0.6074       -61.5224       1.268295              1              1
      2590.5000        -999.25        -999.25        -999.25       122.0662       90.86424         0.6714          0.623        -999.25         0.6213       -61.3807       1.409996              1              1
      2591.0000        -999.25        -999.25        -999.25       117.0262       85.82693         0.6871          0.656        -999.25         0.7114       -61.1448       1.645897              1              1
      2591.5000        -999.25        -999.25        -999.25       113.7264       82.52984         0.7022         0.6817        -999.25         0.8395       -60.8965       1.894196              1              1
      2592.0000        -999.25        -999.25        -999.25       112.9949       81.80103         0.7264         0.6962        -999.25         0.8917       -60.8727       1.917995              1              1
      2592.5000        -999.25        -999.25        -999.25       112.2643       81.07312         0.7561         0.6961        -999.25         0.8784       -60.9981       1.792595              1              1
      2593.0000        -999.25        -999.25        -999.25       110.0317       78.84322         0.7856         0.7052        -999.25         0.8252       -61.2819       1.508797      0.9753878              1
      2593.5000        -999.25        -999.25        -999.25       107.9104       76.72462         0.7958         0.7087        -999.25         0.8081       -61.7914      0.9992943       0.930311              1
      2594.0000        -999.25        -999.25        -999.25       107.7759       76.59282         0.7878         0.7061        -999.25         0.8094       -61.9876      0.8030968      0.9275068              1
      2594.5000        -999.25        -999.25        -999.25       107.5929       76.41251         0.7745         0.6966        -999.25         0.8123       -62.1288      0.6618958      0.9236705              1
      2595.0000        -999.25        -999.25        -999.25       106.1106       74.93291         0.7592         0.6844        -999.25         0.8062       -62.2191      0.5715942      0.8921895              1
      2595.5000        -999.25        -999.25        -999.25       104.9177       73.74271         0.7482          0.671        -999.25         0.7872        -62.353      0.4376945      0.8668661              1
      2596.0000        -999.25        -999.25        -999.25       105.0851        73.9128         0.7388         0.6621        -999.25         0.7556       -62.2336      0.5570946       0.870485              1
      2596.5000        -999.25        -999.25        -999.25       109.8779       78.70829         0.7278         0.6563        -999.25         0.7258       -61.9821      0.8085938      0.9725168              1
      2597.0000        -999.25        -999.25        -999.25       113.2223       82.05539         0.7175         0.6482        -999.25         0.6984       -61.8329      0.9577942              1              1
      2597.5000        -999.25        -999.25        -999.25       114.7336       83.56938         0.7058         0.6393        -999.25         0.7056       -62.1249      0.6657944              1              1
      2598.0000        -999.25        -999.25        -999.25       115.6779       84.51638          0.694         0.6296        -999.25           0.75       -62.3456      0.4450951              1              1
      2598.5000        -999.25        -999.25        -999.25       116.3726       85.21378         0.6872         0.6235        -999.25         0.7276       -62.2819      0.5087967              1              1
      2599.0000        -999.25        -999.25        -999.25       116.5856       85.42947         0.6796         0.6281        -999.25         0.6783       -62.0994      0.6912956              1              1
      2599.5000        -999.25        -999.25        -999.25        115.942       84.78857         0.6698         0.6334        -999.25         0.6807       -62.1318      0.6588936              1              1
      2600.0000        -999.25        -999.25        -999.25       112.9447       81.79397          0.664         0.6304        -999.25         0.7247       -61.9617      0.8289948              1              1
      2600.5000        -999.25        -999.25        -999.25       112.5416       81.39356         0.6632         0.6243        -999.25         0.7696       -61.7053       1.085396              1              1
      2601.0000        -999.25        -999.25        -999.25       113.9388       82.79346         0.6626         0.6243        -999.25         0.7686       -61.5545       1.236195              1              1
      2601.5000        -999.25        -999.25        -999.25       114.7786       83.63596         0.6611          0.622        -999.25         0.7325       -61.4399       1.350796              1              1
      2602.0000        -999.25        -999.25        -999.25       114.8379       83.69794         0.6588         0.6141        -999.25         0.6989       -61.3758       1.414894              1              1
      2602.5000        -999.25        -999.25        -999.25       114.9015       83.76424         0.6563         0.6052        -999.25         0.7064       -61.2702       1.520496              1              1
      2603.0000        -999.25        -999.25        -999.25       114.6677       83.53314         0.6521         0.5989        -999.25         0.7257       -61.2357       1.554996              1              1
      2603.5000        -999.25        -999.25        -999.25       114.2643       83.13244          0.646         0.5925        -999.25         0.7181       -61.1533       1.637394              1              1
      2604.0000        -999.25        -999.25        -999.25       117.2269       86.09773         0.6427         0.5899        -999.25         0.6873       -61.2026       1.588097              1              1
      2604.5000        -999.25        -999.25        -999.25        119.662       88.53553         0.6387         0.5889        -999.25         0.6584        -61.536       1.254696              1              1
      2605.0000        -999.25        -999.25        -999.25       119.0905       87.96673          0.635         0.5914        -999.25         0.6351       -62.0698      0.7208939              1              1
      2605.5000        -999.25        -999.25        -999.25       115.6804       84.55932         0.6311         0.5922        -999.25         0.6352       -62.5692      0.2214966              1              1
      2606.0000        -999.25        -999.25        -999.25         113.99       82.87161         0.6281         0.5922        -999.25          0.709       -62.9113     -0.1206055              1              1
      2606.5000        -999.25        -999.25        -999.25       113.2561       82.14042         0.6318         0.5926        -999.25         0.7584       -63.0585     -0.2678032              1              1
      2607.0000        -999.25        -999.25        -999.25       113.2401       82.12711         0.6378         0.5993        -999.25         0.7419       -63.1686      -0.377903              1              1
      2607.5000        -999.25        -999.25        -999.25       114.5465        83.4362         0.6562         0.6062        -999.25          0.681       -63.0671     -0.2764053              1              1
