#------------------------------------------------------------------------------
# Created by    : vladimir.rabinovich
# Created on    : 09/19/2023 17:22:47
#------------------------------------------------------------------------------
~Version Information Section
VERS.           2.0     :   CWLS log ASCII Standard - VERSION 2.0
WRAP.           NO      :   One line per depth step
~Well Information Section
#MNEM       .UNIT                                         VALUE :DESCRIPTION
#------------------------------------------------------------------------------
STRT        .FT                                            4658 :START DEPTH
STOP        .FT                                           10852 :STOP DEPTH
STEP        .FT                                             0.5 :STEP      
NULL        .                                           -999.25 :NULL      
COMP        .                             WALTER OIL & GAS CORP :COMPANY   
WELL        .                               OCS G04721 ST00BP00 :WELL      
FLD         .                              GALVESTON BLOCK 0350 :FIELD     
LOC         .                                                   :LOCATION  
CNTY        .                             GALVESTON LARGE BLOCK :LOCATION  
STAT        .                                             TEXAS :STATE     
CTRY        .                                     UNITED STATES :COUNTRY   
SRVC        .                                                   :SERVICE COMPANY
DATE        .                             9/13/2023 11:19:36 AM :LOG DATE  
API         .                                    42706401870000 :API NUMBER
UWI         .                                    42706401870000 :UNIQUE WELL ID
XCOORD      .                                  1032064.33467067 :SURFACE X 
YCOORD      .                                   10428906.138822 :SURFACE Y 
LAT         .                                        28.7242451 :LATITUDE  
LON         .                                       -94.8985179 :LONGITUDE 
ELEV        .FT                                              92 :ELEVATION VALUE
ELEV_TYPE   .                                                KB :ELEVATION REFERENCE TYPE
~Curve Information Section
#MNEM       .UNIT                                      API CODE :CURVE DESCRIPTION
#------------------------------------------------------------------------------
DEPT        .FT                                                 :DEPTH     
DT          .US/F                                               :          
GR          .GAPI                                               :          
GR_1        .GAPI                                               :          
GR_NORM     .GAPI                                               :GammaRay Normalized
ILD         .OHMM                                               :          
ILM         .OHMM                                               :          
NPHI        .%                                                  :          
RFOC        .OHMM                                               :          
RHOB        .G/C3                                               :          
SP          .MV                                                 :          
SP_NORM     .MV                                                 :SP Normalized
VSH_GR      .V/V                                                :Volume of Shale from GR
VSH_SP      .V/V                                                :Volume of Shale from SP
~A        DEPTH             DT             GR           GR_1        GR_NORM            ILD            ILM           NPHI           RFOC           RHOB             SP        SP_NORM         VSH_GR         VSH_SP
# ...
      7565.0000        -999.25        70.7454        -999.25       70.56165         0.9049         0.9038         36.765         0.9036         2.3947       -52.5192       -6.97971      0.7991841      0.8926198
      7565.5000        -999.25        72.2462        -999.25         72.569         0.8721          0.879        38.1768         0.8856         2.3886       -52.3765      -6.808451      0.8418936      0.8952546
      7566.0000        -999.25        74.2184        -999.25       75.20696         0.8408         0.8483        39.2906         0.8699         2.3867       -52.2336      -6.636965      0.8980205      0.8978928
      7566.5000        -999.25        75.2144        -999.25       76.53901         0.8109          0.819         39.666          0.846         2.3817       -52.0496      -6.417521      0.9263619      0.9012689
      7567.0000        -999.25        75.1398        -999.25       76.43887         0.7857         0.7912        39.3828          0.824         2.3719       -51.8644      -6.196684      0.9242312      0.9046664
      7567.5000        -999.25        74.4813        -999.25       75.55762         0.7619          0.768        38.9268         0.8096          2.363       -51.6975      -5.997196      0.9054812      0.9077355
      7568.0000        -999.25        73.7544        -999.25       74.58487         0.7531         0.7576        38.2253         0.8025          2.355       -51.8675      -6.190756      0.8847845      0.9047576
      7568.5000        -999.25        72.5264        -999.25       72.94176         0.7467         0.7473        36.9368         0.8016           2.35       -52.0869       -6.44195      0.8498248      0.9008931
      7569.0000        -999.25        71.0651        -999.25       70.98656         0.7375         0.7393        35.9951          0.809         2.3452       -53.1295      -7.653549      0.8082248      0.8822531
      7569.5000        -999.25        71.4872        -999.25        71.5509         0.7347         0.7422        36.5618         0.8402         2.3391       -54.9178      -9.735123      0.8202318      0.8502289
      7570.0000        -999.25        73.1915        -999.25       73.83047         0.7355         0.7447        38.2141         0.8485         2.3327       -55.6077      -10.53523      0.8687333      0.8379195
      7570.5000        -999.25        74.5961        -999.25       75.70912         0.7426         0.7463        39.3922         0.8313         2.3299       -56.0693        -11.069      0.9087047      0.8297077
      7571.0000        -999.25        74.4763        -999.25       75.54852         0.7504         0.7479        39.4004         0.8101          2.328        -56.629      -11.71721      0.9052876      0.8197353
      7571.5000        -999.25        73.5248        -999.25        74.2753         0.7607         0.7524        38.2485         0.7924         2.3273       -56.8932      -12.02067      0.8781978      0.8150666
      7572.0000        -999.25        70.6738        -999.25       70.46104         0.7704         0.7591        39.0687           0.78         2.3272       -56.7451      -11.84311      0.7970435      0.8177983
      7572.5000        -999.25        71.9352        -999.25       72.14813         0.7757         0.7658        40.1713          0.786         2.3304       -56.4217      -11.46104       0.832939      0.8236763
      7573.0000        -999.25        77.9556        -999.25       80.20155         0.7794         0.7728        40.6632         0.8014         2.3338       -56.0348      -11.00488              1      0.8306941
      7573.5000        -999.25        79.4144        -999.25       82.15272         0.7783           0.78        40.9071         0.8328         2.3375       -55.2091      -10.03679              1      0.8455878
      7574.0000        -999.25        80.2043        -999.25       83.20905         0.7772         0.7874        40.8347         0.8333         2.3436       -54.0909      -8.727454              1      0.8657315
      7574.5000        -999.25        80.6934        -999.25         83.863         0.7761         0.7941        39.4691          0.822          2.347       -53.4047      -7.922117              1      0.8781213
      7575.0000        -999.25        80.2852        -999.25        83.3166         0.7749         0.7915        37.4955         0.8069         2.3421       -53.2285      -7.711779              1      0.8813573
      7575.5000        -999.25         79.444        -999.25       82.19093         0.7737          0.789        37.5777         0.8079         2.3258       -53.5504      -8.082553              1       0.875653
      7576.0000        -999.25        78.3591        -999.25       80.73927         0.7729         0.7865        39.6335         0.7515         2.3086       -53.3992      -7.901382              1      0.8784403
      7576.5000        -999.25        77.8518        -999.25       80.06028         0.7729         0.7841        41.1857         0.7595         2.3032       -52.9406      -7.361579              1      0.8867449
      7577.0000        -999.25        77.9788        -999.25       80.22982          0.773         0.7826        41.7736         0.7662         2.3027       -51.9879      -6.245319              1      0.9039181
      7577.5000        -999.25        78.5518        -999.25       80.99601         0.7759         0.7811        41.6324         0.7679         2.3066       -50.9881      -5.074112              1      0.9219368
      7578.0000        -999.25        80.0636        -999.25       83.01807         0.7788         0.7795        41.1805         0.7719         2.3107       -51.1658      -5.276659              1      0.9188206
      7578.5000        -999.25        80.6266        -999.25       83.77088         0.7794         0.7792        40.5134         0.7787          2.319       -51.7465      -5.949366              1      0.9084713
      7579.0000        -999.25        80.3956        -999.25       83.46151           0.78           0.78        41.0722         0.7906         2.3261       -52.2952      -6.584748              1      0.8986962
      7579.5000        -999.25        79.5243        -999.25       82.29559         0.7804         0.7808        41.9119         0.7972         2.3307       -52.5275      -6.850994              1      0.8946001
      7580.0000        -999.25        79.2635        -999.25       81.94635         0.7805         0.7816        42.3696         0.7938         2.3374        -52.654      -6.993801              1      0.8924031
      7580.5000        -999.25        79.1287        -999.25       81.76569         0.7805         0.7825        42.2211         0.7845          2.344       -52.6536      -6.988562              1      0.8924837
      7581.0000        -999.25        79.1865        -999.25       81.84267         0.7826         0.7834         41.743         0.7856         2.3493       -52.7838      -7.135691              1      0.8902202
      7581.5000        -999.25         80.224        -999.25       83.23023         0.7859         0.7842        41.9384         0.7905         2.3431       -53.0733      -7.468667              1      0.8850974
      7582.0000        -999.25        82.1666        -999.25        85.8286         0.7893         0.7853        42.1666         0.7958         2.3315       -53.4929      -7.953431              1      0.8776395
      7582.5000        -999.25        80.7325        -999.25       83.90978          0.795         0.7878        42.7261         0.8006         2.3228       -53.6627       -8.14676              1      0.8746653
      7583.0000        -999.25        79.2959        -999.25       81.98763         0.8009         0.7902        43.3185         0.8039         2.3191       -53.7411      -8.233451              1      0.8733315
      7583.5000        -999.25        78.5125        -999.25        80.9393         0.8051         0.7928        43.9579         0.8104         2.3167       -53.7039      -8.185279              1      0.8740726
