#------------------------------------------------------------------------------
# Created by    : vladimir.rabinovich
# Created on    : 09/19/2023 17:20:01
#------------------------------------------------------------------------------
~Version Information Section
VERS.           2.0     :   CWLS log ASCII Standard - VERSION 2.0
WRAP.           NO      :   One line per depth step
~Well Information Section
#MNEM       .UNIT                                         VALUE :DESCRIPTION
#------------------------------------------------------------------------------
STRT        .FT                                            3496 :START DEPTH
STOP        .FT                                           13495 :STOP DEPTH
STEP        .FT                                             0.5 :STEP      
NULL        .                                           -999.25 :NULL      
COMP        .                      TEXAS EASTERN EXPLORATION CO :COMPANY   
WELL        .                                ST TR 00798-L NE/4 :WELL      
FLD         .                                           WILDCAT :FIELD     
LOC         .                                                   :LOCATION  
CNTY        .                        MUSTANG ISLAND LARGE BLOCK :LOCATION  
STAT        .                                             TEXAS :STATE     
CTRY        .                                     UNITED STATES :COUNTRY   
SRVC        .                                                   :SERVICE COMPANY
DATE        .                             9/13/2023 11:18:55 AM :LOG DATE  
API         .                                    42702302040000 :API NUMBER
UWI         .                                    42702302040000 :UNIQUE WELL ID
XCOORD      .                                  329124.923046376 :SURFACE X 
YCOORD      .                                  10022065.1107101 :SURFACE Y 
LAT         .                                        27.5591082 :LATITUDE  
LON         .                                       -97.0466418 :LONGITUDE 
ELEV        .FT                                              82 :ELEVATION VALUE
ELEV_TYPE   .                                                KB :ELEVATION REFERENCE TYPE
~Curve Information Section
#MNEM       .UNIT                                      API CODE :CURVE DESCRIPTION
#------------------------------------------------------------------------------
DEPT        .FT                                                 :DEPTH     
ASFL        .OHMM                                               :          
CILD        .MMHO                                               :          
GR          .GAPI                                               :          
GR_NORM     .GAPI                                               :GammaRay Normalized
ILD         .OHMM                                               :          
SFL         .OHMM                                               :          
SP          .MV                                                 :          
SP_NORM     .MV                                                 :SP Normalized
VSH_GR      .V/V                                                :Volume of Shale from GR
VSH_SP      .V/V                                                :Volume of Shale from SP
~A        DEPTH           ASFL           CILD             GR        GR_NORM            ILD            SFL             SP        SP_NORM         VSH_GR         VSH_SP
# ...
     13467.5000          0.884       1446.094        96.4183       78.31408         0.7242           0.85       -46.0237      -5.088028      0.9641293      0.9407532
     13468.0000         0.8722       1456.164        96.9396       78.88181         0.7249         0.8471       -46.4094      -5.473728      0.9762086      0.9351634
     13468.5000         0.8526       1466.209        97.6764       79.72555          0.726         0.8441       -47.1487      -6.213028      0.9941606      0.9244488
     13469.0000         0.8351       1475.115        98.4823        80.6578         0.7272         0.8485       -46.8727      -5.937027              1      0.9284489
     13469.5000         0.8565       1482.428        99.0922         81.339         0.7284         0.8559       -46.0718      -5.136127              1      0.9400561
     13470.0000         0.8762       1487.352        99.5703       81.86626           0.73         0.8729       -45.8928      -4.957127              1      0.9426503
     13470.5000         0.8885       1474.547        99.0934       81.25545         0.7324         0.8898       -45.8107      -4.875027              1      0.9438402
     13471.0000         0.8972       1450.646        98.2407       80.16329         0.7349         0.9042       -45.7629      -4.827229              1      0.9445329
     13471.5000         0.9059       1427.143        98.2494       80.17442         0.7374          0.915       -45.7152      -4.779526              1      0.9452243
     13472.0000         0.9136       1411.605        98.7681        80.8388         0.7375         0.9258       -45.5401      -4.604427              1      0.9477619
     13472.5000         0.9197       1403.045        99.3977       81.64519         0.7369         0.9309        -45.346      -4.410328              1      0.9505749
     13473.0000         0.9212       1397.014        99.8722       82.25295         0.7362         0.9344       -45.2126      -4.276928              1      0.9525083
     13473.5000         0.9182       1393.748        99.5394        81.8267         0.7355         0.9334       -45.1409      -4.205227              1      0.9535474
     13474.0000         0.9094       1401.115       103.1965       86.51079         0.7358         0.9233       -45.5062      -4.570526              1      0.9482533
     13474.5000         0.8995       1409.031       109.5645       94.66705         0.7368         0.9137       -45.8716      -4.935928              1      0.9429576
     13475.0000         0.8899       1421.748        115.952       102.8483         0.7379         0.9043       -46.1235      -5.187828              1      0.9393069
     13475.5000         0.8845        1441.74        -999.25        -999.25          0.739         0.8948       -46.3361      -5.400429        -999.25      0.9362257
     13476.0000         0.8791       1457.426        -999.25        -999.25           0.74         0.8861       -46.5493      -5.613628        -999.25      0.9331358
     13476.5000         0.8735       1430.805        -999.25        -999.25         0.7406         0.8781       -46.5197      -5.584026        -999.25      0.9335648
     13477.0000         0.8662       1399.086        -999.25        -999.25         0.7409         0.8701       -46.3558      -5.420128        -999.25      0.9359401
     13477.5000         0.8647       1372.939        -999.25        -999.25         0.7411         0.8685          -46.2      -5.264328        -999.25      0.9381981
     13478.0000         0.8638       1369.223        -999.25        -999.25         0.7414         0.8698       -46.0811      -5.145428        -999.25      0.9399213
     13478.5000         0.8696       1365.506        -999.25        -999.25         0.7417         0.8712       -45.9621      -5.026428        -999.25       0.941646
     13479.0000         0.8912        1363.34        -999.25        -999.25         0.7419          0.874       -45.8432      -4.907528        -999.25      0.9433692
     13479.5000         0.9079       1363.182        -999.25        -999.25         0.7422         0.8915       -45.8045      -4.868828        -999.25        0.94393
     13480.0000         0.9226       1363.023        -999.25        -999.25         0.7424          0.909       -45.7883      -4.852627        -999.25      0.9441648
     13480.5000           0.93       1362.865        -999.25        -999.25         0.7427          0.926       -45.7721      -4.836426        -999.25      0.9443997
     13481.0000         0.9356       1363.027        -999.25        -999.25          0.743         0.9379       -45.8001      -4.864426        -999.25      0.9439938
     13481.5000         0.9401       1363.691        -999.25        -999.25         0.7445         0.9468       -45.8443      -4.908627        -999.25      0.9433532
     13482.0000         0.9412       1364.355        -999.25        -999.25         0.7469         0.9512       -45.8806      -4.944927        -999.25      0.9428272
     13482.5000         0.9422       1365.018        -999.25        -999.25         0.7492         0.9527       -45.8921      -4.956429        -999.25      0.9426605
     13483.0000         0.9433        1365.73        -999.25        -999.25         0.7516         0.9516       -45.9036      -4.967926        -999.25      0.9424938
     13483.5000         0.9444       1366.484        -999.25        -999.25         0.7531         0.9504       -45.9504      -5.014729        -999.25      0.9418156
     13484.0000         0.9456       1367.238        -999.25        -999.25         0.7545         0.9511        -46.024      -5.088326        -999.25      0.9407489
     13484.5000         0.9469       1368.002        -999.25        -999.25         0.7558         0.9525       -46.0978      -5.162128        -999.25      0.9396793
     13485.0000          0.947       1368.938        -999.25        -999.25         0.7572         0.9539       -46.2286      -5.292927        -999.25      0.9377837
     13485.5000         0.9464       1369.875        -999.25        -999.25         0.7585          0.954       -46.4168      -5.481129        -999.25      0.9350561
     13486.0000         0.9458       1370.838        -999.25        -999.25         0.7598         0.9506       -46.6053      -5.669628        -999.25      0.9323242
     13486.5000         0.9452       1371.941        -999.25        -999.25         0.7611         0.9472       -46.7741      -5.838428        -999.25      0.9298779
     13487.0000         0.9446       1373.045        -999.25        -999.25         0.7615         0.9442       -46.8667      -5.931026        -999.25      0.9285358
     13487.5000          0.944       1374.975        -999.25        -999.25         0.7606         0.9486       -46.9591      -6.023426        -999.25      0.9271967
     13488.0000         0.9434       1377.332        -999.25        -999.25         0.7597         0.9531       -46.9897      -6.054028        -999.25      0.9267532
     13488.5000         0.9428       1380.158        -999.25        -999.25         0.7588         0.9569       -46.8906      -5.954926        -999.25      0.9281895
     13489.0000         0.9423       1385.898        -999.25        -999.25         0.7605         0.9587       -46.7911      -5.855427        -999.25      0.9296315
     13489.5000         0.9423       1391.639        -999.25        -999.25         0.7621         0.9605       -46.6281      -5.692429        -999.25      0.9319938
     13490.0000         0.9424       1410.887        -999.25        -999.25         0.7635         0.9614        -46.455      -5.519329        -999.25      0.9345025
     13490.5000         0.9427       1421.402        -999.25        -999.25         0.7638         0.9616       -46.2819      -5.346226        -999.25      0.9370112
     13491.0000         0.9432       1442.631        -999.25        -999.25         0.7641         0.9619       -46.2517      -5.316029        -999.25      0.9374489
     13491.5000         0.9437       1450.715        -999.25        -999.25         0.7643         0.9699       -46.2484      -5.312729        -999.25      0.9374967
