#------------------------------------------------------------------------------
# Created by    : vladimir.rabinovich
# Created on    : 09/19/2023 17:21:54
#------------------------------------------------------------------------------
~Version Information Section
VERS.           2.0     :   CWLS log ASCII Standard - VERSION 2.0
WRAP.           NO      :   One line per depth step
~Well Information Section
#MNEM       .UNIT                                         VALUE :DESCRIPTION
#------------------------------------------------------------------------------
STRT        .FT                                             404 :START DEPTH
STOP        .FT                                            9564 :STOP DEPTH
STEP        .FT                                             0.5 :STEP      
NULL        .                                           -999.25 :NULL      
COMP        .                               AMOCO PRODUCTION CO :COMPANY   
WELL        .                               OCS G03108 ST00BP01 :WELL      
FLD         .                                           WILDCAT :FIELD     
LOC         .                                                   :LOCATION  
CNTY        .                      MATAGORDA ISLAND LARGE BLOCK :LOCATION  
STAT        .                                             TEXAS :STATE     
CTRY        .                                     UNITED STATES :COUNTRY   
SRVC        .                                                   :SERVICE COMPANY
DATE        .                             9/13/2023 11:12:09 AM :LOG DATE  
API         .                                    42703400030000 :API NUMBER
UWI         .                                    42703400030000 :UNIQUE WELL ID
XCOORD      .                                  482242.907024332 :SURFACE X 
YCOORD      .                                  10146341.7942038 :SURFACE Y 
LAT         .                                         27.913374 :LATITUDE  
LON         .                                         -96.58609 :LONGITUDE 
ELEV        .FT                                              95 :ELEVATION VALUE
ELEV_TYPE   .                                                KB :ELEVATION REFERENCE TYPE
~Curve Information Section
#MNEM       .UNIT                                      API CODE :CURVE DESCRIPTION
#------------------------------------------------------------------------------
DEPT        .FT                                                 :DEPTH     
CALI        .IN                                                 :          
CILD        .MMHO                                               :          
GR          .GAPI                                               :          
GR_NORM     .GAPI                                               :GammaRay Normalized
ILD         .OHMM                                               :          
RHOB        .G/C3                                               :          
SFL         .OHMM                                               :          
SP          .MV                                                 :          
SP_NORM     .MV                                                 :SP Normalized
VSH_GR      .V/V                                                :Volume of Shale from GR
VSH_SP      .V/V                                                :Volume of Shale from SP
~A        DEPTH           CALI           CILD             GR        GR_NORM            ILD           RHOB            SFL             SP        SP_NORM         VSH_GR         VSH_SP
# ...
      8751.5000        -999.25        -999.25        -999.25       77.25494        -999.25        -999.25        -999.25        -999.25              0      0.9415944              1
      8752.0000        -999.25        -999.25        -999.25       79.84599        -999.25        -999.25        -999.25        -999.25              0      0.9967232              1
      8752.5000        -999.25        -999.25        -999.25       81.61017        -999.25        -999.25        -999.25        -999.25              0              1              1
      8753.0000        -999.25        -999.25        -999.25       80.40756        -999.25        -999.25        -999.25        -999.25              0              1              1
      8753.5000        -999.25        -999.25        -999.25       79.53099        -999.25        -999.25        -999.25        -999.25              0       0.990021              1
      8754.0000        -999.25        -999.25        -999.25       77.58344        -999.25        -999.25        -999.25        -999.25              0      0.9485839              1
      8754.5000        -999.25        -999.25        -999.25       79.40711        -999.25        -999.25        -999.25        -999.25              0      0.9873854              1
      8755.0000        -999.25        -999.25        -999.25       79.13753        -999.25        -999.25        -999.25        -999.25              0      0.9816495              1
      8755.5000        -999.25        -999.25        -999.25       84.57692        -999.25        -999.25        -999.25        -999.25              0              1              1
      8756.0000        -999.25        -999.25        -999.25       82.79259        -999.25        -999.25        -999.25        -999.25              0              1              1
      8756.5000        -999.25        -999.25        -999.25       84.52192        -999.25        -999.25        -999.25        -999.25              0              1              1
      8757.0000        -999.25        -999.25        -999.25       76.60963        -999.25        -999.25        -999.25        -999.25              0      0.9278646              1
      8757.5000        -999.25        -999.25        -999.25       81.11708        -999.25        -999.25        -999.25        -999.25              0              1              1
      8758.0000        -999.25        -999.25        -999.25       80.61617        -999.25        -999.25        -999.25        -999.25              0              1              1
      8758.5000        -999.25        -999.25        -999.25       84.03888        -999.25        -999.25        -999.25        -999.25              0              1              1
      8759.0000        -999.25        -999.25        -999.25       79.13151        -999.25         2.4719        -999.25        -999.25              0      0.9815214              1
      8759.5000          9.161        -999.25         35.995       81.08645         1.9929         2.4691         0.3094              0              0              1              1
      8760.0000         9.3397        -999.25        41.6758       84.31548         2.1352         2.4615         0.2027              0              0              1              1
      8760.5000         9.4976        -999.25        47.9601       82.72332          2.124         2.4412         1.1888       -19.1521              0              1              1
      8761.0000         9.6554        -999.25        53.8629       79.07139         0.7819         2.4252         1.1581       -27.7555              0      0.9802423              1
      8761.5000         9.7286        -999.25        55.7357       77.34056         0.6866         2.4281         1.3014       -30.0099              0      0.9434162              1
      8762.0000         9.7878        -999.25        57.8978       82.13864         0.9243         2.4328         1.5507       -32.0398              0              1              1
      8762.5000          9.847        -999.25        58.2993       82.35333          1.218         2.4373          1.523       -33.9401              0              1              1
      8763.0000         9.8942        -999.25        57.2544        80.4485         1.5216         2.4419         1.4585        -35.551              0              1              1
      8763.5000         9.9261        -999.25        57.7207       80.43552         1.7934         2.4464          1.815       -36.9426              0              1              1
      8764.0000          9.958        -999.25        60.2993       76.87955         1.3473          2.451         1.6333       -37.8939              0      0.9336074              1
      8764.5000         9.9898        -999.25        62.2693       82.21351         0.9828         2.4556         1.2554       -38.3229              0              1              1
      8765.0000        10.0474        -999.25        62.7223       76.46786         1.0054          2.442         0.9483       -38.6234              0      0.9248482              1
      8765.5000        10.1328        -999.25        63.0331       84.38045         1.0542         2.3347         0.8944       -38.9058              0              1              1
      8766.0000        10.2181        -999.25        63.8679       77.22885         1.0819         2.3598         0.9644       -39.2374          2.272      0.9410394              1
      8766.5000        10.3943        -999.25        63.9901       77.97532         1.1006          2.385         1.0718       -39.9887         1.5207      0.9569217              1
      8767.0000        10.3748        -999.25        62.7606       82.94582         1.1252         2.4101         1.2943        -41.374         0.1354              1              1
      8767.5000        10.3446        -999.25        64.3915       79.92154         1.1596         2.4353         1.5594         -42.96        -1.4506      0.9983307              1
      8768.0000        10.3621        -999.25        65.2668       76.85372          1.204         2.4604         1.7889       -44.4001        -2.8907      0.9330579      0.9858619
      8768.5000        10.3796        -999.25        64.1097        77.3726         1.2376         2.4856         1.5713       -45.1664         -3.657      0.9440979      0.9736984
      8769.0000        10.3971        -999.25        62.1671       80.86636         1.2527            2.5         1.6626       -45.4962        -3.9868              1      0.9684635
      8769.5000        10.4379        -999.25        61.7612       80.77379         1.2817         2.4521          1.388       -45.6595        -4.1501              1      0.9658715
      8770.0000        10.4887        -999.25        62.0193       79.30615         1.3146          2.443         1.0475       -45.1726        -3.6632      0.9852373         0.9736
      8770.5000        10.5394        -999.25        62.0661       81.51186         1.3289         2.4154         1.0997       -44.5785        -3.0691              1      0.9830301
      8771.0000        10.4673        -999.25        61.7382       82.58759         1.2551         2.4178         1.2703       -44.1309        -2.6215              1      0.9901349
      8771.5000        10.2823        -999.25         60.434       81.14339         1.1353         2.4304         1.4561       -44.2505        -2.7411              1      0.9882365
      8772.0000        10.2652        -999.25         58.429        81.1245         1.0434         2.4426         1.7645       -44.7192        -3.2098              1      0.9807968
      8772.5000        10.3786        -999.25        56.1197       76.75471         0.9765         2.4517         2.0158       -44.8351        -3.3257      0.9309514      0.9789571
      8773.0000        10.4921        -999.25        55.5711       84.12168         0.9237         2.4343         1.1334        -45.187        -3.6776              1      0.9733714
      8773.5000        10.5642        -999.25        57.9875        80.3186         0.8867         2.4184         0.9494       -46.6483        -5.1389              1      0.9501762
