#------------------------------------------------------------------------------
# Created by    : vladimir.rabinovich
# Created on    : 09/19/2023 17:22:39
#------------------------------------------------------------------------------
~Version Information Section
VERS.           2.0     :   CWLS log ASCII Standard - VERSION 2.0
WRAP.           NO      :   One line per depth step
~Well Information Section
#MNEM       .UNIT                                         VALUE :DESCRIPTION
#------------------------------------------------------------------------------
STRT        .FT                                            3496 :START DEPTH
STOP        .FT                                          7091.5 :STOP DEPTH
STEP        .FT                                             0.5 :STEP      
NULL        .                                           -999.25 :NULL      
COMP        .                          SEAGULL ENERGY E & P INC :COMPANY   
WELL        .                               OCS G07251 ST00BP00 :WELL      
FLD         .                              GALVESTON BLOCK 0349 :FIELD     
LOC         .                                                   :LOCATION  
CNTY        .                             GALVESTON LARGE BLOCK :LOCATION  
STAT        .                                             TEXAS :STATE     
CTRY        .                                     UNITED STATES :COUNTRY   
SRVC        .                                                   :SERVICE COMPANY
DATE        .                             9/13/2023 11:19:36 AM :LOG DATE  
API         .                                    42706402300000 :API NUMBER
UWI         .                                    42706402300000 :UNIQUE WELL ID
XCOORD      .                                  1015542.86720011 :SURFACE X 
YCOORD      .                                  10434819.2372955 :SURFACE Y 
LAT         .                                         28.739771 :LATITUDE  
LON         .                                        -94.950355 :LONGITUDE 
ELEV        .FT                                              93 :ELEVATION VALUE
ELEV_TYPE   .                                                KB :ELEVATION REFERENCE TYPE
~Curve Information Section
#MNEM       .UNIT                                      API CODE :CURVE DESCRIPTION
#------------------------------------------------------------------------------
DEPT        .FT                                                 :DEPTH     
DCAL        .IN                                                 :          
DPHI        .%                                                  :          
DRHO        .G/C3                                               :          
GR          .GAPI                                               :          
GR_NORM     .GAPI                                               :GammaRay Normalized
ILD         .OHMM                                               :          
ILM         .OHMM                                               :          
NPHI        .%                                                  :          
SGRD        .OHMM                                               :          
SP          .MV                                                 :          
SP_NORM     .MV                                                 :SP Normalized
VSH_GR      .V/V                                                :Volume of Shale from GR
VSH_SP      .V/V                                                :Volume of Shale from SP
~A        DEPTH           DCAL           DPHI           DRHO             GR        GR_NORM            ILD            ILM           NPHI           SGRD             SP        SP_NORM         VSH_GR         VSH_SP
# ...
      6365.0000        -0.0248        28.7911        -0.0108        59.5845       68.34576         0.3937         0.4447        34.1996          0.657         -75.29      -26.31041      0.7520373      0.5952244
      6365.5000        -0.0232         26.024         -0.005         60.504       69.58492         0.4236         0.4713        34.2501         0.6761       -75.0073      -26.02771      0.7784024      0.5995737
      6366.0000        -0.0577        23.0379        -0.0005        59.3607       68.05215         0.4594         0.4997        32.2034         0.9841       -77.9033      -28.92371      0.7457905      0.5550199
      6366.5000        -0.0688        18.9654         0.0033        57.9458       66.15447         0.4924         0.5278        29.8595         1.2781       -77.6268      -28.64721      0.7054143      0.5592737
      6367.0000        -0.0502        18.0422         0.0043        58.1747       66.46564         0.5239         0.5594        28.8039         1.3359       -73.8689      -24.88931      0.7120348      0.6170876
      6367.5000         0.0098        18.0678         0.0032        61.4072       70.81287         0.5509         0.5895        29.0582         1.1602       -65.1371      -16.15751      0.8045292      0.7514229
      6368.0000         0.1053        18.2879         0.0024        66.8564       78.13881         0.5841         0.6199        31.8133         0.8006       -58.6071       -9.62751      0.9604002      0.8518845
      6368.5000         0.2362        19.9002         0.0056        72.0455       85.11523         0.6177         0.6508        35.6547         0.6989        -57.575      -8.595409              1      0.8677629
      6369.0000         0.3965        20.6348         0.0166        75.2855       89.47255         0.6545          0.684        37.7555         0.7206       -56.5883      -7.608707              1       0.882943
      6369.5000         0.6012        19.9497         0.0272        77.2802       92.15652         0.6833         0.7177        39.6672          0.756       -56.2142      -7.234608              1      0.8886983
      6370.0000          0.746         19.378         0.0382        74.7926       88.81738         0.7089         0.7414        40.0591         0.7829       -56.1623      -7.182709              1      0.8894968
      6370.5000         0.7729        19.7187         0.0465        71.5326       84.44032         0.7311          0.764        40.2731          0.781       -56.2578       -7.27821              1      0.8880275
      6371.0000         0.7576        20.9416         0.0425        69.2433       81.36766         0.7493         0.7717         40.534         0.7801       -56.6318       -7.65221              1      0.8822737
      6371.5000         0.5512        21.3558         0.0338        66.6838       77.93189         0.7617         0.7759         40.675         0.7876       -57.6676      -8.688007      0.9559977      0.8663384
      6372.0000         0.4477        21.1232         0.0254        64.2181       74.62219         0.7534         0.7827        40.6408         0.8088       -58.5833       -9.60371      0.8855786      0.8522506
      6372.5000         0.4434        20.3661         0.0165        63.3143       73.41129          0.746         0.7864        40.6028          0.828        -59.186      -10.20641      0.8598148      0.8429783
      6373.0000         0.4355        21.3063         0.0102        64.7954       75.40508         0.7411         0.7834        41.3614         0.8323       -59.0039      -10.02431      0.9022358      0.8457799
      6373.5000          0.417        22.2696         0.0066        65.0975       75.81462         0.7384         0.7742         42.258         0.8153       -58.7053      -9.725708      0.9109494      0.8503737
      6374.0000         0.4459        23.2803         0.0031        68.4576       80.33332         0.7361         0.7653        42.9955         0.8032       -58.2724      -9.292809              1      0.8570337
      6374.5000         0.5561         24.142        -0.0013        69.9807       82.38354         0.7342          0.759        43.5544         0.7939       -57.8914      -8.911808              1      0.8628953
      6375.0000         0.6604        24.1915              0        69.0519       81.13906         0.7302         0.7508        43.7402         0.7963        -57.745      -8.765408              1      0.8651476
      6375.5000         0.7178        21.9575          0.005        68.8793       80.91069         0.7246         0.7468        43.2341         0.8046       -57.5447      -8.565109              1      0.8682291
      6376.0000         0.7223        20.6426         0.0064         69.402       81.61664         0.7181         0.7464        42.7209         0.8067       -57.3215      -8.341908              1       0.871663
      6376.5000         0.7157         20.365         0.0086        69.5879       81.87003          0.712         0.7451        42.7333         0.8064       -57.1506      -8.171009              1      0.8742922
      6377.0000         0.7562        20.1639         0.0113          71.53        84.4833         0.7091         0.7455        43.2851         0.8032       -57.0811      -8.101509              1      0.8753614
      6377.5000         0.7841        20.0828          0.013        75.6508       90.02419          0.711         0.7458        43.9394         0.8043       -57.0538      -8.074207              1      0.8757814
      6378.0000         0.8064         20.676         0.0124        76.2268       90.80177         0.7178         0.7456        44.4968         0.8042       -57.2141      -8.234509              1      0.8733153
      6378.5000         0.8196        21.0482         0.0089        73.4716       87.10305         0.7284         0.7527        45.3034         0.8048       -57.2998       -8.32021              1      0.8719968
      6379.0000         0.8255        21.2249         0.0045        71.0096        83.7983         0.7418         0.7669        45.5945         0.8066       -57.2462      -8.266609              1      0.8728214
      6379.5000         0.8169        20.5034        -0.0003        67.5544       79.15895         0.7636         0.7853        45.5499         0.8056       -57.3302      -8.350609      0.9821053      0.8715291
      6380.0000         0.8235        20.2052        -0.0064        65.8157       76.82614         0.7879         0.8068        45.1188         0.8187       -57.1597      -8.180107      0.9324711      0.8741522
      6380.5000         0.8221        20.3481        -0.0076        66.6376       77.93416         0.8029         0.8307        43.5905         0.8492        -56.947      -7.967407      0.9560459      0.8774245
      6381.0000         0.8133        19.5393        -0.0064        66.4742       77.71816         0.8107         0.8462        43.0165         0.8881       -56.6399      -7.660309      0.9514503      0.8821491
      6381.5000         0.8194        19.3499         0.0006        66.4468       77.68492         0.8138         0.8547        42.6639         0.9063       -56.2133      -7.233707       0.950743      0.8887122
      6382.0000         0.7871        19.8372         0.0043        67.1967       78.69617          0.811         0.8578        42.2715         0.9014       -55.3483       -6.36871       0.972259      0.9020199
      6382.5000         0.7007        19.7389         0.0048        67.5948       79.23469         0.8064         0.8542        42.0958         0.8945       -54.2962      -5.316608      0.9837168       0.918206
      6383.0000         0.6356         19.438         0.0064        71.2699       84.17667         0.7991         0.8421        42.0565         0.8818       -53.5093      -4.529709              1      0.9303122
      6383.5000         0.5985        19.2696         0.0123        74.3473       88.31551         0.7877         0.8263          42.06         0.8627         -52.95      -3.970409              1      0.9389168
