#------------------------------------------------------------------------------
# Created by    : vladimir.rabinovich
# Created on    : 09/19/2023 17:21:44
#------------------------------------------------------------------------------
~Version Information Section
VERS.           2.0     :   CWLS log ASCII Standard - VERSION 2.0
WRAP.           NO      :   One line per depth step
~Well Information Section
#MNEM       .UNIT                                         VALUE :DESCRIPTION
#------------------------------------------------------------------------------
STRT        .FT                                            3434 :START DEPTH
STOP        .FT                                            9802 :STOP DEPTH
STEP        .FT                                             0.5 :STEP      
NULL        .                                           -999.25 :NULL      
COMP        .                                  UMC PETROLEUM CO :COMPANY   
WELL        .                               OCS G11352 ST00BP00 :WELL      
FLD         .                            HIGH ISLAND BLOCK 0093 :FIELD     
LOC         .                                                   :LOCATION  
CNTY        .                           HIGH ISLAND LARGE BLOCK :LOCATION  
STAT        .                                             TEXAS :STATE     
CTRY        .                                     UNITED STATES :COUNTRY   
SRVC        .                                                   :SERVICE COMPANY
DATE        .                             9/13/2023 11:19:57 AM :LOG DATE  
API         .                                    42708403880000 :API NUMBER
UWI         .                                    42708403880000 :UNIQUE WELL ID
XCOORD      .                                  1243413.75648782 :SURFACE X 
YCOORD      .                                  10663707.7269925 :SURFACE Y 
LAT         .                                         29.377731 :LATITUDE  
LON         .                                        -94.246854 :LONGITUDE 
ELEV        .FT                                              85 :ELEVATION VALUE
ELEV_TYPE   .                                                KB :ELEVATION REFERENCE TYPE
~Curve Information Section
#MNEM       .UNIT                                      API CODE :CURVE DESCRIPTION
#------------------------------------------------------------------------------
DEPT        .FT                                                 :DEPTH     
CALI        .IN                                                 :          
CALI_1      .IN                                                 :          
DPHI        .%                                                  :          
DRHO        .G/C3                                               :          
DT          .US/F                                               :          
GR          .GAPI                                               :          
GR_1        .GAPI                                               :          
GR_NORM     .GAPI                                               :GammaRay Normalized
ILD         .OHMM                                               :          
ILM         .OHMM                                               :          
NPHI        .%                                                  :          
RFOC        .OHMM                                               :          
SP          .MV                                                 :          
SP_NORM     .MV                                                 :SP Normalized
VSH_GR      .V/V                                                :Volume of Shale from GR
VSH_SP      .V/V                                                :Volume of Shale from SP
~A        DEPTH           CALI         CALI_1           DPHI           DRHO             DT             GR           GR_1        GR_NORM            ILD            ILM           NPHI           RFOC             SP        SP_NORM         VSH_GR         VSH_SP
# ...
      7242.0000        -999.25        12.3666        -999.25        -999.25       102.5249        47.7772        -999.25       62.04001         0.5614         0.5301        -999.25         0.7486       -62.5051       -18.5051      0.6178726      0.7278662
      7242.5000        -999.25        12.4041        -999.25        -999.25       104.0867        48.6807        -999.25       63.63659         0.5831          0.577        -999.25         0.7744       -53.0434        -9.0434      0.6518423      0.8670088
      7243.0000        -999.25        12.4388        -999.25        -999.25        105.821        46.6479        -999.25       60.04079         0.6442         0.6369        -999.25         0.8078       -46.7191      -2.719101       0.575336      0.9600132
      7243.5000        -999.25        12.4663        -999.25        -999.25       106.5745        45.1617        -999.25       57.41158         0.7043         0.6997        -999.25         0.8468       -43.9366     0.06340027      0.5193954              1
      7244.0000        -999.25        12.4866        -999.25        -999.25       106.0262        44.4767        -999.25       56.19915         0.8011          0.755        -999.25         0.8808       -43.1536      0.8464012       0.493599              1
      7244.5000        -999.25        12.4911        -999.25        -999.25       102.7151        43.8208        -999.25       55.03819         0.8945         0.7746        -999.25         0.9064        -43.034      0.9659996      0.4688977              1
      7245.0000        -999.25        12.4862        -999.25        -999.25       100.2173        43.2698        -999.25       54.06273         0.9541         0.7768        -999.25         0.9048       -43.1266      0.8734016      0.4481431              1
      7245.5000        -999.25        12.4341        -999.25        -999.25        98.5962        43.4857        -999.25       54.44338         0.9649         0.7601        -999.25         0.8659       -43.4173      0.5826988      0.4562422              1
      7246.0000        -999.25         12.402        -999.25        -999.25        99.0386        45.8859        -999.25       58.68661         0.9587         0.7383        -999.25         0.8272       -43.8405      0.1595001      0.5465237              1
      7246.5000        -999.25        12.3808        -999.25        -999.25       101.9943        49.8969        -999.25        65.7783          0.938         0.7079        -999.25         0.7829       -44.5001     -0.5000992      0.6974106      0.9926456
      7247.0000        -999.25        12.3942        -999.25        -999.25       106.4142        52.8804        -999.25         71.053         0.8911         0.6767        -999.25         0.7383       -45.3415      -1.341499      0.8096383      0.9802721
      7247.5000        -999.25        12.4498        -999.25        -999.25       111.3047        55.6653        -999.25       75.97652         0.8272         0.6471        -999.25         0.7009       -46.8209        -2.8209       0.914394      0.9585162
      7248.0000        -999.25         12.523        -999.25        -999.25       116.3202        57.3953        -999.25       79.03461         0.7515         0.6173        -999.25         0.6748       -48.9877      -4.987701      0.9794599      0.9266515
      7248.5000        -999.25        12.5558        -999.25        -999.25       120.2546        57.7539        -999.25       79.66763         0.6754         0.5734        -999.25         0.6575       -51.7477        -7.7477      0.9929282      0.8860632
      7249.0000        -999.25        12.5885        -999.25        -999.25       119.7991         56.467        -999.25       77.39084         0.5966         0.5242        -999.25         0.6468       -54.4631       -10.4631      0.9444859      0.8461308
      7249.5000        -999.25        12.6103        -999.25        -999.25       116.0249        52.0513        -999.25       69.58129         0.5005         0.4731        -999.25         0.6481       -61.1846       -17.1846      0.7783253      0.7472853
      7250.0000        -999.25          12.67        -999.25        -999.25       108.8419         47.534        -999.25       61.59206         0.4181         0.4196        -999.25         0.6577       -76.1366       -32.1366      0.6083418       0.527403
      7250.5000        -999.25        12.7212        -999.25        -999.25       100.7529        43.0215        -999.25       53.61136         0.3494         0.3706        -999.25         0.6761       -84.2581       -40.2581      0.4385396      0.4079691
      7251.0000        -999.25        12.7336        -999.25        -999.25        95.5071        38.3403        -999.25       45.33231         0.3036         0.3292        -999.25         0.6738       -91.5752       -47.5752      0.2623896      0.3003647
      7251.5000        -999.25        12.6961        -999.25        -999.25         93.376        33.6592        -999.25       37.05344         0.2708         0.2924        -999.25         0.6459       -98.9022       -54.9022     0.08624349      0.1926147
      7252.0000        -999.25        12.5512        -999.25        -999.25         93.655         34.096        -999.25       37.82473         0.2344         0.2635        -999.25          0.603      -102.6726       -58.6726      0.1026539      0.1371676
      7252.5000        -999.25         12.619        -999.25        -999.25        97.0989         34.286        -999.25        38.1596        -999.25         0.2477        -999.25         0.5651      -103.1201       -59.1201      0.1097786      0.1305867
      7253.0000        -999.25        12.6458        -999.25        -999.25       102.9203        34.3214        -999.25       38.22108        -999.25         0.2353        -999.25         0.5454      -102.8594       -58.8594      0.1110868      0.1344206
      7253.5000        -999.25        12.5748        -999.25        -999.25       106.8147        34.3659        -999.25       38.29866        -999.25         0.2258        -999.25          0.538      -102.4038       -58.4038      0.1127374      0.1411206
      7254.0000        -999.25        12.4515        -999.25        -999.25        108.465        34.7637        -999.25       39.00098        -999.25         0.2225        -999.25         0.5281      -102.2555       -58.2555      0.1276805      0.1433015
      7254.5000        -999.25        12.3462        -999.25        -999.25       108.4666        36.0668        -999.25       41.30418        -999.25         0.2263        -999.25         0.5132      -102.7632       -58.7632      0.1766846      0.1358353
      7255.0000        -999.25        12.3262        -999.25        -999.25       107.8533        37.1465        -999.25       43.21233        -999.25         0.2318        -999.25         0.4994      -103.5413       -59.5413      0.2172836      0.1243927
      7255.5000        -999.25        12.3585        -999.25        -999.25        107.543        34.7711        -999.25       39.01072         0.2115         0.2381        -999.25         0.5043      -104.4181       -60.4181      0.1278877      0.1114985
      7256.0000        -999.25        12.5759        -999.25        -999.25       108.3715        31.7207        -999.25       33.61547         0.2214         0.2453        -999.25         0.5172      -104.8174       -60.8174     0.01309504      0.1056265
      7256.5000        -999.25        12.9092        -999.25        -999.25       109.3612        31.5109        -999.25       33.24336         0.2309         0.2506        -999.25         0.5306      -104.9589       -60.9589    0.005177843      0.1035456
      7257.0000        -999.25        13.3294        -999.25        -999.25       108.7168        31.9832        -999.25       34.07743         0.2395         0.2538        -999.25         0.5512      -104.9705       -60.9705     0.02292398       0.103375
      7257.5000        -999.25        13.6174        -999.25        -999.25       108.1093        32.6564        -999.25       35.26675         0.2461         0.2563        -999.25         0.5584      -104.8749       -60.8749     0.04822873      0.1047809
