#------------------------------------------------------------------------------
# Created by    : vladimir.rabinovich
# Created on    : 09/19/2023 17:19:44
#------------------------------------------------------------------------------
~Version Information Section
VERS.           2.0     :   CWLS log ASCII Standard - VERSION 2.0
WRAP.           NO      :   One line per depth step
~Well Information Section
#MNEM       .UNIT                                         VALUE :DESCRIPTION
#------------------------------------------------------------------------------
STRT        .FT                                             490 :START DEPTH
STOP        .FT                                           13420 :STOP DEPTH
STEP        .FT                                             0.5 :STEP      
NULL        .                                           -999.25 :NULL      
COMP        .                                 MESA PETROLEUM CO :COMPANY   
WELL        .                                     ST TR 00012-L :WELL      
FLD         .                                           WILDCAT :FIELD     
LOC         .                                                   :LOCATION  
CNTY        .                           HIGH ISLAND LARGE BLOCK :LOCATION  
STAT        .                                             TEXAS :STATE     
CTRY        .                                     UNITED STATES :COUNTRY   
SRVC        .                                                   :SERVICE COMPANY
DATE        .                             9/13/2023 11:19:15 AM :LOG DATE  
API         .                                    42708302120000 :API NUMBER
UWI         .                                    42708302120000 :UNIQUE WELL ID
XCOORD      .                                  1361115.25412243 :SURFACE X 
YCOORD      .                                  10723579.9964947 :SURFACE Y 
LAT         .                                        29.5453665 :LATITUDE  
LON         .                                       -93.8786547 :LONGITUDE 
ELEV        .FT                                              80 :ELEVATION VALUE
ELEV_TYPE   .                                                KB :ELEVATION REFERENCE TYPE
~Curve Information Section
#MNEM       .UNIT                                      API CODE :CURVE DESCRIPTION
#------------------------------------------------------------------------------
DEPT        .FT                                                 :DEPTH     
ASFL        .OHMM                                               :          
CILD        .MMHO                                               :          
GR          .GAPI                                               :          
GR_NORM     .GAPI                                               :GammaRay Normalized
ILD         .OHMM                                               :          
SP          .MV                                                 :          
SP_NORM     .MV                                                 :SP Normalized
VSH_GR      .V/V                                                :Volume of Shale from GR
~A        DEPTH           ASFL           CILD             GR        GR_NORM            ILD             SP        SP_NORM         VSH_GR
# ...
      9074.5000         0.7515       1307.477        65.7911       88.12358         0.7438       -95.7848       2.397018              1
      9075.0000         0.7576       1296.992        65.5446       87.65691         0.7513       -95.8936       2.288216              1
      9075.5000         0.7638        1286.51         65.298       87.19004         0.7588       -96.0023        2.17952              1
      9076.0000         0.7621       1276.025        65.0514       86.72318         0.7663       -96.0891       2.092712              1
      9076.5000         0.7593       1266.592        64.8333       86.30923         0.7738       -95.9202        2.26162              1
      9077.0000         0.7572       1270.291        64.6191       85.90251         0.7813       -95.7515       2.430313              1
      9077.5000         0.7598        1273.99        64.7548       86.14542         0.7888       -95.5825       2.599319              1
      9078.0000         0.7623       1277.691        65.0396       86.66516         0.7963       -95.4136       2.768219              1
      9078.5000         0.7649       1281.391        65.3248       87.18564         0.8039       -95.2446       2.937218              1
      9079.0000         0.7674       1304.084        65.6096       87.70535         0.8057       -95.3794       2.802414              1
      9079.5000           0.77       1327.074        65.8232        88.0929         0.8038        -95.567       2.614815              1
      9080.0000         0.7668       1350.113        66.0042       88.41994          0.802       -95.7545       2.427315              1
      9080.5000         0.7613        1373.15        66.1853       88.74715         0.8002       -95.9419       2.239914              1
      9081.0000         0.7434       1396.141        66.3665       89.07454         0.7984       -96.1295       2.052315              1
      9081.5000         0.7213        1419.18        66.5476       89.40173         0.7966       -96.3436       1.838219              1
      9082.0000         0.7151       1437.852        65.8688       88.13244         0.7947       -96.5587       1.623116              1
      9082.5000         0.7283       1449.322        65.0756       86.65077         0.7929       -96.7742       1.407616              1
      9083.0000         0.7439       1460.791        64.2823       85.16888         0.7911       -96.9648       1.217018              1
      9083.5000         0.7595       1472.236        63.4892       83.68737         0.7893        -96.553       1.628815              1
      9084.0000         0.7751       1474.297        62.6912       82.19675         0.7875       -96.1411       2.040718              1
      9084.5000         0.7907       1464.135        61.8698       80.66271         0.7856       -95.7292       2.452614              1
      9085.0000         0.7933       1453.971        63.6139       83.89178         0.7833       -95.3174       2.864418              1
      9085.5000         0.7877        1443.82        64.2274       85.02179         0.7782       -95.0778       3.104019              1
      9086.0000         0.7803       1433.066        64.8409       86.15179         0.7731       -95.3815       2.800316              1
      9086.5000         0.7729       1422.164        65.4532       87.27958         0.7679       -95.6858       2.496017              1
      9087.0000         0.7655       1427.332        66.0668       88.40976         0.7628       -95.9901       2.191719              1
      9087.5000         0.7581       1434.398        66.6602       89.50246         0.7577       -96.2944       1.887413              1
      9088.0000         0.7555       1441.479        67.2223       90.53703         0.7525       -96.5981       1.583717              1
      9088.5000          0.763       1448.545        67.7852        91.5731         0.7474       -96.9025        1.27932              1
      9089.0000         0.7704       1455.625        68.6003       93.07741         0.7422       -97.2068      0.9750137              1
      9089.5000          0.767       1459.164        68.5258       92.93006         0.7371       -97.4149      0.7669144              1
      9090.0000         0.7578       1450.012        67.8401       91.64794          0.732       -97.4653      0.7165146              1
      9090.5000         0.7486       1440.861        66.9576       90.00046         0.7268       -97.5157      0.6661148              1
      9091.0000         0.7443       1431.709        65.4128       87.12332         0.7217       -97.5662      0.6156158              1
      9091.5000         0.7538       1422.559        65.8284       87.88592         0.7166       -97.6011       0.580719              1
      9092.0000         0.7634       1413.406        67.0359       90.11874         0.7114       -97.4814      0.7004166              1
      9092.5000          0.773       1404.244        68.2458       92.35603         0.7063       -97.3617      0.8201141              1
      9093.0000         0.7826       1394.834        69.0922       93.91843         0.7012       -97.3507      0.8311157              1
      9093.5000         0.7916       1403.887        69.5334       94.72855         0.7002       -97.5233      0.6585159              1
      9094.0000         0.7798       1444.389        68.8582       93.46596         0.7005       -98.2775    -0.09568024              1
      9094.5000         0.7679       1485.582        68.1298       92.10454         0.7009       -99.0303     -0.8484802              1
      9095.0000         0.7561       1526.824        68.3192       92.44717         0.7013       -99.7599      -1.578087              1
      9095.5000         0.7443       1568.066        68.8899        93.4977         0.7016       -99.0352     -0.8533859              1
      9096.0000         0.7329       1609.359        68.6455       93.03491          0.702       -98.5408     -0.3589859              1
      9096.5000         0.7247       1650.602        67.9501       91.73483         0.7023       -98.2799     -0.0980835              1
      9097.0000         0.7166        1688.49        67.5835       91.04516         0.7027       -98.0187      0.1631165              1
      9097.5000         0.7085       1710.689        67.7072       91.26579          0.703       -97.7574      0.4244156              1
      9098.0000         0.7003       1732.914        68.0295       91.85515         0.7034       -97.4965       0.685318              1
      9098.5000         0.6922       1718.484        68.0002       91.79173         0.7038       -97.2352      0.9466171              1
      9099.0000         0.6909       1693.621        67.4705       90.79923         0.7041       -97.0085       1.173317              1
      9099.5000          0.695       1668.756        66.9406       89.80637         0.7045       -96.7961       1.385719              1
      9100.0000         0.6992       1668.422        66.4108       88.81374         0.7048       -96.5839       1.597916              1
      9100.5000         0.7033       1668.926        65.8468       87.75758         0.7052       -96.3717        1.81012              1
      9101.0000         0.7075        1669.43         65.188        86.5254         0.7055       -96.1417       2.040115              1
      9101.5000         0.7103       1669.936        64.5305       85.29567         0.7059       -95.8441       2.337715              1
      9102.0000          0.705       1670.439        63.8718       84.06367         0.7065       -96.0289       2.152916              1
      9102.5000         0.6998       1653.563         63.202       82.81108         0.7076       -96.2832       1.898613              1
      9103.0000         0.7048        1634.84        62.3367       81.19553         0.7086       -96.5374       1.644417              1
      9103.5000         0.7165       1616.143        62.3502       81.21158         0.7097       -96.7916       1.390213              1
