#------------------------------------------------------------------------------
# Created by    : vladimir.rabinovich
# Created on    : 09/19/2023 17:20:01
#------------------------------------------------------------------------------
~Version Information Section
VERS.           2.0     :   CWLS log ASCII Standard - VERSION 2.0
WRAP.           NO      :   One line per depth step
~Well Information Section
#MNEM       .UNIT                                         VALUE :DESCRIPTION
#------------------------------------------------------------------------------
STRT        .FT                                            3496 :START DEPTH
STOP        .FT                                           13495 :STOP DEPTH
STEP        .FT                                             0.5 :STEP      
NULL        .                                           -999.25 :NULL      
COMP        .                      TEXAS EASTERN EXPLORATION CO :COMPANY   
WELL        .                                ST TR 00798-L NE/4 :WELL      
FLD         .                                           WILDCAT :FIELD     
LOC         .                                                   :LOCATION  
CNTY        .                        MUSTANG ISLAND LARGE BLOCK :LOCATION  
STAT        .                                             TEXAS :STATE     
CTRY        .                                     UNITED STATES :COUNTRY   
SRVC        .                                                   :SERVICE COMPANY
DATE        .                             9/13/2023 11:18:55 AM :LOG DATE  
API         .                                    42702302040000 :API NUMBER
UWI         .                                    42702302040000 :UNIQUE WELL ID
XCOORD      .                                  329124.923046376 :SURFACE X 
YCOORD      .                                  10022065.1107101 :SURFACE Y 
LAT         .                                        27.5591082 :LATITUDE  
LON         .                                       -97.0466418 :LONGITUDE 
ELEV        .FT                                              82 :ELEVATION VALUE
ELEV_TYPE   .                                                KB :ELEVATION REFERENCE TYPE
~Curve Information Section
#MNEM       .UNIT                                      API CODE :CURVE DESCRIPTION
#------------------------------------------------------------------------------
DEPT        .FT                                                 :DEPTH     
ASFL        .OHMM                                               :          
CILD        .MMHO                                               :          
GR          .GAPI                                               :          
GR_NORM     .GAPI                                               :GammaRay Normalized
ILD         .OHMM                                               :          
SFL         .OHMM                                               :          
SP          .MV                                                 :          
SP_NORM     .MV                                                 :SP Normalized
VSH_GR      .V/V                                                :Volume of Shale from GR
VSH_SP      .V/V                                                :Volume of Shale from SP
~A        DEPTH           ASFL           CILD             GR        GR_NORM            ILD            SFL             SP        SP_NORM         VSH_GR         VSH_SP
# ...
     12144.5000         0.7483       1579.592        79.2123       82.59032         0.6332         0.7933       -40.1953      -1.968605              1      0.9859623
     12145.0000         0.7355       1605.318        81.3528       85.34828          0.624         0.7817       -40.1022      -1.874714              1       0.987323
     12145.5000         0.7266       1631.441        82.4243       86.73704         0.6148         0.7704       -40.0002      -1.771927              1      0.9888126
     12146.0000         0.7207       1680.018        83.4663       88.08803         0.6022         0.7595       -39.9739      -1.744839              1      0.9892052
     12146.5000         0.7142       1715.805        84.5526       89.49575         0.5889         0.7485       -39.9919      -1.762054              1      0.9889557
     12147.0000         0.7094       1747.877        83.3263       87.94144         0.5756         0.7375       -40.0449      -1.814262              1      0.9881991
     12147.5000         0.7061       1778.459        82.9749       87.50774         0.5647         0.7291       -40.1155      -1.884079              1      0.9871873
     12148.0000         0.7021       1808.994        83.5781       88.29671         0.5541         0.7231       -40.2083      -1.976089              1      0.9858538
     12148.5000         0.6968       1848.053        84.1815       89.08592         0.5435          0.717       -40.3229      -2.089901              1      0.9842044
     12149.0000         0.6914       1886.121         84.689       89.75231         0.5385          0.711       -40.4113      -2.177513              1      0.9829346
     12149.5000         0.6867       1918.488        84.7246       89.81429         0.5385         0.7049       -40.3366      -2.102028              1      0.9840286
     12150.0000         0.6827       1940.199        83.5499       88.32606         0.5386          0.701        -40.262      -2.026638              1      0.9851212
     12150.5000         0.6787       1956.705        81.9451       86.28696         0.5387          0.697       -40.0145      -1.778351              1      0.9887196
     12151.0000         0.6744       1968.107        80.0527        83.8795         0.5388         0.6931        -39.762      -1.525063              1      0.9923904
     12151.5000         0.6693       1950.361        78.5635       81.98848         0.5366         0.6892       -39.5095      -1.271774              1      0.9960613
     12152.0000         0.6732       1910.211         76.853       79.81399         0.5331         0.6864       -39.3464      -1.107887      0.9960423      0.9984364
     12152.5000         0.6791       1865.104        75.4424       78.02363         0.5295         0.6836       -39.3491      -1.109798      0.9579495      0.9984087
     12153.0000         0.6892        1828.82         74.575       76.92902         0.5259         0.6847       -39.5245      -1.284412      0.9346599      0.9958781
     12153.5000         0.6992       1802.055        73.7332       75.86721         0.5239         0.6949       -39.7003      -1.459423      0.9120683      0.9933417
     12154.0000         0.7086       1770.133        73.2699       75.29016          0.526         0.7051       -39.8757      -1.634037      0.8997906       0.990811
     12154.5000         0.7179       1765.273        75.6439       78.34721         0.5281         0.7138       -40.0818      -1.839348      0.9648342      0.9878355
     12155.0000         0.7342       1776.773        77.2831       80.46309         0.5302         0.7212       -40.2913      -2.048061              1      0.9848107
     12155.5000          0.732       1793.627        78.6003       82.16656         0.5323         0.7229       -40.5005      -2.256474              1      0.9817902
     12156.0000         0.7206       1811.869        79.7874       83.70339         0.5344         0.7163        -40.647      -2.402184              1      0.9796785
     12156.5000         0.7078       1827.754        81.0776       85.37227         0.5367         0.7096        -40.745      -2.499397              1      0.9782696
     12157.0000         0.6947       1843.641        79.0059       82.73516         0.5393         0.7027       -40.8531      -2.606709              1      0.9767144
     12157.5000         0.6891        1859.23        77.2168       80.46002         0.5419         0.6954       -41.0012      -2.754025              1      0.9745793
     12158.0000         0.6845       1872.193        76.6637       79.76796         0.5445          0.688       -40.9395      -2.691532      0.9950629       0.975485
     12158.5000         0.6832       1886.643        76.5769       79.67316         0.5471         0.6807       -40.7554      -2.506649      0.9930459      0.9781645
     12159.0000         0.6849       1895.006        75.9315       78.86288         0.5497         0.6795        -40.624      -2.374458      0.9758059      0.9800803
     12159.5000         0.6867       1887.596        75.2078       77.95234         0.5523         0.6809       -40.5515       -2.30117      0.9564328      0.9811425
     12160.0000         0.6908       1800.369        74.6315       77.23055         0.5554         0.6822       -40.4788      -2.227684      0.9410756      0.9822075
     12160.5000         0.6984       1771.098        73.8524       76.24904         0.5584         0.6841       -40.4257      -2.173794      0.9201923      0.9829885
     12161.0000         0.7061       1765.225        74.1442       76.63915         0.5615         0.6864       -40.5037      -2.251007      0.9284926      0.9818695
     12161.5000         0.7145       1754.643        74.4668       77.06871         0.5646         0.6888       -40.5639      -2.310417      0.9376321      0.9810085
     12162.0000         0.7249       1742.598        74.7684       77.47137         0.5676         0.6912       -40.5312      -2.276932      0.9461995      0.9814938
     12162.5000         0.7353       1728.297        74.4146       77.03458         0.5699         0.6958       -40.4984      -2.243343       0.936906      0.9819805
     12163.0000         0.7437       1713.996        74.0601        76.5969         0.5719         0.7005       -40.3635      -2.107655      0.9275936       0.983947
     12163.5000         0.7513       1702.273        73.6533       76.09223         0.5739         0.7052       -40.0532      -1.796566       0.916856      0.9884556
     12164.0000         0.7541       1687.898        73.1078       75.40992         0.5759         0.7098       -39.7362      -1.478779      0.9023387      0.9930612
     12164.5000         0.7558       1682.967        72.5609        74.7258         0.5774         0.7148         -39.84      -1.581791       0.887783      0.9915683
     12165.0000         0.7547        1691.27        72.0251        74.0559         0.5786           0.72       -40.0996      -1.840607      0.8735298      0.9878173
     12165.5000         0.7536       1706.164        71.5754        73.4963         0.5799         0.7251       -40.2974      -2.037617      0.8616234      0.9849621
     12166.0000         0.7518       1718.754        71.1257       72.93669         0.5802         0.7312       -40.4952      -2.234631      0.8497168      0.9821068
     12166.5000           0.75       1728.494        70.6293       72.31725         0.5788          0.738        -40.632       -2.37064      0.8365371      0.9801357
     12167.0000         0.7498       1737.059        72.3802       74.57622         0.5773         0.7441       -40.7631      -2.500954      0.8846004       0.978247
     12167.5000         0.7499       1734.865        74.0907       76.78341         0.5795         0.7479       -40.8995      -2.636566      0.9315619      0.9762816
     12168.0000         0.7543       1722.102        75.2114       78.23521         0.5826         0.7523       -40.9972      -2.733479      0.9624512      0.9748771
     12168.5000         0.7635       1705.396        76.3369       79.69315         0.5875         0.7652       -40.8952      -2.630688      0.9934712      0.9763668
