#------------------------------------------------------------------------------
# Created by    : vladimir.rabinovich
# Created on    : 09/19/2023 17:19:38
#------------------------------------------------------------------------------
~Version Information Section
VERS.           2.0     :   CWLS log ASCII Standard - VERSION 2.0
WRAP.           NO      :   One line per depth step
~Well Information Section
#MNEM       .UNIT                                         VALUE :DESCRIPTION
#------------------------------------------------------------------------------
STRT        .FT                                            9400 :START DEPTH
STOP        .FT                                           17100 :STOP DEPTH
STEP        .FT                                             0.5 :STEP      
NULL        .                                           -999.25 :NULL      
COMP        .                                   FOREST OIL CORP :COMPANY   
WELL        .                               OCS G18937 ST00BP00 :WELL      
FLD         .                            HIGH ISLAND BLOCK 0116 :FIELD     
LOC         .                                                   :LOCATION  
CNTY        .                           HIGH ISLAND LARGE BLOCK :LOCATION  
STAT        .                                             TEXAS :STATE     
CTRY        .                                     UNITED STATES :COUNTRY   
SRVC        .                                                   :SERVICE COMPANY
DATE        .                             9/13/2023 11:19:48 AM :LOG DATE  
API         .                                    42708405250000 :API NUMBER
UWI         .                                    42708405250000 :UNIQUE WELL ID
XCOORD      .                                  1337259.97993026 :SURFACE X 
YCOORD      .                                  10628189.4209318 :SURFACE Y 
LAT         .                                         29.282461 :LATITUDE  
LON         .                                        -93.951246 :LONGITUDE 
ELEV        .FT                                              93 :ELEVATION VALUE
ELEV_TYPE   .                                                KB :ELEVATION REFERENCE TYPE
~Curve Information Section
#MNEM       .UNIT                                      API CODE :CURVE DESCRIPTION
#------------------------------------------------------------------------------
DEPT        .FT                                                 :DEPTH     
AHT10       .OHMM                                               :          
AHT20       .OHMM                                               :          
AHT30       .OHMM                                               :          
AHT60       .OHMM                                               :          
AHT90       .OHMM                                               :          
CALI        .IN                                                 :          
COND        .MMHO                                               :          
DTCO        .US/F                                               :          
GR          .GAPI                                               :          
GR_NORM     .GAPI                                               :GammaRay Normalized
HDRA        .G/CC                                               :          
NPOR        .FRAC                                               :          
RHOZ        .G/CC                                               :          
VSH_GR      .V/V                                                :Volume of Shale from GR
~A        DEPTH          AHT10          AHT20          AHT30          AHT60          AHT90           CALI           COND           DTCO             GR        GR_NORM           HDRA           NPOR           RHOZ         VSH_GR
# ...
     11956.0000          0.532          0.525          0.524          0.509          0.484          8.176       2066.116        112.756         83.781       86.37969         -0.003          0.337          2.439              1
     11956.5000          0.539          0.519          0.514          0.503          0.478          8.199        2092.05        111.054         84.852       87.50526         -0.002          0.382          2.446              1
     11957.0000           0.57          0.554          0.548          0.535          0.507          8.199       1972.386        107.668         83.361       85.94072         -0.002          0.355          2.448              1
     11957.5000          0.642          0.627          0.616          0.599          0.564          8.246        1773.05        106.274         74.452        76.5873         -0.003           0.35          2.448      0.9273894
     11958.0000           0.74          0.718          0.696          0.678          0.633          8.246       1579.779         96.649         67.677       69.47457         -0.004          0.274          2.439      0.7760547
     11958.5000          0.825          0.821          0.783           0.77          0.713          8.223       1402.525         95.986         62.539       64.08069         -0.005          0.252          2.427      0.6612912
     11959.0000          0.875          0.893          0.846          0.834          0.768          8.199       1302.083         94.849         57.731        59.0333         -0.005          0.268          2.423      0.5539001
     11959.5000          0.847          0.873          0.841          0.824           0.76          8.199        1315.79         94.785         54.094       55.21548         -0.006          0.244          2.417      0.4726697
     11960.0000          0.791           0.82          0.799          0.785          0.726          8.187        1377.41          95.69         58.439       59.77875         -0.005          0.217          2.425      0.5697606
     11960.5000          0.789          0.818          0.791           0.78           0.72          8.199       1388.889         98.071         61.741       63.24687         -0.002          0.262          2.442      0.6435505
     11961.0000          0.804          0.838          0.806          0.788          0.726          8.176        1377.41         99.456         62.206       63.73613          0.002          0.256          2.464      0.6539603
     11961.5000          0.779          0.814          0.785          0.767          0.707          8.187       1414.427        101.398         65.544       67.24205          0.004          0.228          2.475      0.7285542
     11962.0000          0.739          0.768          0.739          0.721          0.667          8.187        1499.25         100.48          69.95       71.86937          0.001          0.269          2.464      0.8270079
     11962.5000          0.732           0.75          0.716          0.693          0.642          8.176       1557.632         98.814         71.745       73.75515         -0.003          0.301          2.455      0.8671309
     11963.0000          0.775          0.775          0.734          0.707          0.653          8.223       1531.394         98.135         66.924       68.69411         -0.007           0.32          2.448      0.7594492
     11963.5000          0.873          0.856          0.793          0.753           0.69          8.164       1449.275         96.527         62.231       63.76748         -0.007          0.302          2.464      0.6546271
     11964.0000          0.946          0.923          0.846          0.799          0.728          8.093       1373.626          95.98         63.276       64.86575         -0.004          0.233          2.486      0.6779946
     11964.5000          0.908          0.894          0.824          0.783          0.714          8.152        1400.56         94.503          64.18       65.81597         -0.001          0.224            2.5      0.6982121
     11965.0000          0.822          0.822          0.767          0.732          0.671          8.152       1490.313         94.018         65.974       67.70069         -0.001          0.238          2.491      0.7383126
     11965.5000          0.799          0.771          0.727          0.701          0.645          8.176       1550.388         98.453          66.45       68.20151         -0.003          0.253          2.471      0.7489682
     11966.0000           0.82           0.77          0.712          0.683           0.63           8.14       1587.302         99.072         66.515       68.27077         -0.006          0.265           2.45      0.7504418
     11966.5000           0.84          0.808           0.71          0.667          0.616          8.152       1623.377        106.377          68.49       70.34554         -0.006          0.261          2.441       0.794586
     11967.0000          0.846          0.805          0.705          0.655          0.607          8.199       1647.447        106.836         71.488       73.49446         -0.006          0.268           2.43      0.8615843
     11967.5000          0.826           0.76          0.703          0.646            0.6          8.187       1666.667        105.403         72.779       74.85104         -0.005          0.314          2.432      0.8904476
     11968.0000          0.849          0.761          0.709          0.645          0.599          8.187       1669.449        104.113         75.361       77.56316         -0.005          0.352          2.432      0.9481522
     11968.5000          1.054          0.898          0.793          0.697          0.645          8.152       1550.388        100.198         76.282       78.53123         -0.006          0.325          2.433      0.9687495
     11969.0000          1.568           1.26          0.986          0.815          0.747          8.117       1338.688         94.507         67.695        69.5159         -0.006          0.295          2.428       0.776934
     11969.5000          2.026           1.56          1.167          0.913          0.831           8.14        1203.37          90.95         50.936       51.91996         -0.005          0.261          2.427      0.4025523
     11970.0000          1.999          1.508          1.184            0.9          0.822          8.129       1216.545         85.654         36.429       36.68863         -0.004          0.209          2.434     0.07848155
     11970.5000          1.812          1.369          1.115          0.841          0.774          8.105        1291.99         84.189         30.108        30.0526         -0.007          0.194          2.439              0
     11971.0000          1.648          1.252          1.043          0.785          0.727          8.081       1375.516         82.286         28.752       28.62982         -0.011          0.199          2.444              0
     11971.5000          1.474          1.114          0.953          0.724          0.676          8.058        1479.29         85.709         27.122       26.91934          -0.01          0.205          2.447              0
     11972.0000          1.382          1.043          0.894          0.686          0.644          8.105       1552.795         88.227         30.313       30.27091         -0.009          0.267          2.425              0
     11972.5000           1.27          0.972          0.839          0.655          0.618          8.081       1618.123           92.2          31.97       32.01178         -0.007          0.265          2.364              0
     11973.0000          1.117          0.868          0.768           0.62          0.588          8.081        1700.68         94.222         33.032        33.1279         -0.008           0.25          2.298     0.00272134
     11973.5000          1.049          0.813           0.73          0.605          0.576          8.081       1736.111         94.888         31.706       31.73662         -0.005           0.27          2.254              0
