#------------------------------------------------------------------------------
# Created by    : vladimir.rabinovich
# Created on    : 09/19/2023 17:20:54
#------------------------------------------------------------------------------
~Version Information Section
VERS.           2.0     :   CWLS log ASCII Standard - VERSION 2.0
WRAP.           NO      :   One line per depth step
~Well Information Section
#MNEM       .UNIT                                         VALUE :DESCRIPTION
#------------------------------------------------------------------------------
STRT        .FT                                            1092 :START DEPTH
STOP        .FT                                            8058 :STOP DEPTH
STEP        .FT                                             0.5 :STEP      
NULL        .                                           -999.25 :NULL      
COMP        .                                    EXXON CO U S A :COMPANY   
WELL        .                               OCS G03029 ST00BP00 :WELL      
FLD         .                                           WILDCAT :FIELD     
LOC         .                                                   :LOCATION  
CNTY        .                        MUSTANG ISLAND LARGE BLOCK :LOCATION  
STAT        .                                             TEXAS :STATE     
CTRY        .                                     UNITED STATES :COUNTRY   
SRVC        .                                                   :SERVICE COMPANY
DATE        .                             9/13/2023 11:19:13 AM :LOG DATE  
API         .                                    42702400190000 :API NUMBER
UWI         .                                    42702400190000 :UNIQUE WELL ID
XCOORD      .                                  486295.566528254 :SURFACE X 
YCOORD      .                                  10047803.1546112 :SURFACE Y 
LAT         .                                         27.643077 :LATITUDE  
LON         .                                        -96.564717 :LONGITUDE 
ELEV        .FT                                              70 :ELEVATION VALUE
ELEV_TYPE   .                                                KB :ELEVATION REFERENCE TYPE
~Curve Information Section
#MNEM       .UNIT                                      API CODE :CURVE DESCRIPTION
#------------------------------------------------------------------------------
DEPT        .FT                                                 :DEPTH     
ASN         .OHMM                                               :          
CALI        .IN                                                 :          
CIL         .MMHO                                               :          
DRHO        .G/C3                                               :          
DT          .US/F                                               :          
GR          .GAPI                                               :          
GR_NORM     .GAPI                                               :GammaRay Normalized
ILD         .OHMM                                               :          
NPHI        .%                                                  :          
RHOB        .G/C3                                               :          
SN          .OHMM                                               :          
SP          .MV                                                 :          
SP_NORM     .MV                                                 :SP Normalized
VSH_GR      .V/V                                                :Volume of Shale from GR
VSH_SP      .V/V                                                :Volume of Shale from SP
~A        DEPTH            ASN           CALI            CIL           DRHO             DT             GR        GR_NORM            ILD           NPHI           RHOB             SN             SP        SP_NORM         VSH_GR         VSH_SP
# ...
      4866.0000         1.0457        12.6592       1107.963          0.019       116.7487        73.6924       70.65198         0.7879        36.8809          2.287         1.1563       -87.6157      -7.254402      0.8011059      0.8832355
      4866.5000         1.0424        12.6721       1022.205         0.0245       114.4774        75.5964        72.5555          0.855        36.0823         2.3068         1.1811        -86.109      -5.738792      0.8416063      0.9169157
      4867.0000         1.0393        12.7193       944.0332         0.0329       113.0079        77.8265       74.78512          0.924        36.2724         2.3296         1.1908       -85.6235      -5.244385      0.8890451      0.9279026
      4867.5000         1.1238        12.7717       892.4687         0.0367       112.5836        80.3103       77.26843         0.9841        36.2698         2.3436          1.189        -84.636      -4.247978      0.9418815      0.9500449
      4868.0000         1.1414        12.8167       886.9277         0.0397       114.0406        81.4441       78.40175         0.9914        35.8683         2.3493         1.1751        -83.599      -3.202072      0.9659947      0.9732873
      4868.5000         1.1544        12.8335       922.7686         0.0341       117.3228        80.0804       77.03756          0.958        35.7889         2.3346         1.1466       -83.2078      -2.801971      0.9369693      0.9821784
      4869.0000         1.1674        12.8181        959.458         0.0344       120.2928        78.7224       75.67908         0.9195        37.2724         2.3365         1.1158       -83.1083      -2.693558      0.9080655      0.9845876
      4869.5000         1.1805        12.8034       991.6797         0.0388       122.5928        79.5781       76.53429         0.8902        38.6781          2.336          1.086       -83.0688      -2.645157      0.9262616      0.9856632
      4870.0000         1.1643        12.8058       1018.661         0.0341       124.2102        80.3434       77.29911         0.8648        40.1212         2.3125         1.0613       -83.1023      -2.669746      0.9425343      0.9851167
      4870.5000          1.138        12.8348       1039.576         0.0288       125.2821        81.4148       78.37003         0.8476        40.4025         2.2965         1.0396       -83.1439      -2.702438      0.9653197      0.9843903
      4871.0000         1.1043        12.8914        1057.01         0.0264       126.3267         82.373       79.32774         0.8327        40.1008          2.282         1.0224       -83.1476      -2.697227      0.9856967      0.9845061
      4871.5000         1.0741        12.9684       1068.141         0.0263       127.6021         84.106       81.06026         0.8232        39.9736         2.2683         1.0098       -83.0104      -2.551125              1      0.9877528
      4872.0000         1.0522        13.0239        1079.26         0.0279       128.7458        86.4248       83.37857         0.8154        40.2174         2.2565         1.0053       -82.8173      -2.362511              1      0.9919442
      4872.5000          1.036        12.9999       1087.672          0.034       129.2681        87.8329       84.78619         0.8127         40.991         2.2563         1.0023       -82.6577      -2.208191              1      0.9953735
      4873.0000         1.0233        12.9279       1095.988         0.0391       129.4861        88.7318        85.6846         0.8101        41.5793         2.2388         1.0018       -82.5662      -2.121964              1      0.9972897
      4873.5000         1.0145        12.8892       1102.063         0.0363       129.5522        89.4211       86.37342         0.8083        40.3233         2.2282         1.0012       -82.7256      -2.286644              1      0.9936301
      4874.0000         1.0102        12.9318       1106.201         0.0327       129.6064        89.3546       86.30643         0.8073        41.1197         2.2185         1.0033       -82.8934      -2.459724              1      0.9897839
      4874.5000         1.0079        12.9523       1106.805         0.0318        129.998        87.9091       84.86046         0.8063        42.3331         2.2129         1.0055       -83.0214      -2.592995              1      0.9868224
      4875.0000         1.0064        12.9735       1101.633         0.0345       130.6289        84.6132       81.56406         0.8071        42.7344         2.2159         1.0103       -83.0332      -2.610077              1      0.9864427
      4875.5000         1.0055        12.9794        1096.41         0.0401       131.3428        81.6409       78.59129         0.8081        40.9045         2.2204         1.0145       -82.8127      -2.394844      0.9700273      0.9912257
      4876.0000         1.0051        12.9591       1090.758         0.0452        131.845        81.4897       78.43961         0.8092        40.7797         2.2322         1.0162       -82.5145      -2.101929      0.9668001      0.9977349
      4876.5000         1.0048        12.9252       1085.104         0.0471       131.1099        82.3572       79.30662         0.8105        40.5236         2.2388         1.0191        -82.262      -1.854698      0.9852472              1
      4877.0000         1.0049        12.8916       1079.035         0.0475        130.312        82.7491       79.69804         0.8127        40.9191         2.2405         1.0226       -82.0571      -1.655075      0.9935752              1
      4877.5000         1.0053        12.8649       1072.814         0.0479       129.5139        83.9807       80.92915          0.816         41.069         2.2372         1.0273        -81.978      -1.581253              1              1
      4878.0000         1.0057        12.8713       1067.723         0.0506       128.8081        84.1702       81.11816         0.8214        41.2986         2.2443         1.0323       -82.6182       -2.22673              1      0.9949616
      4878.5000         1.0071        12.9261       1064.881         0.0553       128.1111        84.4639       81.41138         0.8272        41.0426           2.25         1.0317       -82.9636      -2.577408              1      0.9871687
      4879.0000         1.0111        12.9716       1062.041         0.0549       127.7378        82.5592        79.5062         0.8334        40.3196         2.2573          1.029        -82.512      -2.131081      0.9894935      0.9970871
      4879.5000         1.0152        12.9748       1062.938         0.0544       127.6083        80.9325       77.87901         0.8384        39.6691         2.2616         1.0284       -81.9867      -1.611061      0.9548726              1
      4880.0000         1.0198        12.9591       1063.947         0.0556       127.6364        79.9749       76.92093         0.8421        38.7485         2.2616         1.0306       -82.2493      -1.878929      0.9344879              1
      4880.5000         1.0244        12.9324       1062.871         0.0567       127.7472        80.0446       76.99015         0.8373        40.0767         2.2583         1.0347       -82.5823      -2.217209      0.9359607      0.9951732
      4881.0000         1.0282        12.8972       1061.773         0.0568       128.1199        79.7019       76.64696         0.8334        40.4292         2.2494         1.0399       -83.0071      -2.647293      0.9286587      0.9856157
      4881.5000           1.03        12.8481       1059.586         0.0565       128.8562        80.4552       77.39978         0.8319        40.5484         2.2501         1.0513       -83.0667      -2.712166      0.9446762      0.9841741
      4882.0000         1.0319        12.7981       1057.396         0.0548       129.2214        83.9735       80.91759         0.8334        39.9266         2.2371         1.0586       -83.0212      -2.671944              1      0.9850679
      4882.5000         1.0348        12.7536        1051.17         0.0532       129.1494        86.8046       83.74821         0.8355        40.6579         2.2379         1.0667       -82.8778      -2.533813              1      0.9881375
