#------------------------------------------------------------------------------
# Created by    : vladimir.rabinovich
# Created on    : 09/19/2023 17:19:38
#------------------------------------------------------------------------------
~Version Information Section
VERS.           2.0     :   CWLS log ASCII Standard - VERSION 2.0
WRAP.           NO      :   One line per depth step
~Well Information Section
#MNEM       .UNIT                                         VALUE :DESCRIPTION
#------------------------------------------------------------------------------
STRT        .FT                                            9400 :START DEPTH
STOP        .FT                                           17100 :STOP DEPTH
STEP        .FT                                             0.5 :STEP      
NULL        .                                           -999.25 :NULL      
COMP        .                                   FOREST OIL CORP :COMPANY   
WELL        .                               OCS G18937 ST00BP00 :WELL      
FLD         .                            HIGH ISLAND BLOCK 0116 :FIELD     
LOC         .                                                   :LOCATION  
CNTY        .                           HIGH ISLAND LARGE BLOCK :LOCATION  
STAT        .                                             TEXAS :STATE     
CTRY        .                                     UNITED STATES :COUNTRY   
SRVC        .                                                   :SERVICE COMPANY
DATE        .                             9/13/2023 11:19:48 AM :LOG DATE  
API         .                                    42708405250000 :API NUMBER
UWI         .                                    42708405250000 :UNIQUE WELL ID
XCOORD      .                                  1337259.97993026 :SURFACE X 
YCOORD      .                                  10628189.4209318 :SURFACE Y 
LAT         .                                         29.282461 :LATITUDE  
LON         .                                        -93.951246 :LONGITUDE 
ELEV        .FT                                              93 :ELEVATION VALUE
ELEV_TYPE   .                                                KB :ELEVATION REFERENCE TYPE
~Curve Information Section
#MNEM       .UNIT                                      API CODE :CURVE DESCRIPTION
#------------------------------------------------------------------------------
DEPT        .FT                                                 :DEPTH     
AHT10       .OHMM                                               :          
AHT20       .OHMM                                               :          
AHT30       .OHMM                                               :          
AHT60       .OHMM                                               :          
AHT90       .OHMM                                               :          
CALI        .IN                                                 :          
COND        .MMHO                                               :          
DTCO        .US/F                                               :          
GR          .GAPI                                               :          
GR_NORM     .GAPI                                               :GammaRay Normalized
HDRA        .G/CC                                               :          
NPOR        .FRAC                                               :          
RHOZ        .G/CC                                               :          
VSH_GR      .V/V                                                :Volume of Shale from GR
~A        DEPTH          AHT10          AHT20          AHT30          AHT60          AHT90           CALI           COND           DTCO             GR        GR_NORM           HDRA           NPOR           RHOZ         VSH_GR
# ...
     10930.0000          0.623          0.506          0.483          0.448          0.422          9.483       2369.668         114.11         74.473       89.84758         -0.007          0.342          2.454              1
     10930.5000           0.64          0.519          0.486           0.45          0.423          9.566       2364.066        114.797         75.829       91.27138         -0.006           0.36           2.45              1
     10931.0000          0.651          0.532          0.486          0.447           0.42          9.542       2380.952        115.483         75.166       90.57524         -0.004           0.38          2.456              1
     10931.5000          0.621          0.512          0.473          0.435          0.409          9.472       2444.988         116.17         70.931       86.12849         -0.004          0.323          2.452              1
     10932.0000          0.579           0.48          0.454          0.421          0.397          9.448       2518.892        116.857         66.864       81.85814          -0.01          0.346          2.448              1
     10932.5000           0.57          0.473          0.448          0.418          0.395          9.424       2531.646        117.033         66.532       81.50954         -0.015          0.372           2.44              1
     10933.0000          0.603          0.498          0.463          0.433          0.408          9.436        2450.98        117.775          69.41       84.53144         -0.015          0.365          2.451              1
     10933.5000          0.633          0.525          0.485          0.453          0.426           9.33       2347.418        115.861         72.562       87.84103         -0.009          0.336          2.463              1
     10934.0000          0.638          0.527          0.494           0.46          0.432          9.318       2314.815        114.817          70.22       85.38194         -0.007           0.32           2.45              1
     10934.5000          0.657          0.529            0.5          0.466          0.438          9.283       2283.105        111.889           69.3       84.41594         -0.005          0.367          2.434              1
     10935.0000          0.694          0.557          0.515          0.479           0.45          9.307       2222.222         112.11         64.346       79.21423         -0.003          0.345           2.45      0.9832816
     10935.5000          0.724          0.583          0.531          0.495          0.464          9.307       2155.172          112.5         63.607       78.43828              0          0.328          2.488      0.9667719
     10936.0000          0.714          0.578           0.53          0.495          0.464          9.354       2155.172        112.448         58.774       73.36364          0.003          0.323          2.507      0.8588008
     10936.5000          0.686          0.561          0.517          0.481          0.451          9.366       2217.295        112.183         63.894       78.73963          0.007          0.322          2.488      0.9731836
     10937.0000          0.682          0.554           0.51          0.473          0.445          9.413       2247.191        112.516          64.03       78.88244          0.009          0.324          2.454      0.9762221
     10937.5000          0.699          0.563           0.51          0.469          0.442          9.377       2262.443        113.513         65.825       80.76718          0.003          0.363          2.439              1
     10938.0000          0.708           0.57          0.513          0.469          0.441          9.436       2267.574        113.972         62.357       77.12578         -0.004          0.334          2.437      0.9388463
     10938.5000          0.695          0.559          0.509          0.465          0.438           9.46       2283.105         114.99         64.904       79.80014         -0.003          0.312          2.435      0.9957477
     10939.0000          0.677          0.542          0.497          0.453          0.428          9.495       2336.448        115.809         66.299       81.26489          0.002           0.32          2.423              1
     10939.5000          0.648          0.525          0.485          0.441          0.417          9.472       2398.082        115.903         67.282       82.29704          0.002          0.333          2.405              1
     10940.0000          0.649          0.513          0.479          0.436          0.412          9.424       2427.185        116.469         64.736       79.62373              0          0.352          2.398      0.9919943
     10940.5000          0.667           0.52           0.48          0.437          0.413          9.377       2421.308        117.015         63.507       78.33329         -0.001          0.355          2.417      0.9645381
     10941.0000           0.65          0.525          0.473          0.428          0.405          9.424       2469.136        117.705         62.523       77.30008          0.012           0.38          2.459      0.9425549
     10941.5000          0.622          0.499          0.463          0.418          0.396          9.483       2525.252        119.565         66.462       81.43604           0.01          0.353          2.465              1
     10942.0000          0.607          0.478          0.457          0.415          0.393          9.472       2544.529        120.058         66.773       81.76259          0.008          0.365          2.449              1
     10942.5000          0.617          0.482          0.454          0.414          0.392          9.519       2551.021         118.13         69.636       84.76874         -0.003           0.38          2.427              1
     10943.0000          0.627          0.493          0.456          0.417          0.395          9.519       2531.646        117.981         66.321       81.28799         -0.005          0.366           2.43              1
     10943.5000           0.65          0.509          0.466          0.427          0.404          9.542       2475.248        120.733         71.158       86.36684         -0.007          0.357          2.443              1
     10944.0000          0.677          0.522          0.474          0.434           0.41          9.601       2439.024        118.749         71.761       86.99998          -0.01          0.322          2.438              1
     10944.5000          0.697          0.535          0.479          0.437          0.413          9.578       2421.308        115.084         70.435       85.60768         -0.007          0.347           2.45              1
     10945.0000          0.698          0.537          0.486          0.443          0.418           9.53       2392.344        114.318         65.898       80.84385          0.006          0.344          2.463              1
     10945.5000          0.673          0.526           0.49          0.449          0.423          9.377       2364.066        115.184          66.35       81.31844           0.02          0.338          2.475              1
     10946.0000          0.669          0.525          0.488          0.449          0.423          9.401       2364.066        112.609         67.676       82.71073          0.035          0.353          2.466              1
     10946.5000          0.679          0.532          0.487          0.447          0.422          9.413       2369.668        114.311         68.595       83.67569          0.037          0.352          2.443              1
     10947.0000          0.662          0.522          0.478           0.44          0.415          9.472       2409.639        114.988         66.335       81.30269          0.055          0.321          2.454              1
     10947.5000          0.622          0.497           0.46          0.423            0.4          9.448           2500        115.498         64.943       79.84108          0.064           0.34          2.477      0.9966187
