#------------------------------------------------------------------------------
# Created by    : vladimir.rabinovich
# Created on    : 09/19/2023 17:19:47
#------------------------------------------------------------------------------
~Version Information Section
VERS.           2.0     :   CWLS log ASCII Standard - VERSION 2.0
WRAP.           NO      :   One line per depth step
~Well Information Section
#MNEM       .UNIT                                         VALUE :DESCRIPTION
#------------------------------------------------------------------------------
STRT        .FT                                             970 :START DEPTH
STOP        .FT                                            9511 :STOP DEPTH
STEP        .FT                                             0.5 :STEP      
NULL        .                                           -999.25 :NULL      
COMP        .                                SHELL OFFSHORE INC :COMPANY   
WELL        .                               OCS G06097 ST00BP00 :WELL      
FLD         .                                           WILDCAT :FIELD     
LOC         .                                                   :LOCATION  
CNTY        .                             GALVESTON LARGE BLOCK :LOCATION  
STAT        .                                             TEXAS :STATE     
CTRY        .                                     UNITED STATES :COUNTRY   
SRVC        .                                                   :SERVICE COMPANY
DATE        .                             9/13/2023 11:19:27 AM :LOG DATE  
API         .                                    42706401130000 :API NUMBER
UWI         .                                    42706401130000 :UNIQUE WELL ID
XCOORD      .                                  1026820.46089783 :SURFACE X 
YCOORD      .                                  10482391.3243497 :SURFACE Y 
LAT         .                                         28.871086 :LATITUDE  
LON         .                                        -94.917566 :LONGITUDE 
ELEV        .FT                                             107 :ELEVATION VALUE
ELEV_TYPE   .                                                KB :ELEVATION REFERENCE TYPE
~Curve Information Section
#MNEM       .UNIT                                      API CODE :CURVE DESCRIPTION
#------------------------------------------------------------------------------
DEPT        .FT                                                 :DEPTH     
ASFL        .OHMM                                               :          
CALI        .IN                                                 :          
CILD        .MMHO                                               :          
DT          .US/F                                               :          
GR          .GAPI                                               :          
GR_NORM     .GAPI                                               :GammaRay Normalized
ILD         .OHMM                                               :          
ILM         .OHMM                                               :          
RHOB        .G/C3                                               :          
SP          .MV                                                 :          
SP_NORM     .MV                                                 :SP Normalized
VSH_GR      .V/V                                                :Volume of Shale from GR
VSH_SP      .V/V                                                :Volume of Shale from SP
~A        DEPTH           ASFL           CALI           CILD             DT             GR        GR_NORM            ILD            ILM           RHOB             SP        SP_NORM         VSH_GR         VSH_SP
# ...
      8931.0000            0.8          7.415       1431.145       110.6353        84.0961       80.39938          0.693         0.7054         2.3621       -39.6637     -0.1427422              1      0.9979608
      8931.5000         0.8008         7.4283       1428.943       110.4216        83.7554        79.8576         0.6909         0.7116         2.3671       -39.5109     0.01005936      0.9969702              1
      8932.0000         0.8016         7.4428       1429.885       110.2509        83.8875       80.06767         0.6888         0.7162         2.3733       -39.3544      0.1665573              1              1
      8932.5000         0.8024         7.4587       1430.826       110.3716        84.1132       80.42657         0.6867         0.7184         2.3797       -39.1981      0.3228569              1              1
      8933.0000         0.8032         7.4763       1433.404       111.0538         84.339       80.78563         0.6846         0.7205          2.383       -39.0416      0.4793587              1              1
      8933.5000         0.8039         7.4939       1441.453       111.9977        84.5648        81.1447         0.6825         0.7203         2.3831       -38.8927      0.6282578              1              1
      8934.0000         0.8004         7.5246       1449.504       113.2061        84.7906       81.50378         0.6805         0.7198         2.3697       -38.7886       0.732357              1              1
      8934.5000         0.7958         7.5714       1463.746       113.5175        85.0164       81.86285         0.6791         0.7187          2.357       -38.6845      0.8364563              1              1
      8935.0000         0.7911         7.6649       1480.688       112.7001        85.2422       82.22192         0.6776         0.7142         2.3453       -38.5805      0.9404564              1              1
      8935.5000         0.7864         7.8332       1498.816       111.4037         85.468       82.58098         0.6761         0.7097         2.3463       -38.4973       1.023659              1              1
      8936.0000         0.7817         7.9821       1517.641       110.1552        85.8007       83.11003         0.6747         0.7048         2.3694       -38.4497       1.071259              1              1
      8936.5000         0.7711         7.9922       1550.434         109.98        86.2438       83.81467         0.6732         0.6989         2.3932       -38.4022       1.118759              1              1
      8937.0000         0.7603         7.9692       1591.789       110.7806        86.6874       84.52007         0.6717         0.6931         2.4014       -38.3547        1.16626              1              1
      8937.5000         0.7519         7.9844       1594.404       111.9675         87.131       85.22548         0.6703         0.6896         2.3971       -38.3071        1.21386              1              1
      8938.0000         0.7475         8.0116        1597.02       113.0575        87.5746       85.93091         0.6688         0.6875         2.3942       -38.2883       1.232658              1              1
      8938.5000         0.7512         8.0027       1598.824       113.3708        88.0183       86.63647         0.6667         0.6854         2.4045       -38.3128       1.208157              1              1
      8939.0000         0.7552         8.0026        1598.35       112.7314        88.4619       87.34189         0.6633         0.6839         2.4116       -38.3373       1.183659              1              1
      8939.5000         0.7592         7.9801       1597.875       111.5824        88.9526        88.1222         0.6598         0.6826         2.4169       -38.3618       1.159157              1              1
      8940.0000         0.7678         7.9348         1597.4       110.4509        89.7064        89.3209         0.6564         0.6814         2.4049       -38.3862       1.134758              1              1
      8940.5000         0.7655         7.9146       1596.178        109.495        90.4613       90.52135          0.653         0.6814         2.3921       -38.4271       1.093857              1              1
      8941.0000         0.7638         7.9028       1594.141        110.074         91.215       91.71987         0.6496         0.6822         2.3796       -38.4778       1.043159              1              1
      8941.5000         0.7635         7.8886       1590.379       110.7014        91.9282       92.85402         0.6461         0.6831          2.379       -38.5284      0.9925575              1              1
      8942.0000         0.7631         7.8927       1586.379       111.5433        91.1733       91.65356         0.6427         0.6841         2.3838       -38.5792      0.9417572              1              1
      8942.5000         0.7628         7.9052       1577.877       112.1989        90.3964       90.41815         0.6393         0.6851         2.3888       -38.6299      0.8910561              1              1
      8943.0000          0.764         7.9196       1568.775       112.3674        89.6194       89.18256         0.6359         0.6862         2.3946       -38.6805      0.8404579              1              1
      8943.5000         0.7652         7.9289       1562.088        112.325        88.8424       87.94696         0.6324         0.6872          2.397        -38.716      0.8049583              1              1
      8944.0000         0.7665         7.9173       1555.412       111.9707        87.7627       86.23003          0.631         0.6879         2.3962       -38.7337      0.7872581              1              1
      8944.5000         0.7678         7.8964        1549.74       111.6163        86.6058       84.39031         0.6304         0.6885         2.3896       -38.7515      0.7694588              1              1
      8945.0000          0.769         7.8638       1548.619       111.2621         85.449       82.55077         0.6298         0.6891         2.3895       -38.7692      0.7517586              1              1
      8945.5000         0.7722         7.8277        1550.41       110.9021        84.2897       80.70725         0.6291         0.6896         2.3966       -38.7749      0.7460594              1              1
      8946.0000         0.7759         7.7906       1552.428       110.5421        82.9171       78.52452         0.6285         0.6906         2.3979       -38.6595      0.8614578      0.9686068              1
      8946.5000         0.7796         7.7691       1561.072       110.1873        82.0188       77.09604         0.6278         0.6925         2.3925       -38.5442       0.976757      0.9382136              1
      8947.0000         0.7762         7.7587       1569.717       110.0315        82.9821       78.62789         0.6272         0.6944         2.3784        -38.429       1.091957      0.9708062              1
      8947.5000         0.7727         7.7632       1579.686       109.8761        83.9465        80.1615         0.6266         0.6963         2.3654       -38.3136       1.207359              1              1
      8948.0000         0.7688         7.7615       1587.494       109.8647        84.9453       81.74979         0.6262         0.6981         2.3615       -38.1849        1.33606              1              1
      8948.5000          0.765         7.7392       1584.801       110.0844        86.0642       83.52906         0.6273         0.6992         2.3672       -38.0269       1.494057              1              1
      8949.0000         0.7611         7.7139       1574.533       110.3081        87.1831       85.30833         0.6285         0.7004         2.3728       -37.9717       1.549259              1              1
      8949.5000         0.7573         7.6901       1557.643        110.651         88.302       87.08762         0.6296         0.7016         2.3757       -38.1224        1.39856              1              1
