#------------------------------------------------------------------------------
# Created by    : vladimir.rabinovich
# Created on    : 09/19/2023 17:21:51
#------------------------------------------------------------------------------
~Version Information Section
VERS.           2.0     :   CWLS log ASCII Standard - VERSION 2.0
WRAP.           NO      :   One line per depth step
~Well Information Section
#MNEM       .UNIT                                         VALUE :DESCRIPTION
#------------------------------------------------------------------------------
STRT        .FT                                             692 :START DEPTH
STOP        .FT                                            6716 :STOP DEPTH
STEP        .FT                                             0.5 :STEP      
NULL        .                                           -999.25 :NULL      
COMP        .                                  FMP OPERATING CO :COMPANY   
WELL        .                                          SL 89457 :WELL      
FLD         .                                           WILDCAT :FIELD     
LOC         .                                                   :LOCATION  
CNTY        .                      MATAGORDA ISLAND LARGE BLOCK :LOCATION  
STAT        .                                             TEXAS :STATE     
CTRY        .                                     UNITED STATES :COUNTRY   
SRVC        .                                                   :SERVICE COMPANY
DATE        .                             9/13/2023 11:12:01 AM :LOG DATE  
API         .                                    42703303600000 :API NUMBER
UWI         .                                    42703303600000 :UNIQUE WELL ID
XCOORD      .                                  499223.886875127 :SURFACE X 
YCOORD      .                                  10221285.9321665 :SURFACE Y 
LAT         .                                        28.1205561 :LATITUDE  
LON         .                                       -96.5403272 :LONGITUDE 
ELEV        .FT                                              81 :ELEVATION VALUE
ELEV_TYPE   .                                                KB :ELEVATION REFERENCE TYPE
~Curve Information Section
#MNEM       .UNIT                                      API CODE :CURVE DESCRIPTION
#------------------------------------------------------------------------------
DEPT        .FT                                                 :DEPTH     
CALI        .IN                                                 :          
CILD        .MMHO                                               :          
DT          .US/F                                               :          
DTL         .US/F                                               :          
GR          .GAPI                                               :          
GR_NORM     .GAPI                                               :GammaRay Normalized
ILD         .OHMM                                               :          
ILM         .OHMM                                               :          
SFLU        .OHMM                                               :          
SP          .MV                                                 :          
SP_NORM     .MV                                                 :SP Normalized
TENS        .LBS                                                :          
VSH_GR      .V/V                                                :Volume of Shale from GR
VSH_SP      .V/V                                                :Volume of Shale from SP
~A        DEPTH           CALI           CILD             DT            DTL             GR        GR_NORM            ILD            ILM           SFLU             SP        SP_NORM           TENS         VSH_GR         VSH_SP
# ...
      2834.0000        -999.25       1022.866       133.2836       132.8856        55.8767       68.17052         0.9882         0.8867         0.8017       -19.4039        -8.0831       1554.875      0.7483089      0.8044962
      2834.5000        -999.25       1030.826       134.8756       132.0896        55.7816       68.03008         0.9763         0.8867         0.8091       -18.9879        -7.6671       1552.536      0.7453207      0.8204961
      2835.0000        -999.25       1022.866       135.8706       127.9104        56.7707       69.46134         0.9763         0.8867         0.8203       -18.5218         -7.201       1550.197      0.7757732      0.8384231
      2835.5000        -999.25       1022.866       135.0746       128.9055        59.4498       73.34236         0.9853         0.8867          0.847       -18.7928         -7.472       1547.859      0.8583481          0.828
      2836.0000        -999.25       998.9851       135.2736       132.6866        60.3392       74.62899         1.0081         0.8949         0.8588       -19.1656        -7.8448        1545.52      0.8857232      0.8136615
      2836.5000        -999.25       959.1841       136.4677       131.4925        60.7317       75.19548          1.041         0.9591         0.8548       -20.1656        -8.8448       1543.181      0.8977762         0.7752
      2837.0000        -999.25       911.4229       136.0697       125.1244        61.0238       75.61642         1.0848          1.028         0.8548        -20.966        -9.6452       1540.842      0.9067324      0.7444154
      2837.5000        -999.25       823.8607       134.8756       119.7512        60.4251       74.74596         1.1999         1.1018         0.8627       -21.3672       -10.0464       1538.503       0.888212      0.7289846
      2838.0000        -999.25       768.1393       132.0896       116.9652        58.7307       72.28738          1.343         1.1462         0.8706        -21.469       -10.1482       1537.313      0.8359016      0.7250692
      2838.5000        -999.25       640.7761       114.6877        111.194        54.1309       65.61728         1.5941         1.3876         0.9157       -21.6706       -10.3498       1587.065      0.6939847      0.7173154
      2839.0000        -999.25       569.1343       100.6468       103.4328        49.5312       58.94719         1.8374         1.6799         1.0268       -21.8722       -10.5514       1587.065      0.5520679      0.7095615
      2839.5000        -999.25       505.4726        88.7038       105.6219        44.9315       52.27723         1.9525         2.0338         1.2735        -22.473       -11.1522       1587.065      0.4101539      0.6864539
      2840.0000        -999.25       461.6915        80.3483        98.4577        41.6256        47.4827         2.3319          2.279         2.0622       -23.1736       -11.8528       1587.065      0.3081426      0.6595077
      2840.5000        -999.25       405.9701        81.5423        91.2935        37.2517       41.13992         2.3106          2.279          2.879       -25.6706       -14.3498       1587.065      0.1731898      0.5634692
      2841.0000        -999.25       417.8905         91.985        92.6866        33.7706       36.09142         2.2583         2.1082          3.199       -28.5208          -17.2       1567.164     0.06577495      0.4538461
      2841.5000        -999.25       513.4129       102.4276        110.398         31.783       33.20784         1.9132         1.9863          3.098       -31.6028        -20.282       1567.164    0.004422127      0.3353077
      2842.0000        -999.25       616.8955        111.791       113.9801        31.6834       33.06085         1.4413         1.6142         2.7754       -33.5531       -22.2323       1557.214    0.001294725      0.2602962
      2842.5000        -999.25       807.9403       114.3781       115.8503         31.833       33.27523         1.1703         1.3118         1.7851       -35.6851       -24.3643       1537.313    0.005856047      0.1782962
      2843.0000        -999.25       1106.468       121.4452       118.3582        31.9826       33.48962         0.9503          1.066         1.1481       -36.7814       -25.4606       1537.313     0.01041753      0.1361308
      2843.5000        -999.25       1333.313       128.5124       124.5274        32.1322       33.70401         0.7716         0.7872         0.8548       -37.3817       -26.0609       1517.413     0.01497894      0.1130423
      2844.0000        -999.25       1564.159       135.5795       129.7015        32.2819       33.91841         0.6203         0.6231         0.7215       -37.8826       -26.5618       1517.413     0.01954058     0.09377693
      2844.5000        -999.25       1775.124       141.0448       132.6866        32.2603       33.88464         0.5456         0.6231         0.6317       -38.1849       -26.8641       1567.164     0.01882204     0.08215002
      2845.0000        -999.25       2089.552       143.0348       135.4726        31.9592       33.44571         0.4626         0.5844         0.6317       -38.3879       -27.0671       1567.164    0.009483094     0.07434229
      2845.5000        -999.25        2388.06       141.2438       137.0647        31.8567       33.29452         0.4299         0.5764         0.6536       -38.6893       -27.3685       1567.164     0.00626633     0.06275001
      2846.0000        -999.25       2535.323       139.0547       133.8806        32.2504       33.86274         0.3977         0.5368         0.6798       -38.9487       -27.6279       1567.164     0.01835616     0.05277311
      2846.5000        -999.25       2583.065       135.0746       128.3085        32.3463       33.99929         0.3869         0.5024         0.7019       -39.2081       -27.8873       1567.164     0.02126142     0.04279613
      2847.0000        -999.25       2614.906       128.9055       126.1194        32.6407       34.42343         0.3851         0.4933         0.6924       -39.4675       -28.1467       1547.264     0.03028577     0.03281923
      2847.5000        -999.25       2614.906       128.9055       128.9055        33.4313       35.56698         0.3887         0.4933         0.6585       -39.7269       -28.4061       1547.264     0.05461656     0.02284233
      2848.0000        -999.25       2591.025       131.2725       131.6915        34.4202       36.99797         0.3941         0.4955         0.6118       -39.9863       -28.6655       1547.264      0.0850632     0.01286536
      2848.5000        -999.25       2583.065       133.6395        140.565        35.4064       38.42491         0.3941         0.4955          0.609       -40.2457       -28.9249       1567.164      0.1154236    0.002888459
      2849.0000        -999.25       2583.065       135.6716       155.1741         35.091       37.96526          0.391          0.507         0.6146       -40.5051       -29.1843       1557.242      0.1056437              0
      2849.5000        -999.25       2614.906       135.2736       155.1741        34.8055       37.54894         0.3834         0.5047         0.6203       -40.7645       -29.4437        1547.32     0.09678601              0
      2850.0000        -999.25       2686.547       133.0564       143.5116        35.3973       38.40417         0.3764         0.5024         0.6523       -41.0239       -29.7031       1537.398      0.1149824              0
      2850.5000        -999.25         2731.1       130.8391       131.8491        35.5771       38.66235         0.3678          0.461         0.5931       -41.2833       -29.9625       1527.476      0.1204754              0
      2851.0000        -999.25       2846.024       130.9017       130.7026        33.7134       35.95836         0.3562         0.4377          0.553       -41.1089       -29.7881       1517.893      0.0629438              0
      2851.5000        -999.25       2957.573          131.9        131.502        30.9362       31.93006         0.3377         0.4142          0.533       -41.7027       -30.3819       1508.453              0              0
