#------------------------------------------------------------------------------
# Created by    : vladimir.rabinovich
# Created on    : 09/19/2023 17:21:24
#------------------------------------------------------------------------------
~Version Information Section
VERS.           2.0     :   CWLS log ASCII Standard - VERSION 2.0
WRAP.           NO      :   One line per depth step
~Well Information Section
#MNEM       .UNIT                                         VALUE :DESCRIPTION
#------------------------------------------------------------------------------
STRT        .FT                                            4000 :START DEPTH
STOP        .FT                                            8085 :STOP DEPTH
STEP        .FT                                             0.5 :STEP      
NULL        .                                           -999.25 :NULL      
COMP        .                             WALTER OIL & GAS CORP :COMPANY   
WELL        .                               OCS G09047 ST00BP00 :WELL      
FLD         .                              GALVESTON BLOCK 0351 :FIELD     
LOC         .                                                   :LOCATION  
CNTY        .                             GALVESTON LARGE BLOCK :LOCATION  
STAT        .                                             TEXAS :STATE     
CTRY        .                                     UNITED STATES :COUNTRY   
SRVC        .                                                   :SERVICE COMPANY
DATE        .                             9/13/2023 11:19:36 AM :LOG DATE  
API         .                                    42706402000000 :API NUMBER
UWI         .                                    42706402000000 :UNIQUE WELL ID
XCOORD      .                                  1036183.96101641 :SURFACE X 
YCOORD      .                                  10437562.0132666 :SURFACE Y 
LAT         .                                        28.7482272 :LATITUDE  
LON         .                                       -94.8860948 :LONGITUDE 
ELEV        .FT                                              80 :ELEVATION VALUE
ELEV_TYPE   .                                                KB :ELEVATION REFERENCE TYPE
~Curve Information Section
#MNEM       .UNIT                                      API CODE :CURVE DESCRIPTION
#------------------------------------------------------------------------------
DEPT        .FT                                                 :DEPTH     
CALI        .IN                                                 :          
DRHO        .G/C3                                               :          
GR          .GAPI                                               :          
GR_NORM     .GAPI                                               :GammaRay Normalized
ILD         .OHMM                                               :          
ILM         .OHMM                                               :          
NPHI        .%                                                  :          
RHOB        .G/C3                                               :          
SFL         .OHMM                                               :          
SP          .MV                                                 :          
SP_NORM     .MV                                                 :SP Normalized
VSH_GR      .V/V                                                :Volume of Shale from GR
VSH_SP      .V/V                                                :Volume of Shale from SP
~A        DEPTH           CALI           DRHO             GR        GR_NORM            ILD            ILM           NPHI           RHOB            SFL             SP        SP_NORM         VSH_GR         VSH_SP
# ...
      4285.0000        13.6228         0.0559        79.9701        81.4994         0.6596          0.671        47.4648          2.089         0.8136        -50.032     -0.8588333              1       0.987731
      4285.5000        13.6008         0.0737         77.526       78.77374         0.6558         0.6631        47.5897         2.0885         0.8113       -50.2365      -1.068485      0.9739093      0.9847359
      4286.0000        13.5676         0.0951        75.6716       76.70329         0.6521         0.6567        47.6772         2.0853          0.817       -50.4601      -1.297234      0.9298571      0.9814681
      4286.5000        13.5312         0.1047         74.083       74.92818         0.6483         0.6503        47.7646         2.0811         0.8227       -50.8062      -1.648487      0.8920889      0.9764502
      4287.0000        13.4924         0.1038        73.5153        74.2874          0.643         0.6445        47.8569         2.0788         0.8295       -51.1522      -1.999638      0.8784553      0.9714338
      4287.5000        13.4561         0.1015        74.4384       75.30306         0.6378           0.64        48.0267         2.0778         0.8366        -51.267      -2.119591      0.9000652      0.9697201
      4288.0000        13.4467         0.0992        75.7452       76.74506         0.6323         0.6356        48.1964         2.0768          0.834       -50.9921      -1.849846       0.930746      0.9735736
      4288.5000         13.438         0.0983        77.1831       78.33273         0.6263         0.6311        48.3661         2.0759         0.8239       -50.6489      -1.511795      0.9645261      0.9784029
      4289.0000        13.4644         0.0995        79.7107       81.13118         0.6204          0.624        48.5088         2.0765         0.8139       -50.0967     -0.9647484              1      0.9862179
      4289.5000        13.4788         0.1006        81.6373       83.26184          0.615         0.6163        48.6252         2.0808         0.8104       -49.5447     -0.4179001              1        0.99403
      4290.0000        13.4879         0.0947        82.7419       84.47916         0.6104         0.6086        48.7184         2.0891          0.807       -49.2874     -0.1657524              1      0.9976321
      4290.5000        13.5164         0.0837        83.1472       84.91951         0.6058         0.6023        48.7258         2.1073         0.8066       -49.3042      -0.187706              1      0.9973185
      4291.0000        13.5448         0.0713        81.6798       83.27906         0.6036         0.6102        48.7043         2.1213         0.8112       -49.5382      -0.426857              1       0.993902
      4291.5000        13.5909         0.0615        78.8279       80.10028         0.6026         0.6177        48.6385         2.1308         0.8159       -49.6453     -0.5391121              1      0.9922984
      4292.0000        13.6404         0.0537           76.1       77.05927         0.6016         0.6242        48.5726          2.136         0.8182        -49.632     -0.5309601      0.9374313      0.9924148
      4292.5000        13.7135         0.0556        75.5258       76.41129         0.6007         0.6265        48.3519         2.1379           0.82       -49.5872     -0.4913139      0.9236444      0.9929813
      4293.0000        13.7471         0.0686        77.2554       78.32306         0.5998          0.619        48.1039         2.1422         0.8196       -49.3951     -0.3043633      0.9643204       0.995652
      4293.5000        13.6869         0.0862        79.7133       81.04406         0.6032         0.6116        47.8983         2.1497         0.8157       -49.2546     -0.1690178              1      0.9975855
      4294.0000         13.593         0.0995        80.8281       82.27273         0.6081         0.6085        47.7269         2.1529         0.8118       -49.3207     -0.2402725              1      0.9965675
      4294.5000        13.4992         0.0929        79.5275       80.81761         0.6171         0.6158        47.5669         2.1534         0.8115       -49.4162     -0.3409195              1      0.9951297
      4295.0000        13.4252         0.0983        78.0111       79.12272         0.6302         0.6276        47.4124         2.1461         0.8111       -49.7094     -0.6392746      0.9813344      0.9908675
      4295.5000        13.3588         0.1041        77.7056       78.77327         0.6441         0.6475        47.2578         2.1404         0.8212       -50.0026     -0.9376259      0.9738994      0.9866053
      4296.0000        13.2877         0.1062        79.3154       80.55194         0.6674         0.6708        46.9789          2.138         0.8313       -50.1443      -1.084476              1      0.9845075
      4296.5000        13.2052         0.1293         78.354       79.47372         0.6914         0.6997        46.6411         2.1458         0.8409       -50.0699      -1.015232      0.9888025      0.9854967
      4297.0000        13.1234         0.1319        74.7152       75.42061         0.7153         0.7281        46.2634         2.1585         0.8691       -49.9955     -0.9459801      0.9025661       0.986486
      4297.5000        13.0421          0.115        71.2585       71.56983         0.7396         0.7564        45.7829         2.1705         0.9207       -49.7217     -0.6773338      0.8206347      0.9903238
      4298.0000        12.9608          0.095        68.9415       68.98538         0.7654         0.7818        45.3352         2.1693         0.9711       -49.3578     -0.3185844      0.7656464      0.9954488
      4298.5000        12.8747         0.0805        67.8804       67.79639         0.7941         0.8047        44.9604         2.1582         0.9692       -49.0577    -0.02363968      0.7403486      0.9996623
      4299.0000        12.7886         0.0897        67.5187       67.38449         0.8225         0.8236         44.795         2.1482         0.9424       -49.1981     -0.1691933      0.7315849       0.997583
      4299.5000        12.7459         0.0984        69.7646       69.86994          0.842          0.834        44.8213         2.1415         0.9179       -49.8901     -0.8663406      0.7844669      0.9876237
      4300.0000        12.7065          0.106        73.6864        74.2175         0.8527         0.8442        44.5881         2.1564         0.9079        -50.331      -1.312397      0.8769681      0.9812515
      4300.5000        12.7949         0.1038        75.2465       75.94093         0.8468         0.8456        44.7532         2.1759         0.9076       -50.6624      -1.648945      0.9136369      0.9764436
      4301.0000        12.9578         0.0986        74.1927       74.76006         0.8326          0.847        45.0436         2.1932          0.917       -50.5176        -1.5093      0.8885118      0.9784386
      4301.5000        13.1617         0.0929        73.0735       73.50649         0.8136          0.825        45.2588         2.2028         0.9268       -50.0159      -1.012753      0.8618402      0.9855321
      4302.0000        13.2601         0.0869        72.5355       72.89871         0.7949         0.7986        45.2201         2.2111         0.9282       -49.5944     -0.5964012      0.8489088        0.99148
      4302.5000        13.2842         0.0859        72.8702        73.2606         0.7685         0.7728        45.2755         2.2148         0.9227       -49.3148     -0.3219566      0.8566085      0.9954006
      4303.0000        13.2335         0.0693        73.6765       74.14649         0.7429         0.7463        45.4368         2.2013         0.9146       -49.2668     -0.2791061      0.8754573      0.9960127
      4303.5000        13.1906         0.0598        74.7645       75.34538         0.7181         0.7207        45.7145         2.1847         0.8954       -49.2189     -0.2363586      0.9009656      0.9966235
