#------------------------------------------------------------------------------
# Created by    : vladimir.rabinovich
# Created on    : 09/19/2023 17:20:57
#------------------------------------------------------------------------------
~Version Information Section
VERS.           2.0     :   CWLS log ASCII Standard - VERSION 2.0
WRAP.           NO      :   One line per depth step
~Well Information Section
#MNEM       .UNIT                                         VALUE :DESCRIPTION
#------------------------------------------------------------------------------
STRT        .FT                                             598 :START DEPTH
STOP        .FT                                           10008 :STOP DEPTH
STEP        .FT                                             0.5 :STEP      
NULL        .                                           -999.25 :NULL      
COMP        .                                        SUN OIL CO :COMPANY   
WELL        .                               OCS G01712 ST00BP00 :WELL      
FLD         .                                           WILDCAT :FIELD     
LOC         .                                                   :LOCATION  
CNTY        .                                BRAZOS LARGE BLOCK :LOCATION  
STAT        .                                             TEXAS :STATE     
CTRY        .                                     UNITED STATES :COUNTRY   
SRVC        .                                                   :SERVICE COMPANY
DATE        .                             9/13/2023 11:18:52 AM :LOG DATE  
API         .                                    42704300120000 :API NUMBER
UWI         .                                    42704300120000 :UNIQUE WELL ID
XCOORD      .                                   818594.06951761 :SURFACE X 
YCOORD      .                                  10373365.4427938 :SURFACE Y 
LAT         .                                         28.560597 :LATITUDE  
LON         .                                        -95.560517 :LONGITUDE 
ELEV        .FT                                              89 :ELEVATION VALUE
ELEV_TYPE   .                                                KB :ELEVATION REFERENCE TYPE
~Curve Information Section
#MNEM       .UNIT                                      API CODE :CURVE DESCRIPTION
#------------------------------------------------------------------------------
DEPT        .FT                                                 :DEPTH     
ASN         .OHMM                                               :          
CALI        .IN                                                 :          
CILD        .MMHO                                               :          
ILD         .OHMM                                               :          
SP          .MV                                                 :          
SP_NORM     .MV                                                 :SP Normalized
VSH_SP      .V/V                                                :Volume of Shale from SP
~A        DEPTH            ASN           CALI           CILD            ILD             SP        SP_NORM         VSH_SP
# ...
      2474.0000         0.7708         6.1672       2005.221          0.787       -46.0579      -5.213081      0.9026339
      2474.5000         0.7516         6.0249       2010.547          0.775       -46.3555      -5.524837      0.8931867
      2475.0000         0.7725         5.9796       2022.611         0.7593       -46.7864      -5.969898      0.8797001
      2475.5000         0.7877         5.9822       2028.867         0.7432       -47.5123      -6.709953      0.8572741
      2476.0000         0.7593         6.0856       2027.098         0.7375       -51.4463      -10.65812      0.7376329
      2476.5000         0.7419         6.4747       2011.902         0.7335       -56.1508      -15.37677      0.5946434
      2477.0000         0.7307         7.0676       1999.211         0.7356        -51.309      -10.54913      0.7409354
      2477.5000         0.7266         7.5762       1983.766         0.7378        -48.827      -8.081287      0.8157186
      2478.0000         0.7171          7.976       1918.666         0.7399       -47.8633      -7.131748      0.8444925
      2478.5000          0.701         8.8566       1901.811         0.7469       -46.0591      -5.341709      0.8987361
      2479.0000         0.7253         9.6339       1884.947         0.7597       -45.0863      -4.383064      0.9277859
      2479.5000           0.73        10.6662       1870.994         0.7724       -44.8101      -4.121025      0.9357265
      2480.0000         0.7342        11.4215       1860.199         0.7847       -44.7418      -4.066879      0.9373673
      2480.5000         0.7338        11.6912       1849.402         0.7846        -44.624      -3.963242      0.9405078
      2481.0000         0.7334        11.8644       1838.607         0.7845       -44.1362      -3.489597      0.9548607
      2481.5000         0.7355        11.9325       1829.125         0.7853       -43.3491      -2.716656      0.9782832
      2482.0000         0.7385        11.9864       1820.322         0.7872        -42.746      -2.127712      0.9961299
      2482.5000         0.7432         12.032       1811.408         0.7892       -41.9118      -1.307674              1
      2483.0000         0.7491         12.071       1801.309         0.7912       -41.4075     -0.8175316              1
      2483.5000         0.7529        12.1238       1812.926         0.7965       -41.0388     -0.4629898              1
      2484.0000         0.7562        12.1841       1822.156         0.8041         -40.67     -0.1083488              1
      2484.5000         0.7596        12.2444       1824.467         0.8117       -40.1844      0.3630943              1
      2485.0000         0.7629        12.2813       1826.777         0.8193       -40.6864     -0.1530685              1
      2485.5000         0.7626        12.2701       1829.086         0.8269       -42.3433      -1.824123              1
      2486.0000         0.7613        12.1796       1831.725         0.8345       -42.8867      -2.381683      0.9884338
      2486.5000         0.7562         12.136       1839.029         0.8389       -42.8149      -2.324039      0.9901806
      2487.0000         0.7484        12.1402       1846.332         0.8373       -42.6874      -2.210701      0.9936152
      2487.5000           0.74        12.1708       1854.527         0.8356       -42.5551      -2.067307      0.9979604
      2488.0000         0.7321        12.2104       1862.848         0.8331       -42.3768      -1.876972              1
      2488.5000         0.7257        12.2114       1869.037         0.8301       -42.1848      -1.672939              1
      2489.0000         0.7329        12.1976       1854.668         0.8272        -41.824       -1.30011              1
      2489.5000           0.74        12.1978       1840.291         0.8242       -41.4751     -0.9391747              1
      2490.0000         0.7472        12.2362       1825.916         0.8213       -41.9686      -1.420643              1
      2490.5000         0.7545         12.284       1811.254         0.8185       -41.9734      -1.413406              1
      2491.0000         0.7622        12.3228       1792.297         0.8171       -41.6335      -1.061474              1
      2491.5000         0.7725        12.3298        1773.34         0.8156       -41.2052     -0.6211433              1
      2492.0000         0.7829        12.3269       1754.385         0.8142       -40.6059   -0.009807587              1
      2492.5000         0.7929        12.3122       1739.287         0.8123       -40.6003    0.007823944              1
      2493.0000         0.7916        12.2926       1726.568         0.8105       -41.3606     -0.7404404              1
      2493.5000         0.7903         12.275       1722.285         0.8087       -42.1832       -1.55101              1
      2494.0000          0.789        12.2613       1727.746         0.8068       -43.0883      -2.444077      0.9865431
      2494.5000         0.7877        12.2616       1738.547         0.8043       -44.7676      -4.111343      0.9360199
      2495.0000         0.7864        12.2966        1749.35         0.8011       -44.7378      -4.069511      0.9372875
      2495.5000         0.7837        12.3947       1760.146         0.7978       -44.1736      -3.493275      0.9547492
      2496.0000         0.7812        12.4731       1755.199         0.7945       -43.4776      -2.785244      0.9762048
      2496.5000         0.7792        12.5359       1747.674         0.7912        -42.547      -1.842613              1
      2497.0000         0.7836        12.5723       1740.627         0.7896       -41.7645      -1.048077              1
      2497.5000          0.792        12.5866       1733.578         0.7902       -41.5666     -0.8381462              1
      2498.0000         0.8037        12.5469       1717.402         0.7908        -41.402     -0.6615105              1
      2498.5000         0.8306        12.4348       1695.836         0.7913       -41.3523     -0.5997772              1
      2499.0000         0.8377        12.3773       1676.625         0.7919        -41.186     -0.4214478              1
      2499.5000         0.8242        12.3716       1662.988         0.7925       -40.9739     -0.1973114              1
      2500.0000         0.8193        12.3655       1673.182         0.7945       -40.7778     0.01081848              1
      2500.5000         0.8174        12.3621       1683.371         0.7976       -40.3326      0.4680557              1
      2501.0000         0.8156        12.3614       1693.564         0.8006       -40.6727      0.1399879              1
      2501.5000         0.8139        12.3591       1720.609         0.8036       -41.0765     -0.2517815              1
      2502.0000         0.8124        12.3326       1753.682         0.8066        -41.637     -0.8002472              1
      2502.5000         0.8108        12.3393       1773.863         0.8078       -42.4119      -1.563114              1
      2503.0000         0.8093        12.3488       1791.049         0.8033       -43.4941      -2.633278      0.9808097
      2503.5000         0.8077        12.3539       1802.994         0.7988       -44.4157      -3.542847      0.9532471
      2504.0000         0.8062        12.3536         1813.6         0.7943        -45.462      -4.577114      0.9219056
      2504.5000          0.804        12.3553       1823.805         0.7898        -46.188       -5.29108      0.9002703
      2505.0000         0.7973        12.3681       1834.012         0.7858        -47.153      -6.244049      0.8713924
      2505.5000         0.7913        12.3654       1837.197         0.7818       -46.8666      -5.945614      0.8804359
      2506.0000         0.7856        12.3834       1837.506         0.7779       -45.5613      -4.628281      0.9203551
      2506.5000         0.7806        12.4341       1832.834         0.7746       -44.6896      -3.744549      0.9471349
      2507.0000         0.7755        12.6502        1828.16         0.7715       -43.5971      -2.640015      0.9806056
