#------------------------------------------------------------------------------
# Created by    : vladimir.rabinovich
# Created on    : 09/19/2023 17:22:38
#------------------------------------------------------------------------------
~Version Information Section
VERS.           2.0     :   CWLS log ASCII Standard - VERSION 2.0
WRAP.           NO      :   One line per depth step
~Well Information Section
#MNEM       .UNIT                                         VALUE :DESCRIPTION
#------------------------------------------------------------------------------
STRT        .FT                                             890 :START DEPTH
STOP        .FT                                            9058 :STOP DEPTH
STEP        .FT                                             0.5 :STEP      
NULL        .                                           -999.25 :NULL      
COMP        .                            COASTAL OIL & GAS CORP :COMPANY   
WELL        .                               OCS G01773 ST00BP00 :WELL      
FLD         .                                           WILDCAT :FIELD     
LOC         .                                                   :LOCATION  
CNTY        .                             GALVESTON LARGE BLOCK :LOCATION  
STAT        .                                             TEXAS :STATE     
CTRY        .                                     UNITED STATES :COUNTRY   
SRVC        .                                                   :SERVICE COMPANY
DATE        .                             9/13/2023 11:19:54 AM :LOG DATE  
API         .                                    42706403500000 :API NUMBER
UWI         .                                    42706403500000 :UNIQUE WELL ID
XCOORD      .                                  1074939.13305719 :SURFACE X 
YCOORD      .                                   10531967.363633 :SURFACE Y 
LAT         .                                         29.009472 :LATITUDE  
LON         .                                        -94.769566 :LONGITUDE 
ELEV        .FT                                              83 :ELEVATION VALUE
ELEV_TYPE   .                                                KB :ELEVATION REFERENCE TYPE
~Curve Information Section
#MNEM       .UNIT                                      API CODE :CURVE DESCRIPTION
#------------------------------------------------------------------------------
DEPT        .FT                                                 :DEPTH     
DCAL        .IN                                                 :          
DPSS        .V/V                                                :          
DRHO        .G/CM3                                              :          
DTLF        .US/FT                                              :          
DTLN        .US/FT                                              :          
GR          .GAPI                                               :          
GRS         .GAPI                                               :          
NPSS        .V/V                                                :Neutron Porosity Sandstone
SFL         .OHMM                                               :          
SP          .MV                                                 :          
SP_NORM     .MV                                                 :SP Normalized
SPHI_SAN    .V/V                                                :          
TENS        .LB                                                 :          
VSH_SP      .V/V                                                :Volume of Shale from SP
~A        DEPTH           DCAL           DPSS           DRHO           DTLF           DTLN             GR            GRS           NPSS            SFL             SP        SP_NORM       SPHI_SAN           TENS         VSH_SP
# ...
      7010.0000         0.3462        -999.25        -999.25        -999.25        -999.25        67.8423        -999.25        -999.25         0.7383        -0.3061      -8.109374         0.3144           2860       0.891875
      7010.5000         0.3462        -999.25        -999.25        -999.25        -999.25        68.4314        -999.25        -999.25         0.7189            0.6      -7.195776          0.318           2860      0.9040563
      7011.0000         0.3077        -999.25        -999.25        -999.25        -999.25        69.0196        -999.25        -999.25         0.7126            1.8      -5.988277          0.318           2840      0.9201563
      7011.5000         0.3462        -999.25        -999.25        -999.25        -999.25        68.6275        -999.25        -999.25          0.745            3.3      -4.480779         0.3168           2840      0.9402563
      7012.0000         0.4615        -999.25        -999.25        -999.25        -999.25         67.451        -999.25        -999.25         0.7789            3.3      -4.473281         0.3156           2860      0.9403563
      7012.5000         0.5385        -999.25        -999.25        -999.25        -999.25        67.0588        -999.25        -999.25            0.8            3.9      -3.865782         0.3132           2860      0.9484562
      7013.0000         0.6538        -999.25        -999.25        -999.25        -999.25         67.451        -999.25        -999.25         0.8239            4.5      -3.258284         0.3132           2860      0.9565562
      7013.5000         0.6923        -999.25        -999.25        -999.25        -999.25         67.451        -999.25        -999.25         0.7929            4.8      -2.950786         0.3132           2860      0.9606562
      7014.0000         0.6923        -999.25        -999.25        -999.25        -999.25        66.6667        -999.25        -999.25          0.772            4.8      -2.943287         0.3144           2860      0.9607562
      7014.5000         0.6923        -999.25        -999.25        -999.25        -999.25        64.5098        -999.25        -999.25          0.772            3.3      -4.435789         0.3144           2860      0.9408562
      7015.0000         0.6923        -999.25        -999.25        -999.25        -999.25        61.1765        -999.25        -999.25         0.7929            1.2      -6.528291         0.3144           2860      0.9129561
      7015.5000         0.6154        -999.25        -999.25        -999.25        -999.25        58.5714        -999.25        -999.25         0.7929        -0.6122      -8.332993         0.3132           2860      0.8888934
      7016.0000         0.6154        -999.25        -999.25        -999.25        -999.25        59.7959        -999.25        -999.25         0.7584        -0.9184      -8.631694         0.3144           2860      0.8849108
      7016.5000         0.6923        -999.25        -999.25        -999.25        -999.25        62.7451        -999.25        -999.25         0.7254            0.9      -6.805796         0.3132           2860       0.909256
      7017.0000         0.7692        -999.25        -999.25        -999.25        -999.25        65.8824        -999.25        -999.25            0.7              3      -4.698298         0.3132           2840      0.9373561
      7017.5000         0.8462        -999.25        -999.25        -999.25        -999.25        67.6471        -999.25        -999.25            0.7            3.6      -4.090799         0.3096           2840       0.945456
      7018.0000         0.9231        -999.25        -999.25        -999.25        -999.25         67.451        -999.25        -999.25            0.7            1.2      -6.483301         0.3072           2840       0.913556
      7018.5000         1.0769        -999.25        -999.25        -999.25        -999.25         65.098        -999.25        -999.25         0.6937        -2.1429      -9.818703         0.3024           2840      0.8690839
      7019.0000         1.1154        -999.25        -999.25        -999.25        -999.25        62.1569        -999.25        -999.25         0.7254        -5.5102       -13.1785         0.2892           2840      0.8242866
      7019.5000         1.1154        -999.25        -999.25        -999.25        -999.25        58.5714        -999.25        -999.25         0.8912        -8.8776      -16.53841         0.2724           2840      0.7794879
      7020.0000         1.1538        -999.25        -999.25        -999.25        -999.25        57.3469        -999.25        -999.25         1.0942       -10.4082      -18.06151         0.2604           2840      0.7591799
      7020.5000         1.1923        -999.25        -999.25        -999.25        -999.25        59.1837        -999.25        -999.25         1.1865        -9.4898      -17.13561         0.2676           2840      0.7715252
      7021.0000         1.2308        -999.25        -999.25        -999.25        -999.25        62.1569        -999.25        -999.25         0.9913        -7.9592      -15.59751         0.2784           2860      0.7920332
      7021.5000         1.2308        -999.25        -999.25        -999.25        -999.25        63.3333        -999.25        -999.25         0.7929        -7.3469      -14.97771          0.294           2860      0.8002971
      7022.0000         1.2308        -999.25        -999.25        -999.25        -999.25        61.3725        -999.25        -999.25         0.7063        -7.9592      -15.58251          0.306           2860      0.7922331
      7022.5000         1.2308        -999.25        -999.25        -999.25        -999.25        58.9796        -999.25        -999.25         0.6751        -9.4898      -17.10562          0.312           2840      0.7719251
      7023.0000         1.2308        -999.25        -999.25        -999.25        -999.25        56.5306        -999.25        -999.25          0.669       -11.6327      -19.24102         0.3096           2840      0.7434531
      7023.5000         1.2308        -999.25        -999.25        -999.25        -999.25        56.1224        -999.25        -999.25            0.7       -11.0204      -18.62122         0.3072           2840      0.7517171
      7024.0000         1.2308        -999.25        -999.25        -999.25        -999.25        57.9592        -999.25        -999.25         0.7384        -9.1837      -16.77702         0.3048           2840      0.7763064
      7024.5000         1.2308        -999.25        -999.25        -999.25        -999.25             60        -999.25        -999.25         0.7652        -6.7347      -14.32052         0.3048           2840      0.8090597
      7025.0000         1.2308        -999.25        -999.25        -999.25        -999.25        61.3725        -999.25        -999.25         0.7929         -4.898      -12.47632          0.306           2840       0.833649
      7025.5000         1.2308        -999.25        -999.25        -999.25        -999.25        60.7843        -999.25        -999.25         0.8079        -3.9796      -11.55043         0.3084           2840      0.8459943
      7026.0000         1.1923        -999.25        -999.25        -999.25        -999.25        61.1765        -999.25        -999.25         0.7859        -3.9796      -11.54293         0.3096           2840      0.8460943
      7026.5000         1.1154        -999.25        -999.25        -999.25        -999.25        62.7451        -999.25        -999.25         0.7652        -3.9796      -11.53543         0.3108           2840      0.8461943
      7027.0000         1.0385        -999.25        -999.25        -999.25        -999.25         64.902        -999.25        -999.25          0.745        -3.9796      -11.52793         0.3132           2840      0.8462942
      7027.5000              1        -999.25        -999.25        -999.25        -999.25        66.6667        -999.25        -999.25         0.7254        -3.9796      -11.52043         0.3132           2840      0.8463942
