#------------------------------------------------------------------------------
# Created by    : vladimir.rabinovich
# Created on    : 09/19/2023 17:19:46
#------------------------------------------------------------------------------
~Version Information Section
VERS.           2.0     :   CWLS log ASCII Standard - VERSION 2.0
WRAP.           NO      :   One line per depth step
~Well Information Section
#MNEM       .UNIT                                         VALUE :DESCRIPTION
#------------------------------------------------------------------------------
STRT        .FT                                             290 :START DEPTH
STOP        .FT                                         11377.5 :STOP DEPTH
STEP        .FT                                             0.5 :STEP      
NULL        .                                           -999.25 :NULL      
COMP        .                         SONAT EXPLORATION GOM INC :COMPANY   
WELL        .                               OCS G04571 ST00BP00 :WELL      
FLD         .                                           WILDCAT :FIELD     
LOC         .                                                   :LOCATION  
CNTY        .                           HIGH ISLAND LARGE BLOCK :LOCATION  
STAT        .                                             TEXAS :STATE     
CTRY        .                                     UNITED STATES :COUNTRY   
SRVC        .                                                   :SERVICE COMPANY
DATE        .                             9/13/2023 11:19:19 AM :LOG DATE  
API         .                                    42708401190000 :API NUMBER
UWI         .                                    42708401190000 :UNIQUE WELL ID
XCOORD      .                                  1324427.25220013 :SURFACE X 
YCOORD      .                                  10679041.7751219 :SURFACE Y 
LAT         .                                         29.422046 :LATITUDE  
LON         .                                        -93.992863 :LONGITUDE 
ELEV        .FT                                             116 :ELEVATION VALUE
ELEV_TYPE   .                                                KB :ELEVATION REFERENCE TYPE
~Curve Information Section
#MNEM       .UNIT                                      API CODE :CURVE DESCRIPTION
#------------------------------------------------------------------------------
DEPT        .FT                                                 :DEPTH     
ASFL        .OHMM                                               :          
CALI        .IN                                                 :          
CILD        .MMHO                                               :          
GR          .GAPI                                               :          
GR_NORM     .GAPI                                               :GammaRay Normalized
ILD         .OHMM                                               :          
RHOB        .G/C3                                               :          
SP          .MV                                                 :          
SP_NORM     .GAPI                                               :SP Normalized
VSH_GR      .V/V                                                :Volume of Shale from GR
VSH_SP      .V/V                                                :Volume of Shale from SP
~A        DEPTH           ASFL           CALI           CILD             GR        GR_NORM            ILD           RHOB             SP        SP_NORM         VSH_GR         VSH_SP
# ...
      1055.0000         0.9327        -999.25       919.1084        68.5448       80.37431         1.1256        -999.25       -50.3107      -18.71068              1      0.6257863
      1055.5000         0.9462        -999.25       907.2744        68.1753       79.90089         1.1392        -999.25       -50.1945      -18.53153      0.9978914      0.6293694
      1056.0000         0.9597        -999.25       894.9844        65.7754       76.82602         1.1491        -999.25       -50.1799       -18.5107      0.9324685       0.629786
      1056.5000         0.9752        -999.25       882.6924        63.3629         73.735         1.1583        -999.25       -50.5845      -19.14309      0.8667021      0.6171381
      1057.0000         0.9984        -999.25       870.4023        60.9506       70.64424         1.1675        -999.25        -51.267      -20.20853      0.8009413      0.5958294
      1057.5000         1.0215        -999.25       852.9736        59.2592       68.47713         1.1767        -999.25       -51.9495      -21.27398      0.7548326      0.5745205
      1058.0000         1.0447        -999.25       831.5322        57.7692       66.56807         1.1859        -999.25       -52.6319      -22.33926      0.7142143      0.5532148
      1058.5000         1.0576        -999.25       810.0898        56.2788        64.6585         1.1951        -999.25       -51.9927      -21.34513      0.6735851      0.5730974
      1059.0000         1.0652        -999.25       788.6484        54.7885       62.74905         1.2103        -999.25       -51.2195      -20.14219      0.6329586      0.5971562
      1059.5000         1.0728        -999.25       790.9863        54.9706       62.98237         1.2281        -999.25       -50.4462       -18.9391      0.6379227       0.621218
      1060.0000         1.0704        -999.25       793.8486         55.707       63.92588         1.2458        -999.25       -49.6729      -17.73601      0.6579974      0.6452798
      1060.5000         1.0639        -999.25       797.3193        56.4435       64.86952         1.2635        -999.25       -49.2481      -17.07597       0.678075      0.6584805
      1061.0000         1.0584        -999.25       803.1074        57.1799       65.81303         1.2813        -999.25       -48.8775      -16.50039      0.6981497      0.6699921
      1061.5000         1.0529        -999.25       808.8945          58.78       67.86316         1.2701        -999.25        -49.425      -17.35547      0.7417694      0.6528906
      1062.0000         1.0474        -999.25       814.6836        60.6904       70.31086         1.2573        -999.25       -50.4746      -18.99295      0.7938481       0.620141
      1062.5000         1.0419        -999.25       820.4707        59.8769       69.26856         1.2445        -999.25       -51.5172      -20.61952      0.7716715      0.5876096
      1063.0000         1.0364        -999.25       826.2578        59.0633       68.22614         1.2317        -999.25       -52.3849      -21.97355      0.7494922      0.5605289
      1063.5000         1.0296        -999.25       832.0459        58.2234       67.15002         1.2189        -999.25       -52.7885      -22.60439      0.7265962      0.5479121
      1064.0000         1.0228        -999.25       838.8672        57.3766       66.06506         1.2142        -999.25       -52.3116      -21.86317      0.7035118      0.5627366
      1064.5000         1.0155        -999.25       845.8301        56.5297       64.97997         1.2096        -999.25       -51.8347      -21.12195      0.6804248       0.577561
      1065.0000         1.0062        -999.25        852.791        55.6829         63.895         1.2049        -999.25       -51.4579      -20.53671      0.6573404      0.5892658
      1065.5000         0.9969        -999.25        859.752        54.8359       62.80978         1.2003        -999.25       -51.3147      -20.31549      0.6342507      0.5936903
      1066.0000         0.9877        -999.25        860.499        53.9891       61.72482         1.1957        -999.25       -51.1714       -20.0941      0.6111664      0.5981179
      1066.5000         0.9891        -999.25       855.7705        54.5886       62.49293          1.191        -999.25       -51.0282      -19.87288      0.6275091      0.6025425
      1067.0000         0.9907        -999.25       849.8896        55.6155       63.80865         1.1864        -999.25       -50.8849       -19.6515      0.6555032        0.60697
      1067.5000         0.9925        -999.25       837.6152        56.6425        65.1245         1.1817        -999.25       -52.1191      -21.57663      0.6834999      0.5684674
      1068.0000         1.0082        -999.25       825.3428        57.6694       66.44021         1.1771        -999.25        -53.675      -24.00307      0.7114938      0.5199387
      1068.5000         1.0238        -999.25       813.0693        58.6963       67.75593         1.1725        -999.25       -54.8401      -25.82053      0.7394878      0.4835895
      1069.0000         1.0394        -999.25        800.793        60.1431       69.60964         1.1863        -999.25       -54.7993      -25.75887      0.7789286      0.4848225
      1069.5000          1.055        -999.25       801.5898        61.6096       71.48858         1.2028        -999.25       -54.7585      -25.69721      0.8189059      0.4860558
      1070.0000         1.0711        -999.25       811.6846        61.7757        71.7014         1.2192        -999.25       -54.7177      -25.63555      0.8234341       0.487289
      1070.5000         1.0664        -999.25       821.7793        60.7736       70.41747         1.2356        -999.25       -54.6768      -25.57374      0.7961163      0.4885253
      1071.0000         1.0494        -999.25       838.3896         59.603       68.91763         1.2077        -999.25        -54.636      -25.51208       0.764205      0.4897584
      1071.5000         1.0302        -999.25       863.8662        58.1766       67.09007         1.1626        -999.25       -54.7638      -25.71315      0.7253205       0.485737
      1072.0000         1.0109        -999.25       889.3359        56.7502       65.26248         1.1174        -999.25       -54.9235      -25.96392      0.6864358      0.4807216
      1072.5000         0.9916        -999.25       914.8066        55.3239       63.43503         1.0722        -999.25       -55.0833      -26.21486      0.6475538      0.4757029
      1073.0000         0.9723        -999.25       940.2764        53.8975       61.60746         1.0432        -999.25       -55.2429      -26.46547      0.6086693      0.4706906
      1073.5000         0.9557        -999.25       965.7471        52.4711       59.77988         1.0197        -999.25       -55.4551      -26.79806      0.5697848      0.4640389
      1074.0000          0.945        -999.25       985.1113        51.3235       58.30952         0.9961        -999.25       -55.7126      -27.20123      0.5385004      0.4559754
      1074.5000         0.9343        -999.25       1002.065        50.5306       57.29362         0.9725        -999.25       -55.6525       -27.1095      0.5168856        0.45781
      1075.0000         0.9236        -999.25       1019.017        49.7377       56.27771         0.9489        -999.25       -55.5856      -27.00717      0.4952705      0.4598566
      1075.5000         0.9129        -999.25       1035.971        48.9448       55.26181         0.9253        -999.25       -55.5188      -26.90499      0.4736556      0.4619003
      1076.0000         0.9059        -999.25       1052.922        50.3351       57.04313         0.9018        -999.25       -56.1977      -27.96482       0.511556      0.4407035
      1076.5000         0.9021        -999.25       1069.875         52.137       59.35181         0.9114        -999.25       -57.3541      -29.76872      0.5606769      0.4046255
      1077.0000         0.8983        -999.25        1081.84         52.652       60.01167          0.921        -999.25       -58.3451      -31.31489      0.5747163      0.3737022
