#------------------------------------------------------------------------------
# Created by    : vladimir.rabinovich
# Created on    : 09/19/2023 17:22:30
#------------------------------------------------------------------------------
~Version Information Section
VERS.           2.0     :   CWLS log ASCII Standard - VERSION 2.0
WRAP.           NO      :   One line per depth step
~Well Information Section
#MNEM       .UNIT                                         VALUE :DESCRIPTION
#------------------------------------------------------------------------------
STRT        .FT                                             456 :START DEPTH
STOP        .FT                                           11667 :STOP DEPTH
STEP        .FT                                             0.5 :STEP      
NULL        .                                           -999.25 :NULL      
COMP        .                              PATRICK PETROLEUM CO :COMPANY   
WELL        .                                     ST TR 00693-L :WELL      
FLD         .                                           WILDCAT :FIELD     
LOC         .                                                   :LOCATION  
CNTY        .                      MATAGORDA ISLAND LARGE BLOCK :LOCATION  
STAT        .                                             TEXAS :STATE     
CTRY        .                                     UNITED STATES :COUNTRY   
SRVC        .                                                   :SERVICE COMPANY
DATE        .                             9/13/2023 11:12:01 AM :LOG DATE  
API         .                                    42703302660000 :API NUMBER
UWI         .                                    42703302660000 :UNIQUE WELL ID
XCOORD      .                                  384413.417453263 :SURFACE X 
YCOORD      .                                  10143960.4717662 :SURFACE Y 
LAT         .                                        27.8986234 :LATITUDE  
LON         .                                       -96.8882217 :LONGITUDE 
ELEV        .FT                                              92 :ELEVATION VALUE
ELEV_TYPE   .                                                KB :ELEVATION REFERENCE TYPE
~Curve Information Section
#MNEM       .UNIT                                      API CODE :CURVE DESCRIPTION
#------------------------------------------------------------------------------
DEPT        .FT                                                 :DEPTH     
CILD        .MMHO                                               :          
DPHI        .%                                                  :          
DT          .US/F                                               :          
GR          .GAPI                                               :          
GR_NORM     .GAPI                                               :GammaRay Normalized
ILD         .OHMM                                               :          
SN          .OHMM                                               :          
SP          .MV                                                 :          
SP_NORM     .MV                                                 :SP Normalized
VSH_GR      .V/V                                                :Volume of Shale from GR
VSH_SP      .V/V                                                :Volume of Shale from SP
~A        DEPTH           CILD           DPHI             DT             GR        GR_NORM            ILD             SN             SP        SP_NORM         VSH_GR         VSH_SP
# ...
      1198.5000       1160.253        -999.25       154.5317           48.4       74.63968          0.855         1.0208       -31.9262      -2.752926      0.8859506      0.9582637
      1199.0000       1166.968        -999.25        157.135          49.34        76.0032         0.8503         1.0171       -31.3762      -2.212732      0.9149616      0.9711254
      1199.5000       1190.427        -999.25       160.6929        51.8818       79.68859         0.8365         1.0101       -31.1881      -2.034439      0.9933743      0.9753705
      1200.0000       1214.284        -999.25       166.3577          55.94       85.57208         0.8172         1.0023       -31.0474      -1.903545              1       0.978487
      1200.5000        1244.64        -999.25       171.9602        59.6545       90.95735         0.7975         0.9945       -30.9686      -1.834553              1      0.9801297
      1201.0000       1273.623        -999.25         172.96           60.6       92.32885         0.7789         0.9877       -30.6477      -1.523458              1      0.9875367
      1201.5000       1302.749        -999.25          171.8        59.9333       91.36335         0.7577         0.9841       -30.2454      -1.130966              1      0.9968818
      1202.0000       1324.888        -999.25       169.4159          58.87       89.82299         0.7469         0.9818       -29.6175     -0.5128746              1              1
      1202.5000       1330.182        -999.25       168.0594          58.08       88.67879         0.7374         0.9818       -29.2079     -0.1130791              1              1
      1203.0000         1326.8        -999.25       168.1683          57.56       87.92595         0.7388         0.9818       -29.2079     -0.1228867              1              1
      1203.5000         1315.2        -999.25       169.2079          56.71       86.69476         0.7473         0.9818       -29.5149     -0.4396954              1              1
      1204.0000         1300.4        -999.25       170.5641             56       85.66653         0.7561         0.9818       -29.9208     -0.8554001              1              1
      1204.5000       1290.182        -999.25          173.1          56.52       86.42121         0.7661         0.9805            -30     -0.9444084              1              1
      1205.0000         1283.2        -999.25         175.97           57.8       88.27758         0.7746         0.9774         -29.82     -0.7742157              1              1
      1205.5000           1280        -999.25          177.1          59.07       90.11945         0.7605         0.9783       -29.4158     -0.3798218              1              1
      1206.0000           1276        -999.25       176.5455          59.42       90.62771         0.7675         0.9818       -29.2277     -0.2015285              1              1
      1206.5000       1281.091        -999.25         174.92          58.29       88.99065         0.7651         0.9774       -28.9505     0.06586266              1              1
      1207.0000         1287.6        -999.25         171.84           57.3       87.55654         0.7633         0.9809       -28.8119      0.1946583              1              1
      1207.5000           1292        -999.25       168.3349          58.19       88.84756         0.7605         0.9792       -28.9307     0.06604958              1              1
      1208.0000         1296.4        -999.25       165.1386        59.3364       90.51028         0.7589         0.9684       -29.2277      -0.240757              1              1
      1208.5000         1298.8        -999.25       164.0594          59.45       90.67586         0.7535         0.9769       -29.8617     -0.8845634              1              1
      1209.0000         1297.6        -999.25       164.2304          59.09       90.15496          0.757         0.9742          -30.2      -1.232672              1      0.9944602
      1209.5000           1296        -999.25       164.3564           57.7       88.14101         0.7553         0.9751         -30.38      -1.422478              1       0.989941
      1210.0000       1295.273        -999.25       163.6616        55.8812       85.50551         0.7566         0.9775          -30.4      -1.452284              1      0.9892313
      1210.5000         1290.4        -999.25       163.3527        54.7093       83.80772         0.7594         0.9738         -30.49      -1.552092              1       0.986855
      1211.0000           1288        -999.25       163.9807        55.8797       85.50521         0.7605         0.9795         -30.42      -1.491899              1      0.9882881
      1211.5000         1283.2        -999.25       164.5122        58.3317       89.06044         0.7707          0.982         -30.24      -1.321705              1      0.9923404
      1212.0000         1279.2        -999.25       164.4564         59.901       91.33614          0.775         0.9862          -30.2      -1.291513              1      0.9930592
      1212.5000         1274.4        -999.25          164.2        58.9604       89.97364         0.7768         0.9818         -29.98      -1.081318              1      0.9980639
      1213.0000           1272        -999.25         164.16        56.7921       86.83151         0.7782         0.9864         -29.51     -0.6211262              1              1
      1213.5000           1272        -999.25         164.51        55.8416       85.45465         0.7818         0.9864         -29.11     -0.2309341              1              1
      1214.0000       1275.636        -999.25         165.25        56.8218       86.87644         0.7751          0.991       -28.6727      0.1965599              1              1
      1214.5000         1285.2        -999.25          166.5        58.3762       89.13055          0.767         0.9979         -28.17      0.6894531              1              1
      1215.0000         1289.2        -999.25         169.09        59.2376       90.38014          0.762         1.0045         -27.67       1.179646              1              1
      1215.5000           1296        -999.25         172.28        58.8317       89.79269         0.7631         1.0107         -27.34        1.49984              1              1
      1216.0000         1284.8        -999.25          175.9        57.1917       87.41636          0.769         1.0178          -27.2       1.630032              1              1
      1216.5000         1264.8        -999.25          176.9        55.0693       84.34077         0.7829         1.0245         -27.33       1.490225              1              1
      1217.0000         1224.4        -999.25         175.14        53.8614       82.59079         0.8007         1.0391          -27.4       1.410419              1              1
      1217.5000       1178.545        -999.25       171.5909        54.3069        83.2375         0.8349         1.0684       -27.4364       1.364212              1              1
      1218.0000       1117.901        -999.25         165.39        54.9252        84.1347         0.8737         1.0942       -27.6274       1.163404              1              1
      1218.5000       1058.964        -999.25       159.3386        55.4497       84.89591         0.9369         1.1184       -27.9698      0.8111973              1              1
      1219.0000       1010.965        -999.25       153.0297        56.0503       85.76746         0.9879         1.1388       -28.5473      0.2238903              1              1
      1219.5000       984.2385        -999.25       151.5842        57.7808       88.27682         1.0139         1.1474       -29.1321     -0.3707161              1              1
      1220.0000       978.3925        -999.25       152.0575        58.9273       89.93967         1.0232         1.1476        -29.328     -0.5764217              1              1
      1220.5000       1007.831        -999.25       153.5393         59.002       90.04889         1.0023         1.1263        -29.802       -1.06023              1       0.998566
