#------------------------------------------------------------------------------
# Created by    : vladimir.rabinovich
# Created on    : 09/19/2023 17:22:41
#------------------------------------------------------------------------------
~Version Information Section
VERS.           2.0     :   CWLS log ASCII Standard - VERSION 2.0
WRAP.           NO      :   One line per depth step
~Well Information Section
#MNEM       .UNIT                                         VALUE :DESCRIPTION
#------------------------------------------------------------------------------
STRT        .FT                                            2948 :START DEPTH
STOP        .FT                                            8770 :STOP DEPTH
STEP        .FT                                             0.5 :STEP      
NULL        .                                           -999.25 :NULL      
COMP        .                 BROOKLYN UNION EXPLORATION CO INC :COMPANY   
WELL        .                               OCS G07238 ST00BP00 :WELL      
FLD         .                                           WILDCAT :FIELD     
LOC         .                                                   :LOCATION  
CNTY        .                             GALVESTON LARGE BLOCK :LOCATION  
STAT        .                                             TEXAS :STATE     
CTRY        .                                     UNITED STATES :COUNTRY   
SRVC        .                                                   :SERVICE COMPANY
DATE        .                             9/13/2023 11:19:34 AM :LOG DATE  
API         .                                    42706402470000 :API NUMBER
UWI         .                                    42706402470000 :UNIQUE WELL ID
XCOORD      .                                  1057740.92261072 :SURFACE X 
YCOORD      .                                   10547901.298013 :SURFACE Y 
LAT         .                                         29.052568 :LATITUDE  
LON         .                                        -94.824133 :LONGITUDE 
ELEV        .FT                                              85 :ELEVATION VALUE
ELEV_TYPE   .                                                KB :ELEVATION REFERENCE TYPE
~Curve Information Section
#MNEM       .UNIT                                      API CODE :CURVE DESCRIPTION
#------------------------------------------------------------------------------
DEPT        .FT                                                 :DEPTH     
DCAL        .IN                                                 :          
DT          .US/F                                               :          
GR          .GAPI                                               :          
GR_NORM     .GAPI                                               :GammaRay Normalized
ILD         .OHMM                                               :          
ILM         .OHMM                                               :          
SFL         .OHMM                                               :          
SP          .MV                                                 :          
SP_NORM     .MV                                                 :SP Normalized
VSH_GR      .V/V                                                :Volume of Shale from GR
VSH_SP      .V/V                                                :Volume of Shale from SP
~A        DEPTH           DCAL             DT             GR        GR_NORM            ILD            ILM            SFL             SP        SP_NORM         VSH_GR         VSH_SP
# ...
      4928.0000         1.4542       109.9766        67.6045       82.92937         1.0267         0.8862         0.8164       -44.8502        3.73737              1              1
      4928.5000         1.3702       109.9304        67.2878       82.52061         1.0067         0.8723         0.8326        -44.903        3.68457              1              1
      4929.0000         1.2642       111.9523        67.5946       82.91365         0.9649         0.8472         0.8258       -45.0771       3.510471              1              1
      4929.5000         1.1554       115.4398        69.6968       85.61561         0.8948         0.8115         0.7883       -45.4755       3.112072              1              1
      4930.0000         1.0416       120.5723        72.0299       88.61449         0.8322         0.7698         0.7403       -45.8564       2.731171              1              1
      4930.5000         0.9075       124.1198        72.3163       88.98132         0.7831         0.7386         0.6879       -46.2195       2.368069              1              1
      4931.0000           0.82       127.4224        71.6848       88.16769         0.7465         0.7139         0.6379       -46.4877       2.099869              1              1
      4931.5000         0.7764       129.4844        71.0968       87.41004         0.7154         0.6993         0.6077        -46.792        1.79557              1              1
      4932.0000         0.8174       128.7947        70.9836       87.26295         0.6952          0.695         0.5994       -47.0917       1.495869              1              1
      4932.5000         0.9337       126.9111        71.9222       88.46852         0.6822         0.6936         0.5974       -47.3759        1.21167              1              1
      4933.0000         1.0791       124.2148         74.373       91.61877         0.6756         0.6927          0.589       -47.5854       1.002171              1              1
      4933.5000         1.2357       120.6948        77.3544       95.45138         0.6661         0.6924         0.5754        -47.816      0.7715683              1              1
      4934.0000         1.3705       115.8647        78.5989       97.05032         0.6503         0.6923         0.5639        -48.703     -0.1154289              1      0.9980762
      4934.5000          1.489       111.3447        72.7053        89.4696         0.6288         0.6918         0.5657       -50.2914      -1.703831              1      0.9716028
      4935.0000         1.6123       107.4922        65.9211       80.74356         0.6042         0.6875         0.5843       -52.2684      -3.680828              1      0.9386529
      4935.5000         1.7438        107.651        61.0618       74.49297         0.5777         0.6725         0.6335        -54.197      -5.609428      0.8828292      0.9065095
      4936.0000         1.8482       109.9247        54.9307       66.60682         0.5495         0.6322         0.7054       -57.1722      -8.584629      0.7150387      0.8569229
      4936.5000         1.9312       112.6572        52.3091       63.23394         0.5245         0.5879         0.8203       -60.6856      -12.09803      0.6432753      0.7983662
      4937.0000         1.9946       115.4036        52.6545       63.67662         0.5051         0.5576         0.9194       -64.0876      -15.50003      0.6526941      0.7416661
      4937.5000         2.0184       115.9672         53.333       64.54768         0.4932         0.5396         0.9865       -67.3783      -18.79073      0.6712273      0.6868211
      4938.0000         2.0025       114.1698        54.5076       66.05673         0.4931         0.5406         0.9886        -70.674      -22.08643      0.7033347      0.6318928
      4938.5000         1.9611        112.321        57.0338       69.30396         0.5017         0.5468         0.8291       -72.3892      -23.80163      0.7724246      0.6033062
      4939.0000          1.868       112.5072        62.5463       76.39159         0.5188         0.5542         0.6979       -71.6438      -23.05623      0.9232252      0.6157295
      4939.5000          1.748       117.2548        67.3933       82.62337         0.5408         0.5631         0.6081       -69.3206      -20.73303              1      0.6544495
      4940.0000         1.6106       121.6598        69.9158       85.86583         0.5666         0.5742         0.5693        -65.535      -16.94743              1      0.7175428
      4940.5000         1.5418       124.3848        71.5175       87.92413         0.5936         0.5868         0.5636       -60.2155      -11.62793              1      0.8062012
      4941.0000         1.5033       126.1173        70.9104        87.1419         0.6205         0.6012         0.5582       -56.5264      -7.938831              1      0.8676862
      4941.5000         1.4891       126.3423        69.5074       85.33614         0.6451         0.6182         0.5489       -53.1121      -4.524529              1      0.9245912
      4942.0000         1.4836       123.8773        68.2611       83.73189         0.6633         0.6352         0.5432       -50.7368      -2.149231              1      0.9641795
      4942.5000         1.5353       119.0898        68.0087       83.40579         0.6791         0.6521         0.5546       -49.8839      -1.296329              1      0.9783945
      4943.0000         1.5812       115.1598        68.7457        84.3521         0.6911         0.6623         0.5821       -49.4662     -0.8786316              1      0.9853562
      4943.5000         1.6095       112.7097        69.1422       84.86049         0.6925         0.6713          0.622       -49.3712     -0.7836304              1      0.9869395
      4944.0000         1.5735       114.3848        68.6737        84.2565         0.6948         0.6769         0.6589       -49.7335      -1.145931              1      0.9809011
      4944.5000          1.418       118.1123        68.0637       83.47055         0.6952         0.6822         0.6803       -50.3991      -1.811531              1      0.9698078
      4945.0000          1.256       122.1473        67.5402       82.79583         0.6906         0.6874         0.6983       -50.8689       -2.28133              1      0.9619778
      4945.5000         1.1095       125.6348        67.9709       83.34821          0.684         0.6865         0.6826       -50.5815      -1.993931              1      0.9667678
      4946.0000         1.0337       129.5947         71.968       88.48701          0.682         0.6781         0.6687       -49.5183     -0.9307289              1      0.9844878
      4946.5000         0.9816       131.1423        75.8358       93.45954         0.6829         0.6612          0.651       -48.1451      0.4424706              1              1
      4947.0000         0.9968       131.7332        76.0094        93.6813         0.6863         0.6502         0.6291       -47.2983       1.289268              1              1
      4947.5000         1.1092       131.0522        75.3534       92.83619         0.6951          0.662         0.6047       -46.7632       1.824371              1              1
      4948.0000         1.2588       125.0398        74.0909       91.21109         0.7111         0.6944         0.5784       -46.3268       2.260769              1              1
      4948.5000         1.4212       119.0598        73.3907       90.30914         0.7316           0.73         0.5733        -46.056        2.53157              1              1
      4949.0000         1.6012       114.0697        75.7882       93.39085         0.7585         0.7683         0.6271       -46.0205        2.56707              1              1
      4949.5000         1.7228       110.2772        77.0748       95.04395         0.7975         0.8047         0.6992       -46.0983       2.489269              1              1
      4950.0000         1.7543        108.001         73.267       90.14558         0.8344         0.8313         0.7728       -46.1934       2.394169              1              1
