#------------------------------------------------------------------------------
# Created by    : vladimir.rabinovich
# Created on    : 09/19/2023 17:20:30
#------------------------------------------------------------------------------
~Version Information Section
VERS.           2.0     :   CWLS log ASCII Standard - VERSION 2.0
WRAP.           NO      :   One line per depth step
~Well Information Section
#MNEM       .UNIT                                         VALUE :DESCRIPTION
#------------------------------------------------------------------------------
STRT        .FT                                             609 :START DEPTH
STOP        .FT                                           12866 :STOP DEPTH
STEP        .FT                                             0.5 :STEP      
NULL        .                                           -999.25 :NULL      
COMP        .                                        SUN OIL CO :COMPANY   
WELL        .                               OCS G01769 ST00BP00 :WELL      
FLD         .                                           WILDCAT :FIELD     
LOC         .                                                   :LOCATION  
CNTY        .                             GALVESTON LARGE BLOCK :LOCATION  
STAT        .                                             TEXAS :STATE     
CTRY        .                                     UNITED STATES :COUNTRY   
SRVC        .                                                   :SERVICE COMPANY
DATE        .                             9/13/2023 11:19:24 AM :LOG DATE  
API         .                                    42706001410000 :API NUMBER
UWI         .                                    42706001410000 :UNIQUE WELL ID
XCOORD      .                                  1110717.91749569 :SURFACE X 
YCOORD      .                                  10538856.4752018 :SURFACE Y 
LAT         .                                         29.029845 :LATITUDE  
LON         .                                        -94.657945 :LONGITUDE 
ELEV        .FT                                              65 :ELEVATION VALUE
ELEV_TYPE   .                                                KB :ELEVATION REFERENCE TYPE
~Curve Information Section
#MNEM       .UNIT                                      API CODE :CURVE DESCRIPTION
#------------------------------------------------------------------------------
DEPT        .FT                                                 :DEPTH     
ASN         .OHMM                                               :          
CALI        .IN                                                 :          
CILD        .MMHO                                               :          
DT          .US/F                                               :          
ILD         .OHMM                                               :          
SP          .MV                                                 :          
SP_NORM     .MV                                                 :SP Normalized
VSH_SP      .V/V                                                :Volume of Shale from SP
~A        DEPTH            ASN           CALI           CILD             DT            ILD             SP        SP_NORM         VSH_SP
# ...
      3883.5000         0.7176        15.5184       2220.402       118.2487         0.3465      -120.7744      -36.32995      0.1926678
      3884.0000         0.7158        15.5167       2216.281       115.8309         0.3503      -120.6581      -36.21365      0.1952523
      3884.5000         0.7132        15.5129       2212.164       111.1635         0.3541      -120.5419      -36.09745      0.1978344
      3885.0000         0.7097        15.5076       2208.039       109.3134          0.358      -120.4629      -36.01845        0.19959
      3885.5000         0.7105        15.5027       2203.922        110.042         0.3618      -120.3871      -35.94265      0.2012745
      3886.0000         0.7134        15.5073       2197.004       108.9094         0.3656      -120.3113      -35.86685      0.2029589
      3886.5000         0.7164        15.5118       2188.551       105.7155         0.3695      -120.2356      -35.79115       0.204641
      3887.0000         0.7193        15.5174       2180.094       106.4858         0.3733      -120.2047      -35.76025      0.2053279
      3887.5000         0.7222        15.5234       2168.535       110.8992         0.3771      -120.1903      -35.74585      0.2056478
      3888.0000         0.7252         15.528       2156.375         114.34         0.3847      -120.1758      -35.73135      0.2059701
      3888.5000         0.7281        15.5295       2141.164        116.594         0.3927      -120.2032      -35.75875      0.2053611
      3889.0000         0.7356        15.5312       2126.574       111.5524         0.4007      -120.2335      -35.78905      0.2046878
      3889.5000         0.7452        15.5334       2115.195       101.9592         0.4088      -120.1846      -35.74015      0.2057744
      3890.0000         0.7547        15.5203       2097.754        97.3203         0.4168      -119.9861      -35.54165      0.2101856
      3890.5000         0.7642        15.5335       2068.332        98.9734         0.4261      -119.7876      -35.34315      0.2145967
      3891.0000         0.7738        15.5385       1930.291        97.5298         0.4368      -119.5891      -35.14465      0.2190077
      3891.5000          0.782        15.5337       1896.129        96.1974         0.4474      -119.2628      -34.81835      0.2262588
      3892.0000         0.7901        15.3712       1867.188        95.5457          0.458      -118.7067      -34.26225      0.2386166
      3892.5000         0.7982        15.0111        1843.33        94.8176         0.4687      -117.6936      -33.24915      0.2611299
      3893.0000         0.8063        14.5736         1812.5        96.9188         0.4767      -116.4427      -31.99825      0.2889277
      3893.5000         0.8113         14.255       1778.398       100.8035          0.479       -115.594      -31.14955      0.3077877
      3894.0000         0.8149        14.1002       1755.518       103.1099         0.4813      -114.4673      -30.02285      0.3328255
      3894.5000         0.8186        14.0241       1732.635       101.4536         0.4836      -112.8684      -28.42395      0.3683567
      3895.0000         0.8222         14.061       1714.555        97.2505         0.4848      -111.1176      -26.67315      0.4072633
      3895.5000         0.8259        14.4088       1699.164       100.5916         0.4859      -110.4792      -26.03475        0.42145
      3896.0000         0.8294        14.8657       1694.363       111.4127         0.4871      -111.3997      -26.95525      0.4009945
      3896.5000         0.8324         15.164       1725.563        119.606         0.4826       -112.322      -27.87755      0.3804989
      3897.0000         0.8275        15.4612       1756.764       120.2991         0.4735      -113.4067      -28.96225      0.3563944
      3897.5000         0.8153        15.5181       1789.396        93.2312         0.4643      -114.5031      -30.05865      0.3320301
      3898.0000         0.8031        15.2602       1822.695        80.1237         0.4551       -116.744      -32.29955      0.2822322
      3898.5000         0.7913        14.5464       1859.572        74.9175         0.4459      -118.1936      -33.74915      0.2500188
      3899.0000         0.7798        14.1377        1899.93        79.7671         0.4397       -119.114      -34.66955      0.2295656
      3899.5000         0.7682        14.2876       1940.289        88.7482         0.4388        -118.91      -34.46555      0.2340988
      3900.0000         0.7567        15.2692       1966.453       102.0527         0.4379      -118.4226      -33.97815        0.24493
      3900.5000          0.764        15.4983       1984.893       111.2606          0.437      -117.9352      -33.49075       0.255761
      3901.0000         0.7768        15.5208        1990.52       111.2469          0.436      -117.4481      -33.00365      0.2665856
      3901.5000         0.7895        15.5206       1965.516       110.1646         0.4329      -117.2203      -32.77585      0.2716478
      3902.0000         0.8023        15.5133       1940.512       110.7736         0.4297      -117.3544      -32.90995      0.2686678
      3902.5000          0.815         15.506       1926.479       110.1686         0.4265      -117.4883      -33.04385      0.2656923
      3903.0000         0.8245        15.4977       1926.256       109.8931         0.4233      -117.6223      -33.17785      0.2627145
      3903.5000         0.8316        15.4893       1949.113       112.2667         0.4201      -117.7562      -33.31175      0.2597388
      3904.0000         0.8288        15.4816       1989.102       115.0319         0.4134      -117.8904      -33.44595      0.2567566
      3904.5000         0.8189        15.4758       2003.164       116.8882         0.4068      -118.0615      -33.61705      0.2529545
      3905.0000          0.809        15.3081       2025.482       109.6276         0.4001      -118.2402      -33.79575      0.2489834
      3905.5000          0.799        14.3399       2086.699        95.2657         0.3935      -118.4189      -33.97445      0.2450122
      3906.0000         0.7891        13.4952       2113.258        66.5422          0.386      -118.5978      -34.15335      0.2410367
      3906.5000         0.7835          13.34       2135.289        59.4936         0.3784      -119.2369      -34.79245      0.2268344
      3907.0000         0.7788        13.3087       2155.258        65.5948         0.3684      -120.3691      -35.92465      0.2016744
      3907.5000         0.7744        13.2795       2168.445        73.6284         0.3505      -122.0718      -37.62735      0.1638367
      3908.0000         0.7702         13.252       2177.398        96.9338         0.3321      -123.1564      -38.71195      0.1397344
      3908.5000          0.766        13.1611       2183.059        99.5157         0.3123      -123.9941      -39.54965      0.1211188
      3909.0000         0.7619         13.007       2188.723       100.5321         0.2924      -124.6849      -40.24045      0.1057678
      3909.5000         0.7524        12.8295       2315.961       101.1158         0.2746      -125.3763      -40.93185     0.09040341
      3910.0000         0.7365        12.6745       2487.762        91.7651         0.2894      -125.8555      -41.41105     0.07975447
      3910.5000         0.7133        12.6062       2568.727        85.8458         0.3042      -125.7479      -41.30345     0.08214552
      3911.0000         0.7212        12.7742       2908.969        77.1191          0.319      -125.5273      -41.08285     0.08704783
      3911.5000         0.7396        12.8591       2869.598        66.3827         0.3338       -125.307      -40.86255     0.09194336
      3912.0000         0.7581        12.7383       2738.254        60.9722         0.3486      -125.1261      -40.68165     0.09596337
      3912.5000         0.7765        12.6283       2580.574        65.3954          0.368      -125.0718      -40.62735        0.09717
