#------------------------------------------------------------------------------
# Created by    : vladimir.rabinovich
# Created on    : 09/19/2023 17:19:44
#------------------------------------------------------------------------------
~Version Information Section
VERS.           2.0     :   CWLS log ASCII Standard - VERSION 2.0
WRAP.           NO      :   One line per depth step
~Well Information Section
#MNEM       .UNIT                                         VALUE :DESCRIPTION
#------------------------------------------------------------------------------
STRT        .FT                                             490 :START DEPTH
STOP        .FT                                           13420 :STOP DEPTH
STEP        .FT                                             0.5 :STEP      
NULL        .                                           -999.25 :NULL      
COMP        .                                 MESA PETROLEUM CO :COMPANY   
WELL        .                                     ST TR 00012-L :WELL      
FLD         .                                           WILDCAT :FIELD     
LOC         .                                                   :LOCATION  
CNTY        .                           HIGH ISLAND LARGE BLOCK :LOCATION  
STAT        .                                             TEXAS :STATE     
CTRY        .                                     UNITED STATES :COUNTRY   
SRVC        .                                                   :SERVICE COMPANY
DATE        .                             9/13/2023 11:19:15 AM :LOG DATE  
API         .                                    42708302120000 :API NUMBER
UWI         .                                    42708302120000 :UNIQUE WELL ID
XCOORD      .                                  1361115.25412243 :SURFACE X 
YCOORD      .                                  10723579.9964947 :SURFACE Y 
LAT         .                                        29.5453665 :LATITUDE  
LON         .                                       -93.8786547 :LONGITUDE 
ELEV        .FT                                              80 :ELEVATION VALUE
ELEV_TYPE   .                                                KB :ELEVATION REFERENCE TYPE
~Curve Information Section
#MNEM       .UNIT                                      API CODE :CURVE DESCRIPTION
#------------------------------------------------------------------------------
DEPT        .FT                                                 :DEPTH     
ASFL        .OHMM                                               :          
CILD        .MMHO                                               :          
GR          .GAPI                                               :          
GR_NORM     .GAPI                                               :GammaRay Normalized
ILD         .OHMM                                               :          
SP          .MV                                                 :          
SP_NORM     .MV                                                 :SP Normalized
VSH_GR      .V/V                                                :Volume of Shale from GR
~A        DEPTH           ASFL           CILD             GR        GR_NORM            ILD             SP        SP_NORM         VSH_GR
# ...
      8219.0000          0.458       6450.633        48.6154       51.20437         0.3282      -213.7551      -109.1895       0.387327
      8219.5000         0.4501       6535.094        49.2192       52.55222         0.3219      -217.2703      -112.7069      0.4160046
      8220.0000         0.4423       6624.484         49.785       53.81511         0.3157      -218.5364      -113.9752      0.4428747
      8220.5000         0.4344       6676.633        50.3515       55.07957         0.3094      -200.7905      -96.23153      0.4697782
      8221.0000         0.4193       6587.883        50.9174        56.3427         0.3031      -191.8833      -87.32655      0.4966533
      8221.5000         0.4005       6197.555        53.9807       63.18826         0.2968      -186.3445      -81.78997      0.6423035
      8222.0000         0.3817       5807.227        57.0239       69.98891         0.2906      -182.0425      -77.49018      0.7869982
      8222.5000         0.3629       5416.906         58.427       73.12348         0.2843      -177.3149       -72.7648      0.8536911
      8223.0000         0.3711       5145.766        59.7604       76.10218         0.2793      -172.6267      -68.07882      0.9170676
      8223.5000         0.4043        4978.82        59.7176       76.00465          0.277      -168.3687      -63.82304      0.9149926
      8224.0000         0.4374       4787.805        58.3512       72.94849         0.2747      -172.6709      -68.12746       0.849968
      8224.5000         0.4705       4707.734        56.9848       69.89231         0.2724      -179.8376      -75.29638      0.7849428
      8225.0000         0.5037       4798.063         55.616       66.83078         0.2701      -187.8257       -83.2867      0.7198038
      8225.5000         0.5327       5090.906         54.301       63.88953         0.2678      -194.7773      -90.24051      0.6572241
      8226.0000         0.5536        5258.25        53.0494       61.08997         0.2655       -200.458      -95.92342      0.5976589
      8226.5000         0.5496       5418.484         51.798       58.29085         0.2632      -204.4277      -99.89536      0.5381032
      8227.0000         0.5453       5653.109        50.5489       55.49689         0.2609      -204.2322      -99.70206      0.4786572
      8227.5000         0.5405         5757.5        49.5247       53.20562         0.2586      -200.8979      -96.36999      0.4299069
      8228.0000         0.5357       5872.352        48.5812       51.09479          0.267      -198.8887      -94.36301      0.3849955
      8228.5000         0.5308       5480.445        48.9601       51.93988         0.2786      -196.8821      -92.35862      0.4029761
      8229.0000          0.526       5154.055        50.0991       54.48408         0.2902      -194.8728      -90.35154       0.457108
      8229.5000         0.5503       5037.336        51.2382       57.02846         0.3018      -192.8635      -88.34445      0.5112438
      8230.0000          0.579       5072.359        50.8666       56.19601         0.3133      -190.6562      -86.13938      0.4935322
      8230.5000         0.6058           4744        49.5247       53.19459         0.3249      -188.3586      -83.84399      0.4296721
      8231.0000         0.5792       4415.242        48.1705       50.16568         0.3365      -180.7761       -76.2637      0.3652272
      8231.5000         0.5557       4086.879        47.2001       47.99471         0.3481      -158.6404      -54.13023      0.3190363
      8232.0000         0.5321       3758.121        49.4025       52.91591         0.3647      -150.7402      -46.23225      0.4237427
      8232.5000         0.5165       3429.758        51.6024       57.83152         0.3867      -144.1404      -39.63467      0.5283301
      8233.0000         0.5284           3101        53.8047        62.7525         0.4088      -137.5408      -33.03728      0.6330319
      8233.5000         0.5403       2772.637        55.4999       66.53996         0.4308      -129.6016       -25.1003      0.7136163
      8234.0000         0.5522       2443.883        56.6524       69.11433         0.4528      -120.5967      -16.09763      0.7683899
      8234.5000         0.5641        2115.52        57.8062       71.69156         0.4749      -116.1528      -11.65594      0.8232247
      8235.0000          0.576       1786.762        58.5538       73.36085         0.4948      -110.5651      -6.070457      0.8587415
      8235.5000         0.5879       1621.693        58.9672        74.2831         0.5111      -104.8258      -0.333374      0.8783637
      8236.0000         0.5979       1572.902        59.6724       75.85758         0.5274      -102.6039       1.886307      0.9118634
      8236.5000         0.5933       1501.912        60.3788       77.43476         0.5437      -100.8896       3.598389      0.9454204
      8237.0000         0.5887       1601.861        61.1732       79.20866         0.5599      -100.7347       3.751068      0.9831629
      8237.5000         0.5841       1602.354        60.8188       78.41462         0.5762        -100.58       3.903549      0.9662685
      8238.0000         0.5795       1685.629        60.2095       77.05081         0.5733      -100.4303       4.051041      0.9372513
      8238.5000          0.575       1768.902        59.5997       75.68586         0.5696      -100.5712       3.907921      0.9082098
      8239.0000         0.5704       1813.648        58.9904       74.32205         0.5659       -100.712         3.7649      0.8791926
      8239.5000         0.5658       1856.568        58.3806       72.95709         0.5622      -100.8527       3.621979      0.8501509
      8240.0000         0.5612       1899.488        57.7713       71.59331         0.5585      -100.9935       3.478966      0.8211342
      8240.5000          0.559       1942.408        57.1614       70.22814         0.5548      -101.0286       3.441643      0.7920882
      8241.0000         0.5646        1982.27        57.1119       70.11569         0.5511       -100.338       4.130028      0.7896956
      8241.5000         0.5702       2021.982        57.3411       70.62615         0.5474      -101.4661       2.999702      0.8005564
      8242.0000         0.5758       2050.742        58.0982       72.31666         0.5437      -102.6124       1.851196      0.8365247
      8242.5000         0.5815       2073.684        58.8841       74.07156         0.5401      -103.7601      0.7012711       0.873863
      8243.0000         0.5853       2096.598        59.6699        75.8262         0.5366      -105.7742      -1.315048      0.9111958
      8243.5000         0.5889       2119.539        59.2715       74.93383          0.533      -109.6754       -5.21846      0.8922092
      8244.0000         0.5925       2144.723        58.2767       72.70833         0.5295      -114.1143      -9.659584      0.8448581
      8244.5000         0.5961       2179.504        57.3539       70.64371         0.5259      -120.2936       -15.8411      0.8009301
      8245.0000          0.596       2214.332        56.9409       69.71868         0.5224      -122.7526      -18.30232      0.7812485
      8245.5000         0.5937       2249.113        56.5277       68.79321         0.5188      -119.8781      -15.43003      0.7615577
      8246.0000         0.5966       2302.984        56.2735       68.22315          0.512      -117.0035      -12.55766      0.7494287
      8246.5000         0.6135       2412.309        57.5446       71.06264         0.5003      -120.0002      -15.55657      0.8098434
      8247.0000         0.6304       2521.629        56.5228       68.77677         0.4887      -141.3149      -36.87348      0.7612079
      8247.5000         0.6473       2738.301         55.066       65.51851          0.476      -150.3784      -45.93921      0.6918831
      8248.0000         0.6642       2977.074        53.6116       62.26561          0.451      -154.4653      -50.02833      0.6226726
