#------------------------------------------------------------------------------
# Created by    : vladimir.rabinovich
# Created on    : 09/19/2023 17:22:39
#------------------------------------------------------------------------------
~Version Information Section
VERS.           2.0     :   CWLS log ASCII Standard - VERSION 2.0
WRAP.           NO      :   One line per depth step
~Well Information Section
#MNEM       .UNIT                                         VALUE :DESCRIPTION
#------------------------------------------------------------------------------
STRT        .FT                                            2600 :START DEPTH
STOP        .FT                                            8208 :STOP DEPTH
STEP        .FT                                             0.5 :STEP      
NULL        .                                           -999.25 :NULL      
COMP        .                          SEAGULL ENERGY E & P INC :COMPANY   
WELL        .                               OCS G09039 ST00BP00 :WELL      
FLD         .                              GALVESTON BLOCK 0273 :FIELD     
LOC         .                                                   :LOCATION  
CNTY        .                             GALVESTON LARGE BLOCK :LOCATION  
STAT        .                                             TEXAS :STATE     
CTRY        .                                     UNITED STATES :COUNTRY   
SRVC        .                                                   :SERVICE COMPANY
DATE        .                             9/13/2023 11:19:54 AM :LOG DATE  
API         .                                    42706403220000 :API NUMBER
UWI         .                                    42706403220000 :UNIQUE WELL ID
XCOORD      .                                  1018306.80056624 :SURFACE X 
YCOORD      .                                  10490966.5196098 :SURFACE Y 
LAT         .                                         28.894284 :LATITUDE  
LON         .                                        -94.944599 :LONGITUDE 
ELEV        .FT                                             103 :ELEVATION VALUE
ELEV_TYPE   .                                                KB :ELEVATION REFERENCE TYPE
~Curve Information Section
#MNEM       .UNIT                                      API CODE :CURVE DESCRIPTION
#------------------------------------------------------------------------------
DEPT        .FT                                                 :DEPTH     
DCAL        .IN                                                 :          
DPHI        .%                                                  :          
DTL         .US/F                                               :          
GR          .GAPI                                               :          
GR_1        .GAPI                                               :          
GR_NORM     .GAPI                                               :GammaRay Normalized
ILD         .OHMM                                               :          
ILM         .OHMM                                               :          
NPHI        .%                                                  :          
SFL         .OHMM                                               :          
SP          .MV                                                 :          
SP_NORM     .MV                                                 :SP Normalized
VSH_GR      .V/V                                                :Volume of Shale from GR
VSH_SP      .V/V                                                :Volume of Shale from SP
~A        DEPTH           DCAL           DPHI            DTL             GR           GR_1        GR_NORM            ILD            ILM           NPHI            SFL             SP        SP_NORM         VSH_GR         VSH_SP
# ...
      2726.0000        -999.25        -999.25        -999.25        41.2321        -999.25        59.2424         0.6017         0.5841        -999.25         1.1324       -35.8497      -2.709932       0.558349      0.9458014
      2726.5000        -999.25        -999.25        -999.25        42.4554        -999.25       60.65826         0.8784         0.7026        -999.25         0.9894       -35.6766      -2.523517      0.5884736      0.9495296
      2727.0000        -999.25        -999.25        -999.25        43.3447        -999.25       61.68755          1.088         0.9191        -999.25         0.8521       -35.5035      -2.337102      0.6103733       0.953258
      2727.5000        -999.25        -999.25        -999.25        44.0418        -999.25       62.49437         1.1645         0.9256        -999.25         0.7153       -35.3303      -2.150576      0.6275398      0.9569885
      2728.0000        -999.25        -999.25        -999.25        44.7841        -999.25       63.35351         0.7972         0.7837        -999.25         0.6518       -35.1863      -1.995498      0.6458194        0.96009
      2728.5000        -999.25        -999.25        -999.25        46.7147        -999.25       65.58801         0.5766         0.6249        -999.25         0.6537       -35.1349      -1.940145      0.6933618      0.9611971
      2729.0000        -999.25        -999.25        -999.25        48.9362        -999.25       68.15918         0.4917         0.5341        -999.25         0.6827       -35.3202      -2.139702      0.7480677       0.957206
      2729.5000        -999.25        -999.25        -999.25        51.0743        -999.25       70.63383         0.5168         0.5198        -999.25         0.7094       -35.6301      -2.473439      0.8007199      0.9505312
      2730.0000        -999.25        -999.25        -999.25         50.997        -999.25       70.54437         0.6024         0.5708        -999.25         0.7246       -36.1122      -2.992625      0.7988164      0.9401475
      2730.5000        -999.25        -999.25        -999.25        47.8868        -999.25        66.9446         0.6669         0.6374        -999.25         0.7112       -36.5541      -3.468515      0.7222256      0.9306297
      2731.0000        -999.25        -999.25        -999.25        45.3008        -999.25       63.95155         0.6938         0.6763        -999.25         0.6893       -36.8158      -3.750346      0.6585437      0.9249931
      2731.5000        -999.25        -999.25        -999.25        41.7752        -999.25       59.87099         0.7094         0.7027        -999.25         0.6897       -36.8147      -3.749162      0.5717232      0.9250168
      2732.0000        -999.25        -999.25        -999.25        41.8716        -999.25       59.98257         0.6883         0.6824        -999.25         0.6937       -36.6517      -3.573622      0.5740972      0.9285275
      2732.5000        -999.25        -999.25        -999.25        45.3168        -999.25       63.97006         0.6321         0.6447        -999.25         0.6701         -36.22      -3.108716      0.6589375      0.9378257
      2733.0000        -999.25        -999.25        -999.25        50.1317        -999.25       69.54286         0.6098         0.6001        -999.25         0.6213       -35.4455      -2.274638      0.7775077      0.9545072
      2733.5000        -999.25        -999.25        -999.25        55.2007        -999.25       75.40976          0.593         0.5546        -999.25         0.5751       -34.7008      -1.472656      0.9023353      0.9705469
      2734.0000        -999.25        -999.25        -999.25        60.2722        -999.25       81.27956          0.593         0.5465        -999.25         0.5727       -34.2684       -1.00699              1      0.9798602
      2734.5000        -999.25        -999.25        -999.25         64.833        -999.25       86.55826         0.5922         0.5425        -999.25         0.5834       -34.1254     -0.8529927              1      0.9829401
      2735.0000        -999.25        -999.25        -999.25        68.1862        -999.25       90.43929         0.5821         0.5413        -999.25         0.5763       -33.9595     -0.6743299              1      0.9865134
      2735.5000        -999.25        -999.25        -999.25        69.4811        -999.25       91.93801         0.5704         0.5361        -999.25         0.5678       -33.9344     -0.6472984              1       0.987054
      2736.0000        -999.25        -999.25        -999.25        67.5743        -999.25       89.73106         0.5617         0.5295        -999.25         0.5623       -34.0782     -0.8021628              1      0.9839568
      2736.5000        -999.25        -999.25        -999.25        65.5658        -999.25       87.40641         0.5719         0.5228        -999.25         0.5666       -34.2702      -1.008929              1      0.9798214
      2737.0000        -999.25        -999.25        -999.25        63.6621        -999.25       85.20306         0.5807         0.5202        -999.25         0.5775        -34.498      -1.254255              1      0.9749149
      2737.5000        -999.25        -999.25        -999.25        62.3763        -999.25       83.71487         0.5865         0.5226        -999.25         0.5811       -34.7708       -1.54804              1      0.9690392
      2738.0000        -999.25        -999.25        -999.25         63.308        -999.25       84.79321         0.5892         0.5289        -999.25         0.5856        -35.096      -1.898254              1      0.9620349
      2738.5000        -999.25        -999.25        -999.25        64.5859        -999.25       86.27226         0.5992         0.5361        -999.25         0.5963       -35.3843      -2.208731              1      0.9558254
      2739.0000        -999.25        -999.25        -999.25        65.2585        -999.25       87.05074         0.6118         0.5425        -999.25         0.6154       -35.6335      -2.477099              1       0.950458
      2739.5000        -999.25        -999.25        -999.25         63.915        -999.25       85.49577         0.6198         0.5471        -999.25         0.6247       -35.9225      -2.788331              1      0.9442334
      2740.0000        -999.25        -999.25        -999.25        61.6542        -999.25       82.87909         0.6225         0.5472        -999.25         0.6267       -36.2189      -3.107529              1      0.9378494
      2740.5000        -999.25        -999.25        -999.25        58.0948        -999.25       78.75941          0.619          0.546        -999.25          0.621       -36.5137      -3.425006      0.9736046      0.9314999
      2741.0000        -999.25        -999.25        -999.25         56.151        -999.25       76.50964         0.6142         0.5436        -999.25         0.6156       -36.6251      -3.544976      0.9257371      0.9291005
      2741.5000        -999.25        -999.25        -999.25        55.5967        -999.25        75.8681         0.6076         0.5403        -999.25         0.6084       -36.6176      -3.536899      0.9120873       0.929262
      2742.0000        -999.25        -999.25        -999.25        55.0749        -999.25       75.26416          0.602         0.5356        -999.25         0.6007       -36.3459      -3.244301      0.8992375       0.935114
      2742.5000        -999.25        -999.25        -999.25         53.939        -999.25       73.94947          0.599         0.5347        -999.25         0.5971       -36.3706      -3.270902      0.8712654       0.934582
      2743.0000        -999.25        -999.25        -999.25        52.4913        -999.25       72.27388         0.5985         0.5376        -999.25         0.5943       -36.7079      -3.634147      0.8356144      0.9273171
      2743.5000        -999.25        -999.25        -999.25        51.0516        -999.25       70.60757         0.6014         0.5482        -999.25         0.6013       -37.0742      -4.028623       0.800161      0.9194276
