#------------------------------------------------------------------------------
# Created by    : vladimir.rabinovich
# Created on    : 09/19/2023 17:20:25
#------------------------------------------------------------------------------
~Version Information Section
VERS.           2.0     :   CWLS log ASCII Standard - VERSION 2.0
WRAP.           NO      :   One line per depth step
~Well Information Section
#MNEM       .UNIT                                         VALUE :DESCRIPTION
#------------------------------------------------------------------------------
STRT        .FT                                             293 :START DEPTH
STOP        .FT                                            8505 :STOP DEPTH
STEP        .FT                                             0.5 :STEP      
NULL        .                                           -999.25 :NULL      
COMP        .                                        TEXACO USA :COMPANY   
WELL        .                                     ST TR 00058-L :WELL      
FLD         .                                           WILDCAT :FIELD     
LOC         .                                                   :LOCATION  
CNTY        .                           HIGH ISLAND LARGE BLOCK :LOCATION  
STAT        .                                             TEXAS :STATE     
CTRY        .                                     UNITED STATES :COUNTRY   
SRVC        .                                                   :SERVICE COMPANY
DATE        .                             9/13/2023 11:19:15 AM :LOG DATE  
API         .                                    42708000230000 :API NUMBER
UWI         .                                    42708000230000 :UNIQUE WELL ID
XCOORD      .                                  1179226.38702832 :SURFACE X 
YCOORD      .                                  10699123.4735792 :SURFACE Y 
LAT         .                                        29.4730929 :LATITUDE  
LON         .                                        -94.449778 :LONGITUDE 
ELEV        .FT                                              80 :ELEVATION VALUE
ELEV_TYPE   .                                                KB :ELEVATION REFERENCE TYPE
~Curve Information Section
#MNEM       .UNIT                                      API CODE :CURVE DESCRIPTION
#------------------------------------------------------------------------------
DEPT        .FT                                                 :DEPTH     
ASN         .OHMM                                               :          
CILD        .MMHO                                               :          
ILD         .OHMM                                               :          
LAT         .OHMM                                               :          
LN          .OHMM                                               :          
SP          .MV                                                 :          
SP_NORM     .MV                                                 :SP Normalized
VSH_SP      .V/V                                                :Volume of Shale from SP
~A        DEPTH            ASN           CILD            ILD            LAT             LN             SP        SP_NORM         VSH_SP
# ...
      4659.0000         0.8422        -999.25        -999.25         0.9459         0.9544        -38.912       2.051857              1
      4659.5000         0.8362        -999.25        -999.25         0.9661         0.9539       -38.3481       2.615757              1
      4660.0000         0.8332        -999.25        -999.25         0.9675         0.9533       -38.4636       2.500256              1
      4660.5000         0.8285        -999.25        -999.25         0.9436         0.9528       -38.6497       2.314156              1
      4661.0000         0.8225        -999.25        -999.25         0.9198         0.9523       -38.8358       2.128056              1
      4661.5000         0.8166        -999.25        -999.25         0.8959         0.9518       -39.0505       1.913357              1
      4662.0000         0.8106        -999.25        -999.25         0.8721         0.9512       -39.2689       1.694954              1
      4662.5000         0.8046        -999.25        -999.25         0.8482         0.9507       -39.4874       1.476456              1
      4663.0000         0.8048        -999.25        -999.25         0.8413          0.951       -39.5605       1.403355              1
      4663.5000         0.8112        -999.25        -999.25         0.8354         0.9522       -39.5583       1.405556              1
      4664.0000         0.8176        -999.25        -999.25         0.8296         0.9535       -39.3882       1.575657              1
      4664.5000         0.8241        -999.25        -999.25         0.8238         0.9547       -38.7148       2.249054              1
      4665.0000         0.8305        -999.25        -999.25         0.8254          0.956       -38.0414       2.922455              1
      4665.5000         0.8369        -999.25        -999.25         0.8428         0.9573       -37.3735       3.590355              1
      4666.0000         0.8433        -999.25        -999.25         0.8601         0.9585       -36.7756       4.188255              1
      4666.5000         0.8514        -999.25        -999.25         0.8774         0.9602       -37.8186       3.145256              1
      4667.0000         0.8609        -999.25        -999.25         0.8947          0.962       -39.9867      0.9771576              1
      4667.5000         0.8705        -999.25        -999.25         0.9121         0.9638       -42.6404      -1.676544              1
      4668.0000         0.8633        -999.25        -999.25         0.9294         0.9657       -45.3141      -4.350243      0.9643903
      4668.5000         0.8506        -999.25        -999.25          0.942         0.9675       -48.1035      -7.139645      0.9221266
      4669.0000         0.8391        -999.25        -999.25         0.9481         0.9693        -49.148      -8.184143      0.9063008
      4669.5000         0.8281        -999.25        -999.25         0.9506         0.9711       -48.0645      -7.100643      0.9227175
      4670.0000         0.8172        -999.25        -999.25         0.8283         0.9729       -46.8533      -5.889442      0.9410691
      4670.5000         0.8063        -999.25        -999.25         0.7569         0.9746       -45.5031      -4.539246      0.9615266
      4671.0000         0.8027        -999.25        -999.25         0.7394         0.9752       -44.1517      -3.187843      0.9820024
      4671.5000         0.8111        -999.25        -999.25         0.7459         0.9758       -42.8015      -1.837643              1
      4672.0000         0.8196        -999.25        -999.25         0.7523         0.9765       -41.6075     -0.6436424              1
      4672.5000         0.8262        -999.25        -999.25         0.7588         0.9771       -41.2888     -0.3249435              1
      4673.0000         0.8301        -999.25        -999.25         0.7653         0.9778       -40.9501      0.0137558              1
      4673.5000          0.834        -999.25        -999.25         0.7717         0.9784       -40.5748      0.3890572              1
      4674.0000         0.8378        -999.25        -999.25         0.7785         0.9791       -40.1995      0.7643547              1
      4674.5000         0.8417        -999.25        -999.25         0.7858         0.9797       -39.8242       1.139656              1
      4675.0000         0.8456        -999.25        -999.25          0.793         0.9804        -39.411       1.552856              1
      4675.5000         0.8495        -999.25        -999.25         0.8002          0.981       -38.8015       2.162357              1
      4676.0000         0.8534        -999.25        -999.25         0.8074         0.9817       -38.1925       2.771355              1
      4676.5000         0.8536        -999.25        -999.25         0.8146         0.9823       -37.5836       3.380257              1
      4677.0000         0.8529        -999.25        -999.25         0.8218         0.9829        -36.974       3.989857              1
      4677.5000         0.8522        -999.25        -999.25         0.8244         0.9836       -36.3651       4.598755              1
      4678.0000         0.8516        -999.25        -999.25         0.8233         0.9842        -35.756       5.207855              1
      4678.5000          0.863        -999.25        -999.25         0.8221          0.985       -35.6008       5.363056              1
      4679.0000         0.8749        -999.25        -999.25          0.821         0.9861       -35.7474       5.216457              1
      4679.5000         0.8868        -999.25        -999.25         0.8199         0.9871        -35.894       5.069855              1
      4680.0000         0.8999        -999.25        -999.25         0.8226         0.9882       -36.0406       4.923256              1
      4680.5000         0.9169        -999.25        -999.25         0.8323         0.9893        -35.888       5.075855              1
      4681.0000         0.9339        -999.25        -999.25         0.8462         0.9903       -35.6488       5.315056              1
      4681.5000          0.951        -999.25        -999.25           0.88         0.9914       -35.4097       5.554157              1
      4682.0000          0.968        -999.25        -999.25         0.9137         0.9925       -35.8522       5.111656              1
      4682.5000         0.9851        -999.25        -999.25         0.9475         0.9936       -36.4928       4.471054              1
      4683.0000          1.011        -999.25        -999.25         0.9813         0.9951       -37.1335       3.830357              1
      4683.5000         0.9937        -999.25        -999.25          1.015         0.9967       -37.7741       3.189754              1
      4684.0000          0.975        -999.25        -999.25         1.0488         0.9982       -38.4142       2.549656              1
      4684.5000         0.9563        -999.25        -999.25         1.0711         0.9997       -38.8182       2.145657              1
      4685.0000         0.9402        -999.25        -999.25         1.0836         1.0012       -39.1977       1.766155              1
      4685.5000         0.9245        -999.25        -999.25         1.0961         1.0027       -39.5769       1.386955              1
      4686.0000         0.9088        -999.25        -999.25         1.1086         1.0042       -39.9561       1.007755              1
      4686.5000         0.8931        -999.25        -999.25         1.0989         1.0057        -40.295      0.6688576              1
      4687.0000         0.8774        -999.25        -999.25          1.073         1.0072       -39.9664      0.9974556              1
      4687.5000         0.8614        -999.25        -999.25         1.0471         1.0087        -39.638       1.325855              1
      4688.0000         0.8453        -999.25        -999.25         1.0242         1.0073       -39.3096       1.654255              1
