#------------------------------------------------------------------------------
# Created by    : vladimir.rabinovich
# Created on    : 09/19/2023 17:22:48
#------------------------------------------------------------------------------
~Version Information Section
VERS.           2.0     :   CWLS log ASCII Standard - VERSION 2.0
WRAP.           NO      :   One line per depth step
~Well Information Section
#MNEM       .UNIT                                         VALUE :DESCRIPTION
#------------------------------------------------------------------------------
STRT        .FT                                             306 :START DEPTH
STOP        .FT                                           13139 :STOP DEPTH
STEP        .FT                                             0.5 :STEP      
NULL        .                                           -999.25 :NULL      
COMP        .                                    CITIES SERVICE :COMPANY   
WELL        .                                          SL 77337 :WELL      
FLD         .                                           WILDCAT :FIELD     
LOC         .                                                   :LOCATION  
CNTY        .                                BRAZOS LARGE BLOCK :LOCATION  
STAT        .                                             TEXAS :STATE     
CTRY        .                                     UNITED STATES :COUNTRY   
SRVC        .                                                   :SERVICE COMPANY
DATE        .                             9/13/2023 11:18:52 AM :LOG DATE  
API         .                                    42704301950000 :API NUMBER
UWI         .                                    42704301950000 :UNIQUE WELL ID
XCOORD      .                                   673900.18951543 :SURFACE X 
YCOORD      .                                   10333530.060148 :SURFACE Y 
LAT         .                                        28.4418955 :LATITUDE  
LON         .                                       -96.0077528 :LONGITUDE 
ELEV        .FT                                              82 :ELEVATION VALUE
ELEV_TYPE   .                                                KB :ELEVATION REFERENCE TYPE
~Curve Information Section
#MNEM       .UNIT                                      API CODE :CURVE DESCRIPTION
#------------------------------------------------------------------------------
DEPT        .FT                                                 :DEPTH     
DT          .US/F                                               :          
SP          .MV                                                 :          
SP_NORM     .MV                                                 :SP Normalized
VSH_SP      .V/V                                                :Volume of Shale from SP
~A        DEPTH             DT             SP        SP_NORM         VSH_SP
# ...
     11383.0000        96.3949       -43.1719      -1.309635      0.9908931
     11383.5000         95.099       -43.3247      -1.462925      0.9863846
     11384.0000        96.1194       -43.5207      -1.659412      0.9806055
     11384.5000        97.5819       -43.5989      -1.738106       0.978291
     11385.0000        98.8091       -43.4454      -1.585094      0.9827914
     11385.5000        99.4438       -43.2551      -1.395283      0.9883741
     11386.0000        99.1221       -43.1657      -1.306374       0.990989
     11386.5000        98.2104        -43.092      -1.233162      0.9931423
     11387.0000        97.7354       -43.3576      -1.499256       0.985316
     11387.5000        98.3695        -43.665      -1.807144      0.9762605
     11388.0000        99.1947       -43.4084      -1.551033      0.9837931
     11388.5000       100.0493        -43.098      -1.241123      0.9929081
     11389.0000        99.7706        -42.851     -0.9946136              1
     11389.5000        96.7731       -42.7448     -0.8889046              1
     11390.0000        93.0116       -42.6956     -0.8401909              1
     11390.5000        90.9932        -42.794     -0.9390793              1
     11391.0000        92.8689       -42.8558      -1.001373      0.9999596
     11391.5000        94.0909       -43.0726      -1.218662      0.9935688
     11392.0000        95.2555       -43.2739      -1.420452      0.9876338
     11392.5000        96.0493         -43.42      -1.567039      0.9833224
     11393.0000        96.5958       -43.5397      -1.687229      0.9797873
     11393.5000        96.5608       -43.6468      -1.794823      0.9766229
     11394.0000        96.5345       -43.7697      -1.918209      0.9729939
     11394.5000        97.5243       -43.9108      -2.059803      0.9688293
     11395.0000        98.6187       -44.0921      -2.241589      0.9634827
     11395.5000       100.0487       -44.1702      -2.320183      0.9611711
     11396.0000       101.6263       -44.2503      -2.400772      0.9588008
     11396.5000         100.85       -44.3124       -2.46336        0.95696
     11397.0000        99.7281       -44.0319       -2.18335      0.9651956
     11397.5000        98.0327       -43.6022      -1.754139      0.9778194
     11398.0000        96.3749       -43.0063      -1.158733      0.9953313
     11398.5000        94.7921       -42.6577     -0.8106194              1
     11399.0000        93.6539       -42.4453     -0.5987091              1
     11399.5000        93.9094       -42.3988        -0.5527              1
     11400.0000        95.2577       -43.1252      -1.279587      0.9917769
     11400.5000         96.051       -43.1324      -1.287281      0.9915506
     11401.0000        96.9777       -43.1693      -1.324669      0.9904509
     11401.5000        96.8978       -43.1579      -1.313759      0.9907718
     11402.0000        96.0298       -43.3393      -1.495647      0.9854221
     11402.5000        94.8225        -43.762      -1.918839      0.9729753
     11403.0000        93.5826       -44.2322       -2.38953      0.9591315
     11403.5000         92.719       -44.7023      -2.860119      0.9452906
     11404.0000        92.9728       -45.1238      -3.282104      0.9328793
     11404.5000        93.3333       -45.3466      -3.505398      0.9263119
     11405.0000        93.5361       -45.4193      -3.578587      0.9241592
     11405.5000         92.792       -45.3565      -3.516277      0.9259918
     11406.0000        86.2614       -45.3325      -3.492767      0.9266833
     11406.5000        83.1931       -45.3185      -3.479256      0.9270807
     11407.0000        81.4719         -45.13      -3.291248      0.9326103
     11407.5000        84.4852       -44.8355      -2.997234      0.9412578
     11408.0000        88.3667       -44.4385      -2.600727      0.9529198
     11408.5000        95.4312       -44.1748      -2.337517      0.9606613
     11409.0000        97.2446       -44.1904      -2.353603      0.9601882
     11409.5000        95.7205       -44.2925      -2.456196      0.9571707
     11410.0000        94.0941       -44.3597      -2.523884      0.9551799
     11410.5000        92.8542       -44.3878      -2.552475       0.954339
     11411.0000        93.2908       -44.4041      -2.569263      0.9538452
     11411.5000        97.3369       -44.4816      -2.647259      0.9515512
     11412.0000         98.379       -44.6911      -2.857246      0.9453751
     11412.5000        98.2224       -44.7917      -2.958332       0.942402
     11413.0000        97.1947       -44.5341      -2.701225       0.949964
     11413.5000        96.1146       -44.2353      -2.402912      0.9587379
     11414.0000        95.1667       -44.1176      -2.285706      0.9621851
     11414.5000        94.3853       -44.0593      -2.227894      0.9638855
     11415.0000        93.9868       -44.1107      -2.279781      0.9623594
     11415.5000        94.0444       -44.0652      -2.234776      0.9636831
     11416.0000        94.5818       -43.9208      -2.090862      0.9679158
     11416.5000        95.3088       -43.8271      -1.997654      0.9706572
     11417.0000        94.8524       -43.8229      -1.993942      0.9707664
     11417.5000           91.4       -43.9421      -2.113632      0.9672461
     11418.0000        88.7808       -43.9658      -2.137825      0.9665346
     11418.5000        88.0249       -43.9224      -2.094913      0.9677967
     11419.0000        89.7936       -43.8098      -1.982803       0.971094
     11419.5000        92.6073       -43.7863      -1.959793      0.9717708
     11420.0000        94.4982       -43.8726      -2.046581      0.9692182
     11420.5000        95.5409       -44.0196      -2.194073      0.9648802
     11421.0000        96.3541       -44.1136      -2.288563      0.9621011
     11421.5000        96.4492       -43.9551      -2.130554      0.9667484
     11422.0000        95.8252       -43.9816      -2.157543      0.9659546
     11422.5000         95.153       -44.0031      -2.179531      0.9653079
     11423.0000        94.5867       -43.9798      -2.156723      0.9659787
     11423.5000        94.2905       -43.9516      -2.129009      0.9667938
     11424.0000        94.1423       -43.6219      -1.799801      0.9764764
     11424.5000        93.9734       -43.1845      -1.362892      0.9893267
     11425.0000         93.761       -43.2849      -1.463779      0.9863594
     11425.5000        93.2484       -43.6682      -1.847572      0.9750714
     11426.0000        92.1958       -44.2722      -2.452061      0.9572923
     11426.5000        90.1627       -45.0162      -3.196552      0.9353955
     11427.0000        86.7004       -45.8428       -4.02364      0.9110694
     11427.5000        84.0912       -46.8682      -5.049526      0.8808963
     11428.0000        82.3425       -48.1136      -6.295422      0.8442523
     11428.5000        83.0385       -49.6617      -7.844009      0.7987056
     11429.0000         86.401        -50.684      -8.866798      0.7686236
     11429.5000        88.8407       -51.0698       -9.25309      0.7572621
     11430.0000        91.1854        -50.851      -9.034782      0.7636828
     11430.5000        92.6422       -50.4908      -8.675068      0.7742627
     11431.0000        93.5977       -49.9356      -8.120358      0.7905777
     11431.5000        93.5602       -49.1716       -7.35685      0.8130338
     11432.0000        92.3005       -48.3513      -6.537037       0.837146
     11432.5000         91.193       -47.8286      -6.014832       0.852505
     11433.0000        89.8323       -47.5483       -5.73502      0.8607347
     11433.5000        90.3922        -47.514      -5.701206      0.8617292
     11434.0000        91.3252       -47.3925        -5.5802      0.8652883
     11434.5000        91.9033       -47.0927      -5.280888      0.8740916
     11435.0000        92.2141       -46.6569      -4.845577      0.8868948
     11435.5000        92.3036       -46.1028      -4.291965      0.9031775
