#------------------------------------------------------------------------------
# Created by    : vladimir.rabinovich
# Created on    : 09/19/2023 17:20:38
#------------------------------------------------------------------------------
~Version Information Section
VERS.           2.0     :   CWLS log ASCII Standard - VERSION 2.0
WRAP.           NO      :   One line per depth step
~Well Information Section
#MNEM       .UNIT                                         VALUE :DESCRIPTION
#------------------------------------------------------------------------------
STRT        .FT                                             495 :START DEPTH
STOP        .FT                                            8683 :STOP DEPTH
STEP        .FT                                             0.5 :STEP      
NULL        .                                           -999.25 :NULL      
COMP        .                                      SHELL OIL CO :COMPANY   
WELL        .                                OCS 00706 ST00BP00 :WELL      
FLD         .                                           WILDCAT :FIELD     
LOC         .                                                   :LOCATION  
CNTY        .                             GALVESTON LARGE BLOCK :LOCATION  
STAT        .                                             TEXAS :STATE     
CTRY        .                                     UNITED STATES :COUNTRY   
SRVC        .                                                   :SERVICE COMPANY
DATE        .                             9/13/2023 11:19:25 AM :LOG DATE  
API         .                                    42706000290000 :API NUMBER
UWI         .                                    42706000290000 :UNIQUE WELL ID
XCOORD      .                                  1097630.70361638 :SURFACE X 
YCOORD      .                                  10500448.3193905 :SURFACE Y 
LAT         .                                          28.92371 :LATITUDE  
LON         .                                        -94.697168 :LONGITUDE 
ELEV        .FT                                              92 :ELEVATION VALUE
ELEV_TYPE   .                                                KB :ELEVATION REFERENCE TYPE
~Curve Information Section
#MNEM       .UNIT                                      API CODE :CURVE DESCRIPTION
#------------------------------------------------------------------------------
DEPT        .FT                                                 :DEPTH     
ASN         .OHMM                                               :          
CILD        .MMHO                                               :          
ILD         .OHMM                                               :          
SP          .MV                                                 :          
SP_NORM     .MV                                                 :SP Normalized
VSH_SP      .V/V                                                :Volume of Shale from SP
~A        DEPTH            ASN           CILD            ILD             SP        SP_NORM         VSH_SP
# ...
      3193.0000         1.0211        1189.76         0.9906        -41.718      -5.132633      0.9354276
      3193.5000         1.0145       1196.676         0.9891       -41.8182      -5.232834       0.933862
      3194.0000         1.0079        1203.59         0.9876       -41.2133      -4.627934      0.9433135
      3194.5000         1.0057       1206.234         0.9861       -40.5549      -3.969536       0.953601
      3195.0000         1.0048       1208.689         0.9846       -39.8969      -3.311535      0.9638823
      3195.5000         1.0038       1211.145         0.9831       -39.2095      -2.624134      0.9746229
      3196.0000         1.0029       1214.299         0.9816       -38.4795      -1.894135      0.9860291
      3196.5000         1.0019       1220.102         0.9801       -38.1299      -1.544537      0.9914916
      3197.0000              1       1225.906         0.9788       -38.1317      -1.546333      0.9914635
      3197.5000         0.9982       1235.441         0.9782        -38.189      -1.603634      0.9905682
      3198.0000         0.9963       1246.943         0.9775       -38.3469      -1.761536       0.988101
      3198.5000         0.9945       1257.361         0.9769       -38.5048      -1.919434      0.9856339
      3199.0000         0.9922       1245.074         0.9762       -38.6627      -2.077335      0.9831666
      3199.5000         0.9892       1219.508         0.9756       -38.8206      -2.235233      0.9806995
      3200.0000         0.9861       1199.684         0.9749       -38.9786      -2.393234      0.9782307
      3200.5000         0.9831       1185.004         0.9743       -39.1365      -2.551136      0.9757635
      3201.0000         0.9814       1171.375         0.9736       -39.2944      -2.709034      0.9732963
      3201.5000         0.9829        1158.74         0.9728       -39.4523      -2.866936      0.9708291
      3202.0000         0.9961       1150.016         0.9714       -39.6102      -3.024834       0.968362
      3202.5000         1.0093       1141.611           0.97       -39.6703      -3.084934      0.9674229
      3203.0000         1.0225       1134.346         0.9686       -39.6726      -3.087234       0.967387
      3203.5000         1.0356       1135.908         0.9672       -39.6749      -3.089535       0.967351
      3204.0000         1.0462       1152.357         0.9658       -39.6738      -3.088436      0.9673682
      3204.5000         1.0567       1170.127         0.9644       -39.6633      -3.077934      0.9675323
      3205.0000         1.0501       1188.346         0.9629       -39.6529      -3.067535      0.9676948
      3205.5000         1.0361       1202.234         0.9615       -39.6425      -3.057137      0.9678572
      3206.0000          1.021        1212.67         0.9601        -39.632      -3.046635      0.9680213
      3206.5000         1.0101       1222.092         0.9587       -39.6216      -3.036236      0.9681838
      3207.0000         1.0064        1222.18         0.9573       -39.4825      -2.897133      0.9703573
      3207.5000         1.0028       1218.678         0.9559       -39.2938      -2.708435      0.9733057
      3208.0000         0.9992       1212.908         0.9552       -39.1512      -2.565834      0.9755338
      3208.5000         0.9989       1206.973         0.9566       -39.0541      -2.468735       0.977051
      3209.0000         0.9985       1201.041          0.958        -38.957      -2.371635      0.9785682
      3209.5000         0.9982       1195.105         0.9594       -38.9391      -2.353733      0.9788479
      3210.0000         0.9978        1189.25         0.9608       -39.0978      -2.512436      0.9763682
      3210.5000         0.9975       1183.563         0.9622       -39.2565      -2.671135      0.9738885
      3211.0000         0.9972       1177.873         0.9636       -39.4151      -2.829735      0.9714104
      3211.5000         0.9968       1172.373         0.9651       -39.5721      -2.986736      0.9689572
      3212.0000         0.9969       1168.287         0.9665       -39.6562      -3.070835      0.9676432
      3212.5000         0.9973       1170.531         0.9679       -39.7403      -3.154934      0.9663292
      3213.0000         0.9977       1173.352         0.9693       -39.3763      -2.790936      0.9720166
      3213.5000         0.9982       1176.172         0.9707       -38.9415      -2.356136      0.9788104
      3214.0000         0.9986        1179.18         0.9721       -38.5068      -1.921436      0.9856026
      3214.5000         0.9991       1183.236         0.9792       -38.1074      -1.522034      0.9918432
      3215.0000         0.9995       1187.293         0.9868       -37.9104      -1.325035      0.9949213
      3215.5000         0.9999       1191.352         0.9944       -37.7134      -1.128036      0.9979994
      3216.0000         1.0004       1195.408          1.002       -37.5166     -0.9312363              1
      3216.5000         1.0008       1198.074         1.0095       -37.3196     -0.7342339              1
      3217.0000         1.0012       1200.371         1.0159       -37.1227     -0.5373344              1
      3217.5000         1.0019         1202.6         1.0213       -36.9932     -0.4078331              1
      3218.0000         1.0034       1199.416         1.0267       -37.0185      -0.433136              1
      3218.5000         1.0048       1196.232         1.0321       -37.0439     -0.4585342              1
      3219.0000         1.0063       1193.051         1.0374       -37.0693     -0.4839363              1
      3219.5000         1.0078       1189.867         1.0446       -37.0946     -0.5092354              1
      3220.0000         1.0139       1179.012         1.0532         -37.12     -0.5346336              1
      3220.5000         1.0199        1163.42         1.0617       -37.1697     -0.5843353              1
      3221.0000          1.027       1147.947         1.0707       -37.3272     -0.7418365              1
      3221.5000         1.0348       1133.037         1.0798       -37.4847      -0.899334              1
      3222.0000         1.0426       1119.133         1.0889       -37.6422      -1.056835       0.999112
      3222.5000          1.051       1110.623         1.0989       -37.7997      -1.214336       0.996651
      3223.0000         1.0598       1102.107         1.1104       -37.9571      -1.371735      0.9941916
      3223.5000         1.0686       1093.596         1.1218       -38.1146      -1.529236      0.9917307
      3224.0000         1.0786       1086.783         1.1333       -38.2721      -1.686733      0.9892698
      3224.5000         1.0892        1080.08         1.1448       -38.4296      -1.844234      0.9868088
      3225.0000         1.1008       1071.654         1.1562       -38.6661      -2.080734      0.9831135
      3225.5000         1.1131        1061.73         1.1675        -38.903      -2.317635       0.979412
      3226.0000         1.1304       1051.807         1.1787       -39.1398      -2.554436      0.9757119
      3226.5000         1.1479       1019.331           1.19       -39.3765      -2.791134      0.9720135
      3227.0000         1.1931       971.2354         1.2013       -39.6133      -3.027935      0.9683135
      3227.5000         1.2363       926.6748         1.2083       -40.1442      -3.558834      0.9600182
      3228.0000         1.2914       906.4814         1.2086       -40.8891      -4.303734      0.9483792
      3228.5000         1.4109       887.4922          1.209       -42.0586      -5.473236      0.9301057
      3229.0000         1.5578       872.9824         1.2093       -43.2678      -6.682434       0.911212
      3229.5000         1.7047       858.7539         1.2096       -44.5906      -8.005234      0.8905432
      3230.0000         1.8516       843.5859         1.2097       -46.2834      -9.698036      0.8640932
      3230.5000         1.8383       854.3945         1.2034       -53.1075      -16.52213      0.7574667
