#------------------------------------------------------------------------------
# Created by    : vladimir.rabinovich
# Created on    : 09/19/2023 17:21:32
#------------------------------------------------------------------------------
~Version Information Section
VERS.           2.0     :   CWLS log ASCII Standard - VERSION 2.0
WRAP.           NO      :   One line per depth step
~Well Information Section
#MNEM       .UNIT                                         VALUE :DESCRIPTION
#------------------------------------------------------------------------------
STRT        .FT                                            4185 :START DEPTH
STOP        .FT                                            8075 :STOP DEPTH
STEP        .FT                                             0.5 :STEP      
NULL        .                                           -999.25 :NULL      
COMP        .                                         HESS CORP :COMPANY   
WELL        .                               OCS G07236 ST00BP00 :WELL      
FLD         .                              GALVESTON BLOCK 0210 :FIELD     
LOC         .                                                   :LOCATION  
CNTY        .                             GALVESTON LARGE BLOCK :LOCATION  
STAT        .                                             TEXAS :STATE     
CTRY        .                                     UNITED STATES :COUNTRY   
SRVC        .                                                   :SERVICE COMPANY
DATE        .                             9/13/2023 11:19:34 AM :LOG DATE  
API         .                                    42706402930000 :API NUMBER
UWI         .                                    42706402930000 :UNIQUE WELL ID
XCOORD      .                                   1127714.7472722 :SURFACE X 
YCOORD      .                                  10563055.4663979 :SURFACE Y 
LAT         .                                         29.097041 :LATITUDE  
LON         .                                        -94.605794 :LONGITUDE 
ELEV        .FT                                              89 :ELEVATION VALUE
ELEV_TYPE   .                                                KB :ELEVATION REFERENCE TYPE
~Curve Information Section
#MNEM       .UNIT                                      API CODE :CURVE DESCRIPTION
#------------------------------------------------------------------------------
DEPT        .FT                                                 :DEPTH     
CALI        .IN                                                 :          
DRHO        .G/CC                                               :          
DT          .US/F                                               :          
ILD         .OHMM                                               :          
ILM         .OHMM                                               :          
NPHI        .%                                                  :          
RFOC        .OHMM                                               :          
RHOB        .G/CC                                               :          
SP          .MV                                                 :          
SP_NORM     .MV                                                 :SP Normalized
VSH_SP      .V/V                                                :Volume of Shale from SP
~A        DEPTH           CALI           DRHO             DT            ILD            ILM           NPHI           RFOC           RHOB             SP        SP_NORM         VSH_SP
# ...
      6525.0000        14.3742         0.0059       122.9487         0.3628         0.4462        39.1898         0.8235         2.2054       -83.0859      -28.21777      0.6237631
      6525.5000        14.4122         0.0055       123.2242         0.3518         0.4346        39.3251         0.8514         2.1739       -87.3231      -32.46016      0.5671979
      6526.0000        14.4606         0.0049       123.3334         0.3424         0.4216        37.7961         0.8982          2.148       -91.4011      -36.54335      0.5127553
      6526.5000        14.5237         0.0041       123.2828         0.3324         0.4057        36.5339         0.9063         2.1447       -96.0593      -41.20675      0.4505766
      6527.0000        14.5747         0.0035       122.6669         0.3209          0.394        35.9171         0.8962         2.1507       -99.7393      -44.89195      0.4014407
      6527.5000        14.5757         0.0033       120.9507         0.3115          0.388        35.1783         0.8985         2.1572      -100.4929      -45.65073      0.3913235
      6528.0000        14.5754         0.0032       117.5261         0.3064         0.3914        31.9928         0.9673         2.1648      -102.3612      -47.52423      0.3663436
      6528.5000        14.5639         0.0029       102.7806         0.3074         0.3989        26.5394         1.0879         2.1891      -103.5968      -48.76503      0.3497996
      6529.0000        14.5556         0.0025        89.0305         0.3146         0.4094        17.7419         1.2582         2.3255      -102.3098      -47.48322      0.3668904
      6529.5000        14.5778         0.0021        81.1963         0.3278         0.4247        13.7308         1.4613         2.4255       -92.9059      -38.08451      0.4922065
      6530.0000        14.6277         0.0013        70.1682          0.344         0.4381        13.7716         1.7877         2.4885       -84.6678      -29.85161      0.6019785
      6530.5000        14.6899         0.0006        61.4008          0.363         0.4488        12.8065         1.9797         2.4488        -80.785      -25.97401      0.6536799
      6531.0000        14.7642          0.001        61.5836         0.3799         0.4538        18.5569         2.1398         2.3531       -80.9347       -26.1289      0.6516147
      6531.5000        14.8407          0.002        63.4747          0.394          0.457         22.881         2.0923         2.2906       -82.0819      -27.28129      0.6362494
      6532.0000        14.9004         0.0027        69.5564         0.4021         0.4582        25.8146         1.8118         2.2206       -84.3802      -29.58479      0.6055362
      6532.5000        14.9223         0.0033        78.7439         0.4061         0.4553        29.2988         1.2839         2.1967       -88.6687      -33.87848      0.5482869
      6533.0000        14.9464         0.0038         91.006         0.4061         0.4491        32.6118         1.1593         2.1897       -93.8766      -39.09158       0.478779
      6533.5000        14.9735          0.004        96.1493         0.4046         0.4425        36.2391         1.1365         2.1847       -99.1769      -44.39707       0.408039
      6534.0000        15.0052          0.004       100.1934         0.4026         0.4384        38.6205         1.1182         2.1816      -102.8389      -48.06426      0.3591432
      6534.5000        15.0501         0.0039       103.8486         0.4025         0.4388        39.5094         1.0713         2.1826      -103.5476      -48.77816      0.3496246
      6535.0000        15.0889          0.004       106.7418          0.405          0.446        40.2156         1.0129         2.1937      -100.6099      -45.84565      0.3887246
      6535.5000        15.1159         0.0043       109.4974         0.4097         0.4555        40.2762         0.9637          2.207       -96.5986      -41.83955      0.4421394
      6536.0000        15.1525         0.0047       112.0562         0.4229         0.4684        39.3282         0.9327         2.2204        -93.422      -38.66814      0.4844249
      6536.5000        15.1818          0.005       112.6971         0.4511         0.4856        34.4721         0.9079         2.2383       -90.5536      -35.80493      0.5226009
      6537.0000        15.1595         0.0051       111.4574         0.4913         0.5233        32.1421         0.8853         2.2607       -86.9225      -32.17903      0.5709463
      6537.5000        14.9474         0.0053       108.4631         0.5391         0.6272        29.7343         0.8751         2.2897       -84.7821      -30.04382      0.5994157
      6538.0000        14.8494         0.0059       100.4578         0.6086         0.7129        27.4105         0.9633         2.3218        -84.707      -29.97392      0.6003478
      6538.5000        14.7836         0.0082        90.7933         0.6738          0.784        25.7166         1.1642         2.3537       -85.2828      -30.55491      0.5926012
      6539.0000        14.7149         0.0103        83.7524         0.7072         0.8081        24.9013         1.3213         2.3902       -83.8782       -29.1555        0.61126
      6539.5000        14.6713         0.0074        80.5067         0.7131         0.7871        25.3262         1.3246         2.4062       -82.1345        -27.417        0.63444
      6540.0000        14.6424         0.0064         80.429         0.7064         0.7571        26.4196         1.2545         2.3966       -83.2555      -28.54319      0.6194241
      6540.5000        14.6319         0.0079        85.8367         0.6796         0.7064        28.1758         1.1974         2.3788       -89.2183      -34.51119      0.5398508
      6541.0000        14.6334         0.0106        91.2988         0.6222         0.6453        30.3969         1.2052         2.3798       -94.5237      -39.82178       0.469043
      6541.5000        14.6427         0.0066        93.4078         0.5801         0.5958         33.993         1.2494         2.3899       -97.4807      -42.78397       0.429547
      6542.0000        14.6585         0.0034        94.7986         0.5655         0.5665        39.1447         1.2864         2.3606       -97.5591      -42.86757      0.4284324
      6542.5000        14.6769         0.0029        98.0314         0.5651         0.5596        40.5228         1.0899         2.3141       -94.4775      -39.79116      0.4694511
      6543.0000        14.6871         0.0036        104.616          0.582         0.5981        38.3452          1.004         2.2887       -88.1191      -33.43796      0.5541605
      6543.5000        14.6916         0.0044       109.9045         0.6367         0.6531         35.337         0.9466         2.2896       -77.0667      -22.39076      0.7014565
      6544.0000        14.6336         0.0051       111.5364         0.6953         0.6913        32.9307         1.0042         2.2979       -69.9071      -15.23634      0.7968488
      6544.5000         14.423         0.0058        108.572         0.7241          0.714        33.1718         1.0889         2.3093       -66.4866      -11.82104      0.8423861
      6545.0000        14.1523         0.0057       104.4786         0.7346         0.7276        34.2886         1.1283         2.3147       -65.5737      -10.91334      0.8544888
      6545.5000        14.0161         0.0055       104.0145         0.7307         0.7204        34.4583          1.145         2.3015       -65.1095      -10.45433       0.860609
      6546.0000         13.987         0.0051       105.2162         0.6529         0.6655         34.595         1.1071          2.286       -64.9203      -10.27033      0.8630623
      6546.5000         14.044          0.004       107.3329         0.5744         0.5205        35.8285          1.062         2.2693       -67.0233      -12.37852      0.8349531
      6547.0000        14.1001         0.0029        111.014         0.4795         0.4018        36.6976         1.0389         2.2483       -77.3645      -22.72491      0.6970012
