#------------------------------------------------------------------------------
# Created by    : vladimir.rabinovich
# Created on    : 09/19/2023 17:22:45
#------------------------------------------------------------------------------
~Version Information Section
VERS.           2.0     :   CWLS log ASCII Standard - VERSION 2.0
WRAP.           NO      :   One line per depth step
~Well Information Section
#MNEM       .UNIT                                         VALUE :DESCRIPTION
#------------------------------------------------------------------------------
STRT        .FT                                            3370 :START DEPTH
STOP        .FT                                           10136 :STOP DEPTH
STEP        .FT                                             0.5 :STEP      
NULL        .                                           -999.25 :NULL      
COMP        .                                  W&T OFFSHORE INC :COMPANY   
WELL        .                               OCS G04565 ST00BP00 :WELL      
FLD         .                              GALVESTON BLOCK 0303 :FIELD     
LOC         .                                                   :LOCATION  
CNTY        .                             GALVESTON LARGE BLOCK :LOCATION  
STAT        .                                             TEXAS :STATE     
CTRY        .                                     UNITED STATES :COUNTRY   
SRVC        .                                                   :SERVICE COMPANY
DATE        .                             9/13/2023 11:19:27 AM :LOG DATE  
API         .                                    42706401000000 :API NUMBER
UWI         .                                    42706401000000 :UNIQUE WELL ID
XCOORD      .                                  988505.563749319 :SURFACE X 
YCOORD      .                                  10486369.8338556 :SURFACE Y 
LAT         .                                        28.8802688 :LATITUDE  
LON         .                                       -95.0374578 :LONGITUDE 
ELEV        .FT                                              93 :ELEVATION VALUE
ELEV_TYPE   .                                                KB :ELEVATION REFERENCE TYPE
~Curve Information Section
#MNEM       .UNIT                                      API CODE :CURVE DESCRIPTION
#------------------------------------------------------------------------------
DEPT        .FT                                                 :DEPTH     
DPHI        .DEC                                                :          
DRHO        .G/C3                                               :          
DT          .US/F                                               :          
GR          .GAPI                                               :          
GR_1        .GAPI                                               :          
GR_NORM     .GAPI                                               :GammaRay Normalized
ILD         .OHMM                                               :          
NPHI        .DEC                                                :          
RHOB        .G/C3                                               :          
SP          .MV                                                 :          
SP_NORM     .MV                                                 :SP Normalized
VSH_GR      .V/V                                                :Volume of Shale from GR
VSH_SP      .V/V                                                :Volume of Shale from SP
~A        DEPTH           DPHI           DRHO             DT             GR           GR_1        GR_NORM            ILD           NPHI           RHOB             SP        SP_NORM         VSH_GR         VSH_SP
# ...
      4358.0000         0.3042        -0.0301       104.0183        41.8783        -999.25       47.89825         0.3123         0.3236         2.1565      -106.1731      -58.93198      0.3169841      0.1581146
      4358.5000            0.3         -0.028       103.9381        41.7809        -999.25       47.74487          0.285         0.3244         2.1633      -107.2087      -59.96877      0.3137207      0.1433033
      4359.0000         0.2968        -0.0289       103.8846        41.4783        -999.25       47.26837         0.2765         0.3241         2.1624      -107.7948      -60.55605      0.3035823      0.1349135
      4359.5000         0.3016        -0.0328       106.3805        41.2397        -999.25       46.89265         0.2765         0.3207         2.1564      -106.9159      -59.67834      0.2955882      0.1474523
      4360.0000         0.3094        -0.0387       109.1508        41.1363        -999.25       46.72982         0.2794         0.3288         2.1387      -104.8705      -57.63413      0.2921238      0.1766553
      4360.5000         0.3166        -0.0451       109.9978        42.5908        -999.25       49.02024         0.2871         0.3464         2.1313      -102.0621      -54.82692      0.3408562      0.2167583
      4361.0000         0.3137        -0.0485       111.0781        47.6976        -999.25       57.06195         0.3044         0.3651         2.1392       -98.2672       -51.0332      0.5119563      0.2709543
      4361.5000         0.3036        -0.0465       114.3435        49.2789        -999.25       59.55203         0.3287         0.3743         2.1511       -94.4463      -47.21349      0.5649369      0.3255216
      4362.0000          0.311        -0.0429       118.4014        49.1117        -999.25       59.28874         0.3628         0.3935         2.1461       -92.3585      -45.12688      0.5593349      0.3553303
      4362.5000         0.3257        -0.0428       121.4797        48.2772        -999.25       57.97465         0.4061         0.4262         2.1231       -90.3483      -43.11786      0.5313755      0.3840305
      4363.0000         0.3324        -0.0507       124.5483         46.817        -999.25       55.67527          0.463         0.4515         2.1043       -88.7427      -41.51345      0.4824525      0.4069507
      4363.5000         0.3302         -0.054        123.874        46.1715        -999.25       54.65879         0.5098         0.4548         2.1171       -86.7566      -39.52854      0.4608253      0.4353065
      4364.0000         0.3209         -0.048       119.0092        47.0042        -999.25       55.97005          0.536         0.4278         2.1367       -84.0978      -36.87093      0.4887244      0.4732724
      4364.5000         0.3082        -0.0383       118.9575         50.437        -999.25        61.3757         0.5684         0.4084         2.1513       -78.7084      -31.48272      0.6037382      0.5502469
      4365.0000         0.2981        -0.0332       123.8224        55.1275        -999.25       68.76186         0.6115         0.4091          2.164       -71.7539       -24.5294      0.7608905      0.6495799
      4365.5000         0.2905        -0.0298       128.2764         62.178        -999.25       79.86433         0.6622         0.4436         2.1724       -65.1616      -17.93829      0.9971135      0.7437387
      4366.0000         0.2925        -0.0296       131.7976        66.8142        -999.25       87.16499         0.7084         0.4847          2.147       -58.5325      -11.31038              1      0.8384231
      4366.5000         0.3155        -0.0376       134.0984        71.4259        -999.25       94.42707         0.7587         0.5033         2.1204       -53.4183      -6.197369              1      0.9114662
      4367.0000         0.3253        -0.0396            134        73.7437        -999.25       98.07693         0.8106         0.5093         2.1101       -49.7045      -2.484753              1      0.9645035
      4367.5000          0.327         -0.027       133.1885        71.9814        -999.25       95.30182           0.85         0.5049         2.1233       -47.7166     -0.4980431              1      0.9928851
      4368.0000         0.3116        -0.0164       131.9575        70.6726        -999.25       93.24084         0.8671         0.4934         2.1407       -46.8569      0.3604698              1              1
      4368.5000          0.301        -0.0152       130.3618        71.1302        -999.25       93.96143         0.8686         0.4831         2.1524       -46.4403      0.7758827              1              1
      4369.0000         0.2994        -0.0157       131.5552        74.3156        -999.25       98.97749         0.8646         0.4803         2.1469       -46.2482      0.9667931              1              1
      4369.5000         0.3135        -0.0146       131.2695        76.5388        -999.25       102.4784         0.8467         0.4897         2.1257       -46.1014       1.112408              1              1
      4370.0000         0.3244        -0.0162         130.47        77.9523        -999.25       104.7042         0.8284         0.4921         2.1146       -45.9827       1.229916              1              1
      4370.5000         0.3304        -0.0204       127.4945        78.7825        -999.25       106.0116         0.8165         0.4846         2.1142       -45.9348        1.27663              1              1
      4371.0000         0.3287        -0.0268       126.3188        78.4714        -999.25       105.5217         0.8081         0.4734         2.1105       -46.2218      0.9884415              1              1
      4371.5000         0.3309        -0.0348       124.7477        76.8135        -999.25       102.9109         0.7989         0.4623         2.0846       -46.9895      0.2195549              1              1
      4372.0000         0.3501        -0.0453        124.106          73.17        -999.25       97.17352         0.7897         0.4532         2.0534       -48.3392      -1.131332              1      0.9838381
      4372.5000         0.3678        -0.0457        124.636        68.0952        -999.25        89.1822         0.7995          0.446         2.0328       -49.9392      -2.732521              1       0.960964
      4373.0000         0.3757        -0.0376       124.6978         60.892        -999.25       77.83926         0.8229         0.4497         2.0404       -51.5641      -4.358608      0.9540269      0.9377342
      4373.5000         0.3519        -0.0317       124.3306         57.171        -999.25       71.97977         0.8869          0.454         2.0894       -52.7355      -5.531197      0.8293569      0.9209829
      4374.0000         0.3308        -0.0305       121.9375        56.3516        -999.25       70.68947         0.9768         0.4476         2.1369       -53.6367      -6.433582      0.8019036      0.9080917
      4374.5000         0.2965        -0.0329        111.809        55.6633        -999.25       69.60559           1.08         0.4185         2.1958       -54.9795      -7.777573      0.7788423      0.8888918
      4375.0000         0.2572        -0.0395       104.8696        53.0927        -999.25       65.55765         1.1856         0.3685         2.2311       -57.4996      -10.29886      0.6927159      0.8528734
      4375.5000         0.2542        -0.0508        94.5219        49.0723        -999.25       59.22669         1.2841         0.3013         2.2208       -60.5482      -13.34864      0.5580148      0.8093051
      4376.0000         0.2714        -0.0599        96.6089        46.7184        -999.25          55.52         1.3244         0.2721         2.1917       -63.9201      -16.72174      0.4791489      0.7611181
      4376.5000         0.2858        -0.0529       101.2449        44.9435        -999.25       52.72505          1.317         0.2879         2.1629       -67.9257      -20.72852      0.4196819      0.7038783
