#------------------------------------------------------------------------------
# Created by    : vladimir.rabinovich
# Created on    : 09/19/2023 17:22:25
#------------------------------------------------------------------------------
~Version Information Section
VERS.           2.0     :   CWLS log ASCII Standard - VERSION 2.0
WRAP.           NO      :   One line per depth step
~Well Information Section
#MNEM       .UNIT                                         VALUE :DESCRIPTION
#------------------------------------------------------------------------------
STRT        .FT                                            3984 :START DEPTH
STOP        .FT                                           14348 :STOP DEPTH
STEP        .FT                                             0.5 :STEP      
NULL        .                                           -999.25 :NULL      
COMP        .                                  CNG PRODUCING CO :COMPANY   
WELL        .                               OCS G07292 ST00BP00 :WELL      
FLD         .                                           WILDCAT :FIELD     
LOC         .                                                   :LOCATION  
CNTY        .                           HIGH ISLAND LARGE BLOCK :LOCATION  
STAT        .                                             TEXAS :STATE     
CTRY        .                                     UNITED STATES :COUNTRY   
SRVC        .                                                   :SERVICE COMPANY
DATE        .                             9/13/2023 11:19:59 AM :LOG DATE  
API         .                                    42708402890000 :API NUMBER
UWI         .                                    42708402890000 :UNIQUE WELL ID
XCOORD      .                                  1158246.84135722 :SURFACE X 
YCOORD      .                                  10525039.0147689 :SURFACE Y 
LAT         .                                         28.993597 :LATITUDE  
LON         .                                        -94.508673 :LONGITUDE 
ELEV        .FT                                             101 :ELEVATION VALUE
ELEV_TYPE   .                                                KB :ELEVATION REFERENCE TYPE
~Curve Information Section
#MNEM       .UNIT                                      API CODE :CURVE DESCRIPTION
#------------------------------------------------------------------------------
DEPT        .FT                                                 :DEPTH     
CALX        .IN                                                 :          
DTL         .US/F                                               :          
GR          .GAPI                                               :          
GR_NORM     .GAPI                                               :GammaRay Normalized
ILD         .OHMM                                               :          
ILM         .OHMM                                               :          
LL3         .OHMM                                               :          
SP          .MV                                                 :          
SP_NORM     .MV                                                 :SP Normalized
VSH_GR      .V/V                                                :Volume of Shale from GR
VSH_SP      .V/V                                                :Volume of Shale from SP
~A        DEPTH           CALX            DTL             GR        GR_NORM            ILD            ILM            LL3             SP        SP_NORM         VSH_GR         VSH_SP
# ...
      8079.0000        16.6541        98.6741         41.478       71.79707         1.7659         1.7631         1.5137       -35.8458       1.558815      0.8254697              1
      8079.5000        16.3182        98.3256        40.4481       69.83673         1.7646         1.8095         1.5438       -40.5979      -3.191959      0.7837602      0.9544006
      8080.0000        16.1695        95.3964        40.8178       70.54228         1.7568         1.8554         1.7206       -39.8118      -2.404533       0.798772      0.9656495
      8080.5000        16.0977        92.6766        42.1508       73.08269         1.7712         1.8994         1.7738       -38.3554     -0.9468079      0.8528231      0.9864742
      8081.0000        16.0934        91.5597        42.5665       73.87585          1.814         1.9286          1.815       -38.6426      -1.232681      0.8696989      0.9823903
      8081.5000        16.1006          91.99        39.4774       67.99323         1.8418         1.9423         1.8657        -40.225      -2.813751      0.7445367      0.9598036
      8082.0000        16.1027        93.3226        36.9387       63.15895         1.8514         1.9458         1.8406       -36.7579      0.6546707      0.6416798              1
      8082.5000        16.1013        93.4711         37.449       64.13231         1.8663         1.9369         1.7733       -37.2581      0.1557999      0.6623896              1
      8083.0000         16.101        92.7223        39.6764       68.37634         1.8548         1.9259         1.7335       -35.7576       1.657627       0.752688              1
      8083.5000        16.1025        92.0122         41.233       71.34267          1.804         1.9083         1.7461       -34.9958       2.420753      0.8158014              1
      8084.0000        16.1092        91.6422        41.3896       71.64228         1.7618         1.8864         1.8037       -35.1705       2.247375      0.8221762              1
      8084.5000         16.104        91.9836        41.7564       72.34231         1.7332         1.8646         1.8553       -37.0048      0.4144058      0.8370704              1
      8085.0000        16.0943        93.4723        43.0604       74.82747         1.7209         1.8438         1.8463       -35.7802       1.640331      0.8899462              1
      8085.5000        16.1024        95.0714        44.1287       76.86369         1.7116         1.8467          1.756       -35.4565       1.965359      0.9332699              1
      8086.0000        16.1557        95.6215        44.3903       77.36334         1.6849         1.8651         1.6435       -37.9951     -0.5719147      0.9439009      0.9918298
      8086.5000         16.196        94.9319        43.0201       74.75479         1.6733         1.8955         1.6104       -37.3097      0.1148109      0.8883998              1
      8087.0000         16.179        94.1399        41.3337       71.54395         1.6729         1.9165         1.7475       -35.4577        1.96814      0.8200841              1
      8087.5000        16.1141        93.7119        41.4153       71.70074         1.6774         1.9526          1.832       -34.7169       2.710266      0.8234201              1
      8088.0000        16.0596        94.1691        41.4018       71.67639         1.7016         2.0118            1.8       -36.0499        1.37859       0.822902              1
      8088.5000        16.0499        94.6796        40.3542       69.68233         1.7552         2.0607         1.8152       -38.7132      -1.283382       0.780475       0.981666
      8089.0000        16.0674        93.8099        38.8083       66.73911         1.8402         2.1189         1.8889       -38.5217      -1.090557      0.7178533      0.9844206
      8089.5000        16.0725        88.5836        38.4279       66.01588         1.9512         2.1845         1.9985       -35.8795       1.552967      0.7024657              1
      8090.0000        15.9979        86.7053        39.0065       67.11935         2.0582         2.2812         2.0371       -37.5541     -0.1203041      0.7259436      0.9982814
      8090.5000        15.9769        86.1044        38.9152       66.94679         2.1324         2.3817         2.1516        -39.134      -1.698875      0.7222722      0.9757304
      8091.0000        16.0209        85.4971        38.7619       66.65616         2.1885         2.4705         2.2174       -38.4952       -1.05875      0.7160885       0.984875
      8091.5000        15.7883        84.9786        39.1863       67.46589         2.2794         2.5925         2.2429        -39.236      -1.798225      0.7333168      0.9743111
      8092.0000        15.4738         84.186        39.9636       68.94783         2.4496         2.7125          2.334       -39.5497        -2.1106      0.7648475      0.9698486
      8092.5000        15.3491        83.4716         40.352         69.689         2.5177         2.8166         2.6773       -42.6339       -5.19347      0.7806171      0.9258076
      8093.0000        15.3997        83.1984        37.5775       64.40559         2.5243         2.9053         2.5541       -43.3646      -5.922844      0.6682041      0.9153879
      8093.5000        15.4026        83.2383        34.6068       58.74847         2.4843         2.9475         2.3726       -40.8575      -3.414417      0.5478399      0.9512226
      8094.0000        15.3018        82.8623        33.3028       56.26602         2.4347         2.8565         2.6342       -46.5243      -9.079891      0.4950217      0.8702872
      8094.5000        15.2344        81.1541        33.0735       55.83062         2.3499         2.6708         3.1034        -45.209      -7.763264      0.4857579      0.8890963
      8095.0000        15.2484        80.1622         34.036       57.66531         2.2796         2.4948         2.7886       -48.0663      -10.61924      0.5247937      0.8482966
      8095.5000        15.3566         84.035        35.3299       60.13124          2.213         2.2959         2.5618       -44.0046      -6.556213      0.5772604      0.9063398
      8096.0000        15.6351        92.5027        37.3431       63.96726         2.1646         2.1242          2.388         -51.09      -13.64029      0.6588779      0.8051388
      8096.5000        16.0856        97.3153        38.6773       66.50996         2.0696         2.0151         1.9648       -44.4984      -7.047359      0.7129778      0.8993235
      8097.0000        16.6591        99.4069        41.1857       71.28922         1.9424         1.9443         1.8253       -43.1781      -5.725731      0.8146641      0.9182038
      8097.5000        16.0977        95.0968        42.9873       74.72221         1.9044         1.9293         1.8725       -42.5079      -5.054207      0.8877065       0.927797
      8098.0000        15.8538        91.6041        43.1398       75.01404         1.8692         1.9586         1.8568       -45.4904      -8.035378      0.8939157      0.8852089
      8098.5000        16.2867        89.9645        40.8884       70.72702         1.8325         2.0178         1.8032        -44.574      -7.117653      0.8027025      0.8983192
      8099.0000        16.2506        89.3641        38.4166       66.02017         1.8064          2.082          1.798       -43.6115      -6.153824      0.7025568      0.9120882
      8099.5000        16.0558        88.1978        38.5936       66.35867         1.7911         2.0994         1.8775       -48.6912       -11.2322       0.709759        0.83954
      8100.0000        16.1559        84.5579        38.8449       66.83869         1.7877         2.0965         1.9593       -51.4377      -13.97737      0.7199722      0.8003232
      8100.5000        16.1646        83.2228        38.2956       65.79378         1.7472         2.0861         2.0592       -47.3256      -9.863945        0.69774      0.8590865
      8101.0000        16.2287        92.8074         36.494       62.36351         1.6983         2.0685         2.0017       -48.7215      -11.25852      0.6247556       0.839164
