#------------------------------------------------------------------------------
# Created by    : vladimir.rabinovich
# Created on    : 09/19/2023 17:22:53
#------------------------------------------------------------------------------
~Version Information Section
VERS.           2.0     :   CWLS log ASCII Standard - VERSION 2.0
WRAP.           NO      :   One line per depth step
~Well Information Section
#MNEM       .UNIT                                         VALUE :DESCRIPTION
#------------------------------------------------------------------------------
STRT        .FT                                             394 :START DEPTH
STOP        .FT                                            7700 :STOP DEPTH
STEP        .FT                                             0.5 :STEP      
NULL        .                                           -999.25 :NULL      
COMP        .                                   MARATHON OIL CO :COMPANY   
WELL        .                                     ST TR 00248-L :WELL      
FLD         .                                           WILDCAT :FIELD     
LOC         .                                                   :LOCATION  
CNTY        .                             GALVESTON LARGE BLOCK :LOCATION  
STAT        .                                             TEXAS :STATE     
CTRY        .                                     UNITED STATES :COUNTRY   
SRVC        .                                                   :SERVICE COMPANY
DATE        .                             9/13/2023 11:19:42 AM :LOG DATE  
API         .                                    42706000210000 :API NUMBER
UWI         .                                    42706000210000 :UNIQUE WELL ID
XCOORD      .                                  969160.596945075 :SURFACE X 
YCOORD      .                                  10521676.5956168 :SURFACE Y 
LAT         .                                        28.9764138 :LATITUDE  
LON         .                                       -95.0998408 :LONGITUDE 
ELEV        .FT                                              10 :ELEVATION VALUE
ELEV_TYPE   .                                                KB :ELEVATION REFERENCE TYPE
~Curve Information Section
#MNEM       .UNIT                                      API CODE :CURVE DESCRIPTION
#------------------------------------------------------------------------------
DEPT        .FT                                                 :DEPTH     
LAT         .OHMM                                               :          
LN          .OHMM                                               :          
SN          .OHMM                                               :          
SP          .MV                                                 :          
SP_NORM     .MV                                                 :SP Normalized
VSH_SP      .V/V                                                :Volume of Shale from SP
~A        DEPTH            LAT             LN             SN             SP        SP_NORM         VSH_SP
       394.0000        -999.25         0.0736          1.156       -45.1245       8.312309              1
       394.5000        -999.25         0.0901         1.8894       -47.4088       7.650005              1
       395.0000        -999.25         0.1163         2.5348       -50.3412       6.339596              1
       395.5000        -999.25         0.1424         3.1709       -54.7145       3.588295              1
       396.0000        -999.25         0.2318         3.7379       -59.1595      0.7652893              1
       396.5000        -999.25         0.3368          4.218       -63.6658      -2.119015      0.9513472
       397.0000        -999.25         0.7621         4.4696        -68.408      -5.239216      0.8156863
       397.5000        -999.25         1.6182         4.8059       -72.4667      -7.675919      0.7097427
       398.0000        -999.25         2.2523         5.2426       -75.5325      -9.119728      0.6469684
       398.5000        -999.25         2.6072         5.4913       -78.5983      -10.56353      0.5841944
       399.0000        -999.25         2.9492         5.5398       -81.6641      -12.00734        0.52142
       399.5000        -999.25         3.5181         5.2436       -83.7213      -12.44254      0.5024981
       400.0000        -999.25         4.2856         5.1136       -85.1034      -12.20265      0.5129282
       400.5000        -999.25         5.0289         4.9439       -86.4854      -11.96265      0.5233632
       401.0000        -999.25          5.297         4.8695       -87.8674      -11.72266      0.5337976
       401.5000        -999.25         5.5444         4.7951       -88.5385      -10.77176      0.5751409
       402.0000        -999.25         5.7045         4.7207       -88.1111      -8.722366      0.6642449
       402.5000        -999.25         5.8287         4.6518       -87.6836      -6.672874      0.7533533
       403.0000        -999.25         5.8512          4.587       -87.2562      -4.623474      0.8424577
       403.5000        -999.25         5.8574         4.5221       -86.8287      -2.573975      0.9315663
       404.0000        -999.25         5.8636         4.4336         -86.45      -1.013901      0.9993956
       404.5000        -999.25         5.8698         4.3565       -86.5464     -0.8872833              1
       405.0000        -999.25          5.876         4.2927       -86.6428     -0.7606506              1
       405.5000        -999.25         5.8821         4.2298       -86.7393     -0.6341324              1
       406.0000        -999.25         5.8862         4.1696       -86.8357     -0.5075073              1
       406.5000        -999.25         5.8878         4.1426       -86.9321     -0.3808823              1
       407.0000        -999.25         5.8856         4.1218       -87.0286     -0.2543564              1
       407.5000        -999.25         5.8791         4.1061        -87.125     -0.1277313              1
       408.0000        -999.25         5.8739         4.1077       -87.2247    -0.00440979              1
       408.5000        -999.25         5.8694         4.1097       -87.5563     -0.1129837              1
       409.0000        -999.25         5.8644          4.126       -87.8878     -0.2214584              1
       409.5000        -999.25         5.8579         4.1431       -88.2194     -0.3541718              1
       410.0000        -999.25          5.862         4.1839       -88.5508      -0.526268              1
       410.5000        -999.25         5.8783         4.2246       -88.8823     -0.6984711              1
       411.0000        -999.25          5.901         4.2653       -89.2139     -0.8707581              1
       411.5000        -999.25          5.931         4.3234       -89.5454      -1.042961      0.9981321
       412.0000        -999.25         5.9609         4.3945        -89.877      -1.215256      0.9906411
       412.5000        -999.25         5.9985         4.5064       -90.2085      -1.387459      0.9831539
       413.0000        -999.25         6.0371         4.6183         -90.54      -1.559654      0.9756672
       413.5000        -999.25          6.083         4.7423       -90.8716      -1.731941      0.9681765
       414.0000        -999.25         6.1359         4.9209       -91.2031      -1.904144      0.9606894
       414.5000        -999.25         6.1888         5.0548       -91.5853      -2.127037      0.9509984
       415.0000        -999.25         6.2548         5.2045       -92.1411      -2.523537      0.9337593
       415.5000        -999.25         6.3215         5.3632       -92.6969      -2.920036      0.9165202
       416.0000        -999.25         6.3882         5.5055       -93.2527      -3.316536       0.899281
       416.5000        -999.25         6.4922         5.5708       -93.8083      -3.712822      0.8820512
       417.0000        -999.25         6.5684         5.5793       -94.3641      -4.120193      0.8643394
       417.5000        -999.25         6.6678         5.5736       -94.9199      -4.675995      0.8401741
       418.0000        -999.25          6.806         5.5475       -95.4757      -5.231796      0.8160089
       418.5000        -999.25         6.9708         5.5161       -96.0221      -5.778198      0.7922522
       419.0000        -999.25         7.0829         5.4828       -96.5364      -6.292496      0.7698915
       419.5000        -999.25         7.1995         5.4482       -97.0507      -6.806793      0.7475308
       420.0000         6.8525         7.3218         5.4318       -97.5649      -7.320999       0.725174
       420.5000         6.9005          7.444           5.43       -98.0792      -7.835297      0.7028132
       421.0000         6.9444         7.5208         5.4281       -98.5936      -8.349693      0.6804481
       421.5000         6.8927         7.5562         5.4262       -99.1079      -8.863998       0.658087
       422.0000         6.8223         7.5446         5.4418       -99.6222      -9.378296      0.6357263
       422.5000          6.717         7.5289          5.489      -100.1365      -9.892593      0.6133655
       423.0000         6.7816         7.4687         5.5362      -100.6508       -10.4069      0.5910044
       423.5000         6.8911         7.4254         5.5962      -101.1121      -10.86819      0.5709481
       424.0000         6.9899         7.3912          5.674      -101.5168       -11.2729      0.5533524
       424.5000         7.0939         7.3656          5.762      -101.9216       -11.6777      0.5357524
       425.0000         7.1484         7.4013         5.8337      -102.3264       -12.0825      0.5181523
       425.5000         7.0392         7.5157         5.8487      -102.7312       -12.4873      0.5005523
       426.0000         6.8803         7.6448          5.853       -103.136       -12.8921      0.4829523
       426.5000         6.7052         7.8921         5.7067      -103.5408       -13.2969      0.4653523
       427.0000         6.6232          8.002         5.5603      -103.9546      -13.71069      0.4473612
       427.5000         6.5412          8.058          5.498      -104.4441       -14.2002      0.4260785
       428.0000         6.4049         8.1064         5.4625      -104.9337       -14.6898      0.4047914
       428.5000         6.2915         8.0598         5.4723      -105.4233       -15.1794      0.3835045
       429.0000         6.1832         8.0157         5.5198       -105.913       -15.6691      0.3622131
       429.5000          6.099          7.981         5.6152      -106.4026       -16.1587      0.3409261
       430.0000          6.031         7.9464         5.7237      -106.8282       -16.5843      0.3224218
       430.5000         6.2105         7.9633         5.8186      -107.2424       -16.9985      0.3044132
       431.0000         6.3211         7.9944         5.8779      -107.6566       -17.4127      0.2864045
       431.5000         6.4317         8.0916         5.9281      -108.0708       -17.8269      0.2683958
