#------------------------------------------------------------------------------
# Created by    : vladimir.rabinovich
# Created on    : 09/19/2023 17:21:52
#------------------------------------------------------------------------------
~Version Information Section
VERS.           2.0     :   CWLS log ASCII Standard - VERSION 2.0
WRAP.           NO      :   One line per depth step
~Well Information Section
#MNEM       .UNIT                                         VALUE :DESCRIPTION
#------------------------------------------------------------------------------
STRT        .FT                                            1924 :START DEPTH
STOP        .FT                                            6497 :STOP DEPTH
STEP        .FT                                             0.5 :STEP      
NULL        .                                           -999.25 :NULL      
COMP        .                                ATP OIL & GAS CORP :COMPANY   
WELL        .                               OCS G12451 ST00BP00 :WELL      
FLD         .                                           WILDCAT :FIELD     
LOC         .                                                   :LOCATION  
CNTY        .                                BRAZOS LARGE BLOCK :LOCATION  
STAT        .                                             TEXAS :STATE     
CTRY        .                                     UNITED STATES :COUNTRY   
SRVC        .                                                   :SERVICE COMPANY
DATE        .                             9/13/2023 11:09:51 AM :LOG DATE  
API         .                                    42704402900000 :API NUMBER
UWI         .                                    42704402900000 :UNIQUE WELL ID
XCOORD      .                                  861130.254262163 :SURFACE X 
YCOORD      .                                  10349158.9913488 :SURFACE Y 
LAT         .                                        28.4964901 :LATITUDE  
LON         .                                       -95.4265639 :LONGITUDE 
ELEV        .FT                                              91 :ELEVATION VALUE
ELEV_TYPE   .                                                KB :ELEVATION REFERENCE TYPE
~Curve Information Section
#MNEM       .UNIT                                      API CODE :CURVE DESCRIPTION
#------------------------------------------------------------------------------
DEPT        .FT                                                 :DEPTH     
CALI        .IN                                                 :          
DPHI        .G/C3                                               :          
DRHO        .G/C3                                               :          
GR          .GAPI                                               :          
GR_NORM     .GAPI                                               :GammaRay Normalized
ILD         .OHMM                                               :          
ILM         .OHMM                                               :          
NPHI        .%                                                  :          
SFL         .OHMM                                               :          
SP          .MV                                                 :          
SP_NORM     .MV                                                 :SP Normalized
VSH_GR      .V/V                                                :Volume of Shale from GR
VSH_SP      .V/V                                                :Volume of Shale from SP
~A        DEPTH           CALI           DPHI           DRHO             GR        GR_NORM            ILD            ILM           NPHI            SFL             SP        SP_NORM         VSH_GR         VSH_SP
# ...
      2304.0000        -999.25        -999.25        -999.25       106.6283        84.1813         0.7858         0.7253        -999.25         0.8534       -63.5269      -4.254093              1       0.938602
      2304.5000        -999.25        -999.25        -999.25       104.3494       81.88562          0.803         0.7425        -999.25          0.875        -63.403      -4.117065              1      0.9411874
      2305.0000        -999.25        -999.25        -999.25       101.6661       79.18554         0.8202         0.7589        -999.25          0.868       -63.2178      -3.918739       0.982671      0.9449294
      2305.5000        -999.25        -999.25        -999.25        98.9314       76.43406          0.835         0.7617        -999.25         0.8536       -63.1247      -3.812511      0.9241289      0.9469337
      2306.0000        -999.25        -999.25        -999.25        96.1432       73.62909         0.8486          0.767        -999.25         0.8989       -63.0972      -3.771881      0.8644487      0.9477004
      2306.5000        -999.25        -999.25        -999.25        96.1812       73.65031         0.8578         0.7607        -999.25         0.9979       -62.8894      -3.550957      0.8649002      0.9518687
      2307.0000        -999.25        -999.25        -999.25        99.5522       77.00454         0.8575          0.754        -999.25         0.9667       -62.3939      -3.042332      0.9362668      0.9614654
      2307.5000        -999.25        -999.25        -999.25       103.0204       80.45596         0.8475         0.7502        -999.25         0.8875       -61.9828      -2.618103              1      0.9694697
      2308.0000        -999.25        -999.25        -999.25       105.4579       82.87669         0.8324         0.7495        -999.25         0.8135       -61.9856      -2.607777              1      0.9696646
      2308.5000        -999.25        -999.25        -999.25       105.4222       82.82421         0.8221         0.7454        -999.25         0.8454       -62.2474      -2.856449              1      0.9649727
      2309.0000        -999.25        -999.25        -999.25       104.0317       81.41693          0.812         0.7376        -999.25         0.8744       -62.4766      -3.072525              1      0.9608958
      2309.5000        -999.25        -999.25        -999.25       105.1981       82.56655         0.8021         0.7284        -999.25         0.8606       -62.5897      -3.172497              1      0.9590095
      2310.0000        -999.25        -999.25        -999.25       108.3174       85.66908         0.7879         0.7191        -999.25         0.8377       -62.8676      -3.437271              1      0.9540138
      2310.5000        -999.25        -999.25        -999.25       110.0566        87.3915         0.7777         0.7051        -999.25         0.8377       -62.9946      -3.551144              1      0.9518652
      2311.0000        -999.25        -999.25        -999.25       109.9019       87.22002          0.767         0.6953        -999.25         0.8372       -62.9467       -3.49012              1      0.9530166
      2311.5000        -999.25        -999.25        -999.25       109.1097       86.41105         0.7527         0.6907        -999.25         0.8089       -62.7783      -3.308594              1      0.9564416
      2312.0000        -999.25        -999.25        -999.25       110.3037       87.58827         0.7457         0.6891        -999.25         0.7892       -62.8776      -3.394768              1      0.9548157
      2312.5000        -999.25        -999.25        -999.25       112.4786       89.74639         0.7398         0.6874        -999.25         0.7835       -63.1013      -3.605339              1      0.9508427
      2313.0000        -999.25        -999.25        -999.25       112.9119       90.16292         0.7413         0.6876        -999.25         0.7815       -63.2402      -3.731113              1      0.9484696
      2313.5000        -999.25        -999.25        -999.25        110.436       87.67023         0.7396         0.6888        -999.25         0.7943       -63.3994      -3.877186              1      0.9457135
      2314.0000        -999.25        -999.25        -999.25       109.6849       86.90236          0.736         0.6925        -999.25         0.7882       -63.2438      -3.708458              1       0.948897
      2314.5000        -999.25        -999.25        -999.25       112.7712       89.97189         0.7373         0.6996        -999.25         0.7716       -63.0496      -3.501129              1      0.9528089
      2315.0000        -999.25        -999.25        -999.25        113.514       90.69791         0.7467         0.7088        -999.25         0.7687       -62.9487      -3.387104              1      0.9549603
      2315.5000        -999.25        -999.25        -999.25       111.0981       88.26523         0.7599         0.7249        -999.25         0.7875       -63.1357      -3.560978              1      0.9516796
      2316.0000        -999.25        -999.25        -999.25       108.9645       86.11485         0.7735          0.743        -999.25         0.8972       -63.3019       -3.71405              1      0.9487915
      2316.5000        -999.25        -999.25        -999.25       107.9935       85.12708         0.7904         0.7543        -999.25         0.9405       -63.4262      -3.825226              1      0.9466938
      2317.0000        -999.25        -999.25        -999.25       106.9059        84.0227         0.8098          0.766        -999.25         0.9324       -63.6041      -3.989998              1      0.9435849
      2317.5000        -999.25        -999.25        -999.25       104.3409       81.44092         0.8329         0.7765        -999.25         0.8879       -63.4832      -3.855972              1      0.9461137
      2318.0000        -999.25        -999.25        -999.25        102.031       79.11424         0.8645         0.7893        -999.25         0.8527       -63.3615      -3.721146      0.9811541      0.9486576
      2318.5000        -999.25        -999.25        -999.25       102.4497       79.51617         0.8909         0.7963        -999.25          0.867       -63.3247      -3.671219      0.9897057      0.9495996
      2319.0000        -999.25        -999.25        -999.25       101.5808       78.63049         0.9155         0.8054        -999.25         0.9166       -63.4359      -3.769295      0.9708616      0.9477491
      2319.5000        -999.25        -999.25        -999.25        98.3199       75.35282         0.9302         0.8129        -999.25         0.9183       -63.6152      -3.935467      0.9011239      0.9446138
      2320.0000        -999.25        -999.25        -999.25        95.7179       72.73405          0.936         0.8153        -999.25         0.9193        -63.742      -4.049141      0.8454053      0.9424691
      2320.5000        -999.25        -999.25        -999.25        94.5621       71.56147          0.939         0.8224        -999.25         0.9558        -63.975      -4.269012      0.8204568      0.9383205
      2321.0000        -999.25        -999.25        -999.25        96.4658       73.44839         0.9332         0.8206        -999.25         0.9691       -64.3658      -4.646687       0.860604      0.9311946
      2321.5000        -999.25        -999.25        -999.25       100.0391       77.00491         0.9283         0.8201        -999.25         0.9656       -64.7109      -4.978661      0.9362748      0.9249309
      2322.0000        -999.25        -999.25        -999.25       102.1528       79.10184         0.9207         0.8133        -999.25         0.9262       -64.9349      -5.189529      0.9808902      0.9209523
      2322.5000        -999.25        -999.25        -999.25       102.8451       79.77736         0.9175         0.8062        -999.25         0.9141       -64.8147      -5.056202       0.995263      0.9234679
