#------------------------------------------------------------------------------
# Created by    : vladimir.rabinovich
# Created on    : 09/19/2023 17:20:40
#------------------------------------------------------------------------------
~Version Information Section
VERS.           2.0     :   CWLS log ASCII Standard - VERSION 2.0
WRAP.           NO      :   One line per depth step
~Well Information Section
#MNEM       .UNIT                                         VALUE :DESCRIPTION
#------------------------------------------------------------------------------
STRT        .FT                                             546 :START DEPTH
STOP        .FT                                            8737 :STOP DEPTH
STEP        .FT                                             0.5 :STEP      
NULL        .                                           -999.25 :NULL      
COMP        .                                      SHELL OIL CO :COMPANY   
WELL        .                                OCS 00702 ST00BP00 :WELL      
FLD         .                                           WILDCAT :FIELD     
LOC         .                                                   :LOCATION  
CNTY        .                             GALVESTON LARGE BLOCK :LOCATION  
STAT        .                                             TEXAS :STATE     
CTRY        .                                     UNITED STATES :COUNTRY   
SRVC        .                                                   :SERVICE COMPANY
DATE        .                             9/13/2023 11:19:42 AM :LOG DATE  
API         .                                    42706000140000 :API NUMBER
UWI         .                                    42706000140000 :UNIQUE WELL ID
XCOORD      .                                  1138683.88536091 :SURFACE X 
YCOORD      .                                  10533063.1188688 :SURFACE Y 
LAT         .                                         29.014964 :LATITUDE  
LON         .                                        -94.570199 :LONGITUDE 
ELEV        .FT                                              72 :ELEVATION VALUE
ELEV_TYPE   .                                                KB :ELEVATION REFERENCE TYPE
~Curve Information Section
#MNEM       .UNIT                                      API CODE :CURVE DESCRIPTION
#------------------------------------------------------------------------------
DEPT        .FT                                                 :DEPTH     
ASN         .OHMM                                               :          
CILD        .MMHO                                               :          
ILD         .OHMM                                               :          
SP          .MV                                                 :          
SP_NORM     .MV                                                 :SP Normalized
VSH_SP      .V/V                                                :Volume of Shale from SP
~A        DEPTH            ASN           CILD            ILD             SP        SP_NORM         VSH_SP
# ...
      3814.0000         0.5683       1396.525         0.7155       -41.5091    -0.04568863              1
      3814.5000         0.5736       1405.633         0.7264       -41.4362     0.02721405              1
      3815.0000         0.5771       1414.732         0.7219       -41.3695     0.09391403              1
      3815.5000         0.5672        1423.84         0.7173       -41.3028       0.160614              1
      3816.0000         0.5552       1434.096         0.7128       -41.2361       0.227314              1
      3816.5000         0.5443       1453.174         0.7055       -41.1694       0.294014              1
      3817.0000         0.5345       1472.242          0.698       -41.1519       0.311512              1
      3817.5000         0.5269       1428.121         0.6905       -41.1657      0.2977142              1
      3818.0000         0.5241       1387.697         0.6829       -41.1795      0.2839127              1
      3818.5000         0.5214       1350.828         0.6793       -41.1934      0.2700119              1
      3819.0000         0.5196       1314.047         0.7014       -41.2072      0.2562141              1
      3819.5000         0.5202       1282.885         0.7235       -41.2049      0.2585144              1
      3820.0000         0.5318       1251.725         0.7457       -41.1849      0.2785149              1
      3820.5000          0.546       1223.316         0.7678       -41.1649      0.2985115              1
      3821.0000         0.5621       1196.287          0.783       -41.1449       0.318512              1
      3821.5000         0.5783       1177.879          0.798       -41.1249      0.3385124              1
      3822.0000         0.5945       1167.723          0.813       -41.1161      0.3473129              1
      3822.5000         0.6109       1159.344          0.828       -41.1714      0.2920151              1
      3823.0000         0.6273       1154.439         0.8429       -41.2266      0.2368126              1
      3823.5000         0.6421       1150.826         0.8521        -41.465   -0.001586914              1
      3824.0000          0.657       1153.857         0.8613       -41.8362     -0.3727875              1
      3824.5000         0.6718       1156.889         0.8705       -42.2076     -0.7441864              1
      3825.0000         0.6861        1159.92         0.8797       -42.5789      -1.115486              1
      3825.5000         0.7004       1162.953         0.8888       -42.9503      -1.486885              1
      3826.0000         0.7132       1165.984          0.898       -43.3129      -1.849487              1
      3826.5000         0.7208       1169.016         0.9076       -43.6703      -2.206886              1
      3827.0000         0.7201       1169.674         0.9173       -43.8401      -2.376686              1
      3827.5000         0.7194        1168.84          0.927       -43.7499      -2.286488              1
      3828.0000         0.7204       1167.391         0.9366       -43.6599      -2.196487              1
      3828.5000          0.737       1150.188         0.9463       -43.6908      -2.227386              1
      3829.0000         0.7543       1132.975          0.956       -43.7842      -2.320786              1
      3829.5000         0.7722       1115.762         0.9656       -43.8775      -2.414085              1
      3830.0000         0.7871       1105.389         0.9766       -43.9709      -2.507488              1
      3830.5000          0.796       1098.076         0.9876       -44.0642      -2.600788              1
      3831.0000          0.805       1090.764         0.9987       -44.2191      -2.755688              1
      3831.5000         0.8211       1083.451         1.0098       -44.3983      -2.934887              1
      3832.0000         0.8389       1076.139         1.0208       -44.5775      -3.114086      0.9964348
      3832.5000         0.8597       1068.826         1.0312       -44.7567      -3.293285      0.9908348
      3833.0000          0.889       1065.127         1.0386       -44.9359      -3.472488      0.9852347
      3833.5000         0.9412       1067.656          1.046       -45.1151      -3.651688      0.9796348
      3834.0000          0.968       1070.188         1.0399       -45.2501      -3.786686      0.9754161
      3834.5000         0.9427       1072.717         1.0305        -45.178      -3.714588      0.9776691
      3835.0000         0.9101       1075.246          1.021        -45.106      -3.642586      0.9799192
      3835.5000          0.884       1079.244         1.0116       -45.0103      -3.546886      0.9829098
      3836.0000         0.8575       1084.209          1.002       -44.8297      -3.366287      0.9885535
      3836.5000          0.828       1089.174         0.9921       -44.6492      -3.185787      0.9941941
      3837.0000         0.8072       1093.965         0.9821       -44.4688      -3.005386      0.9998317
      3837.5000         0.8007       1093.061         0.9721       -44.2881      -2.824688              1
      3838.0000         0.7941       1092.156         0.9621       -44.1077      -2.644287              1
      3838.5000         0.7857       1091.254         0.9521       -43.9272      -2.463787              1
      3839.0000         0.7724       1090.848         0.9421       -43.7466      -2.283188              1
      3839.5000         0.7585       1097.482         0.9322       -43.5661      -2.102688              1
      3840.0000         0.7432       1110.254         0.9222       -43.3855      -1.922089              1
      3840.5000          0.728       1125.967         0.9122        -43.205      -1.741589              1
      3841.0000         0.7199        1141.67         0.9022       -43.0245      -1.561089              1
      3841.5000         0.7123       1163.727         0.8922       -42.8441      -1.380688              1
      3842.0000         0.7067       1201.771         0.8822       -42.6635      -1.200089              1
      3842.5000         0.7012       1230.602         0.8723        -42.483      -1.019588              1
      3843.0000         0.6957       1249.104         0.8623        -42.133     -0.6695862              1
      3843.5000         0.6893       1267.605         0.8524       -41.7874     -0.3239861              1
      3844.0000          0.683       1282.303         0.8431       -41.9254     -0.4619865              1
      3844.5000         0.6753       1292.836         0.8337       -42.0634      -0.599987              1
      3845.0000         0.6655       1303.369         0.8244       -42.2014     -0.7379875              1
      3845.5000         0.6553       1313.902          0.815       -42.3394      -0.875988              1
      3846.0000          0.644       1323.896         0.8057       -42.4631     -0.9996872              1
      3846.5000         0.6326       1332.627         0.7975       -42.5031      -1.039688              1
      3847.0000           0.62       1341.355         0.7908        -42.543      -1.079586              1
      3847.5000         0.6078       1350.078         0.7841       -42.5829      -1.119488              1
      3848.0000         0.6048       1357.029         0.7775       -42.5898      -1.126389              1
      3848.5000         0.6019        1308.85         0.7836       -42.5734      -1.109985              1
      3849.0000         0.6028        1233.91         0.7963       -42.5571      -1.093685              1
      3849.5000         0.6043       1190.156         0.8089       -42.5407      -1.077286              1
      3850.0000         0.6121       1147.779         0.8215       -42.5486      -1.085186              1
      3850.5000         0.6265       1129.721         0.8342       -42.6309      -1.167488              1
      3851.0000         0.6408       1111.664         0.8479       -42.7133      -1.249886              1
      3851.5000         0.6582       1093.574         0.8618       -42.7955      -1.332088              1
