#------------------------------------------------------------------------------
# Created by    : vladimir.rabinovich
# Created on    : 09/19/2023 17:21:33
#------------------------------------------------------------------------------
~Version Information Section
VERS.           2.0     :   CWLS log ASCII Standard - VERSION 2.0
WRAP.           NO      :   One line per depth step
~Well Information Section
#MNEM       .UNIT                                         VALUE :DESCRIPTION
#------------------------------------------------------------------------------
STRT        .FT                                            3683 :START DEPTH
STOP        .FT                                            9328 :STOP DEPTH
STEP        .FT                                             0.5 :STEP      
NULL        .                                           -999.25 :NULL      
COMP        .                                SHELL OFFSHORE INC :COMPANY   
WELL        .                               OCS G11316 ST00BP00 :WELL      
FLD         .                                           WILDCAT :FIELD     
LOC         .                                                   :LOCATION  
CNTY        .                             GALVESTON LARGE BLOCK :LOCATION  
STAT        .                                             TEXAS :STATE     
CTRY        .                                     UNITED STATES :COUNTRY   
SRVC        .                                                   :SERVICE COMPANY
DATE        .                             9/13/2023 11:19:34 AM :LOG DATE  
API         .                                    42706402670000 :API NUMBER
UWI         .                                    42706402670000 :UNIQUE WELL ID
XCOORD      .                                  1097534.45360284 :SURFACE X 
YCOORD      .                                  10461685.9172371 :SURFACE Y 
LAT         .                                         28.817107 :LATITUDE  
LON         .                                        -94.695737 :LONGITUDE 
ELEV        .FT                                              91 :ELEVATION VALUE
ELEV_TYPE   .                                                KB :ELEVATION REFERENCE TYPE
~Curve Information Section
#MNEM       .UNIT                                      API CODE :CURVE DESCRIPTION
#------------------------------------------------------------------------------
DEPT        .FT                                                 :DEPTH     
CALI        .IN                                                 :          
CALI_1      .IN                                                 :          
CILD        .MMHO                                               :          
DRHO        .G/C3                                               :          
DT          .US/F                                               :          
GR          .GAPI                                               :          
GR_1        .GAPI                                               :          
GR_NORM     .GAPI                                               :GammaRay Normalized
ILD         .OHMM                                               :          
ILM         .OHMM                                               :          
NPHI        .%                                                  :          
RHOB        .G/C3                                               :          
SFL         .OHMM                                               :          
SP          .MV                                                 :          
SP_NORM     .MV                                                 :SP Normalized
VSH_GR      .V/V                                                :Volume of Shale from GR
VSH_SP      .V/V                                                :Volume of Shale from SP
~A        DEPTH           CALI         CALI_1           CILD           DRHO             DT             GR           GR_1        GR_NORM            ILD            ILM           NPHI           RHOB            SFL             SP        SP_NORM         VSH_GR         VSH_SP
# ...
      9293.0000        12.5854        12.5646       1081.363         0.0313        -999.25        -999.25        -999.25        -999.25         0.9169         0.9143        -999.25          2.419         1.1916       -48.6525      -13.89392        -999.25      0.7862474
      9293.5000        12.5872        12.5549       1023.475         0.0323        -999.25        -999.25        -999.25        -999.25         0.9321         0.9411        -999.25         2.4294         1.2464       -48.9062      -14.21681        -999.25      0.7812799
      9294.0000        12.5849        12.5499       1018.171          0.037        -999.25        -999.25        -999.25        -999.25         0.9398          0.953        -999.25         2.4415          1.273       -48.7662      -14.03863        -999.25      0.7840211
      9294.5000        12.5843         12.553       1030.771         0.0421        -999.25        -999.25        -999.25        -999.25           0.94         0.9353        -999.25         2.4557         1.2052       -48.1607      -13.26799        -999.25       0.795877
      9295.0000        12.5738        12.5578        1047.66         0.0391        -999.25        -999.25        -999.25        -999.25         0.9339         0.9231        -999.25         2.4634         1.1808       -47.7078      -12.69157        -999.25       0.804745
      9295.5000        12.5633        12.5594       1039.623         0.0302        -999.25        -999.25        -999.25        -999.25         0.9334          0.913        -999.25         2.4679         1.1834       -47.2797      -12.14672        -999.25      0.8131274
      9296.0000        12.5499        12.5517       1027.418         0.0165        -999.25        -999.25        -999.25        -999.25          0.934         0.9075        -999.25         2.4654           1.22         -47.15      -11.98165        -999.25       0.815667
      9296.5000        12.5353        12.5399        1014.82         0.0073        -999.25        -999.25        -999.25        -999.25           0.94         0.9064        -999.25         2.4606         1.2801       -47.2921       -12.1625        -999.25      0.8128846
      9297.0000        12.5122        12.5195       1004.441         0.0036        -999.25        -999.25        -999.25        -999.25          0.954         0.9071        -999.25         2.4575         1.2898       -47.8938       -12.9283        -999.25      0.8011031
      9297.5000        12.4829        12.4937       992.1875         0.0084        -999.25        -999.25        -999.25        -999.25         0.9612         0.9053        -999.25          2.458         1.2851       -48.2509      -13.38279        -999.25       0.794111
      9298.0000        12.4557        12.4684       998.1289         0.0122        -999.25        -999.25        -999.25        -999.25         0.9591         0.9034        -999.25         2.4596         1.2087       -48.5298      -13.73775        -999.25      0.7886499
      9298.5000        12.4309        12.4503       1043.889         0.0099        -999.25        -999.25        -999.25        -999.25         0.9363          0.901        -999.25         2.4611         1.1523       -48.3804      -13.54761        -999.25      0.7915753
      9299.0000        12.4195        12.4286        1063.18         0.0047        -999.25        -999.25        -999.25        -999.25         0.9223         0.8925        -999.25         2.4585           1.12       -48.1036      -13.19532        -999.25      0.7969952
      9299.5000        12.4177        12.4016       1069.135        -0.0026        -999.25        -999.25        -999.25        -999.25          0.915         0.8675        -999.25         2.4516         1.1224       -47.9824      -13.04106        -999.25      0.7993683
      9300.0000        12.4156        12.3837       1076.199        -0.0114        -999.25        -999.25        -999.25        -999.25         0.9149         0.8324        -999.25         2.4411         1.1508       -47.9464      -12.99524        -999.25      0.8000732
      9300.5000        12.4125        12.3755       1082.879        -0.0181        -999.25        -999.25        -999.25        -999.25           0.92         0.8389        -999.25         2.4287         1.1779       -47.9714      -13.02706        -999.25      0.7995836
      9301.0000        12.3845         12.371       1081.512        -0.0209        -999.25        -999.25        -999.25        -999.25         0.9266         0.8645        -999.25         2.4165         1.1696       -47.9961       -13.0585        -999.25         0.7991
      9301.5000        12.3638        12.3666        1049.41        -0.0205        -999.25        -999.25        -999.25        -999.25         0.9359         0.8972        -999.25         2.4067         1.1342       -47.8935      -12.92792        -999.25       0.801109
      9302.0000        12.3432        12.3652        1012.33        -0.0124        -999.25        -999.25        -999.25        -999.25         0.9457         0.9369        -999.25         2.4032         1.1406       -47.6432      -12.60935        -999.25      0.8060099
      9302.5000        -999.25        -999.25         989.71        -999.25        -999.25        -999.25        -999.25        -999.25         0.9565         0.9425        -999.25        -999.25         1.1714       -47.4156      -12.31968        -999.25      0.8104665
      9303.0000        -999.25        -999.25       1034.223        -999.25        -999.25        -999.25        -999.25        -999.25         0.9593         0.8864        -999.25        -999.25         1.1891       -47.2063       -12.0533        -999.25      0.8145646
      9303.5000        -999.25        -999.25       1116.422        -999.25        -999.25        -999.25        -999.25        -999.25         0.9585         0.8319        -999.25        -999.25         1.1762       -47.3132      -12.18935        -999.25      0.8124714
      9304.0000        -999.25        -999.25       1156.986        -999.25        -999.25        -999.25        -999.25        -999.25         0.9553         0.7813        -999.25        -999.25         1.1768        -47.508      -12.43728        -999.25      0.8086572
      9304.5000        -999.25        -999.25       1119.627        -999.25        -999.25        -999.25        -999.25        -999.25         0.9507         0.8143        -999.25        -999.25         1.1856       -47.7463      -12.74057        -999.25      0.8039912
      9305.0000        -999.25        -999.25       1050.396        -999.25        -999.25        -999.25        -999.25        -999.25         0.9351         0.8887        -999.25        -999.25         1.1983       -47.8472      -12.86899        -999.25      0.8020156
      9305.5000        -999.25        -999.25       1049.213        -999.25        -999.25        -999.25        -999.25        -999.25         0.9082         0.9305        -999.25        -999.25         1.2134       -47.6528      -12.62157        -999.25       0.805822
      9306.0000        -999.25        -999.25       1123.375        -999.25        -999.25        -999.25        -999.25        -999.25         0.8708         0.8781        -999.25        -999.25         1.1966       -47.1783      -12.01766        -999.25      0.8151129
      9306.5000        -999.25        -999.25       1177.615        -999.25        -999.25        -999.25        -999.25        -999.25         0.8453         0.8346        -999.25        -999.25         1.1565       -46.6322      -11.32262        -999.25      0.8258058
      9307.0000        -999.25        -999.25       1166.078        -999.25        -999.25        -999.25        -999.25        -999.25         0.8452         0.8015        -999.25        -999.25         1.1746       -46.3937      -11.01908        -999.25      0.8304757
      9307.5000        -999.25        -999.25       1132.152        -999.25        -999.25        -999.25        -999.25        -999.25         0.8515         0.7769        -999.25        -999.25         1.2222       -46.3007      -10.90072        -999.25      0.8322967
