#------------------------------------------------------------------------------
# Created by    : vladimir.rabinovich
# Created on    : 09/19/2023 17:20:04
#------------------------------------------------------------------------------
~Version Information Section
VERS.           2.0     :   CWLS log ASCII Standard - VERSION 2.0
WRAP.           NO      :   One line per depth step
~Well Information Section
#MNEM       .UNIT                                         VALUE :DESCRIPTION
#------------------------------------------------------------------------------
STRT        .FT                                             627 :START DEPTH
STOP        .FT                                            8077 :STOP DEPTH
STEP        .FT                                             0.5 :STEP      
NULL        .                                           -999.25 :NULL      
COMP        .                                    MOBIL OIL CORP :COMPANY   
WELL        .                               OCS G02338 ST00BP00 :WELL      
FLD         .                                           WILDCAT :FIELD     
LOC         .                                                   :LOCATION  
CNTY        .                             GALVESTON LARGE BLOCK :LOCATION  
STAT        .                                             TEXAS :STATE     
CTRY        .                                     UNITED STATES :COUNTRY   
SRVC        .                                                   :SERVICE COMPANY
DATE        .                             9/13/2023 11:18:53 AM :LOG DATE  
API         .                                    42706400220000 :API NUMBER
UWI         .                                    42706400220000 :UNIQUE WELL ID
XCOORD      .                                  948421.875172236 :SURFACE X 
YCOORD      .                                   10402667.405867 :SURFACE Y 
LAT         .                                         28.648189 :LATITUDE  
LON         .                                        -95.157922 :LONGITUDE 
ELEV        .FT                                              76 :ELEVATION VALUE
ELEV_TYPE   .                                                KB :ELEVATION REFERENCE TYPE
~Curve Information Section
#MNEM       .UNIT                                      API CODE :CURVE DESCRIPTION
#------------------------------------------------------------------------------
DEPT        .FT                                                 :DEPTH     
ASFL        .OHMM                                               :          
CALI        .IN                                                 :          
CILD        .MMHO                                               :          
DT          .US/F                                               :          
DT_1        .US/F                                               :          
GR          .GAPI                                               :          
GR_NORM     .GAPI                                               :GammaRay Normalized
ILD         .OHMM                                               :          
SFL         .OHMM                                               :          
SP          .MV                                                 :          
SP_NORM     .MV                                                 :SP Normalized
VSH_GR      .V/V                                                :Volume of Shale from GR
VSH_SP      .V/V                                                :Volume of Shale from SP
~A        DEPTH           ASFL           CALI           CILD             DT           DT_1             GR        GR_NORM            ILD            SFL             SP        SP_NORM         VSH_GR         VSH_SP
# ...
      5092.0000         0.7939        10.4108        3022.77       113.6237        -999.25        62.5052       37.59048         0.2984         0.9001      -121.5476      -61.95947     0.09766988     0.04750824
      5092.5000         0.8066        10.2581       3146.602       112.0574        -999.25        60.9366       35.45498         0.2807         0.9994      -125.5454      -65.96111     0.05223351              0
      5093.0000         0.8277         9.9855         3367.5       111.4536        -999.25        59.7329       33.81666         0.2638          0.976      -128.3459      -68.76544     0.01737578              0
      5093.5000         0.8488         9.8951        3581.41       112.4683        -999.25        58.7663       32.50143         0.2385         0.9225      -129.6147      -70.03808              0              0
      5094.0000         0.8651        10.8496       3886.297       114.6893        -999.25        57.9977       31.45598         0.2278         0.8658      -130.3484      -70.77562              0              0
      5094.5000         0.8803        11.6015       3968.383       117.1893        -999.25        58.0549       31.53575         0.2222         0.8156      -131.0637      -71.49475              0              0
      5095.0000         0.8943        12.0889       4042.934       118.4293        -999.25        59.1671       33.05303         0.2182         0.7953      -131.6387      -72.07359    0.001128258              0
      5095.5000         0.8721        11.7939       4143.297       118.3337        -999.25        61.5554       36.30909         0.2179          0.793      -131.5417      -71.98042     0.07040616              0
      5096.0000         0.8418         11.356       4209.656       117.9089        -999.25        64.3601       40.13254         0.2236         0.7744      -128.2717      -68.71425      0.1517562              0
      5096.5000         0.8125        10.8376       4239.516       117.0879        -999.25        66.7532       43.39515         0.2312          0.711       -123.895      -64.34138      0.2211733     0.01029086
      5097.0000         0.7853        10.7943       4261.055       116.5151        -999.25        68.8634       46.27229         0.2401         0.6704      -120.2548      -60.70502       0.282389     0.06710899
      5097.5000         0.7708        10.7285       4224.234       116.0725        -999.25        70.2297       48.13579           0.25         0.7074      -116.6616      -57.11566      0.3220381      0.1231928
      5098.0000         0.7562        10.4612       4174.852        115.845        -999.25        70.8779       49.02085         0.2618         0.7354      -112.8011        -53.259      0.3408691      0.1834532
      5098.5000         0.7424        10.2502       4085.625       115.9406        -999.25        70.8854        49.0329         0.2748         0.6668      -109.1429      -49.60463      0.3411255      0.2405527
      5099.0000         0.7294         10.246       3939.523        116.517        -999.25        70.5601       48.59146         0.2887         0.6806      -107.2235      -47.68907      0.3317332      0.2704833
      5099.5000         0.7199        10.3205       3738.996       117.0741        -999.25        70.4033       48.37965         0.3004         0.7841       -106.536       -47.0054      0.3272265      0.2811656
      5100.0000         0.7384        10.2955       3584.805       116.9769        -999.25        70.4972       48.50942         0.3104          0.878      -105.8594      -46.33263      0.3299876      0.2916776
      5100.5000         0.7601        10.3172       3225.695       116.4436        -999.25        71.1494       49.39992         0.3224         0.8098      -104.9962      -45.47327      0.3489344      0.3051051
      5101.0000         0.7894        10.3983       3047.938       115.6194        -999.25        73.0958       52.05386         0.3366         0.8302       -104.834       -45.3149      0.4054013      0.3075796
      5101.5000         0.8171        10.4808       2932.094       114.3981        -999.25        74.5945       54.09779         0.3517         0.8967      -104.2289      -44.71364      0.4488891      0.3169744
      5102.0000          0.832        10.4934       2841.914        113.549        -999.25        75.9921       56.00396         0.3755         0.9365       -102.722      -43.21058      0.4894459      0.3404598
      5102.5000          0.847        10.4792       2715.887       114.5873        -999.25        77.3475       57.85263         0.4027         0.8689      -100.0605      -40.55291      0.5287793      0.3819858
      5103.0000         0.8615        10.5442       2555.008       116.8395        -999.25        78.4851        59.4045         0.4324         0.8166       -97.0668      -37.56305      0.5617979      0.4287024
      5103.5000         0.8726        10.6455       2322.324       117.2279        -999.25        79.5745       60.89073          0.482         0.8207       -94.3041      -34.80418      0.5934197      0.4718097
      5104.0000         0.8837        10.6679       2199.789       115.3318        -999.25        79.9807       61.44602         0.5227         0.8646       -91.3176      -31.82151      0.6052345      0.5184139
      5104.5000         0.8948        10.6048       2093.832       112.0674        -999.25        79.5438       60.85255         0.5586          0.902       -88.5748      -29.08255      0.5926074      0.5612102
      5105.0000         0.9149        10.5126       1997.365       107.4982        -999.25        78.9653       60.06612         0.5888         0.9532       -87.2554      -27.76699      0.5758749      0.5817658
      5105.5000         0.9469        10.4519       1912.881       105.6169        -999.25        78.5215       59.46324         0.6083         1.0081       -88.3473      -28.86272      0.5630477      0.5646451
      5106.0000         0.9988        10.5868       1785.555       105.9893        -999.25        78.1035       58.89551         0.6179          1.075       -89.9146      -30.43385      0.5509682       0.540096
      5106.5000         1.0287        10.6805       1683.393         107.98        -999.25        77.7238       58.37997         0.6248         1.1523       -91.2435      -31.76659      0.5399994       0.519272
      5107.0000         1.0588         10.743       1621.777       109.5574        -999.25        77.3348       57.85175         0.6303         1.1482       -91.7139      -32.24082      0.5287606      0.5118622
      5107.5000         1.0889        10.7893       1579.285       110.3414        -999.25        76.9305       57.30268          0.636         1.1176       -90.9862      -31.51696      0.5170783      0.5231725
      5108.0000         1.1024        10.6768       1542.049       109.5848        -999.25        77.1284       57.57417         0.6397         1.1148       -90.3861       -30.9207      0.5228547      0.5324891
      5108.5000         1.1106         10.496       1526.943        107.609        -999.25        77.4648       58.03436         0.6491         1.1377       -90.1825      -30.72093       0.532646      0.5356104
      5109.0000         1.1188        10.4673       1511.852       105.7103        -999.25        77.7957       58.48707          0.661         1.1471       -89.9175      -30.45977      0.5422781      0.5396911
      5109.5000         1.1269        10.4222       1496.748       104.2412        -999.25        78.0287       58.80638          0.672         1.0898       -89.9181       -30.4642      0.5490718      0.5396219
      5110.0000         1.1327        10.3871       1484.588       103.6045        -999.25        78.1113       58.92075          0.679         1.0374       -91.1063      -31.65623      0.5515053      0.5209963
      5110.5000         1.1376        10.4371       1473.129       102.2667        -999.25        78.0779       58.87708          0.676         1.1567       -94.2246      -34.77837      0.5505761      0.4722129
