#------------------------------------------------------------------------------
# Created by    : vladimir.rabinovich
# Created on    : 09/19/2023 17:20:11
#------------------------------------------------------------------------------
~Version Information Section
VERS.           2.0     :   CWLS log ASCII Standard - VERSION 2.0
WRAP.           NO      :   One line per depth step
~Well Information Section
#MNEM       .UNIT                                         VALUE :DESCRIPTION
#------------------------------------------------------------------------------
STRT        .FT                                             984 :START DEPTH
STOP        .FT                                            6595 :STOP DEPTH
STEP        .FT                                             0.5 :STEP      
NULL        .                                           -999.25 :NULL      
COMP        .                   MCMORAN OFFSHORE EXPLORATION CO :COMPANY   
WELL        .                               OCS G03106 ST00BP00 :WELL      
FLD         .                                           WILDCAT :FIELD     
LOC         .                                                   :LOCATION  
CNTY        .                      MATAGORDA ISLAND LARGE BLOCK :LOCATION  
STAT        .                                             TEXAS :STATE     
CTRY        .                                     UNITED STATES :COUNTRY   
SRVC        .                                                   :SERVICE COMPANY
DATE        .                             9/13/2023 11:12:09 AM :LOG DATE  
API         .                                    42703400570000 :API NUMBER
UWI         .                                    42703400570000 :UNIQUE WELL ID
XCOORD      .                                  467986.403229072 :SURFACE X 
YCOORD      .                                  10153243.7887249 :SURFACE Y 
LAT         .                                         27.931172 :LATITUDE  
LON         .                                        -96.630795 :LONGITUDE 
ELEV        .FT                                              95 :ELEVATION VALUE
ELEV_TYPE   .                                                KB :ELEVATION REFERENCE TYPE
~Curve Information Section
#MNEM       .UNIT                                      API CODE :CURVE DESCRIPTION
#------------------------------------------------------------------------------
DEPT        .FT                                                 :DEPTH     
ASFL        .OHMM                                               :          
CILD        .MMHO                                               :          
DT          .US/F                                               :          
GR          .GAPI                                               :          
GR_NORM     .GAPI                                               :GammaRay Normalized
ILD         .OHMM                                               :          
SFL         .OHMM                                               :          
SP          .MV                                                 :          
SP_NORM     .MV                                                 :SP Normalized
VSH_GR      .V/V                                                :Volume of Shale from GR
VSH_SP      .V/V                                                :Volume of Shale from SP
~A        DEPTH           ASFL           CILD             DT             GR        GR_NORM            ILD            SFL             SP        SP_NORM         VSH_GR         VSH_SP
# ...
      5461.5000         0.8703       4226.305       101.0736        -999.25        -999.25         0.1089         0.7285       -97.4788       -61.7152        -999.25    0.005476952
      5462.0000         0.9456       3867.305       105.1359        -999.25        -999.25         0.1109         0.6842       -97.4598       -61.6994        -999.25    0.005780734
      5462.5000         0.8248       3779.922        107.619        -999.25        -999.25         0.1129         0.6711        -97.474       -61.7168        -999.25    0.005446141
      5463.0000         0.7005       3747.809       109.1583        -999.25        -999.25         0.1149         0.6667       -97.4883       -61.7343        -999.25     0.00510964
      5463.5000         0.9252       3717.449       110.9073        -999.25        -999.25         0.1171         0.6826        -97.604       -61.8532        -999.25    0.002823096
      5464.0000         1.0804       3700.543       112.6262        -999.25        -999.25           0.12           0.71       -97.9941       -62.2465        -999.25              0
      5464.5000         1.1582       3696.691       111.8705        -999.25        -999.25         0.1229         0.6939       -98.3845       -62.6401        -999.25              0
      5465.0000         1.1765       3679.148        108.118        -999.25        -999.25         0.1258         0.6111       -98.8335       -63.0923        -999.25              0
      5465.5000         0.8334       3648.738       104.2679        -999.25        -999.25         0.1286         0.5547       -99.3555       -63.6175        -999.25              0
      5466.0000         0.7349       3618.328       101.3147        -999.25        -999.25         0.1315         0.6733       -99.8774       -64.1426        -999.25              0
      5466.5000         0.7134       3615.797       101.3171        -999.25        -999.25         0.1342         0.8079      -100.1552       -64.4237        -999.25              0
      5467.0000         0.7216        3613.75        104.198        -999.25        -999.25         0.1341         0.8358       -99.8075       -64.0792        -999.25              0
      5467.5000         0.7434       3615.113       108.7256        -999.25        -999.25         0.1364         0.7131       -99.4598       -63.7347        -999.25              0
      5468.0000         0.7652       3576.965       110.8986        -999.25        -999.25         0.1386         0.6311       -99.1122       -63.3903        -999.25              0
      5468.5000         0.7727       3427.211       111.0857        -999.25        -999.25         0.1409         0.5726       -98.7645       -63.0458        -999.25              0
      5469.0000         0.7157        3307.84       110.6632        -999.25        -999.25         0.1431         0.5421       -98.0814       -62.3659        -999.25              0
      5469.5000         0.6489       3224.477       109.6586        -999.25        -999.25         0.1437         0.5309       -97.3263        -61.614        -999.25    0.007423108
      5470.0000         0.5848       3235.328       108.4821        -999.25        -999.25         0.1416         0.5663        -96.937       -61.2279        -999.25     0.01484805
      5470.5000         0.8647       3341.285       106.9343        -999.25        -999.25         0.1395          0.669       -96.6965       -60.9906        -999.25     0.01941153
      5471.0000         0.9489       3460.457       105.4457        -999.25        -999.25         0.1374         0.7625       -96.3678       -60.6651        -999.25     0.02567115
      5471.5000         0.8338       3591.961       104.0509        -999.25        -999.25         0.1362         0.7985       -95.8373       -60.1379        -999.25     0.03580959
      5472.0000         0.7083       3798.543       102.9359        -999.25        -999.25         0.1435         0.7842       -95.3037       -59.6075        -999.25     0.04600965
      5472.5000         0.6543       4009.465        102.109        -999.25        -999.25         0.1508          0.755       -94.6969       -59.0039        -999.25     0.05761733
      5473.0000         0.6154       4157.242       101.2556        -999.25        -999.25         0.1582           0.73       -94.2235       -58.5337        -999.25     0.06665964
      5473.5000          0.593       3987.168         99.767        -999.25        -999.25         0.1655         0.7143       -93.9788       -58.2922        -999.25     0.07130388
      5474.0000         0.6764       3842.938        97.4164        -999.25        -999.25         0.1728          0.708       -93.7423       -58.0589        -999.25     0.07579041
      5474.5000          0.727       3716.563        93.0745        -999.25        -999.25         0.1838         0.7129       -93.5494       -57.8692        -999.25     0.07943843
      5475.0000         0.7735       3511.262        87.2499        -999.25        -999.25         0.2007         0.7265       -93.3567       -57.6797        -999.25     0.08308271
      5475.5000         0.8046       3296.594        78.8795        -999.25        -999.25         0.2176         0.7471       -93.0764       -57.4026        -999.25     0.08841155
      5476.0000         0.8166       3082.121        72.2643        -999.25        -999.25         0.2345          0.863       -92.6488       -56.9782        -999.25      0.0965731
      5476.5000          0.804       2867.648        89.2268        -999.25        -999.25         0.2518          0.999       -91.8021       -56.1348        -999.25      0.1127923
      5477.0000         0.7914       2652.977        113.798        -999.25        -999.25         0.2895         1.0674       -89.3688       -53.7047        -999.25       0.159525
      5477.5000         0.7789       2438.504       137.6072        -999.25        -999.25         0.3271         1.0583       -87.6643       -52.0034        -999.25      0.1922423
      5478.0000         0.7663       2224.031       118.7739        -999.25        -999.25         0.3648         1.0034       -87.0446       -51.3869        -999.25       0.204098
      5478.5000         0.7537       2009.363       103.8461        -999.25        -999.25         0.4032         0.9333       -86.8092       -51.1547        -999.25      0.2085634
      5479.0000         0.7426       1794.891       101.1375        -999.25        -999.25         0.4419         0.8756       -86.7227       -51.0714        -999.25      0.2101654
      5479.5000         0.7885       1647.896       100.2172        -999.25        -999.25         0.4807         0.8225       -86.7104       -51.0623        -999.25      0.2103404
      5480.0000         0.9393       1546.678        99.7079        -999.25        -999.25         0.5061         0.7775       -86.6982       -51.0533        -999.25      0.2105135
      5480.5000         1.0929       1476.438       102.6406        -999.25        -999.25          0.531         0.7324        -86.686       -51.0443        -999.25      0.2106865
      5481.0000         1.0966       1439.021         115.23        -999.25        -999.25         0.5119         0.7086       -86.6738       -51.0353        -999.25      0.2108596
      5481.5000          1.066       1457.273       117.2743        -999.25        -999.25         0.4795         0.7508       -86.7955       -51.1603        -999.25      0.2084557
      5482.0000         1.0324       1510.078       114.3735        -999.25        -999.25          0.447         0.8858       -87.0164       -51.3844        -999.25      0.2041462
      5482.5000         0.9989       1583.674       114.5067        -999.25        -999.25         0.4145         1.1799       -87.2371       -51.6083        -999.25      0.1998404
      5483.0000         0.9562       1659.537       107.2983        -999.25        -999.25         0.3821         1.6179       -87.3051       -51.6795        -999.25      0.1984711
      5483.5000         0.9048       1739.645        93.1227        -999.25        -999.25         0.3749         2.5867       -87.3081       -51.6857        -999.25      0.1983519
