#------------------------------------------------------------------------------
# Created by    : vladimir.rabinovich
# Created on    : 09/19/2023 17:20:01
#------------------------------------------------------------------------------
~Version Information Section
VERS.           2.0     :   CWLS log ASCII Standard - VERSION 2.0
WRAP.           NO      :   One line per depth step
~Well Information Section
#MNEM       .UNIT                                         VALUE :DESCRIPTION
#------------------------------------------------------------------------------
STRT        .FT                                            3496 :START DEPTH
STOP        .FT                                           13495 :STOP DEPTH
STEP        .FT                                             0.5 :STEP      
NULL        .                                           -999.25 :NULL      
COMP        .                      TEXAS EASTERN EXPLORATION CO :COMPANY   
WELL        .                                ST TR 00798-L NE/4 :WELL      
FLD         .                                           WILDCAT :FIELD     
LOC         .                                                   :LOCATION  
CNTY        .                        MUSTANG ISLAND LARGE BLOCK :LOCATION  
STAT        .                                             TEXAS :STATE     
CTRY        .                                     UNITED STATES :COUNTRY   
SRVC        .                                                   :SERVICE COMPANY
DATE        .                             9/13/2023 11:18:55 AM :LOG DATE  
API         .                                    42702302040000 :API NUMBER
UWI         .                                    42702302040000 :UNIQUE WELL ID
XCOORD      .                                  329124.923046376 :SURFACE X 
YCOORD      .                                  10022065.1107101 :SURFACE Y 
LAT         .                                        27.5591082 :LATITUDE  
LON         .                                       -97.0466418 :LONGITUDE 
ELEV        .FT                                              82 :ELEVATION VALUE
ELEV_TYPE   .                                                KB :ELEVATION REFERENCE TYPE
~Curve Information Section
#MNEM       .UNIT                                      API CODE :CURVE DESCRIPTION
#------------------------------------------------------------------------------
DEPT        .FT                                                 :DEPTH     
ASFL        .OHMM                                               :          
CILD        .MMHO                                               :          
GR          .GAPI                                               :          
GR_NORM     .GAPI                                               :GammaRay Normalized
ILD         .OHMM                                               :          
SFL         .OHMM                                               :          
SP          .MV                                                 :          
SP_NORM     .MV                                                 :SP Normalized
VSH_GR      .V/V                                                :Volume of Shale from GR
VSH_SP      .V/V                                                :Volume of Shale from SP
~A        DEPTH           ASFL           CILD             GR        GR_NORM            ILD            SFL             SP        SP_NORM         VSH_GR         VSH_SP
# ...
     12806.0000         0.9163        1373.23        65.9528       69.38477         0.7305         0.9259       -38.3732       1.650459      0.7741441              1
     12806.5000         0.9163       1363.682        64.9498       68.09472         0.7404         0.9264       -40.4481     -0.4227715      0.7466962              1
     12807.0000         0.9164       1341.982        63.9468       66.80466          0.751         0.9267       -41.4376      -1.410599       0.719248      0.9940493
     12807.5000         0.9171       1300.664        62.9463        65.5178         0.7629         0.9271       -41.8602      -1.831528      0.6918681      0.9879489
     12808.0000          0.918       1265.977        65.8025       69.17068          0.791         0.9352       -42.0184      -1.988052      0.7695889      0.9856804
     12808.5000          0.927       1228.469        67.9858       71.96169         0.8192          0.945       -41.9498      -1.917782       0.828972      0.9866988
     12809.0000         0.9494       1196.355        70.4207       75.07497         0.8625         0.9635       -41.8812      -1.847511      0.8952121      0.9877172
     12809.5000         1.0037        1159.49        69.6814       74.12265         0.9101         1.0014       -41.8126      -1.777237        0.87495      0.9887357
     12810.0000         1.0504       1117.727        67.7517       71.64565         0.9569         1.0392       -41.6458      -1.608768      0.8222479      0.9911773
     12810.5000         1.0804       1084.475        67.2126       70.94976         1.0017          1.082       -41.6437      -1.604996      0.8074417      0.9912319
     12811.0000         1.1075       1053.895        66.9706       70.63439          1.042          1.126       -41.8177      -1.777325      0.8007317      0.9887344
     12811.5000         1.1313       1022.324         66.787       70.39385         1.0428         1.1616       -41.9736      -1.931549      0.7956139      0.9864993
     12812.0000         1.1562       1025.887        66.6083       70.15956         1.0062         1.1198       -42.1149      -2.071178       0.790629      0.9844757
     12812.5000         1.1072       1076.063         66.416       69.90785         0.9503         1.0805        -42.256      -2.210609      0.7852734       0.982455
     12813.0000         1.0584       1127.227        66.1943        69.6185         0.8916         1.0425       -42.3334      -2.286335       0.779117      0.9813575
     12813.5000         1.0094       1178.492        65.9731       69.32978         0.8318         1.0046       -42.3652      -2.316463      0.7729741      0.9809208
     12814.0000         0.9605       1229.656        65.7242       69.00558         0.7973         0.9745       -42.3645      -2.314091      0.7660761      0.9809552
     12814.5000         0.9286       1280.922        65.4531       68.65295         0.7746         0.9549       -42.3193       -2.26722      0.7585734      0.9816345
     12815.0000         0.9186       1332.086         65.235        68.3682         0.7538         0.9352       -42.1978      -2.144047       0.752515      0.9834196
     12815.5000           0.91       1372.811         65.061       68.13994         0.7486         0.9188       -41.9883      -1.932877      0.7476583      0.9864801
     12816.0000         0.9038       1391.465        64.9258       67.96137         0.7434         0.9031       -41.8162      -1.759106       0.743859      0.9889985
     12816.5000         0.8993       1403.217        64.8217       67.82264         0.7383         0.9019       -41.6757      -1.616932      0.7409073      0.9910589
     12817.0000         0.9033       1397.553         65.275       68.39785         0.7331         0.9022       -41.5731      -1.512661      0.7531458      0.9925701
     12817.5000         0.9103       1386.344        67.8971       71.75089         0.7348         0.9133       -41.6085      -1.546391      0.8244869      0.9920813
     12818.0000         0.9264        1370.93        69.6764       74.02444         0.7381         0.9279        -41.644      -1.580215      0.8728604      0.9915911
     12818.5000         0.9424       1346.486         70.709       75.34162         0.7414         0.9424       -41.6517      -1.586243      0.9008856      0.9915037
     12819.0000         0.9642       1317.984        71.2363        76.0116         0.7447         0.9615       -41.5831      -1.515972      0.9151403      0.9925221
     12819.5000         0.9873       1287.057        71.5801       76.44654         0.7514         0.9826       -41.5144      -1.445602      0.9243945       0.993542
     12820.0000         1.0142       1264.691        71.6707       76.55719         0.7593         1.0119       -41.4459      -1.375427      0.9267487       0.994559
     12820.5000         1.0429       1241.137        71.4618       76.28422         0.7673         1.0221       -41.3702      -1.298058      0.9209408      0.9956803
     12821.0000         1.0791       1232.379        71.2535       76.01203         0.7752         1.0024       -41.2902      -1.216385      0.9151496       0.996864
     12821.5000         1.0404       1225.822         70.826       75.45907         0.7834         0.9827       -41.3079       -1.23241      0.9033844      0.9966317
     12822.0000         0.9981       1221.566        70.3652       74.86346         0.7915          0.963       -41.3408      -1.263641       0.890712      0.9961791
     12822.5000         0.9739       1219.115        70.1378       74.56682         0.7997         0.9484       -41.4217      -1.342869      0.8844004      0.9950309
     12823.0000         0.9548        1218.17        69.9576       74.33061         0.8076         0.9447       -41.5027      -1.422199      0.8793747      0.9938812
     12823.5000         0.9478       1218.795        69.7771       74.09402         0.8097         0.9511       -41.5837      -1.501522      0.8743408      0.9927316
     12824.0000         0.9718       1220.412        69.7434       74.04546         0.8117         0.9752       -41.6581      -1.574253      0.8733076      0.9916775
     12824.5000         1.0002       1222.033        69.7347       74.02891         0.8071         0.9993       -41.6734      -1.587883      0.8729555      0.9914799
     12825.0000         1.0139       1233.418        69.7261        74.0125         0.7996         1.0014       -41.6575      -1.570309      0.8726063      0.9917347
     12825.5000         1.0271       1256.377        69.9924       74.34818         0.7916         0.9939       -41.4481      -1.359238      0.8797484      0.9947937
     12826.0000         1.0215       1290.025        70.2852        74.7178         0.7808         0.9865       -41.2392      -1.148666      0.8876129      0.9978454
     12826.5000         0.9942        1328.82        70.0608       74.42499         0.7699         0.9791       -41.0297     -0.9374924      0.8813827              1
     12827.0000         0.9693       1353.414        69.8347       74.12999         0.7591         0.9716       -40.8061     -0.7122192      0.8751062              1
     12827.5000          0.956       1377.164        69.6086       73.83499         0.7545         0.9708       -40.5449     -0.4493484      0.8688296              1
     12828.0000         0.9458       1372.291         69.385       73.54321         0.7535         0.9741       -40.2836     -0.1863785      0.8626214              1
     12828.5000          0.953       1363.805        69.1737       73.26717         0.7525         0.9774       -40.0916    0.007297516      0.8567482              1
     12829.0000         0.9699       1332.877        69.7565       74.00824         0.7568         0.9833        -40.163    -0.06243134      0.8725157              1
     12829.5000         0.9889        1296.26        70.3406       74.75096          0.763         0.9895       -40.2345     -0.1322632      0.8883183              1
     12830.0000         1.0067       1263.107        70.9197       75.48729          0.769         0.9962        -40.306     -0.2020874      0.9039849              1
