#------------------------------------------------------------------------------
# Created by    : vladimir.rabinovich
# Created on    : 09/19/2023 17:21:24
#------------------------------------------------------------------------------
~Version Information Section
VERS.           2.0     :   CWLS log ASCII Standard - VERSION 2.0
WRAP.           NO      :   One line per depth step
~Well Information Section
#MNEM       .UNIT                                         VALUE :DESCRIPTION
#------------------------------------------------------------------------------
STRT        .FT                                             682 :START DEPTH
STOP        .FT                                            8542 :STOP DEPTH
STEP        .FT                                             0.5 :STEP      
NULL        .                                           -999.25 :NULL      
COMP        .                       CORPUS CHRISTI OIL & GAS CO :COMPANY   
WELL        .                               OCS G08551 ST00BP00 :WELL      
FLD         .                                           WILDCAT :FIELD     
LOC         .                                                   :LOCATION  
CNTY        .                             GALVESTON LARGE BLOCK :LOCATION  
STAT        .                                             TEXAS :STATE     
CTRY        .                                     UNITED STATES :COUNTRY   
SRVC        .                                                   :SERVICE COMPANY
DATE        .                             9/13/2023 11:19:36 AM :LOG DATE  
API         .                                    42706401950000 :API NUMBER
UWI         .                                    42706401950000 :UNIQUE WELL ID
XCOORD      .                                   976199.22633255 :SURFACE X 
YCOORD      .                                  10415950.2633902 :SURFACE Y 
LAT         .                                         28.686063 :LATITUDE  
LON         .                                        -95.072067 :LONGITUDE 
ELEV        .FT                                              81 :ELEVATION VALUE
ELEV_TYPE   .                                                KB :ELEVATION REFERENCE TYPE
~Curve Information Section
#MNEM       .UNIT                                      API CODE :CURVE DESCRIPTION
#------------------------------------------------------------------------------
DEPT        .FT                                                 :DEPTH     
CALI        .IN                                                 :          
DPHI        .%                                                  :          
DRHO        .G/C3                                               :          
DT          .US/F                                               :          
GR          .GAPI                                               :          
GR_1        .GAPI                                               :          
GR_NORM     .GAPI                                               :GammaRay Normalized
ILD         .OHMM                                               :          
ILM         .OHMM                                               :          
NPHI        .%                                                  :          
SFL         .OHMM                                               :          
SP_NORM     .MV                                                 :SP Normalized
SPS         .MV                                                 :          
VSH_GR      .V/V                                                :Volume of Shale from GR
VSH_SP      .V/V                                                :Volume of Shale from SP
~A        DEPTH           CALI           DPHI           DRHO             DT             GR           GR_1        GR_NORM            ILD            ILM           NPHI            SFL        SP_NORM            SPS         VSH_GR         VSH_SP
# ...
      5748.0000        -999.25        -999.25        -999.25       108.1079        55.5563        -999.25        66.8609         0.8453          0.851        -999.25          0.873      -8.572739       -71.1744      0.7204447      0.8716485
      5748.5000        -999.25        -999.25        -999.25       108.4788        54.9424        -999.25       65.70821         0.8561         0.8583        -999.25          0.851      -8.502563       -71.1013      0.6959195      0.8728379
      5749.0000        -999.25        -999.25        -999.25        108.848        53.4516        -999.25       62.90905         0.8536         0.8594        -999.25         0.8508       -8.72628       -71.3221      0.6363627      0.8690461
      5749.5000        -999.25        -999.25        -999.25       108.6703        51.9948        -999.25       60.17372         0.8429         0.8524        -999.25         0.8591      -9.296009       -71.8889      0.5781643      0.8593897
      5750.0000        -999.25        -999.25        -999.25       108.3347        51.4815        -999.25       59.20993         0.8252         0.8363        -999.25          0.875      -10.30283       -72.8928      0.5576582      0.8423249
      5750.5000        -999.25        -999.25        -999.25        108.177        52.7936        -999.25       61.67357         0.8091         0.8205        -999.25         0.8888      -11.22226       -73.8093       0.610076      0.8267415
      5751.0000        -999.25        -999.25        -999.25       108.3718        54.4568        -999.25       64.79645         0.7996         0.8051        -999.25         0.8633      -12.02658       -74.6107      0.6765202      0.8131089
      5751.5000        -999.25        -999.25        -999.25       108.3815        55.5173        -999.25       66.78766         0.7892         0.7937        -999.25         0.8259       -12.7429       -75.3241      0.7188864      0.8009679
      5752.0000        -999.25        -999.25        -999.25       107.6066        55.7054        -999.25       67.14086         0.7789         0.7927        -999.25          0.825      -13.40242       -75.9807      0.7264013      0.7897895
      5752.5000        -999.25        -999.25        -999.25       106.2964        54.7889        -999.25       65.41999         0.7708         0.7868        -999.25         0.8723      -13.90234       -76.4777       0.689787      0.7813162
      5753.0000        -999.25        -999.25        -999.25        104.897        53.6554        -999.25       63.29171         0.7809         0.7938        -999.25         0.9342      -14.12027       -76.6927      0.6445045      0.7776225
      5753.5000        -999.25        -999.25        -999.25       103.4023        52.3206        -999.25       60.78545         0.8042         0.8146        -999.25          0.981      -13.58329       -76.1528      0.5911797      0.7867239
      5754.0000        -999.25        -999.25        -999.25       101.8586        50.7632        -999.25       57.86123         0.8379         0.8487        -999.25         1.0101      -12.90651       -75.4731      0.5289624      0.7981947
      5754.5000        -999.25        -999.25        -999.25       100.2072        49.0937        -999.25       54.72653         0.8763         0.8911        -999.25         0.9951      -11.49664       -74.0603      0.4622666      0.8220908
      5755.0000        -999.25        -999.25        -999.25        98.5505        47.8457        -999.25       52.38325         0.9141         0.9255        -999.25         1.0273      -10.09566       -72.6564      0.4124096      0.8458362
      5755.5000        -999.25        -999.25        -999.25        96.9115        49.3428        -999.25       55.19425         0.9313         0.9503        -999.25         1.1065      -8.849281       -71.4071      0.4722181      0.8669614
      5756.0000        -999.25        -999.25        -999.25        96.7886        53.8869        -999.25       63.72639         0.9387         0.9546        -999.25         1.1984      -7.660809       -70.2157      0.6537529      0.8871049
      5756.5000        -999.25        -999.25        -999.25        99.8883         58.114        -999.25       71.66332         0.9346         0.9474        -999.25         1.2534      -6.579235       -69.1312      0.8226239      0.9054367
      5757.0000        -999.25        -999.25        -999.25       102.7623        60.6351        -999.25       76.39701         0.9239         0.9341        -999.25         1.1245      -5.668255       -68.2173      0.9233407       0.920877
      5757.5000        -999.25        -999.25        -999.25       105.4153        62.3939        -999.25       79.69938         0.9062         0.9102        -999.25         1.0003      -4.908882        -67.455      0.9936038      0.9337478
      5758.0000        -999.25        -999.25        -999.25       107.7822        61.8655        -999.25       78.70724         0.8825         0.8792        -999.25         0.9201      -4.324203       -66.8674      0.9724944      0.9436576
      5758.5000        -999.25        -999.25        -999.25       109.6083        60.1784        -999.25        75.5395         0.8527         0.8445        -999.25         0.8718      -3.895622       -66.4359      0.9050957      0.9509217
      5759.0000        -999.25        -999.25        -999.25       110.3468        58.4461        -999.25       72.28687         0.8311         0.8195        -999.25         0.8587      -3.568348       -66.1057      0.8358908      0.9564687
      5759.5000        -999.25        -999.25        -999.25       109.4714          59.83        -999.25       74.88533         0.8376         0.8212        -999.25          0.846      -3.460369       -65.9948      0.8911772      0.9582988
      5760.0000        -999.25        -999.25        -999.25       108.1111        62.0643        -999.25       79.08051           0.86         0.8414        -999.25         0.8611      -3.514996       -66.0465      0.9804363       0.957373
      5760.5000        -999.25        -999.25        -999.25        106.752        62.8279        -999.25        80.5143          0.882         0.8658        -999.25         0.8899      -3.695316       -66.2239              1      0.9543167
      5761.0000        -999.25        -999.25        -999.25       105.3978        60.7886        -999.25       76.68523          0.892         0.8855        -999.25         0.9231      -4.137642       -66.6633       0.929473      0.9468196
      5761.5000        -999.25        -999.25        -999.25       104.2919        58.2222        -999.25       71.86646         0.8986         0.9007        -999.25         0.9477      -4.684265        -67.207       0.826946      0.9375548
      5762.0000        -999.25        -999.25        -999.25       104.9109        55.5878        -999.25       66.92004         0.9007         0.9062        -999.25         0.9592      -5.177986       -67.6978      0.7217031      0.9291867
      5762.5000        -999.25        -999.25        -999.25       106.0291        54.0026        -999.25       63.94364          0.896         0.9031        -999.25         0.9518      -5.716114        -68.233      0.6583753      0.9200659
      5763.0000        -999.25        -999.25        -999.25       107.1674        54.2379        -999.25       64.38544         0.8871         0.8941        -999.25         0.9403      -6.343136       -68.8571      0.6677753      0.9094384
      5763.5000        -999.25        -999.25        -999.25       107.5881        56.0054        -999.25       67.70413         0.8761          0.877        -999.25           0.93      -7.173756       -69.6848      0.7383858      0.8953601
      5764.0000        -999.25        -999.25        -999.25       107.3612        57.5403        -999.25       70.58611         0.8581         0.8498        -999.25         0.9137      -9.969582       -72.4777      0.7997046      0.8479732
      5764.5000        -999.25        -999.25        -999.25       107.2615        55.9904        -999.25       67.67599         0.7987         0.7945        -999.25         0.8971       -15.3469       -77.8521      0.7377869      0.7568322
