#------------------------------------------------------------------------------
# Created by    : vladimir.rabinovich
# Created on    : 09/19/2023 17:21:15
#------------------------------------------------------------------------------
~Version Information Section
VERS.           2.0     :   CWLS log ASCII Standard - VERSION 2.0
WRAP.           NO      :   One line per depth step
~Well Information Section
#MNEM       .UNIT                                         VALUE :DESCRIPTION
#------------------------------------------------------------------------------
STRT        .FT                                            2893 :START DEPTH
STOP        .FT                                           11505 :STOP DEPTH
STEP        .FT                                             0.5 :STEP      
NULL        .                                           -999.25 :NULL      
COMP        .                               SEAGULL ENERGY CORP :COMPANY   
WELL        .                               OCS G06105 ST00BP00 :WELL      
FLD         .                              GALVESTON BLOCK 0343 :FIELD     
LOC         .                                                   :LOCATION  
CNTY        .                             GALVESTON LARGE BLOCK :LOCATION  
STAT        .                                             TEXAS :STATE     
CTRY        .                                     UNITED STATES :COUNTRY   
SRVC        .                                                   :SERVICE COMPANY
DATE        .                             9/13/2023 11:19:54 AM :LOG DATE  
API         .                                    42706403720000 :API NUMBER
UWI         .                                    42706403720000 :UNIQUE WELL ID
XCOORD      .                                  915246.934514234 :SURFACE X 
YCOORD      .                                  10428990.3748243 :SURFACE Y 
LAT         .                                         28.718869 :LATITUDE  
LON         .                                        -95.262866 :LONGITUDE 
ELEV        .FT                                              96 :ELEVATION VALUE
ELEV_TYPE   .                                                KB :ELEVATION REFERENCE TYPE
~Curve Information Section
#MNEM       .UNIT                                      API CODE :CURVE DESCRIPTION
#------------------------------------------------------------------------------
DEPT        .FT                                                 :DEPTH     
CAL         .IN                                                 :          
CNCSS       .%                                                  :          
CORR        .G/CM3                                              :          
DT24        .US/FT                                              :          
GR_NORM     .GAPI                                               :GammaRay Normalized
GRR         .GAPI                                               :          
ILD         .OHMM                                               :          
ILM         .OHMM                                               :          
PORDSS      .%                                                  :          
RFOC        .OHMM                                               :          
SP          .MV                                                 :          
SP_NORM     .MV                                                 :SP Normalized
VSH_GR      .V/V                                                :Volume of Shale from GR
VSH_SP      .V/V                                                :Volume of Shale from SP
~A        DEPTH            CAL          CNCSS           CORR           DT24        GR_NORM            GRR            ILD            ILM         PORDSS           RFOC             SP        SP_NORM         VSH_GR         VSH_SP
# ...
      5809.0000        12.9951         37.684        -0.0005        95.0891       45.70945           47.4         0.3722         0.4514        24.5882         0.9522          -84.3        -83.962      0.2704138              0
      5809.5000        13.1912           35.4          0.012        84.2938       47.03483           48.2         0.4037         0.4908        21.5258         1.0542          -83.4       -83.0663      0.2986135              0
      5810.0000        13.3088        29.7647         0.0122        77.0046       48.69265           49.2         0.4269         0.5139        17.1408         1.3406          -82.8       -82.4706      0.3338862              0
      5810.5000        13.3873        25.4118              0           75.6       45.36378           47.2         0.4472         0.5233         14.449          1.505          -82.2       -81.8749      0.2630593              0
      5811.0000        13.5441        24.2353         -0.008        81.2245       43.03224           45.8         0.4729         0.5233        19.0588         1.4524          -81.9       -81.5792      0.2134519              0
      5811.5000        13.5833        25.2941              0        88.1633       42.69539           45.6         0.4862            0.5        22.7059         1.3289          -82.2       -81.8835       0.206285              0
      5812.0000        13.5833        27.4118         -0.004        93.4694       44.02079           46.4          0.439         0.4642        26.4706         1.2052          -82.8       -82.4879      0.2344848              0
      5812.5000        13.5833        29.7647         -0.016        95.5102       45.01371             47         0.3964         0.4269        27.0588         1.1325          -83.4       -83.0922      0.2556108              0
      5813.0000        13.5833          30.48         -0.024        98.3673       43.01463           45.8         0.3591         0.3964        27.6471         1.0833          -84.3       -83.9965      0.2130771              0
      5813.5000        13.5441           31.2         -0.036       101.9608       42.34533           45.4         0.3253         0.3656        28.1176         1.0089          -85.5       -85.2008      0.1988367              0
      5814.0000        13.5441          33.12          -0.04       105.2941       42.67337           45.6         0.2918         0.3372        28.8235         0.9174          -86.1       -85.8051      0.2058163              0
      5814.5000        13.5049          35.04          -0.04       108.8235       42.00407           45.2         0.2839         0.3282        29.6471         0.8601          -86.1       -85.8094      0.1915759              0
      5815.0000        13.5049             36         -0.028       111.1538       38.34274             43         0.2711         0.3166        29.6471         0.8371          -85.2       -84.9138      0.1136754              0
      5815.5000        13.4657          36.24         -0.012       113.0769       34.01654           40.4         0.2613         0.3166        28.3529         0.8601          -84.3       -84.0181     0.02162852              0
      5816.0000        13.5049          36.12          -0.02       117.1154       33.34723             40         0.2495         0.3054        26.4706         0.9262          -83.4       -83.1224     0.00738777              0
      5816.5000        13.5049          35.88         -0.036       118.6538       35.00506             41         0.2427         0.3027        24.7059         0.9532          -82.8       -82.5267      0.0426609              0
      5817.0000        13.5049             36         -0.048       117.3077       36.66288             42         0.2518         0.3054             26         0.8919            -81        -80.731      0.0779337              0
      5817.5000        13.4657          36.36         -0.048       115.3846       38.32072             43         0.2637          0.311        27.8824         0.7924          -76.8       -76.5354      0.1132068              0
      5818.0000        13.4657          37.32         -0.052       110.3846       42.97057           45.8         0.2761         0.3224        28.8235         0.7272            -72       -71.7397      0.2121398        0.01999
      5818.5000        13.4657           37.8         -0.052       106.8627       48.28531             49         0.3027         0.3402        28.5882         0.7483          -65.1        -64.844      0.3252192      0.1186971
      5819.0000        13.5049          38.16         -0.044       109.2157       52.27027           51.4         0.3312         0.3722        27.6471         0.7555       -53.8776       -53.6259      0.4100058      0.2791528
      5819.5000        13.5049             39         -0.036          112.5       61.57436             57         0.3623          0.419        25.7647         0.7342       -41.4706       -41.2232      0.6079652      0.4565314
      5820.0000        13.5049          39.48         -0.024       115.9615       69.27061        61.6327         0.4037         0.4685             24         0.7203            -30       -29.7569       0.771715      0.6205329
      5820.5000        13.4657           40.2         -0.024       115.5769       76.05077        65.7143         0.4514         0.5233        22.8228         0.7849          -23.4       -23.1613      0.9159739      0.7149528
      5821.0000        13.4657           40.2         -0.028       113.6538       78.08176        66.9388         0.5046         0.5527        21.9969          0.868          -26.1       -25.8656      0.9591863      0.6765171
      5821.5000        13.4657          39.48          -0.04       111.1538        72.3104        63.4694         0.5629         0.5681        23.5282         0.9624       -31.4706       -31.2405      0.8363915        0.59993
      5822.0000        13.3873          39.12          -0.04       112.8846        66.8783        60.2041         0.5946         0.5733        24.9412          0.981       -32.9412       -32.7154      0.7208149      0.5790572
      5822.5000        13.3873          39.36         -0.028       121.4286       64.20751           58.6          0.611         0.5733        25.5294         0.9532       -31.1765        -30.955      0.6639896      0.6044014
      5823.0000         13.348           39.6         -0.012       123.4694       66.19779           59.8         0.6222         0.5733        25.1765         0.9087          -28.5       -28.2828       0.706336      0.6427729
      5823.5000        13.3088          39.48         0.0082       123.0612       71.27499        62.8571         0.6393         0.5785        24.2353         0.8524          -25.8       -25.5872      0.8143616        0.68148
      5824.0000        13.2696          38.88         0.0163       118.6538       78.39459        67.1429         0.6569            0.6        23.4074         0.8295            -24       -23.7915      0.9658424        0.70733
      5824.5000        13.2696          37.92         0.0163       114.8077       78.39018        67.1429         0.6812         0.6451        22.3391         0.8295          -23.7       -23.4958      0.9657485        0.71175
      5825.0000        13.2304          36.84         0.0122       109.6078       76.35038        65.9184         0.7067         0.6751        21.5062         0.8759          -25.5       -25.3001      0.9223485      0.6861714
      5825.5000        13.1912          35.76         -0.004       106.6667       70.57901         62.449         0.7272            0.7        20.9088         0.9532       -30.8824       -30.6868      0.7995534      0.6094157
      5826.0000         13.152          34.32         -0.012       103.7255       66.84306        60.2041         0.7272         0.7342        20.4297              1       -36.4706       -36.2793      0.7200652        0.52972
      5826.5000         13.152          33.12          -0.02       100.7843       63.50737           58.2         0.6812         0.7412        20.4262         1.0454       -44.7059        -44.519      0.6490929      0.4122086
