#------------------------------------------------------------------------------
# Created by    : vladimir.rabinovich
# Created on    : 09/19/2023 17:19:56
#------------------------------------------------------------------------------
~Version Information Section
VERS.           2.0     :   CWLS log ASCII Standard - VERSION 2.0
WRAP.           NO      :   One line per depth step
~Well Information Section
#MNEM       .UNIT                                         VALUE :DESCRIPTION
#------------------------------------------------------------------------------
STRT        .FT                                            3966 :START DEPTH
STOP        .FT                                           12200 :STOP DEPTH
STEP        .FT                                             0.5 :STEP      
NULL        .                                           -999.25 :NULL      
COMP        .                       HOUSTON OIL & MINERALS CORP :COMPANY   
WELL        .                                ST TR 00526-L SW/4 :WELL      
FLD         .                                           CAVALLO :FIELD     
LOC         .                                                   :LOCATION  
CNTY        .                      MATAGORDA ISLAND LARGE BLOCK :LOCATION  
STAT        .                                             TEXAS :STATE     
CTRY        .                                     UNITED STATES :COUNTRY   
SRVC        .                                                   :SERVICE COMPANY
DATE        .                             9/13/2023 11:19:05 AM :LOG DATE  
API         .                                    42703302090000 :API NUMBER
UWI         .                                    42703302090000 :UNIQUE WELL ID
XCOORD      .                                  601997.830501628 :SURFACE X 
YCOORD      .                                  10286578.1750905 :SURFACE Y 
LAT         .                                        28.3077871 :LATITUDE  
LON         .                                       -96.2273179 :LONGITUDE 
ELEV        .FT                                             113 :ELEVATION VALUE
ELEV_TYPE   .                                                KB :ELEVATION REFERENCE TYPE
~Curve Information Section
#MNEM       .UNIT                                      API CODE :CURVE DESCRIPTION
#------------------------------------------------------------------------------
DEPT        .FT                                                 :DEPTH     
ASFL        .OHMM                                               :          
CILD        .MMHO                                               :          
ILD         .OHMM                                               :          
SP          .MV                                                 :          
SP_NORM     .MV                                                 :SP Normalized
VSH_SP      .V/V                                                :Volume of Shale from SP
~A        DEPTH           ASFL           CILD            ILD             SP        SP_NORM         VSH_SP
# ...
      9970.0000         1.6629            888            1.1          -55.2      -13.28383      0.8445085
      9970.5000          1.741            912         1.0999          -56.4      -14.48383      0.8293186
      9971.0000         1.7371            936         1.0998          -57.6      -15.68383      0.8141288
      9971.5000         1.6821            968         1.0798          -58.8      -16.88383      0.7989389
      9972.0000         1.6231            992         1.0797            -60      -18.08383       0.783749
      9972.5000         1.5673           1032         1.0597          -61.2      -19.28383      0.7685591
      9973.0000         1.5076           1060         1.0398          -62.4      -20.48383      0.7533692
      9973.5000         1.4518           1068         1.0397          -63.6      -21.68383      0.7381794
      9974.0000          1.396           1080         1.0198          -64.8      -22.88383      0.7229894
      9974.5000          1.408           1088              1            -66      -24.08383      0.7077996
      9975.0000         1.4398           1084              1          -67.2      -25.28383      0.6926098
      9975.5000         1.4709           1076           0.96          -68.4      -26.48383      0.6774198
      9976.0000         1.4295           1068           0.94          -69.3      -27.38383      0.6660274
      9976.5000         1.3721           1056           0.92          -67.2      -25.28383      0.6926098
      9977.0000         1.3203           1036           0.92          -64.8      -22.88383      0.7229894
      9977.5000         1.2725           1008           0.92          -62.4      -20.48383      0.7533692
      9978.0000         1.2685            992           0.92            -60      -18.08383       0.783749
      9978.5000         1.2367            992           0.92          -57.6      -15.68383      0.8141288
      9979.0000          1.204            984           0.92          -55.2      -13.28383      0.8445085
      9979.5000         1.1649            968           0.92          -52.8      -10.88383      0.8748882
      9980.0000         1.7195            968           0.92          -51.3      -9.383831      0.8938755
      9980.5000         1.7195            968         0.9191          -53.4      -11.48383      0.8672932
      9981.0000         1.6916            968         0.9381          -55.5      -13.58383       0.840711
      9981.5000         1.6598            976         0.9571          -57.9      -15.98383      0.8103312
      9982.0000         1.6279            976         0.9562            -60      -18.08383       0.783749
      9982.5000          1.596           1008         0.9552          -62.1      -20.18383      0.7571667
      9983.0000         1.5641           1032         0.9543          -64.5      -22.58383      0.7267869
      9983.5000         1.5331           1048         0.9533          -66.6      -24.68383      0.7002047
      9984.0000         1.4972           1064         0.9524          -68.7      -26.78383      0.6736224
      9984.5000         1.4335           1080         0.9316          -71.1      -29.18383      0.6432427
      9985.0000         1.3865           1096         0.9307          -70.8      -28.88383      0.6470401
      9985.5000         1.3227           1112         0.8902          -66.9      -24.98383      0.6964072
      9986.0000         1.2629           1120         0.8893          -62.7      -20.78383      0.7495717
      9986.5000            1.2           1124         0.8687          -58.5      -16.58383      0.8027363
      9987.0000         1.1363           1132         0.8679          -54.3      -12.38383      0.8559009
      9987.5000         1.0765           1136         0.8473          -50.1       -8.18383      0.9090654
      9988.0000         0.8805           1140         0.8465          -50.4      -8.483833       0.905268
      9988.5000         0.8845           1156          0.826          -51.6       -9.68383      0.8900781
      9989.0000         0.8964           1200         0.8251          -54.9      -12.98383      0.8483059
      9989.5000         0.9084       1215.843         0.8047          -58.5      -16.58383      0.8027363
      9990.0000         0.9084       1231.686         0.8235          -62.1      -20.18383      0.7571667
      9990.5000         1.4677       1239.798         0.8039       -65.7143      -23.79813       0.711416
      9991.0000         1.4677        1247.91         0.8039       -69.3286      -27.41243      0.6656654
      9991.5000         1.4677       1248.101         0.7843       -72.6429      -30.72673      0.6237123
      9992.0000         1.4558       1256.213         0.7843       -71.7571      -29.84093      0.6349249
      9992.5000         1.4199       1256.403         0.7647       -69.3714      -27.45523      0.6651236
      9993.0000         1.3841       1264.515         0.7451       -66.6857      -24.76953      0.6991199
      9993.5000         1.3092       1264.706         0.7451            -64      -22.08383       0.733116
      9994.0000         1.2343       1264.896         0.7451       -61.0143      -19.09813      0.7709097
      9994.5000         1.1586       1273.008         0.7451       -61.0286      -19.11243      0.7707287
      9995.0000         0.9936       1274.196         0.7451          -62.4      -20.48383      0.7533692
      9995.5000         1.0135       1281.501         0.7255       -65.8714      -23.95523      0.7094275
      9996.0000         1.0972       1289.613         0.7059       -67.6857      -25.76953      0.6864616
      9996.5000         1.2845       1297.725         0.7059          -69.5      -27.58383      0.6634958
      9997.0000         1.2845       1345.445         0.6863       -71.6143      -29.69814      0.6367325
      9997.5000         1.2845       1377.322         0.6863       -73.4286      -31.51243      0.6137667
      9998.0000         1.2884       1393.356         0.6667       -75.2428      -33.32663      0.5908021
      9998.5000         1.2924       1439.216         0.6667       -77.0569      -35.14073      0.5678388
      9999.0000         1.8797       1466.667         0.6667       -78.8711      -36.95493      0.5448743
      9999.5000         1.8797       1466.667         0.6471       -82.1854      -40.26923      0.5029211
     10000.0000         1.7761       1482.353         0.6471          -78.9      -36.98383      0.5445085
     10000.5000         1.5689       1490.196         0.6275          -75.9      -33.98383      0.5824831
     10001.0000         1.3594       1490.196         0.6078          -72.9      -30.98383      0.6204578
     10001.5000         1.1522       1490.196         0.6078          -69.9      -27.98383      0.6584325
     10002.0000         1.0438       1482.353         0.6078          -66.9      -24.98383      0.6964072
     10002.5000          0.906       1466.667         0.6078          -63.9      -21.98383      0.7343819
     10003.0000          0.894       1411.765         0.6078          -60.9      -18.98383      0.7723566
     10003.5000          0.902       1356.863         0.6275          -60.9      -18.98383      0.7723566
     10004.0000         1.0279           1360         0.6471          -61.5      -19.58383      0.7647616
     10004.5000         1.1562       1291.216         0.6667          -62.7      -20.78383      0.7495717
     10005.0000         1.4159           1220         0.7059          -65.1      -23.18383       0.719192
     10005.5000         1.4159           1160         0.7059          -67.5      -25.58383      0.6888123
     10006.0000          1.541           1128         0.7255          -70.2      -28.28383      0.6546351
     10006.5000          1.541           1124         0.7451          -71.1      -29.18383      0.6432427
     10007.0000         1.6717           1120         0.7843          -68.7      -26.78383      0.6736224
     10007.5000         1.6598           1120         0.8039            -66      -24.08383      0.7077996
