#------------------------------------------------------------------------------
# Created by    : vladimir.rabinovich
# Created on    : 09/19/2023 17:20:32
#------------------------------------------------------------------------------
~Version Information Section
VERS.           2.0     :   CWLS log ASCII Standard - VERSION 2.0
WRAP.           NO      :   One line per depth step
~Well Information Section
#MNEM       .UNIT                                         VALUE :DESCRIPTION
#------------------------------------------------------------------------------
STRT        .FT                                             502 :START DEPTH
STOP        .FT                                            9122 :STOP DEPTH
STEP        .FT                                             0.5 :STEP      
NULL        .                                           -999.25 :NULL      
COMP        .                       BLUE DOLPHIN EXPLORATION CO :COMPANY   
WELL        .                                OCS 00714 ST00BP00 :WELL      
FLD         .                              GALVESTON BLOCK 0288 :FIELD     
LOC         .                                                   :LOCATION  
CNTY        .                             GALVESTON LARGE BLOCK :LOCATION  
STAT        .                                             TEXAS :STATE     
CTRY        .                                     UNITED STATES :COUNTRY   
SRVC        .                                                   :SERVICE COMPANY
DATE        .                             9/13/2023 11:19:24 AM :LOG DATE  
API         .                                    42706000680000 :API NUMBER
UWI         .                                    42706000680000 :UNIQUE WELL ID
XCOORD      .                                  1088404.51782723 :SURFACE X 
YCOORD      .                                  10474534.8869196 :SURFACE Y 
LAT         .                                        28.8520809 :LATITUDE  
LON         .                                       -94.7248272 :LONGITUDE 
ELEV        .FT                                              85 :ELEVATION VALUE
ELEV_TYPE   .                                                KB :ELEVATION REFERENCE TYPE
~Curve Information Section
#MNEM       .UNIT                                      API CODE :CURVE DESCRIPTION
#------------------------------------------------------------------------------
DEPT        .FT                                                 :DEPTH     
ASN         .OHMM                                               :          
ASN_1       .OHMM                                               :          
DT          .US/F                                               :          
ILD         .OHMM                                               :          
LAT         .OHMM                                               :          
LN          .OHMM                                               :          
SP          .MV                                                 :          
SP_NORM     .MV                                                 :SP Normalized
VSH_SP      .V/V                                                :Volume of Shale from SP
~A        DEPTH            ASN          ASN_1             DT            ILD            LAT             LN             SP        SP_NORM         VSH_SP
# ...
       979.0000        -999.25         1.2358        -999.25        -999.25         2.2948         0.9875       -35.6047      -2.271362      0.9511014
       979.5000        -999.25         1.2404        -999.25        -999.25          2.297         0.9779       -35.0772      -1.743866      0.9713898
       980.0000        -999.25         1.2561        -999.25        -999.25         2.2909         0.9756       -34.4353      -1.101963      0.9960784
       980.5000        -999.25         1.2846        -999.25        -999.25         2.2811         0.9815       -34.0287     -0.6953659              1
       981.0000        -999.25         1.3129        -999.25        -999.25         2.2315         0.9977       -33.9755     -0.6421623              1
       981.5000        -999.25         1.3223        -999.25        -999.25         2.1675         1.0241       -33.5927     -0.2593651              1
       982.0000        -999.25         1.3232        -999.25        -999.25         2.1076         1.0557       -33.1404      0.1929359              1
       982.5000        -999.25         1.3311        -999.25        -999.25          2.061         1.0856       -33.6505     -0.3171654              1
       983.0000        -999.25         1.3491        -999.25        -999.25         2.0141         1.1147        -34.147     -0.8136635              1
       983.5000        -999.25         1.3737        -999.25        -999.25         1.9549         1.1497       -34.5807      -1.247364       0.990486
       984.0000        -999.25         1.3964        -999.25        -999.25         1.8985         1.1882       -34.9557      -1.622364      0.9760629
       984.5000        -999.25          1.412        -999.25        -999.25         1.8619         1.2168       -35.0759      -1.742565      0.9714398
       985.0000        -999.25         1.4153        -999.25        -999.25         1.8252         1.2377       -35.0568      -1.723465      0.9721744
       985.5000        -999.25         1.4026        -999.25        -999.25         1.8054         1.2597       -35.2291      -1.895763      0.9655476
       986.0000        -999.25         1.3942        -999.25        -999.25         1.7878         1.2883       -35.9821      -2.648766       0.936586
       986.5000        -999.25         1.3855        -999.25        -999.25         1.7952         1.3161       -36.5589      -3.225563      0.9144014
       987.0000        -999.25         1.3819        -999.25        -999.25         1.7989         1.3388       -36.4195      -3.086163       0.919763
       987.5000        -999.25         1.3859        -999.25        -999.25         1.7748         1.3616       -36.8709      -3.537563      0.9024014
       988.0000        -999.25         1.4017        -999.25        -999.25          1.745          1.383       -36.9958      -3.662464      0.8975976
       988.5000        -999.25         1.4129        -999.25        -999.25         1.7115         1.4041       -36.3991      -3.065765      0.9205475
       989.0000        -999.25         1.4172        -999.25        -999.25         1.6803         1.4206       -35.6309      -2.297565      0.9500936
       989.5000        -999.25          1.411        -999.25        -999.25         1.6509         1.4351       -34.8685      -1.535164      0.9794168
       990.0000        -999.25         1.3964        -999.25        -999.25         1.6179         1.4399       -33.9515     -0.6181641              1
       990.5000        -999.25         1.3903        -999.25        -999.25         1.5809         1.4405       -33.1367      0.1966362              1
       991.0000        -999.25         1.3876        -999.25        -999.25         1.5828           1.43       -33.0728      0.2605362              1
       991.5000        -999.25         1.3844        -999.25        -999.25         1.5989         1.4133       -33.7297     -0.3963623              1
       992.0000        -999.25         1.3847        -999.25        -999.25         1.6315         1.3914       -34.7059      -1.372562      0.9856707
       992.5000        -999.25          1.389        -999.25        -999.25         1.6692          1.369       -35.5701      -2.236763      0.9524322
       993.0000        -999.25         1.4001        -999.25        -999.25         1.7109         1.3459       -36.3797      -3.046364      0.9212937
       993.5000        -999.25         1.4118        -999.25        -999.25         1.7539         1.3212        -36.873      -3.539665      0.9023206
       994.0000        -999.25         1.3989        -999.25        -999.25         1.7976         1.2914       -36.5681      -3.234764      0.9140475
       994.5000        -999.25          1.378        -999.25        -999.25         1.8374         1.2616       -36.0004      -2.667065      0.9358822
       995.0000        -999.25         1.3557        -999.25        -999.25          1.876         1.2314       -35.0191      -1.685764      0.9736245
       995.5000        -999.25         1.3386        -999.25        -999.25         1.9002         1.2011       -34.1737     -0.8403625              1
       996.0000        -999.25         1.3216        -999.25        -999.25         1.9181         1.1708       -33.7255     -0.3921623              1
       996.5000        -999.25         1.3034        -999.25        -999.25         1.9497         1.1473       -34.0851     -0.7517624              1
       997.0000        -999.25         1.2849        -999.25        -999.25         1.9846         1.1281       -34.8478      -1.514465      0.9802129
       997.5000        -999.25         1.2675        -999.25        -999.25         2.0446         1.1089       -35.3916      -2.058266      0.9592975
       998.0000        -999.25         1.2561        -999.25        -999.25          2.103         1.1041       -35.5798      -2.246464      0.9520591
       998.5000        -999.25         1.2556        -999.25        -999.25         2.1577         1.1028       -35.7552      -2.421864      0.9453129
       999.0000        -999.25         1.2745        -999.25        -999.25         2.2115         1.1044       -36.0234      -2.690063      0.9349976
       999.5000        -999.25         1.3105        -999.25        -999.25         2.2636         1.1186       -36.3514      -3.018063      0.9223822
      1000.0000        -999.25         1.3855        -999.25        -999.25         2.2498         1.1328       -35.7337      -2.400364      0.9461399
      1000.5000        -999.25         1.4699        -999.25        -999.25         2.2025         1.1684       -35.0435      -1.710163      0.9726861
      1001.0000        -999.25         1.5077        -999.25        -999.25         2.1336         1.2062       -35.3169      -1.983562      0.9621707
      1001.5000        -999.25         1.4997        -999.25        -999.25         2.0626         1.2601       -35.1175      -1.784164      0.9698398
      1002.0000        -999.25         1.4807        -999.25        -999.25         1.9944         1.3077        -35.068      -1.734665      0.9717436
      1002.5000        -999.25         1.4613        -999.25        -999.25         1.9266         1.3426       -35.5997      -2.266365      0.9512936
      1003.0000        -999.25         1.4445        -999.25        -999.25         1.8544         1.3754       -35.9559      -2.622562      0.9375938
      1003.5000        -999.25         1.4095        -999.25        -999.25         1.7791         1.4028       -36.0476      -2.714264      0.9340668
      1004.0000        -999.25         1.3622        -999.25        -999.25         1.7488         1.4273        -35.621      -2.287663      0.9504745
      1004.5000        -999.25         1.3292        -999.25        -999.25         1.7218          1.437       -34.5765      -1.243164      0.9906476
      1005.0000        -999.25         1.3068        -999.25        -999.25          1.693         1.4468       -33.2556      0.0777359              1
