#------------------------------------------------------------------------------
# Created by    : vladimir.rabinovich
# Created on    : 09/19/2023 17:21:51
#------------------------------------------------------------------------------
~Version Information Section
VERS.           2.0     :   CWLS log ASCII Standard - VERSION 2.0
WRAP.           NO      :   One line per depth step
~Well Information Section
#MNEM       .UNIT                                         VALUE :DESCRIPTION
#------------------------------------------------------------------------------
STRT        .FT                                             692 :START DEPTH
STOP        .FT                                            6716 :STOP DEPTH
STEP        .FT                                             0.5 :STEP      
NULL        .                                           -999.25 :NULL      
COMP        .                                  FMP OPERATING CO :COMPANY   
WELL        .                                          SL 89457 :WELL      
FLD         .                                           WILDCAT :FIELD     
LOC         .                                                   :LOCATION  
CNTY        .                      MATAGORDA ISLAND LARGE BLOCK :LOCATION  
STAT        .                                             TEXAS :STATE     
CTRY        .                                     UNITED STATES :COUNTRY   
SRVC        .                                                   :SERVICE COMPANY
DATE        .                             9/13/2023 11:12:01 AM :LOG DATE  
API         .                                    42703303600000 :API NUMBER
UWI         .                                    42703303600000 :UNIQUE WELL ID
XCOORD      .                                  499223.886875127 :SURFACE X 
YCOORD      .                                  10221285.9321665 :SURFACE Y 
LAT         .                                        28.1205561 :LATITUDE  
LON         .                                       -96.5403272 :LONGITUDE 
ELEV        .FT                                              81 :ELEVATION VALUE
ELEV_TYPE   .                                                KB :ELEVATION REFERENCE TYPE
~Curve Information Section
#MNEM       .UNIT                                      API CODE :CURVE DESCRIPTION
#------------------------------------------------------------------------------
DEPT        .FT                                                 :DEPTH     
CALI        .IN                                                 :          
CILD        .MMHO                                               :          
DT          .US/F                                               :          
DTL         .US/F                                               :          
GR          .GAPI                                               :          
GR_NORM     .GAPI                                               :GammaRay Normalized
ILD         .OHMM                                               :          
ILM         .OHMM                                               :          
SFLU        .OHMM                                               :          
SP          .MV                                                 :          
SP_NORM     .MV                                                 :SP Normalized
TENS        .LBS                                                :          
VSH_GR      .V/V                                                :Volume of Shale from GR
VSH_SP      .V/V                                                :Volume of Shale from SP
~A        DEPTH           CALI           CILD             DT            DTL             GR        GR_NORM            ILD            ILM           SFLU             SP        SP_NORM           TENS         VSH_GR         VSH_SP
# ...
      4760.0000        -999.25       3052.428       116.7809       116.5821        35.0502       34.32962         0.3279         0.3512         0.4416       -43.6185       -33.7199       2297.534     0.02828979     0.03879096
      4760.5000        -999.25       3044.459       115.9862        115.688        35.3532       34.71553          0.331         0.3558         0.4437       -43.4148       -33.5238       2297.728     0.03650073     0.04473334
      4761.0000        -999.25       2980.812       114.9929       115.1917        35.4575       34.84695         0.3357         0.3605         0.4479       -43.2111       -33.3276       2297.921     0.03929674     0.05067883
      4761.5000        -999.25       2933.083       114.9937       114.7949          35.36       34.71976         0.3435         0.3653         0.4563       -43.2058       -33.3299       2298.137     0.03659058     0.05060913
      4762.0000        -999.25         2881.4       114.9945       114.5968        35.1695       34.47359         0.3516         0.3701         0.4712       -43.3997       -33.5313       2298.331     0.03135291     0.04450607
      4762.5000        -999.25       2829.675       115.1941        114.697         36.069        35.6235         0.3554         0.3749         0.4649       -43.2955       -33.4347       2298.525     0.05581925     0.04743333
      4763.0000        -999.25       2797.858       115.3937       114.9961        37.1658       37.02601         0.3593         0.3819         0.4524       -43.1912        -33.338       2298.738     0.08565984      0.0503636
      4763.5000        -999.25       2773.999       115.7921       115.3946        39.5578       40.08756         0.3632          0.382         0.4422       -43.3852       -33.5395       2298.935      0.1507992     0.04425754
      4764.0000        -999.25       2789.897       116.1904       115.5941        39.9607       40.60142         0.3683          0.382         0.4383       -43.7774       -33.9393       2299.128      0.1617324     0.03214241
      4764.5000        -999.25       2805.795       116.9863       116.6882         40.065       40.73283         0.3636         0.3804         0.4324        -43.872       -34.0414       2299.322      0.1645284     0.02904846
      4765.0000        -999.25       2845.545       117.9811       117.3847        40.0669       40.73296         0.3588         0.3743         0.4227       -43.9665       -34.1435       2299.535      0.1645311     0.02595451
      4765.5000        -999.25       2909.172       118.3794       117.8824        38.1861       38.32182          0.352         0.3684         0.4228       -44.0611       -34.2456       2319.532      0.1132301     0.02286056
      4766.0000        -999.25       2988.646         118.38       118.0819        36.7997       36.54391         0.3489         0.3625         0.4268       -44.0557       -34.2478       2319.802     0.07540228     0.02279397
      4766.5000        -999.25       3020.436       118.5794       117.9831        36.8012       36.54352         0.3427         0.3568         0.4328       -44.1503         -34.35       2320.015       0.075394     0.01969702
      4767.0000        -999.25       3036.345       119.5738       118.4807        37.2071       37.06123         0.3319         0.3539         0.4269       -43.8472       -34.0544       2320.208     0.08640923      0.0286545
      4767.5000        -999.25       3060.161        119.972       119.0777        37.1125       36.93788         0.3314         0.3523         0.4193       -43.6435       -33.8583       2320.404     0.08378471     0.03459699
      4768.0000        -999.25       3076.044       119.7738       119.3764        36.9191       36.68787          0.331          0.351         0.4099       -43.0413       -33.2636       2320.596      0.0784654      0.0526182
      4768.5000        -999.25       3083.978       119.7744        119.377        37.2221       37.07378         0.3305         0.3496         0.4025       -43.5339       -33.7638       2320.809     0.08667625     0.03746056
      4769.0000        -999.25       3083.961        119.775        119.179        38.6186       38.86027           0.33         0.3483         0.4026       -43.7279       -33.9654       2321.002      0.1246865      0.0313515
      4769.5000        -999.25       3068.044       118.9809       118.8815        39.5181       40.01007         0.3296          0.347         0.4045       -43.5242       -33.7692       2321.195      0.1491504     0.03729699
      4770.0000        -999.25       3052.132       118.5841       118.3424        39.4241       39.88749         0.3291         0.3463         0.4065       -43.1218       -33.3744       2321.407      0.1465424     0.04926057
      4770.5000        -999.25       3052.115       118.4057       118.1648         39.022       39.37029         0.3287         0.3447         0.4189       -42.9314       -33.1915       2321.606      0.1355381     0.05480298
      4771.0000        -999.25       3059.991       118.3804       118.1397        38.6813       38.93161         0.3278         0.3432         0.4292       -42.4254       -32.6931       2320.567      0.1262046     0.06990606
      4771.5000        -999.25       3059.971        118.577       118.3353        37.7342       37.71637         0.3269         0.3416         0.4371       -42.5249       -32.8001       2330.414      0.1003482     0.06666368
      4772.0000        -999.25       3083.755       118.9719       118.7282        36.2431       35.80436          0.326           0.34          0.435       -43.4195       -33.7023       2299.846      0.0596673     0.03932421
      4772.5000        -999.25       3099.606       119.3667       119.1211        36.6159       36.27955         0.3251         0.3384         0.4212       -43.6183       -33.9087       2299.397     0.06977763     0.03306973
      4773.0000        -999.25       3107.514       119.9605       119.7119         37.436       37.32777         0.3245         0.3368         0.4097        -44.023       -34.3209       2298.951     0.09208022     0.02057879
      4773.5000        -999.25       3123.368       119.9579       119.7093        37.6348       37.58022         0.3205         0.3353         0.4078       -44.3223       -34.6278       2298.461     0.09745147     0.01127879
      4774.0000        -999.25       3131.315       120.3527       120.1024        36.2431       35.79552         0.3165         0.3337         0.4096       -44.5223       -34.8353       2298.371     0.05947925    0.004990896
      4774.5000        -999.25       3202.797        120.947       120.2981        35.7461       35.15665         0.3126         0.3322         0.4267       -44.8216       -35.1422       2299.422     0.04588618              0
      4775.0000        -999.25       3242.521       121.4415       120.6913        36.1437       35.66373         0.3088         0.3307         0.4325       -45.1209        -35.449       2300.472     0.05667504              0
      4775.5000        -999.25       3258.417       121.8366       121.6779        37.3366       37.18944          0.305         0.3291         0.4344       -45.3208       -35.6565       2301.523     0.08913697              0
      4776.0000        -999.25       3321.982       122.6295       122.0712          38.43       38.58759         0.3012          0.327         0.4364       -45.4213       -35.7646       2302.573      0.1188848              0
      4776.5000        -999.25       3369.665       123.3232       122.8601        38.3306       38.45809         0.2975         0.3268         0.4284       -45.3231       -35.6739       2303.624      0.1161296              0
      4777.0000        -999.25       3385.551       123.9174       123.0556        36.3425       35.90952         0.2942         0.3245          0.411       -45.4236        -35.782       2304.674     0.06190467              0
      4777.5000        -999.25       3417.327       122.7219       122.6574        36.0443       35.52527         0.2955         0.3221         0.4053       -45.3254       -35.6913       2305.725      0.0537292              0
