#------------------------------------------------------------------------------
# Created by    : vladimir.rabinovich
# Created on    : 09/19/2023 17:20:34
#------------------------------------------------------------------------------
~Version Information Section
VERS.           2.0     :   CWLS log ASCII Standard - VERSION 2.0
WRAP.           NO      :   One line per depth step
~Well Information Section
#MNEM       .UNIT                                         VALUE :DESCRIPTION
#------------------------------------------------------------------------------
STRT        .FT                                             500 :START DEPTH
STOP        .FT                                            9234 :STOP DEPTH
STEP        .FT                                             0.5 :STEP      
NULL        .                                           -999.25 :NULL      
COMP        .                                      SHELL OIL CO :COMPANY   
WELL        .                                OCS 00713 ST00BP00 :WELL      
FLD         .                                           WILDCAT :FIELD     
LOC         .                                                   :LOCATION  
CNTY        .                             GALVESTON LARGE BLOCK :LOCATION  
STAT        .                                             TEXAS :STATE     
CTRY        .                                     UNITED STATES :COUNTRY   
SRVC        .                                                   :SERVICE COMPANY
DATE        .                             9/13/2023 11:19:25 AM :LOG DATE  
API         .                                    42706000510000 :API NUMBER
UWI         .                                    42706000510000 :UNIQUE WELL ID
XCOORD      .                                  1104646.85179908 :SURFACE X 
YCOORD      .                                   10481381.387581 :SURFACE Y 
LAT         .                                         28.871549 :LATITUDE  
LON         .                                        -94.674396 :LONGITUDE 
ELEV        .FT                                              82 :ELEVATION VALUE
ELEV_TYPE   .                                                KB :ELEVATION REFERENCE TYPE
~Curve Information Section
#MNEM       .UNIT                                      API CODE :CURVE DESCRIPTION
#------------------------------------------------------------------------------
DEPT        .FT                                                 :DEPTH     
ASN         .OHMM                                               :          
ASN_1       .OHMM                                               :          
GR_NORM     .                                                   :GammaRay Normalized
ILD         .OHMM                                               :          
LAT         .OHMM                                               :          
LN          .OHMM                                               :          
SP          .MV                                                 :          
SP_1        .MV                                                 :          
SP_NORM     .MV                                                 :SP Normalized
VSH_SP      .V/V                                                :Volume of Shale from SP
~A        DEPTH            ASN          ASN_1        GR_NORM            ILD            LAT             LN             SP           SP_1        SP_NORM         VSH_SP
# ...
      8070.5000         1.1353        -999.25        -999.25         0.6188        -999.25        -999.25       -85.2253        -999.25      -32.40402      0.1998942
      8071.0000         1.1723        -999.25        -999.25         0.6059        -999.25        -999.25        -87.571        -999.25      -34.75556      0.1380115
      8071.5000         1.2098        -999.25        -999.25         0.5989        -999.25        -999.25       -92.0758        -999.25      -39.26621      0.0193103
      8072.0000         1.1947        -999.25        -999.25         0.6004        -999.25        -999.25       -92.0287        -999.25      -39.22496     0.02039588
      8072.5000         1.1326        -999.25        -999.25         0.6019        -999.25        -999.25       -93.8059        -999.25        -41.008              0
      8073.0000         1.0591        -999.25        -999.25         0.6034        -999.25        -999.25       -92.6083        -999.25      -39.81625     0.00483553
      8073.5000         0.9927        -999.25        -999.25         0.6237        -999.25        -999.25       -91.4624        -999.25       -38.6762     0.03483682
      8074.0000         1.0465        -999.25        -999.25         0.6474        -999.25        -999.25       -90.3256        -999.25      -37.54525     0.06459878
      8074.5000         1.0942        -999.25        -999.25          0.672        -999.25        -999.25       -86.8566        -999.25      -34.08209      0.1557344
      8075.0000         1.1135        -999.25        -999.25         0.7004        -999.25        -999.25       -88.9191        -999.25      -36.15044      0.1013043
      8075.5000         1.1326        -999.25        -999.25         0.7208        -999.25        -999.25       -91.6871        -999.25      -38.92429     0.02830817
      8076.0000         1.1531        -999.25        -999.25         0.7231        -999.25        -999.25       -92.8824        -999.25      -40.12543              0
      8076.5000         1.1824        -999.25        -999.25         0.7254        -999.25        -999.25       -91.5411        -999.25      -38.78998     0.03184258
      8077.0000         1.2049        -999.25        -999.25         0.7181        -999.25        -999.25       -90.2828        -999.25      -37.53753     0.06480187
      8077.5000         1.1549        -999.25        -999.25         0.7072        -999.25        -999.25       -88.2642        -999.25      -35.52478       0.117769
      8078.0000         1.1053        -999.25        -999.25         0.6962        -999.25        -999.25       -89.5684        -999.25      -36.83482     0.08329421
      8078.5000         1.0555        -999.25        -999.25         0.6853        -999.25        -999.25       -88.4877        -999.25      -35.75997      0.1115797
      8079.0000         0.9958        -999.25        -999.25         0.6744        -999.25        -999.25        -85.486        -999.25      -32.76412      0.1904179
      8079.5000         0.9827        -999.25        -999.25         0.6661        -999.25        -999.25       -91.3927        -999.25      -38.67667     0.03482457
      8080.0000         0.9758        -999.25        -999.25         0.6577        -999.25        -999.25       -93.5338        -999.25      -40.82361              0
      8080.5000          0.971        -999.25        -999.25         0.6494        -999.25        -999.25       -95.6436        -999.25      -42.93926              0
      8081.0000           0.97        -999.25        -999.25         0.6361        -999.25        -999.25       -95.6749        -999.25       -42.9764              0
      8081.5000         0.9909        -999.25        -999.25         0.6573        -999.25        -999.25       -94.5735        -999.25      -41.88086              0
      8082.0000         1.0355        -999.25        -999.25         0.6785        -999.25        -999.25       -93.4363        -999.25       -40.7495              0
      8082.5000         1.1052        -999.25        -999.25         0.6997        -999.25        -999.25       -91.9281        -999.25      -39.24715     0.01981183
      8083.0000         1.1384        -999.25        -999.25         0.7281        -999.25        -999.25       -89.8844        -999.25       -37.2093     0.07343955
      8083.5000         1.1686        -999.25        -999.25         0.7573        -999.25        -999.25       -86.4557        -999.25      -33.78645      0.1635145
      8084.0000         1.2276        -999.25        -999.25          0.787        -999.25        -999.25       -83.3632        -999.25      -30.69979      0.2447424
      8084.5000          1.268        -999.25        -999.25         0.8167        -999.25        -999.25       -79.7754        -999.25      -27.11784      0.3390043
      8085.0000         1.3113        -999.25        -999.25          0.844        -999.25        -999.25       -78.2897        -999.25      -25.63799      0.3779477
      8085.5000         1.3117        -999.25        -999.25         0.8689        -999.25        -999.25       -76.2101        -999.25      -23.56423      0.4325202
      8086.0000         1.2978        -999.25        -999.25         0.8969        -999.25        -999.25       -78.3165        -999.25      -25.67648      0.3769348
      8086.5000         1.2845        -999.25        -999.25          0.927        -999.25        -999.25       -85.4427        -999.25      -32.80853      0.1892491
      8087.0000         1.2781        -999.25        -999.25         0.9499        -999.25        -999.25       -82.8859        -999.25      -30.25758      0.2563796
      8087.5000         1.2718        -999.25        -999.25         0.9722        -999.25        -999.25       -79.8269        -999.25      -27.20442      0.3367258
      8088.0000         1.2675        -999.25        -999.25         0.9999        -999.25        -999.25       -72.9607        -999.25      -20.34407      0.5172613
      8088.5000         1.2864        -999.25        -999.25         1.0285        -999.25        -999.25       -68.5908        -999.25      -15.98001      0.6321049
      8089.0000         1.3053        -999.25        -999.25         1.0594        -999.25        -999.25       -63.1431        -999.25      -10.53817      0.7753114
      8089.5000           1.31        -999.25        -999.25         1.0362        -999.25        -999.25       -61.5319        -999.25      -8.932812      0.8175576
      8090.0000          1.293        -999.25        -999.25          0.956        -999.25        -999.25       -60.3173        -999.25      -7.724056       0.849367
      8090.5000         1.2784        -999.25        -999.25         0.9009        -999.25        -999.25       -59.1968        -999.25      -6.609406      0.8786998
      8091.0000         1.2639        -999.25        -999.25         0.8758        -999.25        -999.25       -57.5306        -999.25      -4.949055      0.9223933
      8091.5000         1.2556        -999.25        -999.25         0.8508        -999.25        -999.25       -60.2903        -999.25        -7.7146      0.8496158
      8092.0000         1.2488        -999.25        -999.25         0.8268        -999.25        -999.25       -64.2478        -999.25      -11.67795       0.745317
      8092.5000          1.242        -999.25        -999.25         0.8103        -999.25        -999.25       -75.9814        -999.25       -23.4174      0.4363843
      8093.0000         1.2363        -999.25        -999.25         0.7937        -999.25        -999.25       -77.9423        -999.25      -25.38414      0.3846279
      8093.5000         1.2305        -999.25        -999.25         0.7771        -999.25        -999.25       -79.4124        -999.25      -26.86009      0.3457871
      8094.0000         1.2248        -999.25        -999.25         0.7642        -999.25        -999.25       -80.1183        -999.25      -27.57184      0.3270569
      8094.5000         1.2192        -999.25        -999.25         0.7846        -999.25        -999.25       -77.8392        -999.25      -25.29859      0.3868793
