#------------------------------------------------------------------------------
# Created by    : vladimir.rabinovich
# Created on    : 09/19/2023 17:22:28
#------------------------------------------------------------------------------
~Version Information Section
VERS.           2.0     :   CWLS log ASCII Standard - VERSION 2.0
WRAP.           NO      :   One line per depth step
~Well Information Section
#MNEM       .UNIT                                         VALUE :DESCRIPTION
#------------------------------------------------------------------------------
STRT        .FT                                            2981 :START DEPTH
STOP        .FT                                           10477 :STOP DEPTH
STEP        .FT                                             0.5 :STEP      
NULL        .                                           -999.25 :NULL      
COMP        .                          SEAGULL ENERGY E & P INC :COMPANY   
WELL        .                               OCS G13783 ST00BP00 :WELL      
FLD         .                                           WILDCAT :FIELD     
LOC         .                                                   :LOCATION  
CNTY        .                             GALVESTON LARGE BLOCK :LOCATION  
STAT        .                                             TEXAS :STATE     
CTRY        .                                     UNITED STATES :COUNTRY   
SRVC        .                                                   :SERVICE COMPANY
DATE        .                             9/13/2023 11:19:39 AM :LOG DATE  
API         .                                    42706403890000 :API NUMBER
UWI         .                                    42706403890000 :UNIQUE WELL ID
XCOORD      .                                  1047250.65699841 :SURFACE X 
YCOORD      .                                  10470150.2239286 :SURFACE Y 
LAT         .                                         28.838318 :LATITUDE  
LON         .                                         -94.85315 :LONGITUDE 
ELEV        .FT                                              94 :ELEVATION VALUE
ELEV_TYPE   .                                                KB :ELEVATION REFERENCE TYPE
~Curve Information Section
#MNEM       .UNIT                                      API CODE :CURVE DESCRIPTION
#------------------------------------------------------------------------------
DEPT        .FT                                                 :DEPTH     
CILD        .MMHO                                               :          
CNC         .%                                                  :          
DT24        .US/F                                               :          
GR          .GAPI                                               :          
GR_NORM     .GAPI                                               :GammaRay Normalized
PORZ        .%                                                  :          
RFOC        .OHMM                                               :          
RILD        .OHMM                                               :          
RILM        .OHMM                                               :          
RWAZ        .OHMM                                               :          
SP          .MV                                                 :          
SP_NORM     .MV                                                 :SP Normalized
TEN         .LBF                                                :          
VSH_GR      .V/V                                                :Volume of Shale from GR
VSH_SP      .V/V                                                :Volume of Shale from SP
ZCOR        .G/C3                                               :          
ZDEN        .G/C3                                               :          
~A        DEPTH           CILD            CNC           DT24             GR        GR_NORM           PORZ           RFOC           RILD           RILM           RWAZ             SP        SP_NORM            TEN         VSH_GR         VSH_SP           ZCOR           ZDEN
# ...
      7451.0000       1142.457         40.778       108.4679        80.1039       72.03387         25.425          1.047          0.875          0.856          0.074        -17.963      -16.76539        -29.502       0.830508      0.7604944          0.109           2.23
      7451.5000       1197.008         41.702        113.554        77.5609       68.98423          26.25          1.014          0.835          0.836          0.076        -23.073      -21.87539        -12.021      0.7656219      0.6874943            0.1          2.217
      7452.0000       1367.738         41.636       113.6809        72.1809       62.53019          26.95          0.954          0.731          0.771           0.07         -30.45       -29.2524          4.658       0.628302      0.5821086          0.094          2.205
      7452.5000       1644.373        40.2939        107.485        64.8679       53.75655         27.514          0.908          0.608          0.681          0.061         -41.03      -39.83239          -1.47      0.4416286      0.4309658          0.077          2.196
      7453.0000       2009.287         37.476        100.887         57.481       44.89423         27.964          0.905          0.498          0.583          0.052        -54.151       -52.9534        -25.558      0.2530687      0.2435229          0.055          2.189
      7453.5000       2401.988         35.119        94.7789         51.741       38.00819         28.514          0.966          0.416          0.495          0.045       -65.3159       -64.1183        -47.295      0.1065572     0.08402427          0.041           2.18
      7454.0000       2718.922         34.688        91.8619         49.408       35.21055         28.922          1.099          0.368          0.431          0.041        -70.705       -69.5074        -54.358     0.04703294    0.007037135          0.035          2.173
      7454.5000       2882.348           35.4        93.2999         52.633        39.0825         28.383          1.203          0.347            0.4          0.037        -71.351       -70.1534        -52.817       0.129415              0          0.042          2.182
      7455.0000       2889.883         35.211         98.448         60.853       48.94847         26.569          1.068          0.346          0.405          0.032        -67.887       -66.6894       -48.1169      0.3393291     0.04729429          0.059          2.212
      7455.5000       2804.855          34.06       105.7319        67.8989       57.40551         24.346           0.82          0.356           0.44          0.028        -57.423       -56.2254        -42.791      0.5192662      0.1967801           0.08          2.248
      7456.0000       2703.688          32.65        107.922        68.6609       58.32186         22.948          0.684           0.37          0.495          0.025       -42.1559      -40.95829        -35.736      0.5387629      0.4148815          0.089          2.271
      7456.5000       2591.184         30.203        103.877          64.25       53.03074         22.423          0.708          0.386          0.548          0.025        -31.499       -30.3014        -29.437       0.426186      0.5671229          0.081           2.28
      7457.0000       2391.211         27.674         94.689         59.972        47.8991         21.703          0.928          0.418          0.589          0.025        -30.497      -29.29939        -28.054      0.3170021      0.5814372          0.064          2.292
      7457.5000       2075.984         26.821        86.3899         59.671       47.53986         20.558          1.328          0.482          0.624          0.026       -32.9529      -31.75529       -34.7939      0.3093588      0.5463529          0.049          2.311
      7458.0000       1733.588         28.286        90.4049         64.662       53.53102         19.856          1.406          0.577          0.675          0.029        -30.206      -29.00839         -45.39      0.4368303      0.5855944          0.053          2.322
      7458.5000       1459.879         31.764        99.2579        72.3979       62.81607         19.575          1.106          0.685          0.754          0.033        -20.959      -19.76139        -44.694      0.6343845      0.7176943          0.081          2.327
      7459.0000       1272.475         34.861       103.6479        78.6539       70.32523         19.366          0.941          0.786           0.85          0.037        -10.832      -9.634395        -29.227      0.7941537      0.8623658          0.111           2.33
      7459.5000       1150.926        35.4919       104.3159        81.8529       74.16599         19.427          0.964          0.869           0.93          0.041         -4.878      -3.680395        -13.598       0.875872      0.9474229          0.129          2.329
      7460.0000       1074.887         35.991       100.6799           82.7       75.18446         19.748          1.086           0.93          0.971          0.046         -3.395      -2.197395          -8.92      0.8975418      0.9686086           0.13          2.324
      7460.5000        1018.26        37.9449         97.413         82.016       74.36562         20.132          1.162          0.982          0.978          0.051           -3.9      -2.702395        -11.719      0.8801196      0.9613944          0.114          2.318
      7461.0000       969.8389         40.252        99.8629         81.126       73.29958          20.79          1.146          1.031          0.967          0.057          -4.56      -3.362395        -15.445       0.857438      0.9519658          0.101          2.307
      7461.5000       936.5703          42.06       105.0409        81.9729       74.31783         21.889          1.102          1.068          0.956          0.066         -4.608      -3.410395        -20.945      0.8791026      0.9512801           0.11          2.289
      7462.0000       923.4482         43.488        108.105        84.2179       77.01379         22.615          1.055          1.083          0.956          0.072         -4.019      -2.821395        -29.144      0.9364635      0.9596943          0.126          2.277
      7462.5000       926.5293          44.83        108.094         86.693       79.98586         22.211          1.015          1.079          0.967          0.068         -3.306      -2.108395        -34.244      0.9996992        0.96988          0.127          2.283
      7463.0000       938.6143        44.6039       105.1479        87.9409       81.48531         21.325          1.012          1.065          0.974          0.062         -3.141      -1.943395        -33.008              1      0.9722372           0.12          2.298
      7463.5000       950.7607         42.514       101.4569         86.382       79.61658         21.242           1.06          1.052           0.97          0.061         -3.556      -2.358395         -29.71      0.9918422      0.9663087          0.123          2.299
      7464.0000       952.0166         40.388         99.224         82.939       75.48695         22.173          1.121           1.05          0.969          0.066         -4.281      -3.083395        -29.074      0.9039776      0.9559515          0.125          2.284
      7464.5000       936.6855        39.3589       100.7749        80.6169       72.70238         23.121          1.137          1.068          0.983          0.074         -5.026      -3.828395        -31.706      0.8447315      0.9453086          0.118          2.269
      7465.0000       914.5791         39.125       104.9199         79.976       71.93526         23.303          1.108          1.093          1.012          0.077         -5.349      -4.151395            -36      0.8284097      0.9406943          0.109          2.266
      7465.5000       907.2119         39.597         105.84        79.8639        71.8027         22.377          1.081          1.102          1.043          0.071          -5.13      -3.932395        -38.612      0.8255893      0.9438229          0.111          2.281
