#------------------------------------------------------------------------------
# Created by    : vladimir.rabinovich
# Created on    : 09/19/2023 17:22:45
#------------------------------------------------------------------------------
~Version Information Section
VERS.           2.0     :   CWLS log ASCII Standard - VERSION 2.0
WRAP.           NO      :   One line per depth step
~Well Information Section
#MNEM       .UNIT                                         VALUE :DESCRIPTION
#------------------------------------------------------------------------------
STRT        .FT                                            3370 :START DEPTH
STOP        .FT                                           10136 :STOP DEPTH
STEP        .FT                                             0.5 :STEP      
NULL        .                                           -999.25 :NULL      
COMP        .                                  W&T OFFSHORE INC :COMPANY   
WELL        .                               OCS G04565 ST00BP00 :WELL      
FLD         .                              GALVESTON BLOCK 0303 :FIELD     
LOC         .                                                   :LOCATION  
CNTY        .                             GALVESTON LARGE BLOCK :LOCATION  
STAT        .                                             TEXAS :STATE     
CTRY        .                                     UNITED STATES :COUNTRY   
SRVC        .                                                   :SERVICE COMPANY
DATE        .                             9/13/2023 11:19:27 AM :LOG DATE  
API         .                                    42706401000000 :API NUMBER
UWI         .                                    42706401000000 :UNIQUE WELL ID
XCOORD      .                                  988505.563749319 :SURFACE X 
YCOORD      .                                  10486369.8338556 :SURFACE Y 
LAT         .                                        28.8802688 :LATITUDE  
LON         .                                       -95.0374578 :LONGITUDE 
ELEV        .FT                                              93 :ELEVATION VALUE
ELEV_TYPE   .                                                KB :ELEVATION REFERENCE TYPE
~Curve Information Section
#MNEM       .UNIT                                      API CODE :CURVE DESCRIPTION
#------------------------------------------------------------------------------
DEPT        .FT                                                 :DEPTH     
DPHI        .DEC                                                :          
DRHO        .G/C3                                               :          
DT          .US/F                                               :          
GR          .GAPI                                               :          
GR_1        .GAPI                                               :          
GR_NORM     .GAPI                                               :GammaRay Normalized
ILD         .OHMM                                               :          
NPHI        .DEC                                                :          
RHOB        .G/C3                                               :          
SP          .MV                                                 :          
SP_NORM     .MV                                                 :SP Normalized
VSH_GR      .V/V                                                :Volume of Shale from GR
VSH_SP      .V/V                                                :Volume of Shale from SP
~A        DEPTH           DPHI           DRHO             DT             GR           GR_1        GR_NORM            ILD           NPHI           RHOB             SP        SP_NORM         VSH_GR         VSH_SP
# ...
      5232.0000          0.332        -0.0786       105.0004        27.9459        -999.25       32.93298         0.1763         0.3317         2.1116      -111.0934      -65.81038              0     0.05985173
      5232.5000         0.3275        -0.0767       103.7677        28.5797        -999.25       33.71674         0.1756         0.3258         2.1174      -111.5177      -66.23468     0.01524978     0.05379028
      5233.0000         0.3233        -0.0759       102.8414        28.9471        -999.25       34.16749         0.1729         0.3223         2.1215      -111.8905      -66.60748     0.02484017     0.04846453
      5233.5000         0.3196        -0.0761       102.3931        28.5525        -999.25       33.66575         0.1709         0.3195         2.1211      -112.0194      -66.73638     0.01416495     0.04662312
      5234.0000         0.3172        -0.0755       102.5969        27.9237        -999.25       32.87125         0.1704         0.3172          2.116      -111.8931      -66.61008              0     0.04842747
      5234.5000         0.3177        -0.0753       103.6047        27.3047        -999.25       32.08902          0.171          0.318         2.1111       -111.668      -66.38498              0     0.05164315
      5235.0000         0.3212        -0.0757       104.5039        27.5715        -999.25       32.41402         0.1764         0.3214         2.1141      -112.6465      -67.36348              0     0.03766458
      5235.5000         0.3245        -0.0766       105.6266        28.0393        -999.25       32.99028         0.1842         0.3304         2.1205      -113.2374      -67.95438              0      0.0292232
      5236.0000         0.3237        -0.0776       107.5867        28.6255        -999.25       33.71455         0.1964         0.3458         2.1246      -112.2615      -66.97848     0.01520311     0.04316461
      5236.5000         0.3214        -0.0779       109.7444        29.2623        -999.25       34.50205          0.209         0.3624         2.1265      -110.1617      -64.87868     0.03195848     0.07316175
      5237.0000         0.3168        -0.0781       110.2384        29.7372        -999.25       35.08718         0.2235         0.3678         2.1317      -108.0173      -62.73428     0.04440819       0.103796
      5237.5000          0.313        -0.0758       107.9053        29.8636        -999.25       35.23669         0.2373         0.3548         2.1401      -106.0901      -60.80708     0.04758924      0.1313274
      5238.0000         0.3098        -0.0641       103.0465        29.4973        -999.25       34.77032         0.2393         0.3238         2.1479      -104.3594      -59.07638     0.03766648      0.1560517
      5238.5000         0.3061        -0.0593       100.4237         28.768        -999.25       33.85021         0.2354         0.3069         2.1526      -102.7947      -57.51168     0.01808962      0.1784046
      5239.0000         0.3027        -0.0579        99.9769        28.3036        -999.25       33.26122         0.2273          0.301         2.1536      -101.7151      -56.43208    0.005557851      0.1938274
      5239.5000         0.2998        -0.0592        99.5752        28.7621        -999.25       33.82586         0.2186         0.2967         2.1518      -101.3796      -56.09658     0.01757139      0.1986203
      5240.0000         0.2992        -0.0614        99.1951        28.9219        -999.25       34.01711          0.206         0.2935         2.1502       -101.703      -56.41998     0.02164053      0.1940002
      5240.5000         0.2991        -0.0641        99.7347        28.7003        -999.25       33.73162         0.1963         0.2912         2.1493      -102.2126      -56.92958      0.0155664      0.1867203
      5241.0000         0.3009        -0.0676        99.9325        28.3284        -999.25       33.25826         0.1882         0.2895         2.1504      -102.5948      -57.31178    0.005494787      0.1812602
      5241.5000         0.3018        -0.0702         99.225        28.1939        -999.25       33.08163         0.1802         0.2877         2.1514      -103.1313      -57.84828    0.001736905       0.173596
      5242.0000         0.3016        -0.0718        98.3721        28.8011        -999.25       33.83215         0.1765          0.288         2.1521      -103.7662      -58.48318     0.01770531       0.164526
      5242.5000         0.3021        -0.0708        99.9252        28.8502        -999.25       33.88503         0.1777         0.2921         2.1531      -104.3297      -59.04668     0.01883032      0.1564761
      5243.0000         0.2994         -0.067       101.2921        28.4829        -999.25       33.41742         0.1814         0.2993         2.1561      -104.6615      -59.37848    0.008881183       0.151736
      5243.5000         0.2926        -0.0644       102.7196        28.2328        -999.25       33.09629          0.185         0.3077         2.1732      -104.9028      -59.61978    0.002048736      0.1482888
      5244.0000         0.2843        -0.0623       104.0422         28.448        -999.25        33.3568         0.1885         0.3178         2.1857      -105.0074      -59.72438    0.007591491      0.1467946
      5244.5000         0.2777        -0.0621        105.318        28.7918        -999.25       33.77807         0.1904         0.3269         2.1874      -105.0581      -59.77508     0.01655465      0.1460703
      5245.0000         0.2752        -0.0641       106.5679        29.1946        -999.25       34.27307         0.1912         0.3381          2.185      -104.9917      -59.70868     0.02708654      0.1470189
      5245.5000         0.2774        -0.0681       107.2054        29.5344        -999.25       34.68933         0.1895         0.3433         2.1828      -104.9972      -59.71418     0.03594321      0.1469403
      5246.0000         0.2811        -0.0722       106.7996        29.5859        -999.25       34.74521         0.1872         0.3383         2.1778      -105.0668      -59.78378      0.0371321       0.145946
      5246.5000         0.2881        -0.0748       106.3802        29.1875        -999.25       34.23872         0.1826         0.3328         2.1691      -105.1576      -59.87458     0.02635574      0.1446488
      5247.0000         0.2951         -0.076        105.845        28.5401        -999.25       33.42098         0.1744         0.3327         2.1563      -105.2529      -59.96988    0.008957071      0.1432874
      5247.5000         0.3022        -0.0752       105.9475        27.7957        -999.25       32.48199         0.1667         0.3355         2.1434      -105.4473      -60.16428              0      0.1405102
      5248.0000         0.3082        -0.0749       105.7023        27.1514        -999.25       31.66812         0.1614         0.3354         2.1372      -105.6287      -60.34568              0      0.1379189
      5248.5000         0.3114         -0.075       105.1682        26.7145        -999.25        31.1135         0.1589         0.3296         2.1333      -105.7208      -60.43778              0      0.1366031
      5249.0000         0.3122        -0.0741       104.4625        27.0741        -999.25       31.55451         0.1587         0.3226         2.1316      -105.5526      -60.26958              0       0.139006
      5249.5000         0.3139        -0.0728       104.1648        27.8148        -999.25        32.4719         0.1632         0.3167         2.1131       -105.125      -59.84198              0      0.1451146
      5250.0000          0.326        -0.0724        105.864        28.5037        -999.25       33.32453         0.1712         0.3186         2.0863      -104.6829      -59.39988    0.006904846      0.1514303
      5250.5000          0.348        -0.0742        111.295        31.2737        -999.25       36.77854         0.1876         0.3561         2.0682      -104.5024      -59.21938      0.0803945      0.1540088
