#------------------------------------------------------------------------------
# Created by    : vladimir.rabinovich
# Created on    : 09/19/2023 17:22:48
#------------------------------------------------------------------------------
~Version Information Section
VERS.           2.0     :   CWLS log ASCII Standard - VERSION 2.0
WRAP.           NO      :   One line per depth step
~Well Information Section
#MNEM       .UNIT                                         VALUE :DESCRIPTION
#------------------------------------------------------------------------------
STRT        .FT                                            3512 :START DEPTH
STOP        .FT                                           11028 :STOP DEPTH
STEP        .FT                                             0.5 :STEP      
NULL        .                                           -999.25 :NULL      
COMP        .                          SEAGULL ENERGY E & P INC :COMPANY   
WELL        .                   ST TR 147-L NE/4 /ST LSE 88034/ :WELL      
FLD         .                                           WILDCAT :FIELD     
LOC         .                                                   :LOCATION  
CNTY        .                             GALVESTON LARGE BLOCK :LOCATION  
STAT        .                                             TEXAS :STATE     
CTRY        .                                     UNITED STATES :COUNTRY   
SRVC        .                                                   :SERVICE COMPANY
DATE        .                             9/13/2023 11:18:53 AM :LOG DATE  
API         .                                    42706302000000 :API NUMBER
UWI         .                                    42706302000000 :UNIQUE WELL ID
XCOORD      .                                  1107149.67333588 :SURFACE X 
YCOORD      .                                  10638300.0198507 :SURFACE Y 
LAT         .                                        29.3031745 :LATITUDE  
LON         .                                         -94.67354 :LONGITUDE 
ELEV        .FT                                              25 :ELEVATION VALUE
ELEV_TYPE   .                                                KB :ELEVATION REFERENCE TYPE
~Curve Information Section
#MNEM       .UNIT                                      API CODE :CURVE DESCRIPTION
#------------------------------------------------------------------------------
DEPT        .FT                                                 :DEPTH     
DT          .US/F                                               :          
GR          .GAPI                                               :          
GR_NORM     .GAPI                                               :GammaRay Normalized
ILD         .OHMM                                               :          
ILM         .OHMM                                               :          
SFL         .OHMM                                               :          
SP          .MV                                                 :          
SP_NORM     .MV                                                 :SP Normalized
VSH_GR      .V/V                                                :Volume of Shale from GR
VSH_SP      .V/V                                                :Volume of Shale from SP
~A        DEPTH             DT             GR        GR_NORM            ILD            ILM            SFL             SP        SP_NORM         VSH_GR         VSH_SP
# ...
      4002.0000       149.8052         42.945       50.98922         0.2562         0.2816          0.623      -102.2983      -59.71001      0.3827493      0.1491303
      4002.5000       148.7859        44.7001        53.5376         0.2366         0.2604         0.6391      -100.7439      -58.19024      0.4369702      0.1711559
      4003.0000       147.7488        46.3123       55.87864         0.2132         0.2351         0.6249      -100.1036      -57.58459      0.4867796      0.1799335
      4003.5000       147.2437        46.5566       56.23512         0.1888          0.209         0.5744         -99.78      -57.29563      0.4943643      0.1841213
      4004.0000       148.8459        43.1702       51.32417         0.1601         0.1779         0.5285       -99.9861      -57.53637       0.389876      0.1806323
      4004.5000       152.8091        37.5013       43.10176         0.1397          0.152          0.484      -100.5153      -58.10021       0.214931      0.1724607
      4005.0000        155.575         34.102       38.17208         0.1211         0.1358         0.4587      -101.0919      -58.71146      0.1100443       0.163602
      4005.5000       155.1562        33.1666       36.81705         0.1078         0.1288         0.4394      -101.7079       -59.3621     0.08121385      0.1541725
      4006.0000       152.5178        36.8146       42.11165         0.1041         0.1272         0.4376      -102.3254      -60.01424      0.1938649      0.1447212
      4006.5000       149.1226        41.7352       49.25254          0.105         0.1248           0.46      -102.8063      -60.52978      0.3457988      0.1372496
      4007.0000       147.3186        44.1216       52.71682         0.1071         0.1245         0.4835      -103.3098      -61.06792      0.4195067      0.1294504
      4007.5000       147.2964        42.5598         50.453         0.1123         0.1243         0.5105      -103.4479      -61.24066      0.3713405      0.1269469
      4008.0000       147.7114        40.0392       46.79815         0.1165         0.1238         0.5372      -104.5986      -62.42601      0.2935776       0.109768
      4008.5000       147.2097        38.6521       44.78779         0.1213         0.1235         0.5526      -106.4275      -64.28955      0.2508041     0.08276013
      4009.0000       146.6714        38.4197       44.45269         0.1243         0.1234         0.5346      -107.6005      -65.49719      0.2436743     0.06525808
      4009.5000       146.2241        38.4551        44.5061         0.1256         0.1234         0.4875      -108.8965      -66.82784      0.2448107     0.04597341
      4010.0000       146.1772          38.73       44.90699         0.1251         0.1234          0.437      -109.7377      -67.70367      0.2533402     0.03328008
      4010.5000       146.7192        39.3992       45.87993          0.123         0.1234         0.3906      -110.0027      -68.00331       0.274041     0.02893752
      4011.0000       147.7605        39.7048       46.32535         0.1172         0.1234         0.3487      -109.8217      -67.85696      0.2835181      0.0310586
      4011.5000       148.2029        39.3782       45.85358          0.112         0.1235         0.3162      -109.4453       -67.5152      0.2734804     0.03601163
      4012.0000       148.3296        37.9186       43.73803         0.1086         0.1231         0.3119      -109.0327      -67.13724      0.2284688     0.04148931
      4012.5000       148.4563        36.8629       42.20848         0.1077         0.1231         0.3427      -108.4678      -66.60698       0.195925     0.04917421
      4013.0000       147.0759        37.7746       43.53323         0.1073         0.1236         0.3846      -107.8835      -66.05733      0.2241113     0.05714018
      4013.5000       146.0383         42.769        50.7812         0.1061         0.1245         0.3737      -106.9598      -65.16827      0.3783234     0.07002512
      4014.0000       146.3115        46.4219        56.0829         0.1046         0.1258         0.3217      -105.4036      -63.64671      0.4911256     0.09207667
      4014.5000       146.6245        48.9338       59.72924         0.1038         0.1271         0.2835      -103.1193      -61.39705      0.5687072      0.1246805
      4015.0000       146.4331        46.8489       56.70652         0.1104         0.1294         0.2661      -100.3845      -58.69689      0.5043939      0.1638132
      4015.5000         146.53        44.4748       53.26421         0.1247         0.1345         0.2498       -97.1205      -55.46753      0.4311534      0.2106155
      4016.0000       147.4753        42.6164        50.5701         0.1495         0.1607         0.2307       -92.9655      -51.34717      0.3738319      0.2703308
      4016.5000       147.7834        41.1936       48.50794         0.1873         0.2051         0.2587       -88.2468      -46.66312      0.3299562      0.3382157
      4017.0000       145.8901        38.4293       44.49953         0.2556         0.3047         0.3534       -83.3138      -41.76476      0.2446709      0.4092064
      4017.5000        141.302        35.0226       39.55913         0.3503         0.4066         0.6722       -80.8751       -39.3607      0.1395559      0.4440478
      4018.0000       135.1335        31.7316       34.78658         0.4701         0.5539         1.2636       -79.7225      -38.24274     0.03801232      0.4602501
      4018.5000       113.5962        28.7654       30.48527          0.664         0.7213         3.0513        -77.778      -36.33288              0      0.4879293
      4019.0000       105.3683        34.6066       38.96178         0.8878         0.8239          4.136       -74.7134      -33.30293      0.1268463      0.5318416
      4019.5000        98.1035        40.5906       47.64545         1.0385         0.8353         3.3671       -70.5189      -29.14306      0.3116052      0.5921295
      4020.0000        103.457        46.4169       56.10035         1.1628          0.782         1.7923       -66.0513      -24.71011      0.4914968      0.6563753
      4020.5000       110.3688        51.5394       63.53416         0.9682         0.6999         0.8953        -61.916      -20.60945       0.649663      0.7158051
      4021.0000       116.7618        53.7818       66.78951         0.8129         0.5935         0.6735       -57.9258      -16.65389      0.7189257       0.773132
      4021.5000       121.8512         55.255       68.92887         0.6761         0.5632         0.6293       -55.2748      -14.03753      0.7644441      0.8110502
      4022.0000       124.1078        56.9412       71.37729         0.5623         0.5585         0.6042       -54.2459      -13.04327       0.816538      0.8254598
      4022.5000       123.6538        58.4353       73.54699          0.471         0.5478         0.6195       -56.7567      -15.58871      0.8627019      0.7885693
      4023.0000       121.7092        59.4119       74.96592         0.4105         0.5122         0.6371       -61.2784      -20.14506      0.8928919      0.7225354
      4023.5000       120.8307        56.7184       71.06022         0.3711         0.4807         0.6423       -67.1761       -26.0774      0.8097919      0.6365594
      4024.0000       121.6549        52.6151       65.10921         0.3312         0.4428         0.6367       -74.6199      -33.55584      0.6831746      0.5281762
      4024.5000       125.3773        50.0674       61.41502            0.3         0.3858         0.5974       -81.6204      -40.59098       0.604575      0.4262177
      4025.0000       129.8616        51.6009        63.6419         0.2742         0.3486         0.5405       -86.5089      -45.51413      0.6519554      0.3548678
      4025.5000       134.7312        54.3824       67.67937         0.2516         0.3282         0.5107       -88.9447      -47.98457      0.7378589      0.3190643
      4026.0000       138.7883         56.423       70.64195         0.2342         0.3173         0.5163       -88.2147      -47.28921      0.8008926      0.3291419
