#------------------------------------------------------------------------------
# Created by    : vladimir.rabinovich
# Created on    : 09/19/2023 17:20:58
#------------------------------------------------------------------------------
~Version Information Section
VERS.           2.0     :   CWLS log ASCII Standard - VERSION 2.0
WRAP.           NO      :   One line per depth step
~Well Information Section
#MNEM       .UNIT                                         VALUE :DESCRIPTION
#------------------------------------------------------------------------------
STRT        .FT                                             521 :START DEPTH
STOP        .FT                                           11050 :STOP DEPTH
STEP        .FT                                             0.5 :STEP      
NULL        .                                           -999.25 :NULL      
COMP        .                                      SHELL OIL CO :COMPANY   
WELL        .                                     ST TR 00335-L :WELL      
FLD         .                                           WILDCAT :FIELD     
LOC         .                                                   :LOCATION  
CNTY        .                                BRAZOS LARGE BLOCK :LOCATION  
STAT        .                                             TEXAS :STATE     
CTRY        .                                     UNITED STATES :COUNTRY   
SRVC        .                                                   :SERVICE COMPANY
DATE        .                             9/13/2023 11:18:52 AM :LOG DATE  
API         .                                    42704000130000 :API NUMBER
UWI         .                                    42704000130000 :UNIQUE WELL ID
XCOORD      .                                  903482.990868916 :SURFACE X 
YCOORD      .                                   10450808.276789 :SURFACE Y 
LAT         .                                        28.7782296 :LATITUDE  
LON         .                                       -95.3008656 :LONGITUDE 
ELEV        .FT                                              81 :ELEVATION VALUE
ELEV_TYPE   .                                                DF :ELEVATION REFERENCE TYPE
~Curve Information Section
#MNEM       .UNIT                                      API CODE :CURVE DESCRIPTION
#------------------------------------------------------------------------------
DEPT        .FT                                                 :DEPTH     
ASN         .OHMM                                               :          
CILD        .MMHO                                               :          
ILD         .OHMM                                               :          
SP          .MV                                                 :          
SP_NORM     .MV                                                 :SP Normalized
VSH_SP      .V/V                                                :Volume of Shale from SP
~A        DEPTH            ASN           CILD            ILD             SP        SP_NORM         VSH_SP
# ...
      1205.0000         2.4361       317.6455         3.8486       -43.6404       2.439014              1
      1205.5000         2.4501       306.5176         3.9891       -43.7288       2.337589              1
      1206.0000          2.465       291.7744         4.0819       -43.8173       2.236069              1
      1206.5000         2.4825       273.2187           4.14       -43.9361       2.104244              1
      1207.0000         2.4979       256.5034          4.198       -44.1636        1.86372              1
      1207.5000         2.5076       243.3892         4.2561       -44.3909       1.623398              1
      1208.0000         2.5154       244.8057         4.2077       -44.6183       1.382973              1
      1208.5000         2.5225       258.6572         4.1282       -44.8943       1.093952              1
      1209.0000         2.5193       272.5068         4.0486       -45.2274      0.7478256              1
      1209.5000         2.5061       285.4883         3.9691       -45.5605      0.4017029              1
      1210.0000         2.4993       296.5479         3.8686        -45.872     0.07717896              1
      1210.5000         2.4949        307.604         3.7578       -46.1343      -0.198143              1
      1211.0000          2.489       312.5415          3.647       -46.3967      -0.473568              1
      1211.5000          2.483       306.1646         3.5361       -46.2749     -0.3647881              1
      1212.0000         2.4784       300.2822         3.4324       -46.1264     -0.2293129              1
      1212.5000         2.4738       294.3984         3.4603       -45.9779    -0.09383774              1
      1213.0000         2.4709       288.5142         3.5171       -45.8294     0.04164124              1
      1213.5000         2.4709       282.6318         3.5739       -45.6809      0.1771164              1
      1214.0000         2.4708       276.7476         3.6642       -45.5324      0.3125954              1
      1214.5000         2.4701       272.0752         3.7626       -45.3839      0.4480705              1
      1215.0000         2.4671       269.8301         3.8611       -45.2262      0.5927467              1
      1215.5000          2.464        267.585         3.9595       -45.0463      0.7596245              1
      1216.0000          2.461       265.3398          4.058       -44.8665      0.9263992              1
      1216.5000         2.4562        267.918         4.0712       -44.6868       1.093079              1
      1217.0000         2.4464        274.667         4.0575        -44.507       1.259853              1
      1217.5000         2.4365       281.4165         4.0333       -44.3271       1.426731              1
      1218.0000         2.4266       288.1323         3.9645       -44.5082       1.232605              1
      1218.5000         2.4167       294.8389         3.8956       -44.7647      0.9630814              1
      1219.0000         2.4044       301.5449         3.8267       -45.2111      0.5036583              1
      1219.5000         2.3919         308.25         3.7578       -45.6576     0.04413605              1
      1220.0000         2.3794        314.957         3.6889       -46.1041     -0.4153862              1
      1220.5000         2.3669       321.8999         3.6201       -46.5505     -0.8748093              1
      1221.0000         2.3544       329.1851         3.5203       -46.9387      -1.276035              1
      1221.5000         2.3419       336.4702         3.3934       -47.2285      -1.578857              1
      1222.0000         2.3274       343.7554         3.2665       -47.5181      -1.881481              1
      1222.5000         2.3129         349.79         3.1416       -47.7985      -2.174904              1
      1223.0000         2.2983       354.2139         3.1363       -47.4984      -1.887829              1
      1223.5000         2.2835       357.4893         3.2196       -47.1123      -1.514751              1
      1224.0000         2.2677       352.0698         3.3028       -46.3714     -0.7868729              1
      1224.5000         2.2529       343.5981          3.386       -45.6307    -0.05919647              1
      1225.0000          2.241       330.3184          3.469         -44.89      0.6684799              1
      1225.5000         2.2327       317.0352         3.5441        -44.149       1.396458              1
      1226.0000         2.2348       303.7554         3.6192       -43.4645       2.067932              1
      1226.5000         2.2415       290.8008         3.6943       -42.9521        2.56731              1
      1227.0000         2.2531        278.041         3.7693       -42.4398       3.066586              1
      1227.5000         2.2648       265.3994         3.8444       -41.9274       3.565964              1
      1228.0000         2.2764       276.9668         3.9195        -41.415       4.065338              1
      1228.5000         2.2822       287.4937         3.9946        -41.043       4.424316              1
      1229.0000         2.2821         298.02         4.0007       -40.7168       4.737492              1
      1229.5000          2.282       308.5469          3.868       -40.4673       4.973969              1
      1230.0000          2.282       319.1064         3.5629       -40.7772       4.651047              1
      1230.5000          2.277       330.1626         3.3981       -41.4156       3.999622              1
      1231.0000         2.2677       341.2192         3.2877       -42.2602       3.141998              1
      1231.5000         2.2584       352.2783         3.1773       -43.1707       2.218479              1
      1232.0000         2.2491       361.3345         3.0669       -43.8373       1.538857              1
      1232.5000         2.2399       355.5166         3.0417       -44.1329       1.230232              1
      1233.0000         2.2306       349.5308         3.0648       -44.0526       1.297508              1
      1233.5000         2.2188       342.2129         3.0879       -43.9227       1.414387              1
      1234.0000         2.1972       334.8955         3.1208       -43.7928       1.531261              1
      1234.5000         2.1756       327.5771         3.1655       -43.7332       1.577839              1
      1235.0000          2.154       320.2583         3.2102       -43.8664       1.431614              1
      1235.5000          2.133       312.9419          3.255       -43.9995       1.285492              1
      1236.0000          2.122       311.3169         3.2997       -44.1326        1.13937              1
      1236.5000         2.1119       312.1968         3.3444       -44.2658       0.993145              1
      1237.0000         2.1041       325.0552         3.3891       -44.2791      0.9668236              1
      1237.5000         2.0964       339.2236         3.4178       -44.2785      0.9543991              1
      1238.0000         2.0886       353.3892         3.4009        -44.278      0.9418755              1
      1238.5000         2.0809       368.4761         3.2278       -44.2773      0.9295502              1
      1239.0000         2.0645       388.3677         3.0329       -44.0864        1.10743              1
      1239.5000          2.039       408.2588         2.8282       -43.8142       1.366604              1
      1240.0000         1.9796        428.147         2.6082       -43.5419       1.625881              1
      1240.5000         1.9391       448.0381         2.3881       -43.2697       1.885059              1
      1241.0000         1.9005        477.373         2.1939       -43.0303       2.111435              1
      1241.5000         1.8472       517.8555         2.0514       -42.8876       2.241112              1
      1242.0000         1.7705       581.0459         1.9291       -42.7448       2.370888              1
      1242.5000         1.7296       603.2432         1.8839       -42.6647       2.437965              1
