#------------------------------------------------------------------------------
# Created by    : vladimir.rabinovich
# Created on    : 09/19/2023 17:20:11
#------------------------------------------------------------------------------
~Version Information Section
VERS.           2.0     :   CWLS log ASCII Standard - VERSION 2.0
WRAP.           NO      :   One line per depth step
~Well Information Section
#MNEM       .UNIT                                         VALUE :DESCRIPTION
#------------------------------------------------------------------------------
STRT        .FT                                             984 :START DEPTH
STOP        .FT                                            6595 :STOP DEPTH
STEP        .FT                                             0.5 :STEP      
NULL        .                                           -999.25 :NULL      
COMP        .                   MCMORAN OFFSHORE EXPLORATION CO :COMPANY   
WELL        .                               OCS G03106 ST00BP00 :WELL      
FLD         .                                           WILDCAT :FIELD     
LOC         .                                                   :LOCATION  
CNTY        .                      MATAGORDA ISLAND LARGE BLOCK :LOCATION  
STAT        .                                             TEXAS :STATE     
CTRY        .                                     UNITED STATES :COUNTRY   
SRVC        .                                                   :SERVICE COMPANY
DATE        .                             9/13/2023 11:12:09 AM :LOG DATE  
API         .                                    42703400570000 :API NUMBER
UWI         .                                    42703400570000 :UNIQUE WELL ID
XCOORD      .                                  467986.403229072 :SURFACE X 
YCOORD      .                                  10153243.7887249 :SURFACE Y 
LAT         .                                         27.931172 :LATITUDE  
LON         .                                        -96.630795 :LONGITUDE 
ELEV        .FT                                              95 :ELEVATION VALUE
ELEV_TYPE   .                                                KB :ELEVATION REFERENCE TYPE
~Curve Information Section
#MNEM       .UNIT                                      API CODE :CURVE DESCRIPTION
#------------------------------------------------------------------------------
DEPT        .FT                                                 :DEPTH     
ASFL        .OHMM                                               :          
CILD        .MMHO                                               :          
DT          .US/F                                               :          
GR          .GAPI                                               :          
GR_NORM     .GAPI                                               :GammaRay Normalized
ILD         .OHMM                                               :          
SFL         .OHMM                                               :          
SP          .MV                                                 :          
SP_NORM     .MV                                                 :SP Normalized
VSH_GR      .V/V                                                :Volume of Shale from GR
VSH_SP      .V/V                                                :Volume of Shale from SP
~A        DEPTH           ASFL           CILD             DT             GR        GR_NORM            ILD            SFL             SP        SP_NORM         VSH_GR         VSH_SP
# ...
      4336.5000         0.9566       1290.055        131.106        -999.25        -999.25         0.6641         0.7847       -38.1266        -0.3226        -999.25              1
      4337.0000         0.9957       1258.018       134.6499        -999.25        -999.25         0.6766         0.7455       -38.1293        -0.3173        -999.25              1
      4337.5000          1.025       1226.004       135.0015        -999.25        -999.25         0.6891         0.7191       -38.1319        -0.3118        -999.25              1
      4338.0000         1.0544       1212.094        133.418        -999.25        -999.25            0.7         0.7138       -38.1345        -0.3064        -999.25              1
      4338.5000         1.0843       1229.852       131.3088        -999.25        -999.25         0.6998         0.7375       -38.1372         -0.301        -999.25              1
      4339.0000         1.1143       1247.609       129.2324        -999.25        -999.25         0.6996         0.7792       -38.1285        -0.2843        -999.25              1
      4339.5000         1.1107       1265.367       127.4351        -999.25        -999.25         0.6994         0.8118       -38.1185        -0.2662        -999.25              1
      4340.0000         1.0891       1300.734       127.4248        -999.25        -999.25         0.6771         0.8332       -38.1085        -0.2481        -999.25              1
      4340.5000         1.0676       1359.359       128.3662        -999.25        -999.25         0.6492         0.8422       -37.6022         0.2662        -999.25              1
      4341.0000         1.0316       1389.869       129.5464        -999.25        -999.25         0.6212          0.839       -36.9728         0.9037        -999.25              1
      4341.5000         0.9949       1419.859       129.9148        -999.25        -999.25         0.5933         0.8238       -36.7457         1.1388        -999.25              1
      4342.0000         0.9544       1447.531       127.9122        -999.25        -999.25         0.5653         0.8088       -36.6048         1.2878        -999.25              1
      4342.5000         0.8755       1475.229       125.8672        -999.25        -999.25         0.5489          0.794       -36.4783         1.4223        -999.25              1
      4343.0000         0.7838       1497.869        124.158        -999.25        -999.25         0.5329         0.7818       -36.4809         1.4278        -999.25              1
      4343.5000         0.8002       1496.229       122.9391        -999.25        -999.25         0.5169         0.7743       -36.4835         1.4333        -999.25              1
      4344.0000         0.8244       1478.928       121.8533        -999.25        -999.25         0.5127         0.7686       -36.0727         1.8521        -999.25              1
      4344.5000         0.8487       1461.639       122.2108        -999.25        -999.25          0.522         0.7638        -35.649         2.2839        -999.25              1
      4345.0000         0.8731        1444.35        125.535        -999.25        -999.25         0.5314         0.7588       -35.2433         2.6976        -999.25              1
      4345.5000         0.8973        1433.27       130.3716        -999.25        -999.25         0.5408         0.7539       -34.9015         3.0475        -999.25              1
      4346.0000         0.8848         1428.6       134.3335        -999.25        -999.25         0.5501         0.7511       -34.5726         3.3844        -999.25              1
      4346.5000         0.8723        1431.92       136.5137        -999.25        -999.25         0.5519         0.7538       -34.4291          3.536        -999.25              1
      4347.0000         0.8598        1435.24       136.5029        -999.25        -999.25         0.5531         0.7695       -34.2857         3.6874        -999.25              1
      4347.5000          0.848       1438.561       131.3474        -999.25        -999.25         0.5544         0.7986       -34.3287         3.6525        -999.25              1
      4348.0000         0.8363       1441.881       125.1919        -999.25        -999.25         0.5556         0.8409       -34.3865         3.6028        -999.25              1
      4348.5000         0.8246       1446.588       121.4642        -999.25        -999.25         0.5568         0.9081       -34.7513          3.246        -999.25              1
      4349.0000         0.8183           1454       119.7532        -999.25        -999.25         0.5519         0.9666       -35.1927         2.8127        -999.25              1
      4349.5000         0.8125       1461.404       119.3893        -999.25        -999.25          0.539         0.9632       -35.7318         2.2816        -999.25              1
      4350.0000         0.8066       1468.816       119.8154        -999.25        -999.25         0.5262         0.8502       -36.9368         1.0847        -999.25              1
      4350.5000         0.8067       1510.867       120.4563        -999.25        -999.25         0.5133         0.7758       -38.1943        -0.1648        -999.25              1
      4351.0000         0.8375       1619.484       121.1182        -999.25        -999.25         0.5004         0.7764       -40.0612        -2.0236        -999.25              1
      4351.5000         0.9145       1691.451       121.3059        -999.25        -999.25         0.4824         0.7933       -41.9316        -3.8859        -999.25      0.9772846
      4352.0000         0.9731         1746.6       121.0052        -999.25        -999.25         0.4627         0.7947       -43.8168        -5.7631        -999.25      0.9291513
      4352.5000         1.0124       1797.678       119.8759        -999.25        -999.25         0.4429         0.7823       -45.8314        -7.7696        -999.25      0.8777026
      4353.0000         1.0394       1841.184       118.4963        -999.25        -999.25         0.4232         0.7774       -47.9265        -9.8567        -999.25      0.8241872
      4353.5000         1.0206       1884.664       116.9647        -999.25        -999.25         0.4035         0.7754        -49.775       -11.6971        -999.25      0.7769974
      4354.0000          0.981       1928.172       114.8375        -999.25        -999.25         0.3979         0.7953       -50.7688       -12.6829        -999.25      0.7517205
      4354.5000         0.9263       2009.709       110.6581        -999.25        -999.25         0.3937         0.8192       -48.7189       -10.6249        -999.25      0.8044897
      4355.0000         0.8795       2129.027       105.7539        -999.25        -999.25         0.3894          0.847       -46.8875        -8.7855        -999.25      0.8516539
      4355.5000         0.8379       2194.684        104.052        -999.25        -999.25         0.3852         0.8891       -46.1067        -7.9966        -999.25       0.871882
      4356.0000         0.8117       2238.113       105.8264        -999.25        -999.25         0.3809         0.9298       -45.4669        -7.3487        -999.25      0.8884948
      4356.5000          0.835        2148.66       110.8997        -999.25        -999.25         0.3776          0.945       -44.7685        -6.6423        -999.25      0.9066077
      4357.0000         0.8496       1833.463       115.9681        -999.25        -999.25         0.3964         0.9346       -43.9059        -5.7716        -999.25      0.9289333
      4357.5000         0.8425       1715.375        119.389        -999.25        -999.25         0.4151         0.9468       -42.6826        -4.5403        -999.25      0.9605051
      4358.0000         0.8355       1652.188        113.562        -999.25        -999.25         0.4339         0.9823       -40.9964         -2.846        -999.25              1
      4358.5000         0.8339       1589.049       105.2224        -999.25        -999.25         0.4527         1.0257       -38.9709        -0.8125        -999.25              1
