#------------------------------------------------------------------------------
# Created by    : vladimir.rabinovich
# Created on    : 09/19/2023 17:20:45
#------------------------------------------------------------------------------
~Version Information Section
VERS.           2.0     :   CWLS log ASCII Standard - VERSION 2.0
WRAP.           NO      :   One line per depth step
~Well Information Section
#MNEM       .UNIT                                         VALUE :DESCRIPTION
#------------------------------------------------------------------------------
STRT        .FT                                            2110 :START DEPTH
STOP        .FT                                            6746 :STOP DEPTH
STEP        .FT                                             0.5 :STEP      
NULL        .                                           -999.25 :NULL      
COMP        .                       HOUSTON OIL & MINERALS CORP :COMPANY   
WELL        .                                ST TR 00694-L NE/4 :WELL      
FLD         .                                           WILDCAT :FIELD     
LOC         .                                                   :LOCATION  
CNTY        .                      MATAGORDA ISLAND LARGE BLOCK :LOCATION  
STAT        .                                             TEXAS :STATE     
CTRY        .                                     UNITED STATES :COUNTRY   
SRVC        .                                                   :SERVICE COMPANY
DATE        .                             9/13/2023 11:12:01 AM :LOG DATE  
API         .                                    42703302070000 :API NUMBER
UWI         .                                    42703302070000 :UNIQUE WELL ID
XCOORD      .                                  400461.464340365 :SURFACE X 
YCOORD      .                                  10145980.2526086 :SURFACE Y 
LAT         .                                        27.9055609 :LATITUDE  
LON         .                                       -96.8388291 :LONGITUDE 
ELEV        .FT                                              25 :ELEVATION VALUE
ELEV_TYPE   .                                                KB :ELEVATION REFERENCE TYPE
~Curve Information Section
#MNEM       .UNIT                                      API CODE :CURVE DESCRIPTION
#------------------------------------------------------------------------------
DEPT        .FT                                                 :DEPTH     
ASN         .OHMM                                               :          
CILD        .MMHO                                               :          
ILD         .OHMM                                               :          
SP          .MV                                                 :          
SP_NORM     .MV                                                 :SP Normalized
VSH_SP      .V/V                                                :Volume of Shale from SP
~A        DEPTH            ASN           CILD            ILD             SP        SP_NORM         VSH_SP
# ...
      5188.0000         0.8103       1946.348         0.3902       -81.4476       -47.2569      0.1460962
      5188.5000          0.808       1934.602         0.4128       -80.5917       -46.4077      0.1621189
      5189.0000          0.818       1847.916         0.4414       -79.7363       -45.5591      0.1781302
      5189.5000         0.8397       1765.922         0.4707        -79.075       -44.9046      0.1904793
      5190.0000         0.8727       1696.295            0.5       -79.5708       -45.4072      0.1809962
      5190.5000         0.9223       1626.619         0.5293       -80.3806       -46.2238      0.1655887
      5191.0000          1.018       1558.828         0.5586       -81.4613       -47.3113      0.1450698
      5191.5000         1.0545       1491.635         0.5573       -82.2706       -48.1274      0.1296717
      5192.0000         1.0435       1424.441          0.556          -82.6       -48.4636      0.1233283
      5192.5000         1.0255       1365.096         0.5547       -82.6952       -48.5656      0.1214037
      5193.0000         1.0059        1330.74         0.5392       -82.5974       -48.4746      0.1231207
      5193.5000         0.9864       1390.721         0.5229       -82.4387       -48.3227      0.1259868
      5194.0000         0.9668       1496.502         0.5065       -81.7415       -47.6323      0.1390132
      5194.5000         0.9489       1577.602         0.4902       -81.0082       -46.9058      0.1527208
      5195.0000         0.9321       1644.498         0.4739       -80.2288       -46.1331         0.1673
      5195.5000         0.9153       1711.393         0.4576       -79.4487       -45.3598      0.1818906
      5196.0000         0.8991       1733.443         0.4413       -78.5455       -44.4634      0.1988037
      5196.5000         0.9567       1754.252         0.4665       -76.7489       -42.6736      0.2325736
      5197.0000         1.0339       1775.035         0.4986       -70.7118       -36.6433      0.3463528
      5197.5000         1.1123       1680.057         0.5308       -69.4667        -35.405       0.369717
      5198.0000         1.1306       1581.723         0.5747       -68.2516       -34.1967      0.3925151
      5198.5000         1.1056       1374.133         0.6375       -67.0253       -32.9772      0.4155245
      5199.0000         1.0827       1260.307         0.7002       -65.7018       -31.6605      0.4403679
      5199.5000         1.0598       1138.236         0.7232       -64.3136       -30.2791      0.4664321
      5200.0000         1.0369        986.666         0.7302       -56.1947        -22.167      0.6194906
      5200.5000         1.0203       1030.852         0.7371        -38.153        -4.1321      0.9597717
      5201.0000         1.0086       1049.563         0.7441       -37.2167        -3.2026      0.9773094
      5201.5000         0.9968       1068.285         0.7492       -36.2811        -2.2738      0.9948339
      5202.0000         0.9924       1086.996         0.7535       -35.3448        -1.3442              1
      5202.5000         1.0192         1092.1         0.7577       -34.9148         -0.921              1
      5203.0000         1.0461       1088.896         0.7619       -34.9446        -0.9576              1
      5203.5000         1.0667         1069.9         0.7662       -34.9745        -0.9943              1
      5204.0000         1.0869       1050.891         0.7738       -35.0043        -1.0309              1
      5204.5000         1.1046       1031.039          0.782       -35.0342        -1.0676              1
      5205.0000         1.1157       1009.188         0.7902        -35.064        -1.1003              1
      5205.5000         1.1269       987.3115         0.7984       -35.0938         -1.126              1
      5206.0000         1.1271         965.46         0.8073       -35.1362        -1.1644              1
      5206.5000         1.1253        944.291         0.8173       -35.1801        -1.2042              1
      5207.0000         1.1234       931.5029         0.8274       -35.2239         -1.244              1
      5207.5000         1.1232       918.7148         0.8374       -35.2678        -1.2838              1
      5208.0000         1.1252       909.5146         0.8474       -35.3116        -1.3236              1
      5208.5000         1.1272       904.5293         0.8574       -35.6349        -1.6428              1
      5209.0000         1.1306       899.5479         0.8674        -36.278        -2.2819      0.9951397
      5209.5000         1.1348       894.5625         0.8811       -36.9509        -2.9507      0.9836086
      5210.0000          1.139       889.5781         0.8949       -37.6544        -3.6502      0.9715483
      5210.5000         1.1431       884.5928         0.9087       -38.0392        -4.0309      0.9649845
      5211.0000         1.1453       879.6113         0.9225       -38.1099        -4.0976      0.9638345
      5211.5000         1.1475        874.627         0.9364       -38.1805        -4.1641      0.9626879
      5212.0000         1.1496       869.6416           0.95       -38.2767        -4.2563      0.9610983
      5212.5000         1.1517       870.8115         0.9636        -38.384        -4.3595       0.959319
      5213.0000         1.1539       873.4189         0.9772       -38.4914        -4.4629      0.9575362
      5213.5000          1.156       876.0264         0.9908       -38.5988        -4.5662      0.9557552
      5214.0000         1.1556       878.6367         0.9984       -38.7062        -4.6696      0.9539724
      5214.5000          1.155       881.2441         0.9918       -38.7853        -4.7446      0.9526793
      5215.0000         1.1545       883.8545         0.9853       -38.8607         -4.816      0.9514483
      5215.5000         1.1539       901.6426         0.9788       -38.9361        -4.8873       0.950219
      5216.0000         1.1533       923.8418         0.9726       -39.0115        -4.9587      0.9489879
      5216.5000         1.1512       949.1953         0.9702       -39.3012        -5.2443      0.9440638
      5217.0000         1.1478       977.0557         0.9679       -39.7009          -5.64      0.9372414
      5217.5000         1.1443       1004.892         0.9655       -40.4277        -6.3627       0.924781
      5218.0000         1.1425       1024.855         0.9631       -41.5233        -7.4543      0.9059603
      5218.5000         1.1551       1037.979         0.9607       -44.1379       -10.0648      0.8609517
      5219.0000         1.1677        1047.24         0.9583       -47.9576       -13.8805      0.7951638
      5219.5000         1.1808        1028.01         0.9599       -51.9616       -17.8804         0.7262
      5220.0000         1.2016       1007.847         0.9636       -55.7578       -21.6726      0.6608173
      5220.5000         1.2225       987.2617         0.9673       -56.3429       -22.2536         0.6508
      5221.0000         1.2369       966.6768         0.9711        -56.928       -22.8347       0.640781
      5221.5000         1.2473       946.0908         0.9748        -56.806       -22.7086      0.6429552
      5222.0000         1.2557       930.5596         0.9785       -48.2465       -14.1451      0.7906017
      5222.5000         1.2608       917.2617         0.9822       -46.0714       -11.9659      0.8281741
      5223.0000          1.266       903.9775         0.9898       -44.3259       -10.2164      0.8583379
      5223.5000         1.2651       890.6797         0.9973       -42.7571        -8.6435      0.8854569
      5224.0000         1.2595       877.3955         1.0048       -41.3788        -7.2612      0.9092897
      5224.5000         1.2539       864.5322         1.0124       -40.0019        -5.8802         0.9331
      5225.0000         1.2482       858.1885         1.0199        -38.402        -4.2763      0.9607534
      5225.5000         1.2426       851.8437         1.0274       -37.1464        -3.0166      0.9824724
