#------------------------------------------------------------------------------
# Created by    : vladimir.rabinovich
# Created on    : 09/19/2023 17:19:50
#------------------------------------------------------------------------------
~Version Information Section
VERS.           2.0     :   CWLS log ASCII Standard - VERSION 2.0
WRAP.           NO      :   One line per depth step
~Well Information Section
#MNEM       .UNIT                                         VALUE :DESCRIPTION
#------------------------------------------------------------------------------
STRT        .FT                                             816 :START DEPTH
STOP        .FT                                            7470 :STOP DEPTH
STEP        .FT                                             0.5 :STEP      
NULL        .                                           -999.25 :NULL      
COMP        .                                   KERR-MCGEE CORP :COMPANY   
WELL        .                               OCS G05003 ST00BP00 :WELL      
FLD         .                                 BRAZOS BLOCK 0412 :FIELD     
LOC         .                                                   :LOCATION  
CNTY        .                                BRAZOS LARGE BLOCK :LOCATION  
STAT        .                                             TEXAS :STATE     
CTRY        .                                     UNITED STATES :COUNTRY   
SRVC        .                                                   :SERVICE COMPANY
DATE        .                             9/13/2023 11:19:08 AM :LOG DATE  
API         .                                    42704401140000 :API NUMBER
UWI         .                                    42704401140000 :UNIQUE WELL ID
XCOORD      .                                  819493.037302503 :SURFACE X 
YCOORD      .                                  10380289.6446028 :SURFACE Y 
LAT         .                                         28.579682 :LATITUDE  
LON         .                                        -95.558179 :LONGITUDE 
ELEV        .FT                                              90 :ELEVATION VALUE
ELEV_TYPE   .                                                KB :ELEVATION REFERENCE TYPE
~Curve Information Section
#MNEM       .UNIT                                      API CODE :CURVE DESCRIPTION
#------------------------------------------------------------------------------
DEPT        .FT                                                 :DEPTH     
ASFL        .OHMM                                               :          
CALI        .IN                                                 :          
CILD        .MMHO                                               :          
GR          .GAPI                                               :          
GR_NORM     .GAPI                                               :GammaRay Normalized
ILD         .OHMM                                               :          
ILM         .OHMM                                               :          
RHOB        .G/C3                                               :          
SP          .MV                                                 :          
SP_NORM     .MV                                                 :SP Normalized
VSH_GR      .V/V                                                :Volume of Shale from GR
VSH_SP      .V/V                                                :Volume of Shale from SP
~A        DEPTH           ASFL           CALI           CILD             GR        GR_NORM            ILD            ILM           RHOB             SP        SP_NORM         VSH_GR         VSH_SP
# ...
      5695.0000         0.9055        14.3528       1217.588        -999.25        -999.25         0.7628          0.788         2.0692       -42.0969      0.7602425        -999.25              1
      5695.5000         0.8955        14.3455       1212.389        -999.25        -999.25         0.7631         0.7834         2.0368       -42.1364      0.7207451        -999.25              1
      5696.0000         0.8855        14.3372       1214.027        -999.25        -999.25         0.7634         0.7745         2.0294       -42.1825      0.6746445        -999.25              1
      5696.5000         0.8755         14.329       1221.047        -999.25        -999.25         0.7637         0.7649         2.0366       -42.2286      0.6285439        -999.25              1
      5697.0000         0.8657        14.3225        1234.07        -999.25        -999.25         0.7632         0.7553         2.0427       -42.2747      0.5824432        -999.25              1
      5697.5000         0.8567        14.3159       1247.094        -999.25        -999.25         0.7614         0.7481         2.0455       -42.4628      0.3943443        -999.25              1
      5698.0000         0.8476        14.3102       1260.848        -999.25        -999.25         0.7597         0.7447         2.0464       -42.6348      0.2223434        -999.25              1
      5698.5000         0.8446        14.3069       1277.152        -999.25        -999.25         0.7579         0.7432         2.0442       -42.8002     0.05694199        -999.25              1
      5699.0000         0.8493        14.3145       1293.469        -999.25        -999.25         0.7561         0.7463         2.0424       -42.9656     -0.1084557        -999.25              1
      5699.5000         0.8539        14.3232       1309.785        -999.25        -999.25         0.7543         0.7523         2.0441       -43.0618     -0.2046547        -999.25              1
      5700.0000         0.8585        14.3342       1320.729        -999.25        -999.25         0.7555         0.7625         2.0621       -43.1542     -0.2970581        -999.25              1
      5700.5000         0.8631        14.3463       1310.068        -999.25        -999.25         0.7583         0.7736         2.0803       -42.9128    -0.05565643        -999.25              1
      5701.0000         0.8678        14.3577       1294.236        -999.25        -999.25          0.761         0.7826          2.096       -42.6713      0.1858444        -999.25              1
      5701.5000         0.8724        14.3688       1274.205        -999.25        -999.25         0.7638         0.7809         2.1105        -42.391      0.4661446        -999.25              1
      5702.0000          0.877        14.3854       1254.379        -999.25        -999.25         0.7665         0.7791         2.1253       -42.0758      0.7813416        -999.25              1
      5702.5000         0.8826        14.4047       1251.059        -999.25        -999.25         0.7673         0.7764         2.1408       -41.7787       1.078442        -999.25              1
      5703.0000         0.8907        14.3946        1252.35        -999.25        -999.25         0.7657         0.7732          2.153       -41.4993       1.357845        -999.25              1
      5703.5000         0.8948        14.3683       1258.465        -999.25        -999.25         0.7632           0.77         2.1423       -41.2195       1.637642        -999.25              1
      5704.0000         0.8971        14.3193        1264.58        -999.25        -999.25         0.7601         0.7694         2.1053       -40.9402       1.916943        -999.25              1
      5704.5000         0.8923        14.2688       1270.695        -999.25        -999.25         0.7569         0.7687         2.0594       -40.6608       2.196342        -999.25              1
      5705.0000         0.8876        14.2443       1276.322        -999.25        -999.25         0.7538         0.7676         2.0454       -40.3814       2.475742        -999.25              1
      5705.5000         0.8828        14.3418       1280.225        -999.25        -999.25         0.7506         0.7662         2.0487       -40.1204       2.736744        -999.25              1
      5706.0000         0.8799        14.4311       1284.131        -999.25        -999.25         0.7475         0.7645         2.0539       -39.8633       2.993843        -999.25              1
      5706.5000         0.8771        14.4935       1288.037        -999.25        -999.25         0.7443         0.7627         2.0616       -39.6062       3.250942        -999.25              1
      5707.0000         0.8743        14.5245       1291.941        -999.25        -999.25         0.7412         0.7612         2.0757       -39.7788       3.078342        -999.25              1
      5707.5000         0.8732        14.5158       1295.848        -999.25        -999.25         0.7386         0.7606         2.1035       -40.0084       2.848743        -999.25              1
      5708.0000         0.8727        14.4822       1298.818        -999.25        -999.25          0.736           0.76         2.1059       -40.2412       2.615944        -999.25              1
      5708.5000         0.8722        14.4139       1300.543        -999.25        -999.25         0.7334         0.7566         2.0694       -40.5778       2.279343        -999.25              1
      5709.0000         0.8717        14.1806       1302.268        -999.25        -999.25         0.7308         0.7526          2.028       -40.9142       1.942944        -999.25              1
      5709.5000          0.871        13.5526       1303.994        -999.25        -999.25         0.7283         0.7501         2.0277       -41.2487       1.608444        -999.25              1
      5710.0000         0.8703        12.5739       1305.719        -999.25        -999.25         0.7257         0.7471         2.0479       -41.4197       1.437443        -999.25              1
      5710.5000         0.8695        11.7591       1307.443        -999.25        -999.25         0.7235          0.741         2.0743       -40.9619       1.895245        -999.25              1
      5711.0000         0.8688        11.6035       1309.615        -999.25        -999.25         0.7217         0.7369         2.0971       -40.4735       2.383644        -999.25              1
      5711.5000          0.869        11.5605       1312.016        -999.25        -999.25         0.7199         0.7337         2.1143       -39.9367       2.920444        -999.25              1
      5712.0000         0.8693        11.5656       1314.418        -999.25        -999.25          0.718         0.7327         2.1111          -39.4       3.457142        -999.25              1
      5712.5000         0.8696        11.6127       1316.828        -999.25        -999.25         0.7162         0.7312         2.0805       -38.8632       3.993942        -999.25              1
      5713.0000           0.87        11.6709       1325.611        -999.25        -999.25         0.7149         0.7295         2.0546        -38.463       4.394142        -999.25              1
      5713.5000         0.8709         11.765         1334.4        -999.25        -999.25         0.7146         0.7278         2.0419       -38.1012       4.755943        -999.25              1
      5714.0000           0.87         11.874       1343.186        -999.25        -999.25         0.7143         0.7251         2.0377       -37.7383       5.118843        -999.25              1
      5714.5000         0.8623        12.0031       1353.139        -999.25        -999.25          0.714         0.7216         2.0399       -37.3579       5.499245        -999.25              1
      5715.0000         0.8546        12.1246        1365.84        -999.25        -999.25         0.7137         0.7182         2.0454       -36.9778       5.879345        -999.25              1
