#------------------------------------------------------------------------------
# Created by    : vladimir.rabinovich
# Created on    : 09/19/2023 17:22:46
#------------------------------------------------------------------------------
~Version Information Section
VERS.           2.0     :   CWLS log ASCII Standard - VERSION 2.0
WRAP.           NO      :   One line per depth step
~Well Information Section
#MNEM       .UNIT                                         VALUE :DESCRIPTION
#------------------------------------------------------------------------------
STRT        .FT                                             862 :START DEPTH
STOP        .FT                                           11792 :STOP DEPTH
STEP        .FT                                             0.5 :STEP      
NULL        .                                           -999.25 :NULL      
COMP        .                     FREEPORT-MCMORAN OIL & GAS CO :COMPANY   
WELL        .                               OCS G08155 ST00BP00 :WELL      
FLD         .                            HIGH ISLAND BLOCK 0262 :FIELD     
LOC         .                                                   :LOCATION  
CNTY        .                           HIGH ISLAND LARGE BLOCK :LOCATION  
STAT        .                                             TEXAS :STATE     
CTRY        .                                     UNITED STATES :COUNTRY   
SRVC        .                                                   :SERVICE COMPANY
DATE        .                             9/13/2023 11:19:59 AM :LOG DATE  
API         .                                    42708403380000 :API NUMBER
UWI         .                                    42708403380000 :UNIQUE WELL ID
XCOORD      .                                  1194111.75057656 :SURFACE X 
YCOORD      .                                  10524686.1808471 :SURFACE Y 
LAT         .                                         28.993839 :LATITUDE  
LON         .                                         -94.39647 :LONGITUDE 
ELEV        .FT                                              98 :ELEVATION VALUE
ELEV_TYPE   .                                                KB :ELEVATION REFERENCE TYPE
~Curve Information Section
#MNEM       .UNIT                                      API CODE :CURVE DESCRIPTION
#------------------------------------------------------------------------------
DEPT        .FT                                                 :DEPTH     
DT          .US/F                                               :          
GR          .GAPI                                               :          
GR_NORM     .GAPI                                               :GammaRay Normalized
ILD         .OHMM                                               :          
ILM         .OHMM                                               :          
SFL         .OHMM                                               :          
SP          .MV                                                 :          
SP_NORM     .MV                                                 :SP Normalized
VSH_GR      .V/V                                                :Volume of Shale from GR
VSH_SP      .V/V                                                :Volume of Shale from SP
~A        DEPTH             DT             GR        GR_NORM            ILD            ILM            SFL             SP        SP_NORM         VSH_GR         VSH_SP
# ...
      8138.5000       101.9318        85.7767       77.08608         0.8252         0.8227         0.8189       -49.6684       3.144627      0.9380018              1
      8139.0000       102.1025        86.1947       77.63557         0.8158         0.8201         0.8069       -49.6285       3.189865      0.9496931              1
      8139.5000       104.3365        86.2101        77.6563         0.8084         0.8148         0.7952       -49.5886       3.235107      0.9501341              1
      8140.0000       106.6232         85.761       77.06699         0.8021         0.8095         0.7837       -49.5488       3.280247      0.9375954              1
      8140.5000        107.213        85.3557       76.53519         0.7989         0.8073         0.7703       -49.4168       3.417587      0.9262806              1
      8141.0000       106.9602         85.121       76.22747         0.7986         0.8067         0.7612       -49.2811       3.558628      0.9197334              1
      8141.5000       106.3262        85.2517       76.39964         0.8013         0.8061         0.7679       -49.1732       3.671871      0.9233965              1
      8142.0000       110.0084        85.9883       77.36757          0.804         0.8078         0.7778       -49.1708       3.679611      0.9439908              1
      8142.5000       119.8906        87.6219       79.51361         0.8069         0.8109         0.7941       -49.1684       3.687351      0.9896513              1
      8143.0000       123.9907        88.3536       80.47511         0.8097          0.814         0.8075        -49.166       3.695091              1              1
      8143.5000       116.2111        88.7732       81.02672         0.8125         0.8171         0.8143       -49.2087       3.657734              1              1
      8144.0000       112.2477        88.7332       80.97469         0.8162         0.8177          0.815       -49.2745       3.597271              1              1
      8144.5000       110.9368        88.7959       81.05755         0.8207         0.8162         0.8118       -49.3153       3.561813              1              1
      8145.0000       110.5024        89.0676        81.4149         0.8218         0.8148         0.8095       -49.3375       3.544952              1              1
      8145.5000       110.2662        89.3561       81.79433         0.8205         0.8147         0.8073       -49.3745       3.513294              1              1
      8146.0000       109.6437        89.8405       82.43105         0.8149         0.8145         0.8026       -49.4495        3.44363              1              1
      8146.5000       109.0017         87.571       79.45086         0.8082         0.8139         0.7953       -49.5247       3.373772      0.9883162              1
      8147.0000       108.6068        85.8021       77.12816         0.8028         0.8125         0.7903       -49.4336       3.470211       0.938897              1
      8147.5000       107.3998         85.334       76.51389         0.7986         0.8111         0.7987       -49.3314       3.577751      0.9258273              1
      8148.0000       106.6499        85.5626       76.81463         0.8019         0.8097         0.8068       -49.0911       3.823395      0.9322261              1
      8148.5000       106.6382        85.2081       76.34956         0.8048         0.8117          0.815       -48.7431       4.176735       0.922331              1
      8149.0000       106.9359        85.1812       76.31474         0.8072         0.8138         0.8225       -48.5142       4.410976      0.9215901              1
      8149.5000       107.1403        86.3918       77.90521         0.8091         0.8159         0.8263       -48.3799       4.550613        0.95543              1
      8150.0000       107.5273         88.194       80.27268         0.8086         0.8181         0.8186       -48.2899       4.645954              1              1
      8150.5000       108.3486        91.0109       83.97284          0.808         0.8202         0.8099       -48.2491       4.692097              1              1
      8151.0000       109.4315        90.2175       82.93131         0.8074         0.8224         0.8014       -48.2084       4.738136              1              1
      8151.5000       109.7041        86.3566       77.86103         0.8062         0.8234         0.8058       -48.2374       4.714478        0.95449              1
      8152.0000       108.4866        82.6542       72.99893          0.805         0.8232           0.81       -48.3013       4.655918      0.8510411              1
      8152.5000        107.317        80.4073       70.04845         0.8043          0.823         0.8111       -48.3654        4.59716      0.7882648              1
      8153.0000         107.25        79.7825       69.22835         0.8057         0.8229         0.8122       -48.4705       4.497398      0.7708159              1
      8153.5000       107.6285        80.5836       70.28101         0.8072         0.8228         0.8076       -48.5841       4.389137      0.7932131              1
      8154.0000       108.2573        82.1057       72.28059         0.8086         0.8228         0.8011       -48.6977       4.280876      0.8357571              1
      8154.5000       108.8572        83.3741         73.947         0.8098         0.8244         0.7824       -48.9351       4.048817      0.8712127              1
      8155.0000        109.509        83.1243       73.61942          0.811          0.826         0.7633       -49.2083       3.780956       0.864243              1
      8155.5000       110.1969        82.1434       72.33167         0.8123         0.8292         0.7404       -49.6997       3.294899      0.8368439              1
      8156.0000       110.1877          81.83       71.92056         0.8133         0.8356         0.7205       -50.3631       2.636841      0.8280969              1
      8156.5000       107.7323        82.1125       72.29211         0.8122         0.8435         0.7124       -51.1617       1.843578      0.8360023              1
      8157.0000       103.5797        80.2761       69.88074         0.8109         0.8597         0.7356       -52.0419      0.9687195      0.7846965              1
      8157.5000       100.1971        74.1565       61.84396         0.7973         0.8855         0.7946       -53.2394     -0.2234383      0.6137012              1
      8158.0000        98.2365        70.3954       56.90475         0.7814         0.9044         0.8524       -54.5898      -1.568501      0.5086116      0.9700789
      8158.5000        97.2594        68.2543        54.0932         0.7629         0.8953         0.9101       -56.0837      -3.057056      0.4487916      0.8917339
      8159.0000        97.6122        67.5038       53.10804         0.7431         0.8592         0.9523       -58.1968      -5.164818      0.4278306      0.7807991
      8159.5000        98.0386        67.4766       53.07283         0.7214         0.8093         0.9309       -59.8971      -6.859776      0.4270814      0.6915908
      8160.0000        98.4644        66.6774       52.02369         0.7003         0.7624         0.8979       -61.5008      -8.458138      0.4047594      0.6074665
      8160.5000        98.6085        64.7595       49.50529         0.6799         0.7181         0.8612       -62.9661      -9.918095      0.3511763      0.5306266
      8161.0000        98.7484        62.9672       47.15186         0.6601         0.6787         0.8255       -64.2328      -11.17946      0.3011033      0.4642388
      8161.5000        98.8882         61.616       45.37774         0.6372         0.6453         0.7909       -65.6981      -12.63942      0.2633562      0.3873992
      8162.0000        99.3981         61.782       45.59628         0.6149         0.6161         0.7545       -67.1163      -14.05228      0.2680058      0.3130379
      8162.5000       100.7832        63.9388       48.42946         0.5926         0.5929         0.7152        -68.306      -15.23664      0.3282863      0.2507033
