#------------------------------------------------------------------------------
# Created by    : vladimir.rabinovich
# Created on    : 09/19/2023 17:20:24
#------------------------------------------------------------------------------
~Version Information Section
VERS.           2.0     :   CWLS log ASCII Standard - VERSION 2.0
WRAP.           NO      :   One line per depth step
~Well Information Section
#MNEM       .UNIT                                         VALUE :DESCRIPTION
#------------------------------------------------------------------------------
STRT        .FT                                            2124 :START DEPTH
STOP        .FT                                            8264 :STOP DEPTH
STEP        .FT                                             0.5 :STEP      
NULL        .                                           -999.25 :NULL      
COMP        .                               SUPERIOR OIL CO THE :COMPANY   
WELL        .                                     ST TR 00009-L :WELL      
FLD         .                                           WILDCAT :FIELD     
LOC         .                                                   :LOCATION  
CNTY        .                           HIGH ISLAND LARGE BLOCK :LOCATION  
STAT        .                                             TEXAS :STATE     
CTRY        .                                     UNITED STATES :COUNTRY   
SRVC        .                                                   :SERVICE COMPANY
DATE        .                             9/13/2023 11:19:15 AM :LOG DATE  
API         .                                    42708300270000 :API NUMBER
UWI         .                                    42708300270000 :UNIQUE WELL ID
XCOORD      .                                  1318170.30554107 :SURFACE X 
YCOORD      .                                  10738395.6931535 :SURFACE Y 
LAT         .                                        29.5851559 :LATITUDE  
LON         .                                       -94.0141459 :LONGITUDE 
ELEV        .FT                                              72 :ELEVATION VALUE
ELEV_TYPE   .                                                KB :ELEVATION REFERENCE TYPE
~Curve Information Section
#MNEM       .UNIT                                      API CODE :CURVE DESCRIPTION
#------------------------------------------------------------------------------
DEPT        .FT                                                 :DEPTH     
ASN         .OHMM                                               :          
CILD        .MMHO                                               :          
ILD         .OHMM                                               :          
SN          .OHMM                                               :          
SP          .MV                                                 :          
SP_NORM     .MV                                                 :SP Normalized
VSH_SP      .V/V                                                :Volume of Shale from SP
~A        DEPTH            ASN           CILD            ILD             SN             SP        SP_NORM         VSH_SP
# ...
      2526.0000         0.5773       2141.047         0.5767         0.5796        -62.607       8.390179              1
      2526.5000         0.5822       2125.234         0.5797         0.5783       -63.6675       7.339962              1
      2527.0000         0.5877       2112.793         0.5821         0.5795       -64.4612       6.556549              1
      2527.5000         0.5914       2102.727         0.5822         0.5815       -64.7058       6.322227              1
      2528.0000          0.592       2086.305         0.5824         0.5866       -64.4121       6.626213              1
      2528.5000         0.5927       2052.938         0.5825         0.5936       -64.6749       6.373703              1
      2529.0000         0.5979       1990.604         0.5827         0.6013       -65.0494       6.009483              1
      2529.5000         0.6077       1963.566         0.5829         0.6111       -65.2898       5.779366              1
      2530.0000         0.6203       1941.941          0.584          0.621       -65.3156       5.763855              1
      2530.5000         0.6322       1920.965         0.5856         0.6314       -65.1801       5.909637              1
      2531.0000         0.6403        1899.82         0.5871         0.6401       -64.9603       6.139725              1
      2531.5000         0.6386        1882.75         0.5862          0.644       -64.6486       6.461708              1
      2532.0000         0.6331       1875.955          0.585         0.6468       -64.0565       7.064087              1
      2532.5000          0.627       1878.813         0.5837         0.6436       -64.1292       7.001671              1
      2533.0000         0.6198       1893.471         0.5819         0.6404        -64.541       6.600159              1
      2533.5000         0.6137       1915.184         0.5801         0.6386        -64.959       6.192444              1
      2534.0000         0.6095       1940.516         0.5754         0.6371       -65.2698        5.89193              1
      2534.5000         0.6058       1968.563         0.5707         0.6349       -65.5458       5.626213              1
      2535.0000         0.6028       1998.068         0.5669         0.6317       -65.7482       5.434097              1
      2535.5000         0.6022       2031.605         0.5638         0.6283        -65.885       5.307579              1
      2536.0000         0.5988       2040.605         0.5608         0.6231       -65.8505       5.352364              1
      2536.5000         0.5915       2031.326         0.5582         0.6179       -65.9884       5.224747              1
      2537.0000         0.5825       2019.514         0.5555         0.6126       -66.6019       4.621536              1
      2537.5000         0.5753       2011.875         0.5536         0.6073       -67.3289       3.904816              1
      2538.0000         0.5771       2025.406         0.5537         0.6019       -67.1267       4.117302              1
      2538.5000         0.5851       2039.836         0.5539         0.5973       -66.4216       4.832687              1
      2539.0000         0.5983       2049.727         0.5541         0.5928       -65.7124        5.55217              1
      2539.5000         0.6053       2052.504         0.5589         0.5885        -65.262       6.012856              1
      2540.0000         0.6043       2052.473         0.5637         0.5847       -65.3333       5.951843              1
      2540.5000         0.5981       2056.711         0.5686         0.5809       -66.3148       4.980629              1
      2541.0000         0.5879        2070.43         0.5696         0.5772       -67.8987       3.407013              1
      2541.5000          0.577       2100.598         0.5682         0.5737        -69.358       1.957993              1
      2542.0000         0.5677       2139.273         0.5675         0.5702       -70.2517       1.074577              1
      2542.5000         0.5652       2169.188         0.5707          0.567       -70.7128       0.623764              1
      2543.0000         0.5645       2182.039         0.5692         0.5659       -71.1143      0.2325439              1
      2543.5000          0.565       2180.566         0.5676         0.5648       -71.5961     -0.2389679              1
      2544.0000         0.5658       2171.277         0.5661         0.5637        -72.225     -0.8575821              1
      2544.5000         0.5666       2163.832         0.5646         0.5649       -72.6793      -1.301598      0.9928191
      2545.0000         0.5659       2161.371          0.563         0.5663       -72.6652      -1.277214      0.9933997
      2545.5000         0.5648       2172.691         0.5615         0.5677       -72.4352      -1.036934      0.9991206
      2546.0000          0.563       2199.543         0.5599         0.5691       -72.2915     -0.8829422              1
      2546.5000         0.5569       2222.258         0.5584         0.5705       -72.4856      -1.066765      0.9984103
      2547.0000          0.551       2238.996         0.5569          0.572       -72.7648      -1.335678      0.9920077
      2547.5000         0.5457       2254.508         0.5553         0.5712       -73.0049      -1.565491      0.9865359
      2548.0000         0.5428       2266.441         0.5538         0.5687       -72.9143      -1.464607      0.9889379
      2548.5000         0.5408       2280.605         0.5523         0.5662       -72.5486      -1.088623      0.9978899
      2549.0000         0.5412       2300.879         0.5507         0.5629       -71.9762     -0.5059433              1
      2549.5000         0.5417       2331.406         0.5492         0.5589       -71.2157      0.2648392              1
      2550.0000         0.5423       2365.063         0.5477         0.5549       -70.5422      0.9486237              1
      2550.5000         0.5401       2406.379         0.5461          0.549       -70.3882       1.112907              1
      2551.0000         0.5365       2461.027         0.5446         0.5422       -70.7213      0.7900925              1
      2551.5000         0.5285       2529.211         0.5431         0.5343       -71.0078      0.5073547              1
      2552.0000         0.5194       2567.863         0.5415         0.5257        -70.735      0.7801514              1
      2552.5000         0.5111       2575.313           0.54         0.5192       -70.3927       1.122452              1
      2553.0000         0.5057       2521.461         0.5384         0.5234       -70.1884       1.326752              1
      2553.5000         0.5096       2467.383         0.5369          0.543       -70.4048       1.110352              1
      2554.0000         0.5351       2426.316         0.5354         0.5798       -71.0775      0.4376526              1
      2554.5000         0.5958       2396.609         0.5338         0.6288       -72.8202      -1.305046       0.992737
      2555.0000          0.676        2370.48         0.5323         0.6985       -78.3387      -6.823547      0.8613441
      2555.5000         0.7601       2336.777         0.5308         0.7868       -84.6914      -13.17625      0.7100894
      2556.0000         0.8242       2301.277         0.5292         0.8578       -91.0442      -19.52905      0.5588323
      2556.5000         0.8702        2275.66         0.5277         0.8735       -95.8427      -24.32755      0.4445823
      2557.0000         0.8948        2267.41         0.5262         0.8791       -98.3983      -26.88315      0.3837346
      2557.5000         0.9059       2304.805         0.5267          0.876      -100.5872      -29.07204       0.331618
      2558.0000         0.8915        2372.91          0.525         0.8577      -101.5382      -30.02305       0.308975
      2558.5000         0.8643       2419.398         0.5201         0.8388      -102.2614      -30.74625       0.291756
      2559.0000         0.8498       2448.875         0.5153         0.8311      -103.1642      -31.64905      0.2702608
