#------------------------------------------------------------------------------
# Created by    : vladimir.rabinovich
# Created on    : 09/19/2023 17:21:34
#------------------------------------------------------------------------------
~Version Information Section
VERS.           2.0     :   CWLS log ASCII Standard - VERSION 2.0
WRAP.           NO      :   One line per depth step
~Well Information Section
#MNEM       .UNIT                                         VALUE :DESCRIPTION
#------------------------------------------------------------------------------
STRT        .FT                                            4500 :START DEPTH
STOP        .FT                                            8225 :STOP DEPTH
STEP        .FT                                             0.5 :STEP      
NULL        .                                           -999.25 :NULL      
COMP        .                             WALTER OIL & GAS CORP :COMPANY   
WELL        .                               OCS G08132 ST00BP00 :WELL      
FLD         .                              GALVESTON BLOCK 0385 :FIELD     
LOC         .                                                   :LOCATION  
CNTY        .                             GALVESTON LARGE BLOCK :LOCATION  
STAT        .                                             TEXAS :STATE     
CTRY        .                                     UNITED STATES :COUNTRY   
SRVC        .                                                   :SERVICE COMPANY
DATE        .                             9/13/2023 11:19:34 AM :LOG DATE  
API         .                                    42706402490000 :API NUMBER
UWI         .                                    42706402490000 :UNIQUE WELL ID
XCOORD      .                                  1009947.10754335 :SURFACE X 
YCOORD      .                                  10405011.8756564 :SURFACE Y 
LAT         .                                         28.657556 :LATITUDE  
LON         .                                        -94.966279 :LONGITUDE 
ELEV        .FT                                             101 :ELEVATION VALUE
ELEV_TYPE   .                                                KB :ELEVATION REFERENCE TYPE
~Curve Information Section
#MNEM       .UNIT                                      API CODE :CURVE DESCRIPTION
#------------------------------------------------------------------------------
DEPT        .FT                                                 :DEPTH     
CALI        .IN                                                 :          
DPHI        .%                                                  :          
DRHO        .G/C3                                               :          
GR          .GAPI                                               :          
GR_NORM     .GAPI                                               :GammaRay Normalized
ILD         .OHMM                                               :          
ILM         .OHMM                                               :          
NPHI        .%                                                  :          
SFL         .OHMM                                               :          
SP          .MV                                                 :          
SP_NORM     .MV                                                 :SP Normalized
VSH_GR      .V/V                                                :Volume of Shale from GR
VSH_SP      .V/V                                                :Volume of Shale from SP
~A        DEPTH           CALI           DPHI           DRHO             GR        GR_NORM            ILD            ILM           NPHI            SFL             SP        SP_NORM         VSH_GR         VSH_SP
# ...
      7255.0000        10.6005        19.9291        -0.0062        80.9587       74.05421         0.6349         0.6739        36.1475         0.8007       -53.8125        1.30902      0.8734938              1
      7255.5000        10.6314        20.0618        -0.0052         81.369       74.48161         0.6575         0.6968        35.9268         0.8448        -54.422      0.5896441      0.8825874              1
      7256.0000        10.7014         20.358        -0.0033        83.4991       76.70045         0.6752         0.7163        35.7903         0.8579       -54.9891    -0.08025996      0.9297969      0.9986624
      7256.5000        10.7202        20.5862        -0.0015        85.3552        78.6339         0.6926         0.7314        35.4464         0.8464       -55.5217     -0.7099139       0.970934      0.9881681
      7257.0000        10.6919        20.7398         0.0003        86.9589       80.30441         0.7105         0.7405         34.554         0.8248       -56.0782      -1.367455              1      0.9772091
      7257.5000        10.6514         20.898         0.0021        87.5696       80.94056         0.7167         0.7445        34.0828         0.7952       -56.1884      -1.504307              1      0.9749282
      7258.0000        10.6124        21.0928          0.002        87.2637       80.62192          0.722         0.7451        34.4524         0.7673       -56.2746      -1.613161              1       0.973114
      7258.5000        10.5746        21.2876         0.0019        86.8383       80.17879         0.7273         0.7403        35.2683         0.7547       -56.3181      -1.672197              1      0.9721301
      7259.0000        10.5368         21.481         0.0018         86.778       80.11597         0.7268          0.735        35.5769         0.7423       -56.3112      -1.672437              1      0.9721261
      7259.5000         10.499        21.6713         0.0017        86.4131       79.73587         0.7262         0.7287          35.79         0.7378       -56.3044      -1.672793      0.9943802      0.9721201
      7260.0000        10.4546        21.8411          0.002        85.9259       79.22837         0.7258         0.7279        35.7794         0.7398       -56.2531       -1.62123      0.9835824      0.9729795
      7260.5000        10.4191        21.7751         0.0022        84.5034        77.7466         0.7293          0.732        35.7809         0.7418       -56.1196      -1.473763      0.9520554      0.9754373
      7261.0000         10.394         21.268         0.0024        83.0396        76.2218         0.7329         0.7456        35.8729         0.7664       -55.9956      -1.337391      0.9196128      0.9777101
      7261.5000        10.4034        20.3264         0.0038        81.5308       74.65014         0.7436         0.7606         35.257         0.7926       -56.0243      -1.379159      0.8861732       0.977014
      7262.0000         10.427        18.9896         0.0052        80.4166       73.48952         0.7634         0.7849        34.0075         0.8559       -56.2131      -1.607714      0.8614791      0.9732048
      7262.5000        10.4546        18.1909         0.0066        80.1581       73.22025         0.7838         0.8114        32.5955         0.9238       -56.7726      -2.268752      0.8557499      0.9621875
      7263.0000        10.4837        17.8123         0.0074        81.0411       74.14004         0.8052         0.8411        32.0204         0.9876       -57.1289      -2.692723        0.87532      0.9551213
      7263.5000         10.508        18.1823         0.0068        83.2045       76.39358         0.8271         0.8691        32.6693         0.9976       -57.4034      -3.021262      0.9232676      0.9496456
      7264.0000        10.5288        18.5729          0.006        85.4238       78.70535         0.8446         0.8877        33.7117         0.9585       -57.6038       -3.26335      0.9724541      0.9456108
      7264.5000        10.5476        19.0072         0.0023        86.8265        80.1665         0.8592         0.8912        34.1859         0.9275       -57.4722      -3.118104              1      0.9480316
      7265.0000        10.5646        19.4412        -0.0014        87.4335       80.79879         0.8654         0.8862        34.4271         0.9053       -57.3406      -2.972858              1      0.9504524
      7265.5000        10.5841        19.7733        -0.0015        86.5392       79.86723         0.8669         0.8786        34.4183         0.8892       -57.1429      -2.750495       0.997175      0.9541584
      7266.0000        10.6069        19.8102        -0.0017        82.7573       75.92775         0.8647          0.873        34.4053         0.8945       -56.7751      -2.329688      0.9133564      0.9611719
      7266.5000        10.6212        19.8471        -0.0011        79.4249       72.45649         0.8624         0.8692        34.3343         0.9029       -56.4073      -1.908873      0.8394998      0.9681854
      7267.0000        10.6353         19.635         0.0009        76.0927       68.98545         0.8602         0.8666        34.2632         0.9346       -56.1147      -1.575795      0.7656479      0.9737368
      7267.5000        10.6518        19.2244         0.0028        75.1934       68.04868         0.8575         0.8671        33.9529         0.9551        -56.037       -1.49343      0.7457167      0.9751095
      7268.0000        10.6604        19.1159         0.0049        77.6115       70.56754         0.8547         0.8675        33.5555         0.9376       -56.5184      -2.063354      0.7993094      0.9656107
      7268.5000         10.668        19.1878          0.007        80.4591       73.53378          0.852         0.8659        33.2957         0.8946       -56.7436      -2.334375      0.8624209      0.9610938
      7269.0000        10.6633         19.373         0.0092        80.8138       73.90327         0.8492         0.8635        33.1011         0.8877       -56.6059      -2.182013      0.8702823      0.9636331
      7269.5000        10.6597        19.6407         0.0114        79.0677       72.08442         0.8481          0.861         32.921         0.8943       -56.1132      -1.615489      0.8315834      0.9730752
      7270.0000        10.6565        20.2246         0.0131        77.7688       70.73139          0.848         0.8607        32.7695          0.899       -56.0222      -1.517609      0.8027956      0.9747065
      7270.5000        10.6515        20.3263         0.0145        77.4622       70.41201         0.8478         0.8605         32.577         0.9028       -56.0863      -1.600677      0.7960002       0.973322
      7271.0000        10.6461        20.4102          0.016        77.7542       70.71619         0.8477         0.8603        32.2846         0.9066       -56.4323      -2.012632      0.8024721      0.9664561
      7271.5000        10.6479         20.398         0.0175        78.1329       71.11066         0.8475         0.8607        32.0016         0.9105        -56.723      -2.360072       0.810865      0.9606655
      7272.0000        10.6501        20.3597          0.016        78.8455       71.85295         0.8473         0.8611        31.7487          0.913       -56.7482      -2.397758      0.8266585      0.9600374
      7272.5000        10.6524        20.3214         0.0142        78.5132       71.50681         0.8461         0.8621        31.6799         0.9138       -56.8101      -2.478263      0.8192937      0.9586956
      7273.0000        10.6678        20.2073         0.0124        76.9244       69.85181         0.8443         0.8623        31.8849         0.9147       -57.2516      -3.001631       0.784081      0.9499728
      7273.5000        10.6925        19.9487           0.01        74.7712       67.60889         0.8425         0.8582        32.3166         0.9152       -57.7294      -3.567358      0.7363595       0.940544
