#------------------------------------------------------------------------------
# Created by    : vladimir.rabinovich
# Created on    : 09/19/2023 17:20:25
#------------------------------------------------------------------------------
~Version Information Section
VERS.           2.0     :   CWLS log ASCII Standard - VERSION 2.0
WRAP.           NO      :   One line per depth step
~Well Information Section
#MNEM       .UNIT                                         VALUE :DESCRIPTION
#------------------------------------------------------------------------------
STRT        .FT                                             293 :START DEPTH
STOP        .FT                                            8505 :STOP DEPTH
STEP        .FT                                             0.5 :STEP      
NULL        .                                           -999.25 :NULL      
COMP        .                                        TEXACO USA :COMPANY   
WELL        .                                     ST TR 00058-L :WELL      
FLD         .                                           WILDCAT :FIELD     
LOC         .                                                   :LOCATION  
CNTY        .                           HIGH ISLAND LARGE BLOCK :LOCATION  
STAT        .                                             TEXAS :STATE     
CTRY        .                                     UNITED STATES :COUNTRY   
SRVC        .                                                   :SERVICE COMPANY
DATE        .                             9/13/2023 11:19:15 AM :LOG DATE  
API         .                                    42708000230000 :API NUMBER
UWI         .                                    42708000230000 :UNIQUE WELL ID
XCOORD      .                                  1179226.38702832 :SURFACE X 
YCOORD      .                                  10699123.4735792 :SURFACE Y 
LAT         .                                        29.4730929 :LATITUDE  
LON         .                                        -94.449778 :LONGITUDE 
ELEV        .FT                                              80 :ELEVATION VALUE
ELEV_TYPE   .                                                KB :ELEVATION REFERENCE TYPE
~Curve Information Section
#MNEM       .UNIT                                      API CODE :CURVE DESCRIPTION
#------------------------------------------------------------------------------
DEPT        .FT                                                 :DEPTH     
ASN         .OHMM                                               :          
CILD        .MMHO                                               :          
ILD         .OHMM                                               :          
LAT         .OHMM                                               :          
LN          .OHMM                                               :          
SP          .MV                                                 :          
SP_NORM     .MV                                                 :SP Normalized
VSH_SP      .V/V                                                :Volume of Shale from SP
~A        DEPTH            ASN           CILD            ILD            LAT             LN             SP        SP_NORM         VSH_SP
# ...
      6842.0000          0.194        -999.25        -999.25         0.2591          0.313      -109.7507       -72.4511     0.04795817
      6842.5000         0.1991        -999.25        -999.25         0.2662         0.3119      -109.9055      -72.60698     0.04585163
      6843.0000         0.2062        -999.25        -999.25         0.2724         0.3109      -110.0602      -72.76277     0.04374633
      6843.5000         0.2138        -999.25        -999.25         0.2774         0.3098      -110.2659      -72.96956     0.04095191
      6844.0000         0.2214        -999.25        -999.25         0.2825         0.3124       -110.531      -73.23574     0.03735486
      6844.5000          0.229        -999.25        -999.25         0.2875         0.3161      -110.7961      -73.50192      0.0337578
      6845.0000         0.2423        -999.25        -999.25         0.2913         0.3198      -111.0613      -73.76822      0.0301592
      6845.5000         0.2572        -999.25        -999.25         0.2905         0.3236      -111.3264      -74.03441     0.02656205
      6846.0000         0.2721        -999.25        -999.25         0.2896         0.3273      -111.5916      -74.30069     0.02296365
      6846.5000         0.2874        -999.25        -999.25         0.2887         0.3311      -111.4342      -74.14438     0.02507596
      6847.0000         0.3042        -999.25        -999.25         0.2879         0.3348       -111.173      -73.88426     0.02859105
      6847.5000          0.321        -999.25        -999.25          0.287         0.3385      -110.9117      -73.62405     0.03210738
      6848.0000         0.3378        -999.25        -999.25         0.2861         0.3423      -110.6501      -73.36354     0.03562783
      6848.5000         0.3543        -999.25        -999.25         0.2853          0.346      -110.3889      -73.10343     0.03914281
      6849.0000         0.3677        -999.25        -999.25         0.2894         0.3498      -110.1277      -72.84332      0.0426578
      6849.5000         0.3795        -999.25        -999.25         0.3011         0.3538      -108.5596      -71.27631      0.0638337
      6850.0000         0.3811        -999.25        -999.25         0.3128          0.361      -106.0352        -68.753     0.09793246
      6850.5000         0.3828        -999.25        -999.25         0.3246         0.3682      -103.4708      -66.18968      0.1325719
      6851.0000         0.4015        -999.25        -999.25         0.3363         0.3754       -99.9069      -62.62687       0.180718
      6851.5000         0.4269        -999.25        -999.25          0.348         0.3825       -99.3336      -62.05466      0.1884505
      6852.0000         0.4513        -999.25        -999.25         0.3696         0.3897        -99.058      -61.78014      0.1921602
      6852.5000         0.4719        -999.25        -999.25         0.4074         0.3969       -97.3691      -60.09233      0.2149684
      6853.0000         0.4926        -999.25        -999.25         0.4452         0.4041       -95.6825      -58.40683      0.2377456
      6853.5000         0.5133        -999.25        -999.25         0.4435         0.4113       -94.1122      -56.83761      0.2589512
      6854.0000         0.5366        -999.25        -999.25           0.43          0.421       -93.4805        -56.207       0.267473
      6854.5000         0.5872        -999.25        -999.25         0.4206         0.4311        -85.496      -48.22359      0.3753569
      6855.0000         0.6375        -999.25        -999.25         0.4314         0.4411        -69.281      -32.00967      0.5944639
      6855.5000         0.6758        -999.25        -999.25         0.4422         0.4512       -61.9094      -24.63916      0.6940654
      6856.0000         0.6892        -999.25        -999.25         0.4531         0.4613       -63.3367      -26.06755      0.6747629
      6856.5000         0.6398        -999.25        -999.25         0.4639         0.4714       -68.0576      -30.78954      0.6109522
      6857.0000         0.5725        -999.25        -999.25         0.4747         0.4792       -75.2476      -37.98062      0.5137754
      6857.5000         0.4945        -999.25        -999.25         0.4753         0.4798       -82.4286      -45.16271      0.4167202
      6858.0000         0.4075        -999.25        -999.25         0.4753         0.4804       -85.6112       -48.3464      0.3736973
      6858.5000         0.3733        -999.25        -999.25         0.4625          0.481       -88.7762      -51.51249      0.3309124
      6859.0000          0.428        -999.25        -999.25         0.4391         0.4816       -91.9368      -54.67417      0.2881869
      6859.5000           0.48        -999.25        -999.25         0.4157         0.4822        -88.528      -51.26646       0.334237
      6860.0000         0.5221        -999.25        -999.25         0.3924         0.4828       -81.4622      -44.20175      0.4297061
      6860.5000         0.5642        -999.25        -999.25          0.369         0.4876       -72.3751      -35.11574      0.5524901
      6861.0000         0.6027        -999.25        -999.25         0.3611         0.4952       -62.5699      -25.31163       0.684978
      6861.5000         0.5947        -999.25        -999.25         0.3586         0.5027       -55.6083      -18.35111       0.779039
      6862.0000         0.5821        -999.25        -999.25         0.3562         0.5103       -53.4983       -16.2422      0.8075379
      6862.5000         0.5694        -999.25        -999.25         0.3811         0.5179       -51.3905      -14.13549      0.8360069
      6863.0000         0.5567        -999.25        -999.25         0.4079         0.5255       -49.2805      -12.02657      0.8645058
      6863.5000         0.5441        -999.25        -999.25         0.4346          0.533       -46.8647      -9.611866      0.8971369
      6864.0000         0.5314        -999.25        -999.25         0.4614         0.5406       -43.8282      -6.576454       0.938156
      6864.5000          0.521        -999.25        -999.25         0.4741         0.5454       -40.7918      -3.541142      0.9791738
      6865.0000         0.5146        -999.25        -999.25         0.4815         0.5495       -38.0524     -0.8028259              1
      6865.5000         0.5096        -999.25        -999.25         0.4889         0.5535       -35.8892       1.359287              1
      6866.0000          0.514        -999.25        -999.25         0.4963         0.5575       -41.1464      -3.899002      0.9743378
      6866.5000         0.5185        -999.25        -999.25         0.4837         0.5616       -45.6855      -8.439194      0.9129839
      6867.0000          0.523        -999.25        -999.25         0.4693         0.5656       -48.7574      -11.51218       0.871457
      6867.5000         0.5274        -999.25        -999.25         0.4549         0.5641        -51.856      -14.61187      0.8295694
      6868.0000         0.5276        -999.25        -999.25         0.4405         0.5578       -55.9252      -18.68216      0.7745655
      6868.5000         0.5239        -999.25        -999.25          0.426         0.5516       -59.9989      -22.75694      0.7195008
      6869.0000         0.5202        -999.25        -999.25         0.4116         0.5454       -69.6356      -32.39473      0.5892605
      6869.5000         0.5165        -999.25        -999.25         0.3987         0.5498       -82.8363      -45.59652      0.4108579
      6870.0000         0.5261        -999.25        -999.25         0.3988         0.5553       -78.4967        -41.258      0.4694864
      6870.5000         0.5421        -999.25        -999.25         0.3988         0.5608       -74.1615      -36.92389      0.5280555
      6871.0000         0.5631        -999.25        -999.25         0.3988         0.5663       -61.3464      -24.10988      0.7012178
