#------------------------------------------------------------------------------
# Created by    : vladimir.rabinovich
# Created on    : 09/19/2023 17:22:53
#------------------------------------------------------------------------------
~Version Information Section
VERS.           2.0     :   CWLS log ASCII Standard - VERSION 2.0
WRAP.           NO      :   One line per depth step
~Well Information Section
#MNEM       .UNIT                                         VALUE :DESCRIPTION
#------------------------------------------------------------------------------
STRT        .FT                                             394 :START DEPTH
STOP        .FT                                            7700 :STOP DEPTH
STEP        .FT                                             0.5 :STEP      
NULL        .                                           -999.25 :NULL      
COMP        .                                   MARATHON OIL CO :COMPANY   
WELL        .                                     ST TR 00248-L :WELL      
FLD         .                                           WILDCAT :FIELD     
LOC         .                                                   :LOCATION  
CNTY        .                             GALVESTON LARGE BLOCK :LOCATION  
STAT        .                                             TEXAS :STATE     
CTRY        .                                     UNITED STATES :COUNTRY   
SRVC        .                                                   :SERVICE COMPANY
DATE        .                             9/13/2023 11:19:42 AM :LOG DATE  
API         .                                    42706000210000 :API NUMBER
UWI         .                                    42706000210000 :UNIQUE WELL ID
XCOORD      .                                  969160.596945075 :SURFACE X 
YCOORD      .                                  10521676.5956168 :SURFACE Y 
LAT         .                                        28.9764138 :LATITUDE  
LON         .                                       -95.0998408 :LONGITUDE 
ELEV        .FT                                              10 :ELEVATION VALUE
ELEV_TYPE   .                                                KB :ELEVATION REFERENCE TYPE
~Curve Information Section
#MNEM       .UNIT                                      API CODE :CURVE DESCRIPTION
#------------------------------------------------------------------------------
DEPT        .FT                                                 :DEPTH     
LAT         .OHMM                                               :          
LN          .OHMM                                               :          
SN          .OHMM                                               :          
SP          .MV                                                 :          
SP_NORM     .MV                                                 :SP Normalized
VSH_SP      .V/V                                                :Volume of Shale from SP
~A        DEPTH            LAT             LN             SN             SP        SP_NORM         VSH_SP
# ...
      2826.0000         0.2519         0.0175         0.7012       -98.3826      -20.33382      0.6723082
      2826.5000         0.2617         0.0247         0.7001       -96.7712      -18.72242        0.69962
      2827.0000         0.2715         0.0318          0.699       -95.8975      -17.84872      0.7144285
      2827.5000         0.2813          0.039         0.6979        -97.329      -19.28022      0.6901658
      2828.0000         0.2911         0.0461         0.6969      -102.7483      -24.69952      0.5983133
      2828.5000         0.3009         0.0532         0.6958      -108.1698      -30.12102      0.5064234
      2829.0000         0.3108         0.0604         0.6947      -113.5891      -35.54032      0.4145708
      2829.5000         0.3207         0.0675         0.6937      -118.9305      -40.88171      0.3240387
      2830.0000         0.3306         0.0747         0.6926      -123.4725      -45.42372      0.2470556
      2830.5000         0.3405         0.0818         0.6915      -128.0146      -49.96582      0.1700708
      2831.0000         0.3503          0.089          0.704      -132.5566      -54.50781     0.09308793
      2831.5000         0.3602         0.0961         0.7325      -135.8708      -57.82202     0.03691489
      2832.0000         0.3701         0.1132         0.7609      -138.4751      -60.42632              0
      2832.5000           0.38          0.134         0.7893      -140.9031      -62.85432              0
      2833.0000         0.3899         0.1548         0.8177      -138.8853      -60.83652              0
      2833.5000         0.3998         0.1755         0.8461      -136.8662      -58.81741     0.02004384
      2834.0000         0.4097         0.1963         0.8746      -134.8472      -56.79842     0.05426413
      2834.5000         0.4196          0.217          0.903      -132.8291      -54.78032     0.08846916
      2835.0000         0.4295         0.2378         0.9314      -130.2227      -52.17392      0.1326454
      2835.5000         0.4319         0.2586         0.9142      -126.4319      -48.38312      0.1968963
      2836.0000         0.4334         0.2793          0.882      -122.6434      -44.59462      0.2611081
      2836.5000         0.4349         0.3001         0.8498      -118.8527      -40.80392      0.3253573
      2837.0000         0.4363         0.3173         0.8175      -115.0619      -37.01311      0.3896082
      2837.5000         0.4378         0.3197         0.7853      -111.2734      -33.22462        0.45382
      2838.0000         0.4393         0.3221         0.7696      -101.4335      -23.38472       0.620598
      2838.5000         0.4407         0.3245          0.757       -93.1053      -15.05652      0.7617539
      2839.0000         0.4422         0.3269         0.7445       -98.6392      -20.59042       0.667959
      2839.5000         0.4437         0.3293         0.7319       -104.173      -26.12421      0.5741659
      2840.0000         0.4451         0.3317         0.7193      -125.6027      -47.55392      0.2109506
      2840.5000         0.4466         0.3341         0.7068      -132.4146      -54.36581     0.09549467
      2841.0000         0.3043         0.3147         0.7919      -109.2714      -31.22262      0.4877522
      2841.5000         0.2876         0.3216         0.8101      -109.7507      -31.70192      0.4796285
      2842.0000         0.2708         0.3284         0.8243      -111.6371      -33.58832      0.4476556
      2842.5000         0.2511         0.3353         0.8385      -114.3107      -36.26192      0.4023404
      2843.0000         0.2309         0.3421         0.8528      -116.9843      -38.93552      0.3570251
      2843.5000         0.2107          0.349          0.867      -119.6578      -41.60902      0.3117116
      2844.0000         0.1906         0.3558         0.8696      -122.5668      -44.51802      0.2624064
      2844.5000         0.1704         0.3627         0.8412      -125.7794      -47.73062      0.2079556
      2845.0000         0.1502         0.3695         0.8127      -128.9932      -50.94441      0.1534845
      2845.5000         0.1301         0.3764         0.7843      -128.8054      -50.75662      0.1566674
      2846.0000         0.1099         0.3832         0.7559      -126.1262      -48.07742      0.2020777
      2846.5000         0.0976         0.3901         0.7628      -122.9307      -44.88192      0.2562386
      2847.0000         0.1133         0.3956         0.7883      -119.4281      -41.37932      0.3156048
      2847.5000         0.1289         0.3984         0.8137      -115.9254      -37.87662      0.3749726
      2848.0000         0.1446         0.4011         0.8392      -112.4205      -34.37172      0.4343776
      2848.5000         0.1602         0.4039         0.8646       -108.918      -30.86922      0.4937421
      2849.0000         0.1759         0.4067         0.8681      -106.2921      -28.24332      0.5382489
      2849.5000         0.1915         0.4094         0.8442      -103.9824      -25.93362      0.5773963
      2850.0000         0.2072         0.4122         0.8203      -101.6727      -23.62392      0.6165438
      2850.5000         0.2228          0.415         0.7964       -99.3643      -21.31552      0.6556692
      2851.0000         0.2385         0.4177         0.7604       -97.1683      -19.11951      0.6928896
      2851.5000         0.2545         0.4205         0.7212       -94.9951      -16.94632      0.7297234
      2852.0000         0.2706         0.4233          0.682       -94.2946      -16.24582      0.7415963
      2852.5000         0.2868         0.4256         0.6428       -94.7246      -16.67582      0.7343081
      2853.0000         0.3029         0.4258         0.6036        -94.869      -16.82022      0.7318606
      2853.5000          0.319         0.4259         0.5644       -94.5487      -16.49992      0.7372895
      2854.0000         0.3352         0.4261         0.5531        -93.577      -15.52822       0.753759
      2854.5000         0.3513         0.4262         0.5474       -92.6058      -14.55701      0.7702201
      2855.0000         0.3674         0.4264         0.5417        -91.634      -13.58522      0.7866912
      2855.5000         0.3836         0.4265          0.536       -90.6628      -12.61402      0.8031522
      2856.0000         0.3997         0.4267         0.5303       -89.6912      -11.64242        0.81962
      2856.5000         0.4159         0.4268         0.5422       -88.7357      -10.68692      0.8358149
      2857.0000         0.4226          0.427          0.558       -88.5033      -10.45452      0.8397539
      2857.5000         0.4265         0.4271         0.5737       -88.2709      -10.22211       0.843693
      2858.0000         0.4305         0.4273         0.5894       -88.0385      -9.989716      0.8476319
      2858.5000         0.4344         0.4274         0.6052        -87.806      -9.757217      0.8515726
      2859.0000         0.4384         0.4275         0.6209       -88.5033      -10.45452      0.8397539
      2859.5000         0.4423         0.4277         0.6366       -89.4773      -11.42852      0.8232454
      2860.0000         0.4463         0.4278         0.6476       -90.4513      -12.40252      0.8067369
      2860.5000         0.4492          0.428         0.6478       -92.3647      -14.31592      0.7743065
      2861.0000         0.4382         0.4281         0.6479       -96.3927      -18.34392      0.7060353
      2861.5000         0.4271         0.4283         0.6481      -100.4935      -22.44472      0.6365302
      2862.0000          0.416         0.4284         0.6151      -107.1279      -29.07912      0.5240828
      2862.5000         0.4049         0.4286         0.5756      -110.3827      -32.33392      0.4689167
      2863.0000         0.3938         0.4287         0.5361      -105.2175      -27.16872      0.5564624
      2863.5000         0.3828         0.4289         0.4966      -100.0499      -22.00111      0.6440489
