#------------------------------------------------------------------------------
# Created by    : vladimir.rabinovich
# Created on    : 09/19/2023 17:19:47
#------------------------------------------------------------------------------
~Version Information Section
VERS.           2.0     :   CWLS log ASCII Standard - VERSION 2.0
WRAP.           NO      :   One line per depth step
~Well Information Section
#MNEM       .UNIT                                         VALUE :DESCRIPTION
#------------------------------------------------------------------------------
STRT        .FT                                             970 :START DEPTH
STOP        .FT                                            9511 :STOP DEPTH
STEP        .FT                                             0.5 :STEP      
NULL        .                                           -999.25 :NULL      
COMP        .                                SHELL OFFSHORE INC :COMPANY   
WELL        .                               OCS G06097 ST00BP00 :WELL      
FLD         .                                           WILDCAT :FIELD     
LOC         .                                                   :LOCATION  
CNTY        .                             GALVESTON LARGE BLOCK :LOCATION  
STAT        .                                             TEXAS :STATE     
CTRY        .                                     UNITED STATES :COUNTRY   
SRVC        .                                                   :SERVICE COMPANY
DATE        .                             9/13/2023 11:19:27 AM :LOG DATE  
API         .                                    42706401130000 :API NUMBER
UWI         .                                    42706401130000 :UNIQUE WELL ID
XCOORD      .                                  1026820.46089783 :SURFACE X 
YCOORD      .                                  10482391.3243497 :SURFACE Y 
LAT         .                                         28.871086 :LATITUDE  
LON         .                                        -94.917566 :LONGITUDE 
ELEV        .FT                                             107 :ELEVATION VALUE
ELEV_TYPE   .                                                KB :ELEVATION REFERENCE TYPE
~Curve Information Section
#MNEM       .UNIT                                      API CODE :CURVE DESCRIPTION
#------------------------------------------------------------------------------
DEPT        .FT                                                 :DEPTH     
ASFL        .OHMM                                               :          
CALI        .IN                                                 :          
CILD        .MMHO                                               :          
DT          .US/F                                               :          
GR          .GAPI                                               :          
GR_NORM     .GAPI                                               :GammaRay Normalized
ILD         .OHMM                                               :          
ILM         .OHMM                                               :          
RHOB        .G/C3                                               :          
SP          .MV                                                 :          
SP_NORM     .MV                                                 :SP Normalized
VSH_GR      .V/V                                                :Volume of Shale from GR
VSH_SP      .V/V                                                :Volume of Shale from SP
~A        DEPTH           ASFL           CALI           CILD             DT             GR        GR_NORM            ILD            ILM           RHOB             SP        SP_NORM         VSH_GR         VSH_SP
# ...
      2129.0000         0.5296        21.9069       2229.199       147.0083        37.9056       44.69613         0.5079         0.5006         1.9883       -95.6938      -18.73315      0.2488539     0.07917833
      2129.5000         0.5285        21.9896       2238.285       147.9106        37.0939       43.48281         0.5091         0.5012         1.9891       -95.0338       -18.0713      0.2230384      0.1205435
      2130.0000         0.5262         22.108       2247.367        148.459        34.7052        39.9122         0.5098         0.5012         1.9666       -94.9871      -18.02277       0.147068      0.1235771
      2130.5000         0.5239        22.3583       2258.566       148.5737        31.6194       35.29957         0.5102         0.5008          1.937       -94.9589      -17.99272     0.04892698      0.1254549
      2131.0000         0.5216        22.7246       2272.863       148.8264           30.2       33.17786         0.5106         0.5015         1.9234       -94.8726      -17.90458    0.003784342      0.1309638
      2131.5000         0.5193         23.098       2268.219       149.2939        30.6377       33.83213          0.511         0.5036         1.9278       -94.6573      -17.68744     0.01770498      0.1445351
      2132.0000         0.5171        23.4665       2232.195       150.4497        32.2023       36.17089         0.5114         0.5056          1.927       -94.4421       -17.4704     0.06746568      0.1581001
      2132.5000         0.5161        23.7839       2198.469        151.189        33.8625       38.65254         0.5118         0.5053         1.8952       -94.2269      -17.25335      0.1202668      0.1716657
      2133.0000         0.5151         23.976       2175.121        152.021         35.033       40.40219         0.5122         0.5053         1.8361       -94.0117      -17.03632      0.1574934      0.1852303
      2133.5000         0.5141        23.9828       2151.766       152.4341        34.6167        39.7799         0.5126         0.5059         1.7712       -93.8746      -16.89737      0.1442533      0.1939144
      2134.0000         0.5131        23.9903       2128.414        152.814        34.1767        39.1222          0.513         0.5063         1.7387       -93.9048      -16.92573      0.1302597       0.192142
      2134.5000         0.5118        24.0045       2104.398       153.2336         33.751       38.48587         0.5134         0.5035          1.709       -93.9351      -16.95419      0.1167206      0.1903634
      2135.0000         0.5105        24.0187       2077.184       153.6382        33.3728       37.92054         0.5138         0.4985         1.6836       -93.9388      -16.95604      0.1046923      0.1902475
      2135.5000         0.5092        24.0294        2065.82       154.2891        32.9948       37.35551         0.5142         0.4929         1.6708       -93.9128      -16.92821     0.09267036       0.191987
      2136.0000          0.508        24.0383        2066.23       155.1023        32.6165       36.79003         0.5145         0.4882         1.6635       -93.8868      -16.90036     0.08063889      0.1937275
      2136.5000         0.5056        24.0382       2066.645       155.7878        32.4891       36.59959         0.5149         0.4853         1.6557       -93.8607      -16.87242     0.07658703      0.1954737
      2137.0000         0.5022        24.0378       2067.055       156.1553        33.0038       37.36896         0.5153         0.4833         1.6475       -93.8127      -16.82257     0.09295654      0.1985893
      2137.5000         0.4988        24.0343       2116.582       155.8132        33.5185       38.13834         0.5157          0.482         1.6375       -93.6594      -16.66743      0.1093263      0.2082853
      2138.0000         0.4953        24.0278       2181.641       154.8228        34.0009       38.85942          0.516         0.4804         1.6302       -93.5446      -16.55079      0.1246685      0.2155757
      2138.5000         0.4923        24.0213       2221.547       153.1843        34.4705       39.56137         0.5164         0.4774         1.6198       -93.7605      -16.76485      0.1396036      0.2021971
      2139.0000         0.4896        24.0159       2261.453       151.2107        34.9403       40.26363         0.5168         0.4741         1.6081       -93.9763      -16.97881      0.1545452      0.1888247
      2139.5000          0.487        24.0132       2294.961       149.2312        35.0437       40.41818         0.5154         0.4709         1.5987       -94.1772      -17.17786      0.1578337      0.1763835
      2140.0000         0.4843        24.0105       2304.586       148.4385        34.3318       39.35404         0.5131         0.4676         1.5903       -94.2426      -17.24142      0.1351924       0.172411
      2140.5000         0.4816        24.0078       2314.207        149.093        33.6203        38.2905         0.5109         0.4532         1.5813       -94.3079      -17.30488      0.1125638      0.1684451
      2141.0000         0.4789        24.0044       2323.832       150.4514        32.9084       37.22636         0.5087         0.4406         1.5658       -94.3732      -17.36834     0.08992256      0.1644788
      2141.5000         0.4762        24.0009       2321.684       152.0251        32.1966       36.16237         0.5064          0.434          1.544       -94.4386      -17.43189     0.06728444      0.1605067
      2142.0000         0.4735        23.9975       2298.535       153.9932        31.4851       35.09882         0.5042         0.4336         1.5241       -94.4894      -17.48086     0.04465582      0.1574464
      2142.5000         0.4707         23.994       2275.383       154.8162        30.7732       34.03468         0.5019         0.4354          1.511       -93.9988      -16.98841     0.02201437      0.1882243
      2143.0000         0.4683        23.9903       2243.824       154.5337        30.0651       32.97621         0.4998          0.438         1.5254       -93.5083      -16.49607              0      0.2189956
      2143.5000         0.4668        23.9866       2165.879        153.823        29.7079       32.44227         0.4977         0.4419         1.5581       -92.9529      -15.93883              0      0.2538233
      2144.0000         0.4654        23.9829       2095.703       154.5205        29.3507       31.90834         0.4957         0.4463         1.5896        -92.207      -15.19109              0      0.3005571
      2144.5000         0.4639        23.9833       2059.301       155.4568        29.4814       32.10371         0.4937          0.452         1.6154       -91.4611      -14.44334              0       0.347291
      2145.0000         0.4624        23.9881       2022.898       153.4189        29.8918       32.71717         0.4917         0.4573         1.6134       -90.7153       -13.6957              0      0.3940187
      2145.5000          0.464        23.9928       1986.508       150.5684        30.3022       33.33063         0.4897         0.4651         1.5846       -90.2988      -13.27736    0.007034707      0.4201651
      2146.0000         0.4666        23.9926       1966.354       148.8691        30.7125       33.94394         0.4894         0.4718         1.5611       -89.8896      -12.86632     0.02008381      0.4458551
      2146.5000         0.4692        23.9855       1967.693       148.5205        31.1229        34.5574         0.4945         0.4782         1.5437        -89.605      -12.57988     0.03313624      0.4637575
      2147.0000         0.4744        23.9805       2002.373       149.3179        31.0011       34.37535         0.4996          0.501         1.5255       -89.4801      -12.45313      0.0292627      0.4716792
      2147.5000         0.4807        23.9765       2048.895       151.3186        30.0566       32.96351         0.5047         0.4935         1.4844       -89.3552      -12.32639              0      0.4796004
