#------------------------------------------------------------------------------
# Created by    : vladimir.rabinovich
# Created on    : 09/19/2023 17:22:18
#------------------------------------------------------------------------------
~Version Information Section
VERS.           2.0     :   CWLS log ASCII Standard - VERSION 2.0
WRAP.           NO      :   One line per depth step
~Well Information Section
#MNEM       .UNIT                                         VALUE :DESCRIPTION
#------------------------------------------------------------------------------
STRT        .FT                                            4012 :START DEPTH
STOP        .FT                                            9352 :STOP DEPTH
STEP        .FT                                             0.5 :STEP      
NULL        .                                           -999.25 :NULL      
COMP        .                                   KERR-MCGEE CORP :COMPANY   
WELL        .                                ST TR 00007-L SE/4 :WELL      
FLD         .                                           WILDCAT :FIELD     
LOC         .                                                   :LOCATION  
CNTY        .                           HIGH ISLAND LARGE BLOCK :LOCATION  
STAT        .                                             TEXAS :STATE     
CTRY        .                                     UNITED STATES :COUNTRY   
SRVC        .                                                   :SERVICE COMPANY
DATE        .                             9/13/2023 11:19:15 AM :LOG DATE  
API         .                                    42708302700000 :API NUMBER
UWI         .                                    42708302700000 :UNIQUE WELL ID
XCOORD      .                                   1285759.2062487 :SURFACE X 
YCOORD      .                                  10728779.4927599 :SURFACE Y 
LAT         .                                        29.5578886 :LATITUDE  
LON         .                                       -94.1158411 :LONGITUDE 
ELEV        .FT                                             125 :ELEVATION VALUE
ELEV_TYPE   .                                                KB :ELEVATION REFERENCE TYPE
~Curve Information Section
#MNEM       .UNIT                                      API CODE :CURVE DESCRIPTION
#------------------------------------------------------------------------------
DEPT        .FT                                                 :DEPTH     
CALI        .IN                                                 :          
CILD        .MMHO                                               :          
DPHI        .%                                                  :          
ILD         .OHMM                                               :          
ILM         .OHMM                                               :          
SFL         .OHMM                                               :          
SP          .MV                                                 :          
SP_NORM     .MV                                                 :SP Normalized
VSH_SP      .V/V                                                :Volume of Shale from SP
~A        DEPTH           CALI           CILD           DPHI            ILD            ILM            SFL             SP        SP_NORM         VSH_SP
# ...
      7563.0000        12.8562       2367.168        18.5525         0.4164         0.4523         0.6564       -68.6292        -12.733         0.8181
      7563.5000        12.8472       2407.203        18.9548         0.4081         0.4471         0.6768       -70.9049       -15.0027      0.7856757
      7564.0000        12.8428       2425.898        19.3828         0.4063          0.447         0.7038        -72.804       -16.8959        0.75863
      7564.5000        12.8448       2386.742        19.8181         0.4109         0.4512         0.7117       -74.1241         -18.21      0.7398571
      7565.0000        12.8468       2318.027         20.205         0.4227         0.4554         0.6562       -68.6438       -12.7238      0.8182314
      7565.5000        12.8489       2244.711        20.3798         0.4364         0.4681         0.6153       -64.1362        -8.2102      0.8827114
      7566.0000        12.8557       2158.867        19.9408         0.4517          0.483         0.6195       -60.4925        -4.5605        0.93485
      7566.5000        12.8643       2088.289        18.8792         0.4675         0.4984         0.6335       -60.3879          -4.45      0.9364285
      7567.0000         12.873       2012.723        17.7677         0.4866         0.5139         0.6692       -62.2226        -6.2787      0.9103043
      7567.5000        12.8847       1934.414        17.0842         0.5078         0.5285         0.6835       -64.5963        -8.6465      0.8764786
      7568.0000        12.9184       1855.127        16.6441         0.5305         0.5434         0.6854       -64.8241        -8.8683        0.87331
      7568.5000        12.9521       1774.764        16.2945         0.5543         0.5588         0.6854       -64.2744        -8.3126      0.8812486
      7569.0000        12.9848       1707.613        16.2357         0.5745         0.5713         0.6708       -63.5186        -7.5509        0.89213
      7569.5000        13.0169       1670.857        16.1769         0.5931         0.5812         0.6624       -63.3679        -7.3942      0.8943686
      7570.0000        13.0254       1653.066        16.1735         0.6081         0.5912         0.6624       -63.6578        -7.6781      0.8903129
      7570.5000        13.0197       1645.934        16.1967         0.6179         0.5939         0.6868       -64.2634        -8.2778      0.8817457
      7571.0000        13.0139       1648.441        16.3244         0.6227         0.5916         0.7166       -64.8755        -8.8839      0.8730872
      7571.5000        13.0072       1677.367        16.5597          0.604         0.5753          0.717       -64.9668        -8.9693      0.8718671
      7572.0000        13.0004       1757.242        17.2274         0.5613         0.5522         0.6717       -65.1536        -9.1501      0.8692843
      7572.5000        12.9935       1999.998        18.1083         0.5095         0.5216          0.628       -65.8296        -9.8201      0.8597128
      7573.0000        12.9818       2342.988         19.029         0.4516          0.488          0.622       -67.2587       -11.2433      0.8393814
      7573.5000        12.9623       2647.219        20.0714         0.3959         0.4401         0.6385       -70.5868       -14.5654      0.7919229
      7574.0000        12.9429       3054.813        21.6234          0.336         0.3892         0.6585       -74.9133        -18.886         0.7302
      7574.5000         12.925       3418.949        22.9287         0.2822         0.3429         0.6884       -81.7996       -25.7663        0.63191
      7575.0000        12.9157       3617.852        24.0079          0.259         0.3163         0.7039       -96.0125       -39.9732      0.4289543
      7575.5000        12.9064           3992        25.1635         0.2481         0.3002         0.6526      -100.8516       -44.8064      0.3599086
      7576.0000        12.9176       4112.367        26.3652         0.2387         0.2943         0.6145       -99.8972        -43.846      0.3736286
      7576.5000        12.9427       4083.785        25.8579           0.24         0.2932         0.6297       -97.5859       -41.5288      0.4067314
      7577.0000        12.9534       3942.051        24.3089         0.2579          0.297         0.6432       -94.8818       -38.8187      0.4454471
      7577.5000        12.9442       3734.141        22.8876         0.2808         0.3103         0.6074       -90.7365       -34.6674      0.5047514
      7578.0000        12.9349       3516.836        21.3518         0.3044         0.3307         0.5744       -85.0444       -28.9694      0.5861514
      7578.5000        12.9156       3278.387        19.6368         0.3157         0.3672         0.5738       -77.0643       -20.9833      0.7002386
      7579.0000        12.8947       3027.211        18.1142         0.3271         0.3966         0.6122       -80.1844       -24.0974      0.6557514
      7579.5000        12.8738        2995.25        17.1275         0.3295         0.3846         0.6991       -87.2517       -31.1588      0.5548743
      7580.0000        12.8543        3029.07         16.679         0.3314         0.3713         0.8793       -92.0823       -35.9834      0.4859515
      7580.5000         12.847       3070.133        17.9057         0.3308         0.3584         0.9061       -95.6698        -39.565      0.4347857
      7581.0000        12.8398       3129.891        20.3475         0.3273         0.3529         0.7663       -97.6532       -41.5424      0.4065371
      7581.5000        12.8325       3178.695        21.8451          0.324         0.3504         0.6718       -96.7393       -40.6225      0.4196785
      7582.0000        12.8252       3180.785        22.7011          0.322         0.3498         0.6365       -95.2783       -39.1556      0.4406343
      7582.5000        12.8428       3158.328        22.9392          0.323         0.3594         0.6268       -93.5286       -37.3999      0.4657157
      7583.0000        12.8688       3083.984        22.7867         0.3327         0.3693         0.6143       -91.7054       -35.5708      0.4918457
      7583.5000         12.897         3004.5        22.5429         0.3427         0.3799         0.5874       -89.6401       -33.4995      0.5214357
      7584.0000        12.9729       2928.246        22.5763          0.353         0.3916         0.5639        -83.718       -27.5714      0.6061229
      7584.5000        13.0277       2851.406        23.1218         0.3636         0.4036         0.5794       -75.3196       -19.1671      0.7261842
      7585.0000        13.0499       2767.422          23.73         0.3747         0.4159         0.6239       -77.9208       -21.7623        0.68911
      7585.5000        13.0639       2654.852        23.0887         0.3862         0.4252          0.671       -79.6191       -23.4547      0.6649328
      7586.0000         13.058       2525.645        22.1637          0.398         0.4344         0.6903       -81.0679       -24.8975      0.6443214
      7586.5000        13.0522       2447.336        21.2784         0.4044         0.4438         0.6947       -78.2854        -22.109      0.6841571
      7587.0000        13.0661       2403.055        20.1581         0.4079         0.4509         0.6463       -72.9606       -16.7783        0.76031
      7587.5000        13.0939       2405.473         19.512         0.4114          0.454         0.6053       -66.4268       -10.2385      0.8537357
      7588.0000        13.1134       2440.191        19.8938         0.4071         0.4515         0.5976       -62.8392        -6.6449      0.9050729
      7588.5000        13.1168       2527.895        20.4825         0.3999         0.4349         0.6044       -64.3442         -8.144      0.8836572
      7589.0000        13.1173       2590.641        20.9619         0.3928         0.4195          0.628       -67.1804       -10.9742      0.8432257
