#------------------------------------------------------------------------------
# Created by    : vladimir.rabinovich
# Created on    : 09/19/2023 17:21:04
#------------------------------------------------------------------------------
~Version Information Section
VERS.           2.0     :   CWLS log ASCII Standard - VERSION 2.0
WRAP.           NO      :   One line per depth step
~Well Information Section
#MNEM       .UNIT                                         VALUE :DESCRIPTION
#------------------------------------------------------------------------------
STRT        .FT                                            4500 :START DEPTH
STOP        .FT                                           11014 :STOP DEPTH
STEP        .FT                                             0.5 :STEP      
NULL        .                                           -999.25 :NULL      
COMP        .                              FIELDWOOD ENERGY LLC :COMPANY   
WELL        .                               OCS G06156 ST00BP00 :WELL      
FLD         .                            HIGH ISLAND BLOCK 0116 :FIELD     
LOC         .                                                   :LOCATION  
CNTY        .                           HIGH ISLAND LARGE BLOCK :LOCATION  
STAT        .                                             TEXAS :STATE     
CTRY        .                                     UNITED STATES :COUNTRY   
SRVC        .                                                   :SERVICE COMPANY
DATE        .                             9/13/2023 11:19:57 AM :LOG DATE  
API         .                                    42708404240000 :API NUMBER
UWI         .                                    42708404240000 :UNIQUE WELL ID
XCOORD      .                                  1333979.30181128 :SURFACE X 
YCOORD      .                                  10635798.2403082 :SURFACE Y 
LAT         .                                         29.303317 :LATITUDE  
LON         .                                        -93.961735 :LONGITUDE 
ELEV        .FT                                             101 :ELEVATION VALUE
ELEV_TYPE   .                                                KB :ELEVATION REFERENCE TYPE
~Curve Information Section
#MNEM       .UNIT                                      API CODE :CURVE DESCRIPTION
#------------------------------------------------------------------------------
DEPT        .FT                                                 :DEPTH     
AT10        .OHMM                                               :          
AT20        .OHMM                                               :          
AT30        .OHMM                                               :          
AT60        .OHMM                                               :          
AT90        .OHMM                                               :          
CALI        .IN                                                 :          
DCAL        .IN                                                 :          
DPHI        .DEC                                                :          
DRHO        .G/C3                                               :          
DT2R        .US/F                                               :          
DT4P        .US/F                                               :          
GR          .GAPI                                               :          
GR_NORM     .GAPI                                               :GammaRay Normalized
NPOR        .DEC                                                :          
SP          .MV                                                 :          
SP_NORM     .MV                                                 :SP Normalized
TENS        .LBF                                                :          
VSH_GR      .V/V                                                :Volume of Shale from GR
VSH_SP      .V/V                                                :Volume of Shale from SP
~A        DEPTH           AT10           AT20           AT30           AT60           AT90           CALI           DCAL           DPHI           DRHO           DT2R           DT4P             GR        GR_NORM           NPOR             SP        SP_NORM           TENS         VSH_GR         VSH_SP
# ...
      7024.5000         0.6046         0.5091         0.4569         0.4529         0.4431         11.503        -999.25         0.2964        -0.0257       210.9888        101.958        43.4468       46.47509        -999.25       -70.4208      -64.95125       3317.363      0.2867041     0.07212503
      7025.0000         0.6083         0.5121         0.4599         0.4547         0.4435         11.493        -999.25         0.2934        -0.0287        207.792       101.6583        43.6473       46.70843        -999.25       -70.8215      -65.63201       3307.383      0.2916687     0.06239984
      7025.5000         0.6108         0.5125         0.4586         0.4567         0.4422         11.493        -999.25          0.291        -0.0327       207.3926       101.5583        43.0455       46.00886        -999.25       -71.6232      -66.99502       3307.441      0.2767842     0.04292832
      7026.0000         0.6054         0.5094         0.4573         0.4554         0.4401         11.493        -999.25         0.2916        -0.0367       210.1877       101.2585        42.1448       44.96172        -999.25       -71.5229      -66.82338       3347.305      0.2545047     0.04538029
      7026.5000         0.6009         0.5054         0.4546         0.4526         0.4379         11.493        -999.25         0.2952        -0.0397       209.7893       100.7584        41.6436       44.37913        -999.25       -71.3226       -66.4816       3337.324      0.2421091     0.05026289
      7027.0000         0.5979         0.5013         0.4511         0.4512         0.4359         11.493        -999.25         0.2988        -0.0447       204.9971        99.6583        41.2424       43.91281        -999.25       -70.8215      -65.62804       3327.344      0.2321875     0.06245662
      7027.5000         0.5938         0.4971         0.4477         0.4528         0.4338         11.493        -999.25         0.3012        -0.0467       201.8005         95.863        41.3426       44.02952        -999.25       -70.1202      -64.43386       3307.383      0.2346707     0.07951628
      7028.0000         0.5843         0.4936         0.4468         0.4544         0.4338         11.513        -999.25         0.3048        -0.0477        199.001        93.5664        41.8431       44.61168        -999.25        -69.519      -63.40999       3277.445      0.2470571     0.09414303
      7028.5000         0.5749          0.491           0.45          0.456         0.4358         11.513        -999.25         0.3018        -0.0447       196.6038        91.6683        42.5452       45.42827        -999.25       -68.9177      -62.38596       3277.445      0.2644313      0.1087721
      7029.0000         0.5719         0.4913         0.4533         0.4673         0.4418        11.5331        -999.25         0.2988        -0.0417       193.8066        90.6693        43.5477       46.59416        -999.25       -67.4148      -59.82795       3297.402      0.2892375      0.1453151
      7029.5000         0.5837         0.4924         0.4565         0.4788         0.4542        11.5331        -999.25          0.291        -0.0387       189.0129        91.4679        44.6496       47.87564        -999.25        -65.611      -56.75798       3307.383       0.316503      0.1891717
      7030.0000         0.5933          0.505         0.4686         0.5006         0.4689        11.5431        -999.25         0.2934        -0.0357       192.9998        93.8638        45.9531       49.39153        -999.25       -64.4078      -54.70988       3297.402      0.3487559      0.2184303
      7030.5000         0.5919         0.5323         0.4865         0.5259         0.4882        11.5431        -999.25         0.2976        -0.0317       211.3738        96.5641        47.4539       51.13684        -999.25       -62.6065      -51.64417       3297.402      0.3858903      0.2622261
      7031.0000         0.5947         0.5685         0.5294         0.5666         0.5132        11.5331        -999.25         0.2964        -0.0267       235.7778        99.1611        49.1627       53.12402        -999.25       -58.7957      -45.15953       3307.383      0.4281706      0.3548639
      7031.5000         0.6316         0.6245         0.5838         0.6184         0.5591        11.5631        -999.25         0.2814        -0.0198       250.5474       108.6466         56.071       61.15711        -999.25       -51.4807      -32.71288       3297.402      0.5990874      0.5326732
      7032.0000         0.6812         0.6852         0.6705         0.6891         0.6306        11.6032        -999.25         0.2575        -0.0128       257.2637       114.0316        61.4813       67.44835        -999.25       -43.9526      -19.90366       3287.379      0.7329436      0.7156621
      7032.5000         0.7349         0.7456         0.7643         0.7704          0.714        11.6333        -999.25         0.2377        -0.0068       261.6426       116.4197        67.3948       74.32471        -999.25       -38.5358      -10.68658       3257.477      0.8792491      0.8473346
      7033.0000         0.7854         0.8015         0.8381         0.8365         0.8235        11.6232        -999.25         0.2305        -0.0028        281.605       117.4133        71.4027       78.98525        -999.25       -35.4224      -5.388487       3277.445      0.9784096      0.9230216
      7033.5000         0.7993         0.8386         0.8901         0.8936          0.946        11.6232        -999.25         0.2335        -0.0028       323.5562       117.1085        71.9038       79.56812        -999.25       -33.9142      -2.821456       3317.363      0.9908111      0.9596935
      7034.0000         0.8077         0.8724         0.9179         0.9273         0.9702        11.6733        -999.25         0.2335        -0.0048       360.2822       115.4032        71.1014        78.6353        -999.25       -33.1077      -1.448294       3337.324      0.9709638      0.9793101
      7034.5000         0.8177         0.8949         0.9383         0.9571         0.9913        11.7234        -999.25         0.2311        -0.0058       363.8579       113.6016        69.2982       76.53875        -999.25       -32.4022     -0.2469683       3317.363      0.9263564      0.9964719
      7035.0000          0.831          0.917         0.9592         0.9804         1.0112        11.7335        -999.25         0.2252        -0.0068       342.6504       112.3989        67.2939       74.20835        -999.25       -32.3962     -0.2357661       3317.363      0.8767734      0.9966319
      7035.5000         0.8673         0.9384         0.9877         1.0017         1.0354        11.7435        -999.25         0.2192        -0.0068       315.8867       111.0941        66.0916       72.81052        -999.25        -32.892      -1.078322       3317.363      0.8470322      0.9845954
      7036.0000         0.9121         0.9616         1.0171         1.0243         1.0626        11.7736        -999.25         0.2186        -0.0048       289.0703       109.8907          65.09       71.64606        -999.25       -33.5887      -2.262688       3317.363      0.8222567      0.9676759
      7036.5000         0.9568         0.9947         1.0443         1.0543          1.089        11.8637        -999.25         0.2222        -0.0028       264.6704       109.2865        63.8876       70.24812        -999.25       -34.1849      -3.276062       3317.363      0.7925133      0.9531991
      7037.0000         0.9909         1.0283         1.0723         1.0822         1.1134        11.9339        -999.25         0.2252        -0.0018       245.0752        109.781        63.0853       69.31541        -999.25       -35.0815      -4.800538       3317.363      0.7726682      0.9314209
      7037.5000         1.0014         1.0564         1.0927          1.069         1.1024        11.9339        -999.25         0.2257         0.0002       232.6704       109.9758        60.6796       66.51828        -999.25       -35.8781      -6.154872       3317.363      0.7131549      0.9120733
