#------------------------------------------------------------------------------
# Created by    : vladimir.rabinovich
# Created on    : 09/19/2023 17:22:29
#------------------------------------------------------------------------------
~Version Information Section
VERS.           2.0     :   CWLS log ASCII Standard - VERSION 2.0
WRAP.           NO      :   One line per depth step
~Well Information Section
#MNEM       .UNIT                                         VALUE :DESCRIPTION
#------------------------------------------------------------------------------
STRT        .FT                                            1202 :START DEPTH
STOP        .FT                                           11047 :STOP DEPTH
STEP        .FT                                             0.5 :STEP      
NULL        .                                           -999.25 :NULL      
COMP        .                                 MESA PETROLEUM CO :COMPANY   
WELL        .                               OCS G03305 ST00BP00 :WELL      
FLD         .                                           WILDCAT :FIELD     
LOC         .                                                   :LOCATION  
CNTY        .                      MATAGORDA ISLAND LARGE BLOCK :LOCATION  
STAT        .                                             TEXAS :STATE     
CTRY        .                                     UNITED STATES :COUNTRY   
SRVC        .                                                   :SERVICE COMPANY
DATE        .                             9/13/2023 11:12:09 AM :LOG DATE  
API         .                                    42703400870000 :API NUMBER
UWI         .                                    42703400870000 :UNIQUE WELL ID
XCOORD      .                                  540264.325087739 :SURFACE X 
YCOORD      .                                   10226560.637492 :SURFACE Y 
LAT         .                                         28.138272 :LATITUDE  
LON         .                                        -96.413655 :LONGITUDE 
ELEV        .FT                                              80 :ELEVATION VALUE
ELEV_TYPE   .                                                KB :ELEVATION REFERENCE TYPE
~Curve Information Section
#MNEM       .UNIT                                      API CODE :CURVE DESCRIPTION
#------------------------------------------------------------------------------
DEPT        .FT                                                 :DEPTH     
CILD        .MMHO                                               :          
DPHI        .%                                                  :          
GR          .GAPI                                               :          
GR_NORM     .GAPI                                               :GammaRay Normalized
ILD         .OHMM                                               :          
ILM         .OHMM                                               :          
SFL         .OHMM                                               :          
SP          .MV                                                 :          
SP_NORM     .MV                                                 :SP Normalized
VSH_GR      .V/V                                                :Volume of Shale from GR
VSH_SP      .V/V                                                :Volume of Shale from SP
~A        DEPTH           CILD           DPHI             GR        GR_NORM            ILD            ILM            SFL             SP        SP_NORM         VSH_GR         VSH_SP
# ...
      5792.0000       2989.844        -999.25        45.8825       40.67939         0.3208         0.3758         0.7478        -139.03      -54.95245      0.1633913      0.1569929
      5792.5000       2944.828        -999.25        45.0453       39.01945         0.3232         0.3726         0.4158      -138.0981      -54.02571      0.1280734      0.1714733
      5793.0000       2949.094        -999.25        44.2095       37.36226         0.3152         0.3853         0.3767      -134.4268      -50.35957     0.09281402      0.2287568
      5793.5000        3215.07        -999.25         44.132       37.20859         0.3056            0.4         0.5197      -131.2712      -47.20911      0.0895445      0.2779826
      5794.0000       3362.543        -999.25         45.205        39.3361         0.2971         0.4025         0.6516      -129.2019      -45.14497      0.1348107      0.3102348
      5794.5000       3354.953        -999.25        45.6014       40.12204         0.3149         0.3981         0.7277      -127.4885      -43.43672      0.1515328      0.3369262
      5795.0000       3119.035        -999.25        45.3688       39.66087         0.3474          0.407         0.5701      -125.7187      -41.67207      0.1417206      0.3644989
      5795.5000        2724.59        -999.25        44.0175       36.98158         0.3853         0.4255         0.4336       -121.925      -37.88353     0.08471444      0.4236948
      5796.0000       2173.789        -999.25        44.1593       37.26274         0.4441          0.493         0.3878      -117.0769      -33.04058     0.09069662      0.4993659
      5796.5000       1973.391        -999.25        45.0937       39.11542         0.5289         0.5924         0.5623      -108.5649      -24.53374      0.1301153      0.6322854
      5797.0000         1822.1        -999.25        46.4904        41.8847         0.6368         0.7122         0.6914      -101.7161      -17.69009      0.1890362      0.7392173
      5797.5000       1652.951        -999.25        47.1337        43.1602         0.7718         0.8812           0.79       -98.9227      -14.90184      0.2161744      0.7827837
      5798.0000       1364.258        -999.25        47.0897       43.07298         0.8773         1.0429         0.9802      -100.4612       -16.4455      0.2143187      0.7586641
      5798.5000       1158.305        -999.25        45.9816       40.87589         0.9768         1.1821         1.3049      -104.2355      -20.22495      0.1675721      0.6996102
      5799.0000       994.0166        -999.25        44.4198       37.77925         1.0608         1.2365         1.7041      -108.1687      -24.16331      0.1016862      0.6380733
      5799.5000        938.709        -999.25        43.1307       35.22327         1.0872         1.1943         1.8697      -113.2759      -29.27566     0.04730362      0.5581928
      5800.0000       913.6094        -999.25        42.6892       34.34788         1.0789         1.1557         1.9824      -116.4043      -32.40921     0.02867833      0.5092311
      5800.5000       937.7236        -999.25        43.4548       35.86588         1.0379         1.1198         1.9628      -115.7708      -31.78086     0.06097615       0.519049
      5801.0000       968.3896        -999.25        44.7794       38.49223         0.9697         1.0857         1.8509      -112.8479      -28.86311      0.1168559      0.5646389
      5801.5000       989.9248        -999.25        45.9254       40.76447         0.9539          1.111         1.4722      -110.8079      -26.82827      0.1652015      0.5964333
      5802.0000       998.6084        -999.25        47.0933        43.0801         0.9688         1.1767         1.3762      -110.3437      -26.36922      0.2144702       0.603606
      5802.5000       981.6006        -999.25        47.9965       44.87093         1.0004         1.2501          1.452       -112.498      -28.52868       0.252573      0.5698644
      5803.0000       961.0459        -999.25        48.0124       44.90244         1.0328         1.3145         1.6769      -114.7925      -30.82833      0.2532434      0.5339323
      5803.5000       923.6328        -999.25        47.6959        44.2749          1.063         1.3546         1.8712      -116.7529      -32.79388      0.2398915      0.5032206
      5804.0000       889.9912        -999.25        46.9252       42.74683         1.0908         1.3815         2.1696       -117.656      -33.70213      0.2073794      0.4890292
      5804.5000       898.2949        -999.25        46.0911       41.09298         1.0868         1.3585         2.6402      -117.3779      -33.42919      0.1721911      0.4932939
      5805.0000       931.8203        -999.25        46.3103       41.52761         1.0576         1.2392         2.9271      -115.0615      -31.11794      0.1814385      0.5294071
      5805.5000       976.8242        -999.25        46.7441       42.38771         1.0179         1.1367         3.0649      -109.7097       -25.7713      0.1997385      0.6129484
      5806.0000       983.3564        -999.25         47.366        43.6208         0.9918         1.0763         2.4008      -104.6561      -20.72285      0.2259745      0.6918305
      5806.5000       990.4023        -999.25        47.9405       44.75989         0.9729         1.0261         1.3229       -98.2231      -14.29501      0.2502105      0.7922655
      5807.0000       997.9316        -999.25        47.8361       44.55289           0.98         0.9993         1.0568       -91.7656      -7.842659      0.2458062      0.8930835
      5807.5000       1006.448        -999.25        47.7103       44.30347         0.9872         1.0014         0.9457       -89.1765      -5.258705      0.2404994      0.9334577
      5808.0000       1009.152        -999.25        47.5444       43.97454         0.9929         1.0331         0.9148       -88.0305      -4.117867      0.2335009      0.9512833
      5808.5000       992.4668        -999.25        47.8534       44.58718         0.9984         1.0801         0.9448       -86.8528      -2.945313      0.2465358      0.9696045
      5809.0000       970.5732        -999.25        48.2937       45.46024           1.02         1.1223         1.0038       -85.7606      -1.858269      0.2651115      0.9865896
      5809.5000       928.5947        -999.25        48.2367       45.34719         1.0496         1.1588         1.0781       -84.8188     -0.9216232      0.2627062              1
      5810.0000       886.3184        -999.25        47.9188       44.71686          1.109         1.1865         1.1423       -84.8035     -0.9114761      0.2492949              1
      5810.5000       842.6045        -999.25         46.683       42.26659         1.1816         1.2071         1.1928       -84.9515      -1.064629      0.1971615      0.9989902
      5811.0000       802.4375        -999.25         46.006       40.92427         1.2498         1.2348         1.2322       -84.9629      -1.081184      0.1686015      0.9987315
      5811.5000       772.8643        -999.25        45.7471       40.41094         1.2768         1.2698         1.2579       -84.9535      -1.076935      0.1576795      0.9987979
      5812.0000       769.1992        -999.25        45.6003       40.11987         1.2428         1.3275         1.3854       -84.8007     -0.9292908      0.1514866              1
      5812.5000       784.2031        -999.25        45.1964       39.31903         1.1979         1.3759         1.6371       -84.6107     -0.7444458      0.1344475              1
      5813.0000       805.4648        -999.25        44.7439       38.42183         1.1723          1.352         1.6377       -84.3202     -0.4590988      0.1153581              1
      5813.5000       819.9287        -999.25        45.1622       39.25126         1.1591         1.2668          1.383       -84.0129     -0.1569519      0.1330055              1
      5814.0000       834.5166        -999.25        46.7741       42.44721         1.1538         1.1995         1.1736       -83.8131     0.03769684      0.2010044              1
