#------------------------------------------------------------------------------
# Created by    : vladimir.rabinovich
# Created on    : 09/19/2023 17:22:30
#------------------------------------------------------------------------------
~Version Information Section
VERS.           2.0     :   CWLS log ASCII Standard - VERSION 2.0
WRAP.           NO      :   One line per depth step
~Well Information Section
#MNEM       .UNIT                                         VALUE :DESCRIPTION
#------------------------------------------------------------------------------
STRT        .FT                                             456 :START DEPTH
STOP        .FT                                           11667 :STOP DEPTH
STEP        .FT                                             0.5 :STEP      
NULL        .                                           -999.25 :NULL      
COMP        .                              PATRICK PETROLEUM CO :COMPANY   
WELL        .                                     ST TR 00693-L :WELL      
FLD         .                                           WILDCAT :FIELD     
LOC         .                                                   :LOCATION  
CNTY        .                      MATAGORDA ISLAND LARGE BLOCK :LOCATION  
STAT        .                                             TEXAS :STATE     
CTRY        .                                     UNITED STATES :COUNTRY   
SRVC        .                                                   :SERVICE COMPANY
DATE        .                             9/13/2023 11:12:01 AM :LOG DATE  
API         .                                    42703302660000 :API NUMBER
UWI         .                                    42703302660000 :UNIQUE WELL ID
XCOORD      .                                  384413.417453263 :SURFACE X 
YCOORD      .                                  10143960.4717662 :SURFACE Y 
LAT         .                                        27.8986234 :LATITUDE  
LON         .                                       -96.8882217 :LONGITUDE 
ELEV        .FT                                              92 :ELEVATION VALUE
ELEV_TYPE   .                                                KB :ELEVATION REFERENCE TYPE
~Curve Information Section
#MNEM       .UNIT                                      API CODE :CURVE DESCRIPTION
#------------------------------------------------------------------------------
DEPT        .FT                                                 :DEPTH     
CILD        .MMHO                                               :          
DPHI        .%                                                  :          
DT          .US/F                                               :          
GR          .GAPI                                               :          
GR_NORM     .GAPI                                               :GammaRay Normalized
ILD         .OHMM                                               :          
SN          .OHMM                                               :          
SP          .MV                                                 :          
SP_NORM     .MV                                                 :SP Normalized
VSH_GR      .V/V                                                :Volume of Shale from GR
VSH_SP      .V/V                                                :Volume of Shale from SP
~A        DEPTH           CILD           DPHI             DT             GR        GR_NORM            ILD             SN             SP        SP_NORM         VSH_GR         VSH_SP
# ...
      4933.5000         1300.8         27.648        -999.25          73.12       82.70318         0.7529         1.0265       -13.8416       2.649683              1              1
      4934.0000       1335.636          27.12        -999.25           72.8       82.31138         0.7278         1.0452       -12.3465       4.147894              1              1
      4934.5000         1373.6          26.76        -999.25          74.22       84.01447         0.7062         1.0654        -9.1083       7.389205              1              1
      4935.0000         1364.8          27.24        -999.25          76.35        86.5724         0.7071         1.0887           -7.6       8.900616              1              1
      4935.5000         1312.4          27.48        -999.25           78.2       88.79321         0.7417         1.1337          -8.55       7.953727              1              1
      4936.0000       1226.545         27.084        -999.25          76.59       86.84828         0.8027         1.2038       -11.0099        5.49694              1              1
      4936.5000         1127.2         26.352        -999.25        71.8695       81.15839          0.867         1.2858       -11.6832       4.826751              1              1
      4937.0000         1013.6         25.668        -999.25        65.8586        73.9149         0.9465         1.4017        -10.683       5.830062      0.8705298              1
      4937.5000          910.4         25.092        -999.25        59.5052       66.25906          1.075         1.5223           -9.8       6.716172      0.7076395              1
      4938.0000          820.4         25.212        -999.25          53.77        59.3475         1.2294         1.5674       -13.1323       3.386983       0.560585              1
      4938.5000          759.2         25.644        -999.25        49.9379       54.72723         1.3397         1.5313       -17.8812      -1.358807      0.4622814      0.9944799
      4939.0000          742.4         26.364        -999.25        49.1919       53.82252         1.3539         1.4258       -22.0556      -5.530094      0.4430324      0.9303063
      4939.5000          798.8         26.976        -999.25        49.4545       54.13215         1.2166         1.2807         -25.28      -8.751385      0.4496203      0.8807479
      4940.0000       940.7273           27.9        -999.25         51.892        57.0603         1.0336         1.1761       -27.7579      -11.22617      0.5119212      0.8426743
      4940.5000         1117.6         29.124        -999.25        55.0032       60.79957         0.8751         1.0819       -29.8061      -13.27126      0.5914802      0.8112113
      4941.0000         1327.6         30.852        -999.25        56.7843       62.93742         0.7402          1.021       -30.2608      -13.72285      0.6369665      0.8042639
      4941.5000         1548.8          32.22        -999.25        58.4935       64.98872         0.6235         0.9741       -29.9071      -13.36604       0.680611      0.8097532
      4942.0000       1739.273           33.3        -999.25         60.986       67.98309         0.5581         0.9365       -29.0629      -12.51873       0.744321      0.8227888
      4942.5000           1898         33.564        -999.25          64.51       72.21935         0.5046         0.9135       -27.9802      -11.43292      0.8344542      0.8394936
      4943.0000         1974.4         33.624        -999.25        68.7889       77.36449          0.491         0.9087       -26.6931      -10.14271      0.9439254       0.859343
      4943.5000         1973.6         32.916        -999.25          71.49       80.60999         0.4954         0.9104       -24.2277      -7.674194              1      0.8973201
      4944.0000         1922.4         32.388        -999.25          73.55       83.08366         0.5113         0.9187       -20.1117      -3.555084              1       0.960691
      4944.5000           1848         31.788        -999.25             75       84.82288         0.5362         0.9443         -16.13      0.4297276              1              1
      4945.0000         1727.2         30.804        -999.25          73.93       83.52808          0.576         0.9933          -14.9       1.662838              1              1
      4945.5000         1562.4         28.896        -999.25          71.74       80.88485         0.6442         1.0539         -15.97      0.5959501              1              1
      4946.0000       1366.909         29.436        -999.25        69.5273       78.21429         0.7483         1.1186         -17.38     -0.8109379      0.9620061              1
      4946.5000         1183.2         29.916        -999.25          68.59       77.07927         0.8568         1.1706         -18.69      -2.117828      0.9378568      0.9828026
      4947.0000         1051.6         30.084        -999.25          67.97       76.32628         0.9458         1.2121         -19.45      -2.874718      0.9218357      0.9711582
      4947.5000          967.6         27.948        -999.25          67.35       75.57328         1.0263         1.2558       -20.3409      -3.762506      0.9058145      0.9574999
      4948.0000            944         27.684        -999.25         66.552       74.60597         1.1023         1.2931       -21.4633      -4.881796      0.8852335      0.9402801
      4948.5000          964.4         28.284        -999.25        64.4904       72.11733         1.0752         1.2393       -22.7556      -6.170984      0.8322837      0.9204464
      4949.0000         1055.2         29.112        -999.25        60.2282       66.97922         0.9629         1.1553       -24.6578      -8.070074      0.7229621      0.8912296
      4949.5000       1188.364          30.54        -999.25        55.0303       60.71456         0.8606         1.0842       -28.5023      -11.91146      0.5896714      0.8321313
      4950.0000         1321.2         32.004        -999.25        48.9478       53.38486         0.7673         1.0405       -27.9651      -11.37115      0.4337204      0.8404438
      4950.5000           1448         33.612        -999.25        46.6563       50.61943         0.6829         0.9989       -24.8537      -8.256639      0.3748815      0.8883594
      4951.0000         1572.4         34.692        -999.25        54.5556       60.12342         0.6218         0.9615         -17.87      -1.269829      0.5770941      0.9958488
      4951.5000         1660.4         34.944        -999.25        60.1325       66.83132         0.5916         0.9241       -17.9701      -1.366817      0.7198154      0.9943566
      4952.0000       1713.091         33.636        -999.25        64.4272       71.99549         0.5702            0.9       -18.9155      -2.309107      0.8296913      0.9798599
      4952.5000           1732         32.712        -999.25        67.6633       75.88512         0.5715         0.9784        -20.297      -3.687496      0.9124495      0.9586539
      4953.0000         1638.4         32.484        -999.25        70.6861       79.51796         0.6123         0.9981       -19.8896      -3.276985      0.9897438      0.9649695
      4953.5000         1535.2         32.532        -999.25        74.3861       83.96612         0.6469         0.9919       -18.9727      -2.356974              1      0.9791235
      4954.0000           1446         32.784        -999.25        77.5247       87.73837         0.6755         0.9832         -18.24      -1.621162              1      0.9904436
      4954.5000           1428         32.388        -999.25         80.851        91.7366         0.6832         0.9666          -18.2      -1.578051              1      0.9911069
      4955.0000         1448.4         32.076        -999.25        84.3727       95.97011         0.6753         0.9624         -18.91      -2.284939              1      0.9802317
      4955.5000           1484         32.028        -999.25           85.6       97.44119         0.6578         0.9661        -21.198      -4.569828              1      0.9450796
