#------------------------------------------------------------------------------
# Created by    : vladimir.rabinovich
# Created on    : 09/19/2023 17:22:39
#------------------------------------------------------------------------------
~Version Information Section
VERS.           2.0     :   CWLS log ASCII Standard - VERSION 2.0
WRAP.           NO      :   One line per depth step
~Well Information Section
#MNEM       .UNIT                                         VALUE :DESCRIPTION
#------------------------------------------------------------------------------
STRT        .FT                                            3493 :START DEPTH
STOP        .FT                                            8566 :STOP DEPTH
STEP        .FT                                             0.5 :STEP      
NULL        .                                           -999.25 :NULL      
COMP        .                          SEAGULL ENERGY E & P INC :COMPANY   
WELL        .                               OCS G09038 ST00BP00 :WELL      
FLD         .                                           WILDCAT :FIELD     
LOC         .                                                   :LOCATION  
CNTY        .                             GALVESTON LARGE BLOCK :LOCATION  
STAT        .                                             TEXAS :STATE     
CTRY        .                                     UNITED STATES :COUNTRY   
SRVC        .                                                   :SERVICE COMPANY
DATE        .                             9/13/2023 11:19:36 AM :LOG DATE  
API         .                                    42706402070000 :API NUMBER
UWI         .                                    42706402070000 :UNIQUE WELL ID
XCOORD      .                                  986976.405819811 :SURFACE X 
YCOORD      .                                  10491452.3738699 :SURFACE Y 
LAT         .                                         28.894171 :LATITUDE  
LON         .                                        -95.042508 :LONGITUDE 
ELEV        .FT                                              93 :ELEVATION VALUE
ELEV_TYPE   .                                                KB :ELEVATION REFERENCE TYPE
~Curve Information Section
#MNEM       .UNIT                                      API CODE :CURVE DESCRIPTION
#------------------------------------------------------------------------------
DEPT        .FT                                                 :DEPTH     
DCAL        .IN                                                 :          
DPHI        .%                                                  :          
DRHO        .G/C3                                               :          
GR          .GAPI                                               :          
GR_NORM     .GAPI                                               :GammaRay Normalized
ILD         .OHMM                                               :          
ILM         .OHMM                                               :          
NPHI        .%                                                  :          
SGRD        .OHMM                                               :          
SP          .MV                                                 :          
SP_NORM     .MV                                                 :SP Normalized
VSH_GR      .V/V                                                :Volume of Shale from GR
VSH_SP      .V/V                                                :Volume of Shale from SP
~A        DEPTH           DCAL           DPHI           DRHO             GR        GR_NORM            ILD            ILM           NPHI           SGRD             SP        SP_NORM         VSH_GR         VSH_SP
# ...
      5184.0000         2.9525        71.1161         0.0014        52.2056       54.31171         0.3206         0.4109        59.5491         0.8793       -89.8295      -36.04475      0.4534406      0.5494406
      5184.5000          2.433        63.7115         0.0066        54.7413       58.23072         0.3338         0.4201        56.4667         0.8834       -86.2515      -32.46861      0.5368239      0.5941424
      5185.0000         2.0728        53.2657         0.0317        56.2918       60.62432         0.3511         0.4328        52.1088         0.9014       -87.4882      -33.70716      0.5877515      0.5786605
      5185.5000         1.8448        39.6935         0.0678        57.5416       62.55235         0.3734         0.4478        51.1732         0.9152       -89.0281      -35.24892      0.6287733      0.5593885
      5186.0000         1.7315        35.0982         0.0951        55.5184       59.41273         0.3968         0.4631        50.2962         0.9205       -89.2548      -35.47747      0.5619729      0.5565315
      5186.5000         1.6786        35.1895         0.1005        54.8782       60.92699         0.4132          0.477        48.8811         0.9179       -88.1943      -34.41883      0.5941914      0.5697646
      5187.0000         1.6797        35.6945         0.0912        56.5757        63.2431         0.4145         0.4906        45.6475         0.9407       -87.6812      -33.90759      0.6434702      0.5761551
      5187.5000         1.6251        32.0456         0.0837        55.1174       61.24178         0.3977         0.5058        42.1202         1.0379       -89.6851      -35.91334      0.6008888      0.5510832
      5188.0000         1.5685         29.524         0.0899        51.8718       56.79525         0.3803         0.4909        40.3098         1.1755       -98.8014       -45.0315       0.506282      0.4371062
      5188.5000         1.5105        28.5331         0.1025        50.9322       55.50356         0.3659         0.4608         39.629         1.2435      -106.3536      -52.58556       0.478799      0.3426805
      5189.0000         1.4418        32.4758         0.0904        51.5206        56.3023         0.3535         0.4329        41.5031         1.1729        -110.37      -56.60382      0.4957937      0.2924523
      5189.5000         1.3524        35.8488         0.0825        49.8804       54.05212         0.3445         0.4112         43.958         1.0189       -107.041      -53.27667      0.4479175      0.3340416
      5190.0000         1.3059        38.4772         0.0967        52.7511       57.97326         0.3412         0.3999         45.471         0.9031      -103.1777      -49.41523       0.531346      0.3823097
      5190.5000         1.4981        40.2267         0.1074         55.623       61.89606         0.3521         0.4062        46.4826         0.8442      -102.2811      -48.52048      0.6148099       0.393494
      5191.0000         1.6718        41.3333          0.095         53.583       59.09891           0.38         0.4327        43.1555         0.8765      -103.0458      -49.28704      0.5552959       0.383912
      5191.5000         1.5473        41.4245         0.0667        50.1606       54.41051          0.422         0.4668         39.379         1.0956      -104.8953       -51.1384      0.4555427        0.36077
      5192.0000         1.3543        38.6315         0.0601        52.5469       57.66896         0.4792         0.5236        36.7892         1.2694       -106.244      -52.48896      0.5248715       0.343888
      5192.5000         1.2613         34.048         0.0722        49.7173       53.79157         0.5578          0.592        33.9442         1.4527      -104.4506      -50.69741      0.4423738      0.3662824
      5193.0000         1.1624        30.5919         0.0614        47.4681       50.70821         0.6119         0.6665        31.6317         1.5701      -101.9797      -48.22837      0.3767703      0.3971454
      5193.5000         1.0886        25.7059         0.0494         46.686       49.63198         0.6303         0.7331        30.1811         1.5998       -99.2523      -45.50282      0.3538719      0.4312147
      5194.0000         1.0472        21.3569         0.0442        47.9812       51.39771         0.6408         0.7719        29.3074         1.6819       -98.1874      -44.43978      0.3914405      0.4445027
      5194.5000         1.0322        18.1129         0.0545        49.3188       53.22142         0.6115         0.7769        29.1776         1.7081      -101.1553      -47.40953       0.430243      0.4073808
      5195.0000         1.0532        16.8714         0.0609        49.0908       52.90327         0.5528          0.707        30.0832         1.4896      -105.0284      -51.28449      0.4234738      0.3589439
      5195.5000         1.2841        19.2357         0.0656        48.2141       51.69761         0.4819         0.6094        32.9266         1.2851       -108.147      -54.40495      0.3978215      0.3199381
      5196.0000         1.6127        23.4929         0.0692        46.9525        49.9654         0.4167         0.5404         36.187         1.1397      -110.9143      -57.17411      0.3609659      0.2853237
      5196.5000         1.9863        34.7778         0.0733        45.2936       47.68962         0.3552         0.4951        41.5922         1.0447      -113.1584      -59.42006      0.3125452      0.2572492
      5197.0000         2.2968        37.1556         0.0855        43.5189       45.25544         0.3085         0.4615        46.0925          0.983       -115.079      -61.34252       0.260754      0.2332185
      5197.5000         2.5702        38.7872         0.1037        41.5873       42.60658         0.2791         0.4293         49.163         0.9586      -116.7764      -63.04177      0.2043954      0.2119778
      5198.0000         2.7215        41.1027         0.1216         39.566       39.83501         0.2622         0.4005        51.5199         0.9823      -118.1613      -64.42853      0.1454258      0.1946434
      5198.5000         2.8303        43.9862         0.1191        37.9344        37.5966         0.2528         0.3788        54.6541          1.011      -119.3831      -65.65219     0.09779991      0.1793476
      5199.0000         2.9127        48.9197         0.1103        36.3416       35.41126         0.2512         0.3678         57.689         1.0168      -119.5624      -65.83334     0.05130338      0.1770832
      5199.5000         2.9832        54.5889         0.0988        35.1653       33.79574          0.265         0.3738        61.2491         1.0149      -117.6644       -63.9372      0.0169306       0.200785
      5200.0000         3.0382        62.3943         0.0851        34.5784       32.98656         0.2942         0.4038        63.0484         1.0157      -114.0801      -60.35476              0      0.2455655
      5200.5000         3.0441        64.4753          0.067        34.7344       33.19376         0.3392         0.4465        63.1563         1.0367      -109.0785      -55.35501    0.004122471      0.3080623
      5201.0000         2.8867        64.8921          0.039         35.679       34.47981         0.4066         0.5084        52.1978         1.0626       -100.017      -46.29537     0.03148538      0.4213079
      5201.5000         2.4989        60.9955         0.0122        36.9568       36.22173         0.5045         0.5965        42.6542         1.1713       -89.7349      -36.01513     0.06854744      0.5498109
      5202.0000         2.1354         51.373        -0.0061        39.1388       39.20068         0.5725          0.668        35.1487         1.4352       -81.2063      -27.48838      0.1319293      0.6563952
      5202.5000         1.8723         35.294         0.0066        42.9273       44.37746         0.6076         0.7081        30.2271         1.6204        -73.968      -20.25194      0.2420736      0.7468507
