#------------------------------------------------------------------------------
# Created by    : vladimir.rabinovich
# Created on    : 09/19/2023 17:20:30
#------------------------------------------------------------------------------
~Version Information Section
VERS.           2.0     :   CWLS log ASCII Standard - VERSION 2.0
WRAP.           NO      :   One line per depth step
~Well Information Section
#MNEM       .UNIT                                         VALUE :DESCRIPTION
#------------------------------------------------------------------------------
STRT        .FT                                             617 :START DEPTH
STOP        .FT                                           12396 :STOP DEPTH
STEP        .FT                                             0.5 :STEP      
NULL        .                                           -999.25 :NULL      
COMP        .                                        SUN OIL CO :COMPANY   
WELL        .                               OCS G01781 ST00BP00 :WELL      
FLD         .                                           WILDCAT :FIELD     
LOC         .                                                   :LOCATION  
CNTY        .                             GALVESTON LARGE BLOCK :LOCATION  
STAT        .                                             TEXAS :STATE     
CTRY        .                                     UNITED STATES :COUNTRY   
SRVC        .                                                   :SERVICE COMPANY
DATE        .                             9/13/2023 11:19:24 AM :LOG DATE  
API         .                                    42706001390000 :API NUMBER
UWI         .                                    42706001390000 :UNIQUE WELL ID
XCOORD      .                                  1010631.41746955 :SURFACE X 
YCOORD      .                                  10491097.5822315 :SURFACE Y 
LAT         .                                         28.894296 :LATITUDE  
LON         .                                        -94.968586 :LONGITUDE 
ELEV        .FT                                              65 :ELEVATION VALUE
ELEV_TYPE   .                                                KB :ELEVATION REFERENCE TYPE
~Curve Information Section
#MNEM       .UNIT                                      API CODE :CURVE DESCRIPTION
#------------------------------------------------------------------------------
DEPT        .FT                                                 :DEPTH     
ASN         .OHMM                                               :          
CILD        .MMHO                                               :          
DT          .US/F                                               :          
ILD         .OHMM                                               :          
SP          .MV                                                 :          
SP_NORM     .MV                                                 :SP Normalized
VSH_SP      .V/V                                                :Volume of Shale from SP
~A        DEPTH            ASN           CILD             DT            ILD             SP        SP_NORM         VSH_SP
# ...
      4536.5000         0.9235       1680.566       123.6737         0.6225       -83.5264      -7.873962      0.9067625
      4537.0000         0.9138       1713.918       124.1548          0.626       -83.1985      -7.547081      0.9119511
      4537.5000         0.9041       1744.713       124.3862         0.6216       -82.8708      -7.220383      0.9171368
      4538.0000         0.8944       1752.334       123.6779         0.6106       -82.6598      -7.010399      0.9204699
      4538.5000         0.8903       1753.465       122.6925         0.5995       -82.6095      -6.961113      0.9212522
      4539.0000         0.8868       1735.404       121.5579         0.5884       -82.5592      -6.911819      0.9220346
      4539.5000         0.8834       1717.344        120.365         0.5773       -82.5089      -6.862541      0.9228168
      4540.0000         0.8799       1699.283       119.3804         0.5662       -82.4587      -6.813347      0.9235977
      4540.5000         0.8764       1681.221       120.0137         0.5638       -82.4084      -6.764061        0.92438
      4541.0000         0.8741       1663.965       121.2665         0.5615       -82.3645      -6.721176      0.9250607
      4541.5000         0.8802       1646.721        122.275         0.5592       -82.3345      -6.692184      0.9255209
      4542.0000         0.8864       1629.463       122.9336         0.5569       -82.3044      -6.663094      0.9259827
      4542.5000         0.8925       1616.518       122.5403         0.5546       -82.2744      -6.634109      0.9264427
      4543.0000         0.8987       1612.355       121.5889         0.5524       -82.2445      -6.605217      0.9269013
      4543.5000         0.9048       1631.924       120.2676         0.5501       -82.5081      -6.869835      0.9227011
      4544.0000         0.9109       1669.012       119.2311         0.5462       -84.5958      -8.958542      0.8895469
      4544.5000         0.9097       1728.984       120.2164         0.5387       -87.7875      -12.15125       0.838869
      4545.0000         0.9064       1787.299       121.3153         0.5313       -88.5737      -12.93847      0.8263735
      4545.5000         0.9026       1808.293       122.3024         0.5238       -88.3014      -12.66718      0.8306798
      4546.0000         0.8965       1829.297       123.1392         0.5163       -88.0291      -12.39589      0.8349859
      4546.5000         0.8903       1850.303        123.084         0.5088       -88.5614       -12.9292      0.8265206
      4547.0000         0.8842       1869.836       124.4586         0.5014       -89.4952      -13.86401      0.8116823
      4547.5000         0.8781       1888.096       126.4805         0.4954       -90.6022      -14.97203      0.7940947
      4548.0000          0.872       1906.354       127.1659         0.4962       -91.3241      -15.69493      0.7826201
      4548.5000         0.8658       1924.984       126.4762          0.497        -90.266      -14.63785      0.7993993
      4549.0000         0.8597       1947.486       125.5927         0.4979       -89.1448      -13.51765      0.8171801
      4549.5000         0.8539       1953.715       124.5514         0.4987       -86.7913      -11.16517      0.8545212
      4550.0000         0.8484       1946.199       123.7129         0.4995       -88.3784      -12.75329      0.8293129
      4550.5000          0.843       1938.684       125.6016         0.5003       -90.3253      -14.70119      0.7983937
      4551.0000         0.8375       1931.162       126.4174         0.5011       -92.2709       -16.6478      0.7674952
      4551.5000         0.8336       1923.648       125.1971         0.5041        -93.355      -17.73292      0.7502711
      4552.0000         0.8413       1906.873       124.0138         0.5072       -92.7375      -17.11643      0.7600566
      4552.5000         0.8489       1886.832       122.8857         0.5103       -91.8612      -16.24114      0.7739501
      4553.0000         0.8566       1866.781         122.33         0.5135       -90.9854      -15.36635      0.7878357
      4553.5000         0.8642       1853.086       122.1669         0.5166       -88.5045      -12.88647      0.8271989
      4554.0000         0.8706       1839.404       122.9464         0.5198       -86.5001      -10.88307      0.8589988
      4554.5000         0.8744       1852.344       123.7897         0.5222       -85.7708      -10.15479       0.870559
      4555.0000         0.8783       1929.438       124.5864         0.5074       -85.2585      -9.643501      0.8786746
      4555.5000         0.8774       1964.074       125.3804         0.4925        -85.025      -9.411011      0.8823649
      4556.0000         0.8617       1995.373       125.2822         0.4777       -87.5007      -11.88773       0.843052
      4556.5000          0.846       2122.539       125.5349         0.4629       -92.2474      -16.63543      0.7676916
      4557.0000         0.8303       2634.238       127.5746         0.4427       -95.8544      -20.24345      0.7104215
      4557.5000         0.8172       2680.602       130.3267         0.4217       -97.9039      -22.29396      0.6778737
      4558.0000         0.8052        2730.43       134.4819         0.4007       -98.0922      -22.48327      0.6748688
      4558.5000         0.7932       2753.613       136.7915         0.3796       -97.8843      -22.27638      0.6781527
      4559.0000         0.7813       2729.813       134.0942         0.3586       -97.6689        -22.062      0.6815556
      4559.5000         0.7821       2635.078       129.4392         0.3681       -97.4525       -21.8466      0.6849746
      4560.0000         0.8886       2361.637       120.2295         0.3822       -97.2362      -21.63132      0.6883918
      4560.5000         0.9477       2269.848       111.9918         0.3964       -97.0198      -21.41592      0.6918107
      4561.0000         0.9982       2140.254       110.2156         0.4113      -100.1833      -24.58044      0.6415803
      4561.5000         1.0124       2046.684        113.812         0.4299      -101.2847      -25.68285      0.6240817
      4562.0000         1.0226       1999.182        118.015         0.4484        -101.98      -26.37917      0.6130291
      4562.5000         1.0328         1825.4       121.3497          0.467      -103.6099      -28.01008      0.5871416
      4563.0000         1.0306       1816.172       122.1371         0.4855       -105.998      -30.39919      0.5492193
      4563.5000         1.0266        1823.57       118.9569         0.5041      -107.8411       -32.2433      0.5199476
      4564.0000         1.0225       1830.967       116.1549         0.5178      -109.1798      -33.58302      0.4986823
      4564.5000         1.0184       1838.705       114.7141         0.5225      -109.5951      -33.99932      0.4920743
      4565.0000         1.0143       1849.387       115.4098         0.5273      -108.9153      -33.32053      0.5028487
      4565.5000         1.0102       1860.063       116.4017          0.532      -108.2354      -32.64164      0.5136248
      4566.0000         1.0062       1850.291       117.2803         0.5368      -107.4387      -31.84595      0.5262547
      4566.5000         1.0021       1827.281       117.2028         0.5415      -106.5641      -30.97237       0.540121
      4567.0000         0.9974       1804.246        115.797         0.5463       -105.689      -30.09828      0.5539955
      4567.5000         0.9912       1782.227       114.1902         0.5502      -104.7563       -29.1666      0.5687842
      4568.0000          0.985       1761.928       113.2382         0.5521      -103.6309       -28.0422      0.5866318
      4568.5000         0.9787       1741.639       113.7704         0.5541      -102.5054      -26.91772      0.6044807
      4569.0000         0.9725        1721.34       114.9014          0.556      -100.0894      -24.50273      0.6428138
      4569.5000         0.9663       1707.076       116.0337          0.558       -97.6573      -22.07164      0.6814026
