#------------------------------------------------------------------------------
# Created by    : vladimir.rabinovich
# Created on    : 09/19/2023 17:21:26
#------------------------------------------------------------------------------
~Version Information Section
VERS.           2.0     :   CWLS log ASCII Standard - VERSION 2.0
WRAP.           NO      :   One line per depth step
~Well Information Section
#MNEM       .UNIT                                         VALUE :DESCRIPTION
#------------------------------------------------------------------------------
STRT        .FT                                            3102 :START DEPTH
STOP        .FT                                            8740 :STOP DEPTH
STEP        .FT                                             0.5 :STEP      
NULL        .                                           -999.25 :NULL      
COMP        .                          SEAGULL ENERGY E & P INC :COMPANY   
WELL        .                               OCS G13314 ST00BP00 :WELL      
FLD         .                              GALVESTON BLOCK 0330 :FIELD     
LOC         .                                                   :LOCATION  
CNTY        .                             GALVESTON LARGE BLOCK :LOCATION  
STAT        .                                             TEXAS :STATE     
CTRY        .                                     UNITED STATES :COUNTRY   
SRVC        .                                                   :SERVICE COMPANY
DATE        .                             9/13/2023 11:19:54 AM :LOG DATE  
API         .                                    42706403240000 :API NUMBER
UWI         .                                    42706403240000 :UNIQUE WELL ID
XCOORD      .                                  980373.867630971 :SURFACE X 
YCOORD      .                                  10452895.3513713 :SURFACE Y 
LAT         .                                         28.787844 :LATITUDE  
LON         .                                        -95.061044 :LONGITUDE 
ELEV        .FT                                              95 :ELEVATION VALUE
ELEV_TYPE   .                                                KB :ELEVATION REFERENCE TYPE
~Curve Information Section
#MNEM       .UNIT                                      API CODE :CURVE DESCRIPTION
#------------------------------------------------------------------------------
DEPT        .FT                                                 :DEPTH     
CALI        .IN                                                 :          
DRHO        .G/C3                                               :          
DT          .US/F                                               :          
GR          .GAPI                                               :          
GR_1        .GAPI                                               :          
GR_NORM     .GAPI                                               :GammaRay Normalized
ILD         .OHMM                                               :          
ILM         .OHMM                                               :          
NPHI        .%                                                  :          
RFOC        .OHMM                                               :          
RHOB        .G/C3                                               :          
SP          .MV                                                 :          
SP_NORM     .MV                                                 :SP Normalized
VSH_GR      .V/V                                                :Volume of Shale from GR
VSH_SP      .V/V                                                :Volume of Shale from SP
~A        DEPTH           CALI           DRHO             DT             GR           GR_1        GR_NORM            ILD            ILM           NPHI           RFOC           RHOB             SP        SP_NORM         VSH_GR         VSH_SP
# ...
      3170.0000        -999.25        -999.25       197.4158        52.6223        -999.25       61.31317         0.7983         0.8919        -999.25         1.2494        -999.25       -51.1556      -19.69493        -999.25      0.7538134
      3170.5000        -999.25        -999.25       199.5361        48.7205        -999.25        56.9061         0.7784         0.8519        -999.25          1.144        -999.25       -49.6745      -18.21383        -999.25      0.7723272
      3171.0000        -999.25        -999.25       200.7434        43.4709        -999.25       50.97668         0.7548         0.8229        -999.25          1.018        -999.25       -48.7399      -17.27922        -999.25      0.7840097
      3171.5000        -999.25        -999.25       200.6025        38.2015        -999.25        45.0249         0.7294            0.8        -999.25         0.8998        -999.25       -48.0989      -16.63823        -999.25      0.7920222
      3172.0000        -999.25        -999.25       199.3513        34.5256        -999.25       40.87297         0.7066         0.7809        -999.25         0.8366        -999.25       -47.9057      -16.44503        -999.25      0.7944372
      3172.5000        -999.25        -999.25       193.8069        34.0366        -999.25       40.32065         0.6848         0.7674        -999.25         0.8339        -999.25       -47.8286      -16.36793        -999.25      0.7954009
      3173.0000        -999.25        -999.25       190.6626        35.4938        -999.25       41.96656         0.6721         0.7582        -999.25          0.835        -999.25       -47.6852      -16.22453        -999.25      0.7971934
      3173.5000        -999.25        -999.25       189.2131        38.1334        -999.25       44.94798         0.6705         0.7527        -999.25         0.8408        -999.25         -46.86      -15.39933        -999.25      0.8075084
      3174.0000        -999.25        -999.25       189.7771         40.037        -999.25       47.09809         0.6749         0.7549        -999.25         0.8555        -999.25       -45.7875      -14.32682        -999.25      0.8209147
      3174.5000        -999.25        -999.25       189.4651        40.8625        -999.25        48.0305         0.6805         0.7606        -999.25         0.8777        -999.25       -45.1614      -13.70073        -999.25       0.828741
      3175.0000        -999.25        -999.25        186.332        41.4785        -999.25       48.72626          0.687         0.7662        -999.25         0.8966        -999.25       -45.0742      -13.61353        -999.25      0.8298309
      3175.5000        -999.25        -999.25       184.1401        42.2161        -999.25       49.55938         0.6933         0.7688        -999.25         0.8997        -999.25       -44.9676      -13.50693        -999.25      0.8311634
      3176.0000        -999.25        -999.25       184.6169        43.1025        -999.25       50.56057         0.6995         0.7632        -999.25         0.8956        -999.25       -44.8526      -13.39193        -999.25       0.832601
      3176.5000        -999.25        -999.25       186.0137        44.0794        -999.25       51.66398         0.7003         0.7484        -999.25         0.8958        -999.25       -44.7555      -13.29483        -999.25      0.8338147
      3177.0000        -999.25        -999.25       187.7617        45.0365        -999.25       52.74502          0.688          0.733        -999.25         0.9277        -999.25        -44.673      -13.21233        -999.25      0.8348459
      3177.5000        -999.25        -999.25       189.6724        46.0542        -999.25       53.89451         0.6726         0.7179        -999.25         0.9504        -999.25       -44.5954      -13.13473        -999.25      0.8358159
      3178.0000        -999.25        -999.25       190.5278        47.3616        -999.25       55.37122         0.6596         0.7037        -999.25         0.9316        -999.25       -44.5179      -13.05722        -999.25      0.8367847
      3178.5000        -999.25        -999.25       190.3518        49.1612        -999.25       57.40387         0.6466         0.6911        -999.25         0.9076        -999.25       -44.4403      -12.97963        -999.25      0.8377547
      3179.0000        -999.25        -999.25       190.2671        55.1759        -999.25       64.19746         0.6354         0.6819        -999.25         0.8979        -999.25       -44.3197      -12.85902        -999.25      0.8392622
      3179.5000        -999.25        -999.25        190.304        57.8676        -999.25       67.23772         0.6281         0.6737        -999.25         0.9016        -999.25       -44.1053      -12.64463        -999.25      0.8419422
      3180.0000        -999.25        -999.25       190.3477        57.8861        -999.25       67.25862         0.6213         0.6683        -999.25          0.906        -999.25       -43.9778      -12.51712        -999.25       0.843536
      3180.5000        -999.25        -999.25       189.7573        57.7435        -999.25       67.09756         0.6166         0.6684        -999.25         0.9031        -999.25       -43.9146      -12.45393        -999.25      0.8443259
      3181.0000        -999.25        -999.25        187.572        57.8799        -999.25       67.25163         0.6127          0.665        -999.25         0.9125        -999.25       -43.2283      -11.76762        -999.25      0.8529047
      3181.5000        -999.25        -999.25       184.6414        59.1342        -999.25       68.66835         0.6083         0.6559        -999.25         0.9251        -999.25       -42.0597      -10.59903        -999.25      0.8675122
      3182.0000        -999.25        -999.25       181.4246          62.56        -999.25       72.53779         0.6068         0.6584        -999.25           0.91        -999.25       -41.6363      -10.17562        -999.25      0.8728047
      3182.5000        -999.25        -999.25       179.0769        65.6007        -999.25       75.97224         0.6116         0.6622        -999.25         0.9049        -999.25       -42.0808      -10.62012        -999.25      0.8672484
      3183.0000        -999.25        -999.25       177.0664        66.9246        -999.25       77.46759         0.6175         0.6689        -999.25         0.9227        -999.25       -42.8764      -11.41573        -999.25      0.8573034
      3183.5000        -999.25        -999.25       175.4043         66.156        -999.25       76.59946         0.6248         0.6763        -999.25         0.9567        -999.25       -43.5881      -12.12743        -999.25      0.8484071
      3184.0000        -999.25        -999.25       173.9084        65.5618        -999.25       75.92832         0.6312         0.6813        -999.25          0.982        -999.25       -43.7347      -12.27402        -999.25      0.8465747
      3184.5000        -999.25        -999.25       172.6545        66.8846        -999.25       77.42241         0.6324          0.684        -999.25         1.0029        -999.25       -43.3936      -11.93293        -999.25      0.8508384
      3185.0000        -999.25        -999.25       171.6956        68.7245        -999.25       79.50058         0.6319          0.681        -999.25         0.9888        -999.25       -42.4139      -10.95322        -999.25      0.8630847
      3185.5000        -999.25        -999.25       171.6287         70.391        -999.25       81.38287         0.6304         0.6735        -999.25          0.958        -999.25       -40.5113      -9.050625        -999.25      0.8868672
      3186.0000        -999.25        -999.25       171.9644        71.5573        -999.25       82.70022         0.6276         0.6651        -999.25         0.9317        -999.25       -37.8927      -6.432026        -999.25      0.9195997
      3186.5000        -999.25        -999.25       172.1643        72.2131        -999.25       83.44094         0.6203         0.6564        -999.25         0.9173        -999.25       -36.6085      -5.147827        -999.25      0.9356521
