#------------------------------------------------------------------------------
# Created by    : vladimir.rabinovich
# Created on    : 09/19/2023 17:20:23
#------------------------------------------------------------------------------
~Version Information Section
VERS.           2.0     :   CWLS log ASCII Standard - VERSION 2.0
WRAP.           NO      :   One line per depth step
~Well Information Section
#MNEM       .UNIT                                         VALUE :DESCRIPTION
#------------------------------------------------------------------------------
STRT        .FT                                            3094 :START DEPTH
STOP        .FT                                           15705 :STOP DEPTH
STEP        .FT                                             0.5 :STEP      
NULL        .                                           -999.25 :NULL      
COMP        .                                       MONSANTO CO :COMPANY   
WELL        .                                     ST TR 00011-L :WELL      
FLD         .                                           WILDCAT :FIELD     
LOC         .                                                   :LOCATION  
CNTY        .                           HIGH ISLAND LARGE BLOCK :LOCATION  
STAT        .                                             TEXAS :STATE     
CTRY        .                                     UNITED STATES :COUNTRY   
SRVC        .                                                   :SERVICE COMPANY
DATE        .                             9/13/2023 11:19:15 AM :LOG DATE  
API         .                                    42708300660000 :API NUMBER
UWI         .                                    42708300660000 :UNIQUE WELL ID
XCOORD      .                                  1343190.12128624 :SURFACE X 
YCOORD      .                                   10724936.940093 :SURFACE Y 
LAT         .                                        29.5487141 :LATITUDE  
LON         .                                       -93.9350737 :LONGITUDE 
ELEV        .FT                                              49 :ELEVATION VALUE
ELEV_TYPE   .                                                KB :ELEVATION REFERENCE TYPE
~Curve Information Section
#MNEM       .UNIT                                      API CODE :CURVE DESCRIPTION
#------------------------------------------------------------------------------
DEPT        .FT                                                 :DEPTH     
ASN         .OHMM                                               :          
CILD        .MMHO                                               :          
ILD         .OHMM                                               :          
SP_NORM     .MV                                                 :SP Normalized
VSH_SP      .V/V                                                :Volume of Shale from SP
~A        DEPTH            ASN           CILD            ILD        SP_NORM         VSH_SP
# ...
     12334.0000          0.505       2747.211         0.4064     -0.3391876              1
     12334.5000         0.5002       2831.207         0.4071    -0.05150986              1
     12335.0000         0.4954       2857.383         0.4086      0.2187691              1
     12335.5000         0.4901       2829.418         0.4101      0.4897461              1
     12336.0000         0.4955       2801.352         0.4116      0.7601242              1
     12336.5000         0.5122       2761.543         0.4131      0.8682022              1
     12337.0000         0.5138       2722.727         0.4146      0.8472824              1
     12337.5000          0.496       2685.008         0.4161      0.8263588              1
     12338.0000         0.4782       2650.477         0.4176      0.7685394              1
     12338.5000         0.4604       2618.828         0.4191      0.4929123              1
     12339.0000          0.428        2586.98         0.4206      0.2171936              1
     12339.5000           0.47       2539.508          0.422    -0.05783081              1
     12340.0000         0.5216       2492.035         0.4263     -0.3335495              1
     12340.5000         0.5297       2425.254         0.4307     -0.6091728              1
     12341.0000         0.5377       2359.871         0.4352     -0.8977928              1
     12341.5000         0.5454       2302.445         0.4396      -1.195015      0.9968546
     12342.0000         0.5531       2259.551         0.4441      -1.492237      0.9920607
     12342.5000         0.5598       2268.906         0.4469      -1.789459      0.9872668
     12343.0000         0.5462        2482.48         0.4415      -2.086082      0.9824826
     12343.5000         0.5325        2639.43         0.4362      -2.101307       0.982237
     12344.0000         0.5188       2671.324         0.4308      -1.810028       0.986935
     12344.5000         0.5052       2699.563         0.4255      -1.518147      0.9916428
     12345.0000         0.4938       2714.543         0.4312      -1.226871      0.9963408
     12345.5000         0.4858       2685.707         0.4372     -0.9349899              1
     12346.0000         0.4939       2602.902         0.4399      -1.875511      0.9858788
     12346.5000         0.5217       2521.793         0.4291      -2.832035      0.9704511
     12347.0000         0.6183       2465.066         0.4182      -4.130756       0.949504
     12347.5000         0.6876       2348.723         0.4074      -6.771477      0.9069117
     12348.0000         0.7284       2308.316         0.3966      -9.343304      0.8654306
     12348.5000         0.7557       2279.504         0.3857      -11.91022      0.8240286
     12349.0000         0.7635       2283.438         0.3749      -14.48204      0.7825477
     12349.5000         0.7127       2587.578          0.364      -19.17147      0.7069118
     12350.0000         0.6575       2890.922         0.3563      -23.71309      0.6336598
     12350.5000         0.6292       3195.063          0.354      -27.98871      0.5646983
     12351.0000         0.6604       3504.773         0.3517      -32.26453      0.4957333
     12351.5000         0.7031        3911.82         0.3469      -36.53046      0.4269281
     12352.0000         0.7457       3981.188         0.3382      -53.40228       0.154802
     12352.5000         0.7883       3992.266         0.3325        -53.913      0.1465645
     12353.0000          0.831       4020.102          0.341      -54.02502      0.1447577
     12353.5000          0.837       3971.645         0.3495      -53.80014      0.1483848
     12354.0000         0.8083       3974.012         0.3579      -53.56317       0.152207
     12354.5000         0.7809       3976.379         0.3664      -53.31619      0.1561905
     12355.0000         0.7546        3805.73         0.3748      -53.06911      0.1601756
     12355.5000         0.7807       3632.563         0.3833      -52.82163      0.1641673
     12356.0000         0.8276       3459.789         0.3918      -52.57465      0.1681508
     12356.5000         0.9192       3392.516         0.4005      -52.32767      0.1721343
     12357.0000         0.9911       3075.633         0.4093       -52.0334      0.1768806
     12357.5000         1.0622        2993.23         0.4182      -51.60362      0.1838125
     12358.0000          1.007       2928.641          0.427      -49.10294      0.2241461
     12358.5000          0.892       2873.406         0.4358      -42.26866      0.3343764
     12359.0000         0.7912       2461.184         0.4437      -32.75529      0.4878179
     12359.5000         0.6965       2426.051         0.4512      -12.28951      0.8179112
     12360.0000         0.5973       2390.922         0.4588      -5.153526      0.9330077
     12360.5000         0.5304       2369.922         0.4663      -4.397449      0.9452024
     12361.0000         0.5184       2351.859         0.4739       -3.89687      0.9532763
     12361.5000         0.5283       2333.148         0.4819       -3.65609      0.9571598
     12362.0000         0.5381       2313.492         0.4901      -3.415218      0.9610448
     12362.5000          0.548       2291.797         0.4984      -3.175137      0.9649171
     12363.0000         0.5579           2260         0.5066      -2.935459      0.9687829
     12363.5000         0.5679       2235.617         0.5148      -2.883682       0.969618
     12364.0000          0.578       2217.055         0.5215      -3.621002      0.9577258
     12364.5000          0.588       2199.441         0.5235      -4.376823      0.9455351
     12365.0000         0.5981       2182.172         0.5256      -5.436848      0.9284379
     12365.5000         0.6081       2166.051         0.5277      -6.496666      0.9113441
     12366.0000         0.6262       2146.395         0.5297       -7.55909      0.8942083
     12366.5000         0.6454       2118.926         0.5298      -8.631313      0.8769143
     12367.0000         0.6647       2091.457         0.5288      -9.774937      0.8584688
     12367.5000          0.686       1920.182         0.5279      -11.18946      0.8356539
     12368.0000         0.7081       1939.439           0.53      -13.83518       0.792981
     12368.5000         0.7325       1958.697         0.5353        -17.744      0.7299355
     12369.0000          0.761       1977.904          0.539      -18.74242       0.713832
     12369.5000         0.7747           2023         0.5285      -19.74074      0.6977299
     12370.0000         0.5705           2207         0.5181      -10.66816      0.8440619
     12370.5000           0.54           2391         0.5076      -8.416286      0.8803825
     12371.0000         0.5216       2564.887         0.4971      -7.036011       0.902645
     12371.5000         0.5115       2666.301         0.4818      -6.679535      0.9083946
     12372.0000         0.5015       2689.984         0.4644      -6.322956      0.9141459
     12372.5000         0.4977       2719.941         0.4469      -6.011375      0.9191714
     12373.0000         0.5036       2744.273         0.4294      -5.973099      0.9197887
     12373.5000         0.5597       2752.086         0.4326      -6.482719      0.9115691
     12374.0000         0.5799       2355.891         0.4611      -10.25364      0.8507478
     12374.5000            0.6       2260.895         0.4897      -12.01036      0.8224136
     12375.0000         0.6203       2249.102          0.493      -13.31659      0.8013454
     12375.5000         0.6419       2284.434         0.4941      -13.76831      0.7940596
     12376.0000         0.6637       2343.945         0.4952      -10.52403      0.8463866
     12376.5000         0.7543       2423.762         0.4963      -13.96015      0.7909653
     12377.0000         0.8191       2459.891         0.4974      -15.51497      0.7658876
     12377.5000           0.85       2483.973         0.4972      -17.06739      0.7408485
