#------------------------------------------------------------------------------
# Created by    : vladimir.rabinovich
# Created on    : 09/19/2023 17:20:30
#------------------------------------------------------------------------------
~Version Information Section
VERS.           2.0     :   CWLS log ASCII Standard - VERSION 2.0
WRAP.           NO      :   One line per depth step
~Well Information Section
#MNEM       .UNIT                                         VALUE :DESCRIPTION
#------------------------------------------------------------------------------
STRT        .FT                                             609 :START DEPTH
STOP        .FT                                           12866 :STOP DEPTH
STEP        .FT                                             0.5 :STEP      
NULL        .                                           -999.25 :NULL      
COMP        .                                        SUN OIL CO :COMPANY   
WELL        .                               OCS G01769 ST00BP00 :WELL      
FLD         .                                           WILDCAT :FIELD     
LOC         .                                                   :LOCATION  
CNTY        .                             GALVESTON LARGE BLOCK :LOCATION  
STAT        .                                             TEXAS :STATE     
CTRY        .                                     UNITED STATES :COUNTRY   
SRVC        .                                                   :SERVICE COMPANY
DATE        .                             9/13/2023 11:19:24 AM :LOG DATE  
API         .                                    42706001410000 :API NUMBER
UWI         .                                    42706001410000 :UNIQUE WELL ID
XCOORD      .                                  1110717.91749569 :SURFACE X 
YCOORD      .                                  10538856.4752018 :SURFACE Y 
LAT         .                                         29.029845 :LATITUDE  
LON         .                                        -94.657945 :LONGITUDE 
ELEV        .FT                                              65 :ELEVATION VALUE
ELEV_TYPE   .                                                KB :ELEVATION REFERENCE TYPE
~Curve Information Section
#MNEM       .UNIT                                      API CODE :CURVE DESCRIPTION
#------------------------------------------------------------------------------
DEPT        .FT                                                 :DEPTH     
ASN         .OHMM                                               :          
CALI        .IN                                                 :          
CILD        .MMHO                                               :          
DT          .US/F                                               :          
ILD         .OHMM                                               :          
SP          .MV                                                 :          
SP_NORM     .MV                                                 :SP Normalized
VSH_SP      .V/V                                                :Volume of Shale from SP
~A        DEPTH            ASN           CALI           CILD             DT            ILD             SP        SP_NORM         VSH_SP
# ...
      7128.5000         0.8782        12.3299       1517.256         99.446         0.6194       -76.0956       1.662193              1
      7129.0000         0.8843        12.2961        1517.25        99.7488          0.617       -76.0768       1.678802              1
      7129.5000         0.8905        12.2796       1517.543        99.7992         0.6145       -76.3657       1.387711              1
      7130.0000         0.8886        12.3401       1519.225        99.8083          0.612       -76.4872       1.264023              1
      7130.5000         0.8762        12.4122       1533.066        99.5967         0.6095       -75.7344       2.014633              1
      7131.0000         0.8581        12.4228        1545.98        99.2251         0.6102       -75.4966       2.250244              1
      7131.5000         0.8391        12.3392       1556.162        98.6713         0.6126       -75.3918       2.352852              1
      7132.0000         0.8225        12.2985       1566.355        98.3696         0.6149       -75.2869       2.455566              1
      7132.5000          0.827         12.286       1575.639        98.3866         0.6204        -75.182       2.558281              1
      7133.0000         0.8487        12.2894        1581.82        98.2478         0.6348       -75.2465       2.491592              1
      7133.5000         0.8774         12.307        1572.91        98.0494         0.6491       -75.4043       2.331604              1
      7134.0000         0.9067        12.3051       1561.068         97.453         0.6635       -75.5623        2.17141              1
      7134.5000         0.9293        12.3129       1547.959        96.6632         0.6779       -75.7203       2.011223              1
      7135.0000         0.9348        12.3031        1516.66        96.0566         0.6922       -75.8782       1.851135              1
      7135.5000         0.9403        12.2667       1485.313        95.4951         0.7066       -76.0361        1.69104              1
      7136.0000         0.9459        12.2568       1458.043         95.201         0.7215       -76.2001       1.524849              1
      7136.5000         0.9511        12.2875       1432.529        95.0588         0.7366       -76.3647        1.35807              1
      7137.0000         0.9555        12.3319       1379.406         94.941         0.7517       -76.5297        1.19088              1
      7137.5000           0.96        12.3731       1322.033        95.0154         0.7604       -76.6943       1.024094              1
      7138.0000         0.9645        12.3448       1306.506        95.5612         0.7547       -76.8591      0.8571014              1
      7138.5000          0.969        12.3155       1290.953        96.1063         0.7489       -77.0177       0.696312              1
      7139.0000         0.9737        12.3035       1283.209        96.6515         0.7432       -77.1316      0.5802231              1
      7139.5000         0.9784        12.2916       1288.623         97.255         0.7295       -77.2456       0.464035              1
      7140.0000         0.9675        12.2797       1314.416        97.8507         0.7152       -77.3595      0.3479462              1
      7140.5000         0.9553        12.2769       1340.221        97.4506          0.701       -77.4734      0.2318649              1
      7141.0000         0.9366        12.2832       1357.262        96.7732         0.6867       -77.5873      0.1157684              1
      7141.5000         0.9127        12.2972       1374.279        96.3771         0.6733       -77.4854      0.2154846              1
      7142.0000         0.8977        12.3258       1389.146        95.9822         0.6607       -77.2177      0.4809952              1
      7142.5000         0.8888        12.3556       1403.441        95.7981          0.648       -76.9501      0.7463989              1
      7143.0000         0.8799         12.336        1415.77         96.155         0.6402       -76.6821       1.012215              1
      7143.5000         0.8796        12.3045         1428.1        96.0287         0.6534       -76.4146       1.277527              1
      7144.0000          0.891        12.2643       1438.848        95.5748         0.6666       -76.1466       1.543335              1
      7144.5000         0.9034        12.2342       1432.311        94.9763         0.6798        -75.879       1.808746              1
      7145.0000         0.9193         12.223       1410.754        94.3356         0.6957       -75.6113       2.074265              1
      7145.5000          0.935         12.325       1389.342         93.858         0.7133        -75.892       1.791374              1
      7146.0000         0.9509        12.3949       1368.248        92.9875          0.731       -76.2455       1.435684              1
      7146.5000         0.9667        12.4148        1347.18        92.2991         0.7486       -76.5994        1.07959              1
      7147.0000         0.9745         12.388       1327.916        92.4723         0.7467       -76.9529      0.7238998              1
      7147.5000         0.9767        12.3704       1308.824        92.9988         0.7407       -77.2223      0.4523163              1
      7148.0000         0.9494        12.3528       1293.945        94.3337         0.7302       -77.2916      0.3808212              1
      7148.5000         0.9102         12.355       1282.824        95.8462          0.706        -77.361      0.3092346              1
      7149.0000          0.884        12.3927       1286.926        96.8297         0.6818       -77.4304       0.237648              1
      7149.5000         0.8736        12.4248       1331.555        97.4908         0.6628       -77.4999      0.1659622              1
      7150.0000         0.8633        12.4048       1395.666        98.0243         0.6464       -77.3796      0.2840729              1
      7150.5000         0.8658        12.3446       1442.734        98.3456         0.6301       -77.1918      0.4696808              1
      7151.0000         0.8693        12.2828       1489.805        98.6259         0.6137       -77.0039      0.6553955              1
      7151.5000         0.8729         12.226       1525.498        98.7367         0.5973       -76.8157      0.8414078              1
      7152.0000         0.8765        12.1739       1551.768        98.8783         0.5995       -76.6278       1.027115              1
      7152.5000         0.8801        12.1406        1571.42        99.1788         0.6035       -76.4398       1.212929              1
      7153.0000         0.8837        12.1191       1565.158        99.3372         0.6075       -76.3246       1.325935              1
      7153.5000         0.8873        12.1031        1556.43        98.3732         0.6115       -76.3083        1.34005              1
      7154.0000         0.8909         12.089       1539.316        97.0134         0.6155       -76.2921       1.354065              1
      7154.5000         0.8945        12.1047       1522.203        96.1703         0.6195        -76.276       1.367973              1
      7155.0000          0.898        12.1203       1505.088        95.2415         0.6235       -76.2598       1.381981              1
      7155.5000         0.9016         12.125        1488.23        94.5845         0.6251       -76.2435       1.396095              1
      7156.0000         0.9086        12.1241       1476.561        94.3331         0.6266       -76.2274       1.410004              1
      7156.5000         0.9157        12.1226       1464.879        94.4631         0.6281       -76.2087       1.426514              1
      7157.0000          0.907        12.1029       1453.197        94.7603         0.6295       -76.1674        1.46563              1
      7157.5000          0.898        12.0889       1441.514        94.8701          0.631        -76.126       1.504837              1
