#------------------------------------------------------------------------------
# Created by    : vladimir.rabinovich
# Created on    : 09/19/2023 17:19:47
#------------------------------------------------------------------------------
~Version Information Section
VERS.           2.0     :   CWLS log ASCII Standard - VERSION 2.0
WRAP.           NO      :   One line per depth step
~Well Information Section
#MNEM       .UNIT                                         VALUE :DESCRIPTION
#------------------------------------------------------------------------------
STRT        .FT                                             380 :START DEPTH
STOP        .FT                                            8002 :STOP DEPTH
STEP        .FT                                             0.5 :STEP      
NULL        .                                           -999.25 :NULL      
COMP        .                               AMOCO PRODUCTION CO :COMPANY   
WELL        .                               OCS G07253 ST00BP00 :WELL      
FLD         .                                           WILDCAT :FIELD     
LOC         .                                                   :LOCATION  
CNTY        .                             GALVESTON LARGE BLOCK :LOCATION  
STAT        .                                             TEXAS :STATE     
CTRY        .                                     UNITED STATES :COUNTRY   
SRVC        .                                                   :SERVICE COMPANY
DATE        .                             9/13/2023 11:19:27 AM :LOG DATE  
API         .                                    42706401230000 :API NUMBER
UWI         .                                    42706401230000 :UNIQUE WELL ID
XCOORD      .                                  925879.569593371 :SURFACE X 
YCOORD      .                                  10358786.1357032 :SURFACE Y 
LAT         .                                         28.526408 :LATITUDE  
LON         .                                        -95.225632 :LONGITUDE 
ELEV        .FT                                             100 :ELEVATION VALUE
ELEV_TYPE   .                                                KB :ELEVATION REFERENCE TYPE
~Curve Information Section
#MNEM       .UNIT                                      API CODE :CURVE DESCRIPTION
#------------------------------------------------------------------------------
DEPT        .FT                                                 :DEPTH     
ASFL        .OHMM                                               :          
CILD        .MMHO                                               :          
GR          .GAPI                                               :          
GR_NORM     .GAPI                                               :GammaRay Normalized
ILD         .OHMM                                               :          
SP          .MV                                                 :          
SP_NORM     .MV                                                 :SP Normalized
VSH_GR      .V/V                                                :Volume of Shale from GR
VSH_SP      .V/V                                                :Volume of Shale from SP
~A        DEPTH           ASFL           CILD             GR        GR_NORM            ILD             SP        SP_NORM         VSH_GR         VSH_SP
# ...
      1440.0000          1.273       675.9639         33.548       37.72987         1.4853       -81.3633      -6.438835      0.1006355      0.4451456
      1440.5000         1.2632       676.9678        32.4931       36.67438         1.4846       -81.4291      -6.510544     0.07817832       0.436182
      1441.0000         1.2571       673.2402        34.0453       38.22599         1.4838       -81.2168      -6.304153      0.1111914      0.4619808
      1441.5000         1.2627       669.5146        33.7993        37.9794         1.4831       -81.0045      -6.097771      0.1059447      0.4877787
      1442.0000          1.268       665.7871          33.17       37.34951         1.4865       -80.8223      -5.921478     0.09254277      0.5098152
      1442.5000         1.2721       662.0605        32.5405       36.71943         1.4989       -80.7914      -5.896484     0.07913671      0.5129395
      1443.0000         1.2763        658.334         31.911       36.08934         1.5113       -80.7605       -5.87149     0.06573056      0.5160637
      1443.5000         1.2804       654.6074        32.2115       36.38924         1.5238       -80.7296      -5.846504     0.07211149       0.519187
      1444.0000         1.2845       650.8799        32.2553       36.43245         1.5362       -80.6987      -5.821518     0.07303092      0.5223103
      1444.5000         1.2886       647.1543        31.1612       35.33777         1.5486       -80.6677      -5.796425     0.04973976      0.5254469
      1445.0000         1.2928       643.5098        30.0667       34.24267         1.5611       -80.3889      -5.523537     0.02643983      0.5595579
      1445.5000         1.2942       639.8789        28.9723       33.14768         1.5735       -80.1024      -5.242943    0.003142174      0.5946321
      1446.0000         1.2957       636.2471        29.1326        33.3074         1.5859       -79.8159      -4.962357    0.006540339      0.6297054
      1446.5000         1.2971       632.6152        30.2889       34.46311         1.5898       -79.5294       -4.68177     0.03113004      0.6647787
      1447.0000         1.2986       628.9834        32.3482       36.52182         1.5925       -78.8057      -3.963974     0.07493226      0.7545033
      1447.5000            1.3       625.3516        34.4075       38.58053         1.5952       -79.4321      -4.596283      0.1187346      0.6754646
      1448.0000         1.3025       624.2852        35.0973       39.26974         1.5979       -80.6774      -5.847488      0.1333987      0.5190639
      1448.5000         1.3067       624.2773        35.0975       39.26935         1.5987       -81.2521      -6.428101      0.1333905      0.4464874
      1449.0000         1.3109       624.2686        34.8378       39.00906         1.5941       -81.8115      -6.993416      0.1278523       0.375823
      1449.5000         1.3151       624.2607        34.4484       38.61907         1.5894       -82.1666      -7.354424      0.1195546      0.3306971
      1450.0000         1.3145       629.0547        34.0589       38.22898         1.5848       -82.5177      -7.711433      0.1112549      0.2860708
      1450.5000         1.3091       634.2256        33.6696       37.83909         1.5801       -82.8689      -8.068535      0.1029593      0.2414331
      1451.0000         1.2987       639.3975        34.3177        38.4866         1.5755         -83.22      -8.425552      0.1167362       0.196806
      1451.5000         1.2883       644.5703         35.468       39.63631         1.5708       -83.5713      -8.782761      0.1411981      0.1521549
      1452.0000         1.2779       649.7412        36.6179       40.78563         1.5662       -84.0359      -9.253265      0.1656516     0.09334183
      1452.5000         1.2675       654.9131        37.7678       41.93493         1.5592       -84.9785      -10.20178      0.1901049              0
      1453.0000         1.2576        656.415        38.7076       42.87414         1.5507       -84.5593       -9.78849      0.2100881     0.02643871
      1453.5000         1.2508       656.7559        39.0038       43.16975         1.5423       -83.7902      -9.025299      0.2163778      0.1218376
      1454.0000          1.246       657.0967        38.3542       42.51957         1.5339        -83.021      -8.262016      0.2025439       0.217248
      1454.5000         1.2532       657.4375        37.7048       41.86957         1.5255        -82.252      -7.498917      0.1887143      0.3126354
      1455.0000         1.2606       657.2754        37.0553       41.21949         1.5171        -82.281      -7.533829      0.1748827      0.3082714
      1455.5000         1.2695       654.8604        36.4829        40.6465         1.5087       -82.8569      -8.115639      0.1626914      0.2355452
      1456.0000         1.2784       652.4443        36.8214        40.9844         1.5003       -83.4329      -8.697548      0.1698809      0.1628065
      1456.5000          1.281       650.0293        37.1599       41.32232         1.4969       -83.7455       -9.01606      0.1770705      0.1229925
      1457.0000         1.2775       647.6143        37.4984       41.66023          1.497       -83.0092      -8.285667      0.1842602      0.2142916
      1457.5000         1.2741       645.1982        37.8369       41.99814         1.4971       -82.2729      -7.555283      0.1914497      0.3055897
      1458.0000         1.2707       644.0479        38.2339       42.39454         1.4972       -81.8126      -7.100883      0.1998839      0.3623896
      1458.5000         1.2672       647.6074        38.6943       42.85436         1.4973        -81.537        -6.8312      0.2096672         0.3961
      1459.0000         1.2638        651.167        39.1548       43.31427         1.4973       -81.2611      -6.561211      0.2194526      0.4298487
      1459.5000         1.2603       654.7266        38.1543       42.31318          1.501       -80.9855      -6.291512      0.1981527      0.4635611
      1460.0000         1.2569       658.2871        36.9539       41.11219         1.5108       -80.7771      -6.089027      0.1725997      0.4888716
      1460.5000          1.254       661.8467        36.0286        40.1863         1.5206       -80.6694      -5.987236         0.1529      0.5015955
      1461.0000          1.251       665.4062        35.2289       39.38601         1.5303       -80.5618      -5.885544      0.1358726       0.514307
      1461.5000         1.2481        668.625        34.4291       38.58562         1.5401       -80.7904      -6.120056      0.1188429       0.484993
      1462.0000         1.2451       665.2129        33.6295       37.78543         1.5498       -81.1016      -6.437164      0.1018177      0.4453545
      1462.5000         1.2422       661.8008        32.8298       36.98514         1.5596       -81.4126      -6.754074     0.08479025      0.4057407
      1463.0000         1.2387       658.3887         32.081       36.23576         1.5673       -81.7236      -7.070984     0.06884587       0.366127
      1463.5000          1.235       654.9766        31.3542       35.50836         1.5743       -82.0347      -7.387993      0.0533694      0.3265009
      1464.0000         1.2313       651.5645        31.6065       35.76007         1.5813       -82.3457       -7.70491     0.05872491      0.2868862
      1464.5000         1.2327       648.1523         32.816       36.96899         1.5884       -82.6569      -8.022011     0.08444652      0.2472486
      1465.0000         1.2367       643.4453        34.0255       38.17789         1.5937       -82.9678      -8.338821      0.1101679      0.2076473
      1465.5000         1.2461       637.3408        34.2677        38.4195         1.5868       -83.1375      -8.514427      0.1153086      0.1856966
      1466.0000         1.2581       631.2334        34.0989       38.25011           1.58        -82.797       -8.17984      0.1117046        0.22752
