#------------------------------------------------------------------------------
# Created by    : vladimir.rabinovich
# Created on    : 09/19/2023 17:22:53
#------------------------------------------------------------------------------
~Version Information Section
VERS.           2.0     :   CWLS log ASCII Standard - VERSION 2.0
WRAP.           NO      :   One line per depth step
~Well Information Section
#MNEM       .UNIT                                         VALUE :DESCRIPTION
#------------------------------------------------------------------------------
STRT        .FT                                             394 :START DEPTH
STOP        .FT                                            7700 :STOP DEPTH
STEP        .FT                                             0.5 :STEP      
NULL        .                                           -999.25 :NULL      
COMP        .                                   MARATHON OIL CO :COMPANY   
WELL        .                                     ST TR 00248-L :WELL      
FLD         .                                           WILDCAT :FIELD     
LOC         .                                                   :LOCATION  
CNTY        .                             GALVESTON LARGE BLOCK :LOCATION  
STAT        .                                             TEXAS :STATE     
CTRY        .                                     UNITED STATES :COUNTRY   
SRVC        .                                                   :SERVICE COMPANY
DATE        .                             9/13/2023 11:19:42 AM :LOG DATE  
API         .                                    42706000210000 :API NUMBER
UWI         .                                    42706000210000 :UNIQUE WELL ID
XCOORD      .                                  969160.596945075 :SURFACE X 
YCOORD      .                                  10521676.5956168 :SURFACE Y 
LAT         .                                        28.9764138 :LATITUDE  
LON         .                                       -95.0998408 :LONGITUDE 
ELEV        .FT                                              10 :ELEVATION VALUE
ELEV_TYPE   .                                                KB :ELEVATION REFERENCE TYPE
~Curve Information Section
#MNEM       .UNIT                                      API CODE :CURVE DESCRIPTION
#------------------------------------------------------------------------------
DEPT        .FT                                                 :DEPTH     
LAT         .OHMM                                               :          
LN          .OHMM                                               :          
SN          .OHMM                                               :          
SP          .MV                                                 :          
SP_NORM     .MV                                                 :SP Normalized
VSH_SP      .V/V                                                :Volume of Shale from SP
~A        DEPTH            LAT             LN             SN             SP        SP_NORM         VSH_SP
# ...
      7158.0000         1.7139         0.2314         0.8493        -40.505        7.15377              1
      7158.5000         1.6176         0.2512         0.7875       -40.6718       6.979683              1
      7159.0000         1.5211         0.2711         0.7256       -40.8385       6.805687              1
      7159.5000         1.4247          0.291         0.6653       -41.4446       6.192299              1
      7160.0000         1.3284         0.3108         0.6568       -43.4616       4.168003              1
      7160.5000          1.232         0.3306         0.6484       -45.4764       2.145916              1
      7161.0000         1.1357         0.3505           0.64       -47.4935       0.121521              1
      7161.5000         1.0393         0.3704         0.6315       -49.5106       -1.90287      0.9889894
      7162.0000         0.9881         0.3902         0.6231       -51.5276      -3.927158       0.964303
      7162.5000         0.9387         0.4004         0.6277       -58.5566      -10.96345      0.8784945
      7163.0000         0.8893         0.3983         0.6392       -67.4381      -19.85225      0.7700946
      7163.5000         0.8398         0.3963         0.6507       -76.3744      -28.79583      0.6610264
      7164.0000         0.7903         0.3943         0.6623       -84.0681      -36.49683      0.5671118
      7164.5000         0.7409         0.3922         0.6738       -90.4414      -42.87742      0.4892998
      7165.0000         0.6915         0.3902         0.6853       -93.7263      -46.16961      0.4491511
      7165.5000         0.6421         0.3882         0.6874       -94.9507       -47.4013      0.4341305
      7166.0000         0.5926         0.3861         0.6794         -92.76       -45.2179      0.4607574
      7166.5000         0.5432         0.3823         0.6714        -90.567      -43.03218      0.4874124
      7167.0000         0.4937         0.3584         0.6634       -88.2484      -40.72087      0.5155991
      7167.5000         0.4443         0.3346         0.6407       -84.8676      -37.34737      0.5567394
      7168.0000         0.4148         0.3108         0.6117       -84.9155      -37.40256      0.5560664
      7168.5000         0.3905          0.287         0.5828       -82.8346      -35.32895      0.5813543
      7169.0000         0.3661         0.2631         0.5538       -77.2607      -29.76234      0.6492398
      7169.5000         0.3418         0.2526         0.5264       -74.7114      -27.22034      0.6802398
      7170.0000         0.3175         0.2551         0.5098       -86.5168      -39.03302      0.5361826
      7170.5000         0.2931         0.2577         0.4933       -97.8107      -50.33422      0.3983632
      7171.0000         0.2688         0.2602         0.4767      -108.6476      -61.17841       0.266117
      7171.5000         0.2445         0.2627         0.4744      -120.8917       -73.4298      0.1167097
      7172.0000         0.2201         0.2652         0.4846      -128.4392      -80.98459     0.02457819
      7172.5000         0.1958         0.2678         0.4948      -132.4709      -85.02359              0
      7173.0000         0.1715         0.2703          0.505      -130.9998      -83.55978              0
      7173.5000         0.1472         0.2728         0.4984      -129.5264      -82.09366     0.01105295
      7174.0000         0.1228         0.2754         0.4615       -128.053      -80.62755     0.02893234
      7174.5000         0.1203         0.2774         0.4246       -126.582      -79.16385     0.04678233
      7175.0000         0.1451         0.2772         0.3877      -116.9808      -69.56994      0.1637812
      7175.5000         0.1699         0.2769         0.3993      -106.5825      -59.17893      0.2905009
      7176.0000         0.1946         0.2766         0.4254      -101.4039      -54.00763      0.3535655
      7176.5000         0.2194         0.2763         0.4516       -98.9072      -51.51822      0.3839242
      7177.0000         0.2442          0.276         0.4777       -99.7205      -52.33881       0.373917
      7177.5000          0.269         0.2757         0.5038      -103.2291       -55.8547      0.3310402
      7178.0000         0.2937         0.2754          0.537      -106.7333      -59.36619      0.2882172
      7178.5000          0.335         0.2729         0.5719      -105.2782      -57.91838      0.3058734
      7179.0000         0.4156         0.2613         0.6069      -100.1681      -52.81557      0.3681028
      7179.5000          0.496         0.2498         0.6418       -88.9657      -41.62046      0.5046285
      7180.0000         0.5765         0.2382         0.6768       -77.7633      -30.42535      0.6411542
      7180.5000         0.6569         0.2266         0.6896       -78.9329      -31.60225      0.6268018
      7181.0000         0.7374         0.2153         0.6979       -90.2998      -42.97644      0.4880922
      7181.5000          0.818          0.215         0.7062       -99.5286      -52.21253      0.3754569
      7182.0000         0.8984         0.2147         0.6858      -108.5563      -61.24752      0.2652741
      7182.5000         0.9543         0.2144         0.6307      -116.1038      -68.80231      0.1731426
      7183.0000         0.8901         0.2141         0.5756      -121.6866      -74.39241      0.1049706
      7183.5000         0.8259         0.2138         0.5108      -127.2787       -79.9918     0.03668538
      7184.0000         0.7616         0.2136         0.4181      -131.1848      -83.90519              0
      7184.5000         0.6974         0.2133         0.3254      -132.7839      -85.51158              0
      7185.0000         0.6332          0.213         0.2491      -134.3806      -87.11557              0
      7185.5000          0.569          0.215         0.2196      -135.9775      -88.71976              0
      7186.0000         0.5047         0.2234           0.19      -137.5764      -90.32596              0
      7186.5000         0.4406         0.2318          0.198      -137.0625      -89.81935              0
      7187.0000         0.3764         0.2403         0.3068      -135.8701      -88.63424              0
      7187.5000         0.3121         0.2487         0.4157      -134.6777      -87.44913              0
      7188.0000         0.2479         0.2572         0.5246       -131.925      -84.70372              0
      7188.5000         0.2486         0.2656         0.6335      -127.2102      -79.99622     0.03663151
      7189.0000           0.25          0.274         0.7424      -122.4907        -75.284     0.09409751
      7189.5000         0.2514         0.2825         0.8031      -117.7759      -70.57649      0.1515062
      7190.0000         0.2528         0.2863         0.8455      -109.7806      -62.58849      0.2489209
      7190.5000         0.2542         0.2897         0.7995      -103.4073      -56.22248      0.3265551
      7191.0000         0.2556         0.2931         0.7535      -107.4324      -60.25488      0.2773796
      7191.5000         0.2571         0.2964         0.7075      -113.6823      -66.51205      0.2010725
      7192.0000         0.2585         0.2998         0.6615      -119.9323      -72.76935       0.124764
      7192.5000         0.2643         0.3032         0.6155      -119.6672      -72.51154       0.127908
      7193.0000         0.2758         0.3066         0.5695      -113.4355      -66.28714      0.2038154
      7193.5000         0.2874         0.3099         0.5185       -92.6206      -45.47953      0.4575667
      7194.0000          0.299         0.3147         0.4661        -81.071      -33.93722      0.5983266
      7194.5000         0.3106         0.3196         0.4135       -72.0159      -24.88941      0.7086657
      7195.0000         0.3221         0.3244          0.361       -67.0337       -19.9145      0.7693353
      7195.5000         0.3337         0.3293         0.3708       -69.5693      -22.45739      0.7383245
