#------------------------------------------------------------------------------
# Created by    : vladimir.rabinovich
# Created on    : 09/19/2023 17:20:09
#------------------------------------------------------------------------------
~Version Information Section
VERS.           2.0     :   CWLS log ASCII Standard - VERSION 2.0
WRAP.           NO      :   One line per depth step
~Well Information Section
#MNEM       .UNIT                                         VALUE :DESCRIPTION
#------------------------------------------------------------------------------
STRT        .FT                                             880 :START DEPTH
STOP        .FT                                           10998 :STOP DEPTH
STEP        .FT                                             0.5 :STEP      
NULL        .                                           -999.25 :NULL      
COMP        .                        HUGHES TEXAS PETROLEUM LTD :COMPANY   
WELL        .                                ST TR 00564-L NE/4 :WELL      
FLD         .                       MATAGORDA ISLAND BLOCK 0565 :FIELD     
LOC         .                                                   :LOCATION  
CNTY        .                      MATAGORDA ISLAND LARGE BLOCK :LOCATION  
STAT        .                                             TEXAS :STATE     
CTRY        .                                     UNITED STATES :COUNTRY   
SRVC        .                                                   :SERVICE COMPANY
DATE        .                             9/13/2023 11:12:01 AM :LOG DATE  
API         .                                    42703303560000 :API NUMBER
UWI         .                                    42703303560000 :UNIQUE WELL ID
XCOORD      .                                  580856.659723482 :SURFACE X 
YCOORD      .                                  10268633.8274002 :SURFACE Y 
LAT         .                                         28.256926 :LATITUDE  
LON         .                                       -96.2914173 :LONGITUDE 
ELEV        .FT                                              25 :ELEVATION VALUE
ELEV_TYPE   .                                                KB :ELEVATION REFERENCE TYPE
~Curve Information Section
#MNEM       .UNIT                                      API CODE :CURVE DESCRIPTION
#------------------------------------------------------------------------------
DEPT        .FT                                                 :DEPTH     
ASFL        .OHMM                                               :          
GR          .GAPI                                               :          
GR_NORM     .GAPI                                               :GammaRay Normalized
ILD         .OHMM                                               :          
SP          .MV                                                 :          
SP_NORM     .MV                                                 :SP Normalized
VSH_GR      .V/V                                                :Volume of Shale from GR
VSH_SP      .V/V                                                :Volume of Shale from SP
~A        DEPTH           ASFL             GR        GR_NORM            ILD             SP        SP_NORM         VSH_GR         VSH_SP
# ...
      1647.0000         0.7336        47.9877       62.23896         0.7945       -60.6582      -4.922905      0.6221055      0.7342814
      1647.5000         0.7302        47.9708       62.21538         0.8077       -60.5957      -4.852905      0.6216038       0.740645
      1648.0000         0.7269        48.0347        62.3019         0.8207       -60.5333      -4.783005      0.6234447      0.7469996
      1648.5000         0.7235        48.3868       62.78111          0.815       -60.4708      -4.713005      0.6336407      0.7533632
      1649.0000         0.7202        48.7389       63.26033         0.8093       -60.5203      -4.755005      0.6438368       0.749545
      1649.5000         0.7166        49.0363       63.66502         0.8035       -60.6989      -4.926102      0.6524472      0.7339907
      1650.0000          0.713        48.7305       63.24779         0.7916       -60.8774      -5.097103        0.64357      0.7184452
      1650.5000         0.7094        48.4245        62.8303         0.7346       -61.0571      -5.269302      0.6346873      0.7027907
      1651.0000         0.7058        47.8545       62.05308         0.6776       -61.4984      -5.703102      0.6181507      0.6633543
      1651.5000         0.7115        46.9524       60.82337         0.6565       -61.9395        -6.1367      0.5919867      0.6239364
      1652.0000         0.7174         46.515       60.22683         0.6465       -62.3919        -6.5816      0.5792943      0.5834909
      1652.5000         0.7232        46.9011       60.75237         0.6364       -63.0788      -7.261002      0.5904759      0.5217271
      1653.0000         0.7246        47.3395       61.34918         0.6263       -63.8307      -8.005398       0.603174      0.4540547
      1653.5000         0.7162        47.8024       61.97936         0.6161       -64.7681      -8.935295      0.6165822      0.3695186
      1654.0000         0.7079        48.2652       62.60942         0.6058       -65.3828      -9.542496      0.6299877      0.3143186
      1654.5000         0.6995        48.7282       63.23973         0.5956       -65.8629       -10.0151      0.6433985      0.2713547
      1655.0000         0.6912        48.2834       62.63312         0.5853       -65.8033      -9.947994       0.630492      0.2774551
      1655.5000         0.6769        46.0054       59.52864         0.5797       -65.6599      -9.797092      0.5644392      0.2911734
      1656.0000         0.6618        44.5031       57.48108         0.5867       -65.5165      -9.646198      0.5208741      0.3048911
      1656.5000         0.6472        43.4596       56.05869         0.5936       -65.1578      -9.279995      0.4906104      0.3381823
      1657.0000         0.6409        42.1713       54.30273         0.6005       -64.5183      -8.632996      0.4532496      0.3970004
      1657.5000         0.6347        45.3998       58.70126         0.6075       -63.8787      -7.985893      0.5468353      0.4558279
      1658.0000         0.6334        48.1253       62.41441         0.6165       -63.2281      -7.327793      0.6258385      0.5156552
      1658.5000         0.6353        50.3055       65.38455         0.6401       -62.5158      -6.607994       0.689033      0.5810915
      1659.0000         0.6373        52.4858       68.35484         0.6638       -61.8033      -5.887989      0.7522307      0.6465464
      1659.5000         0.6439        54.5674       71.19061         0.6874       -61.0911      -5.168289      0.8125662      0.7119737
      1660.0000         0.6505         56.508       73.83429          0.711        -60.537      -4.606689      0.8688146      0.7630282
      1660.5000         0.6571        59.1396       77.41949         0.7324       -60.0162      -4.078392      0.9450957      0.8110552
      1661.0000         0.6638        61.3904       80.48584         0.7473       -59.4952      -3.549889              1      0.8591011
      1661.5000         0.6697        61.3592       80.44277         0.7622        -59.231      -3.278187              1      0.8838012
      1662.0000          0.674        60.4641        79.2226          0.777       -59.0954       -3.13509      0.9834595        0.89681
      1662.5000         0.6782        59.5258       77.94353         0.7919       -59.2711      -3.303288      0.9562454      0.8815193
      1663.0000         0.6825        58.5872       76.66407         0.8052       -59.4468      -3.471485      0.9290228      0.8662286
      1663.5000         0.6858        57.6382       75.37045         0.7911       -59.6183      -3.635487      0.9014989      0.8513194
      1664.0000         0.6863        56.5929        73.9456          0.777       -59.7584      -3.768085       0.871183      0.8392649
      1664.5000         0.6869        55.5476       72.52075         0.7629       -59.8986      -3.900787       0.840867      0.8272011
      1665.0000         0.6874        54.8759       71.60497         0.7488       -60.0387      -4.033386      0.8213822      0.8151467
      1665.5000         0.6873        54.3509       70.88907         0.7347       -60.1747      -4.161884      0.8061504      0.8034651
      1666.0000         0.6828        54.8661       71.59051         0.7222       -60.2985      -4.278183      0.8210746      0.7928925
      1666.5000         0.6784        55.5089       72.46584         0.7138       -60.4223      -4.394482      0.8396986      0.7823198
      1667.0000         0.6725        56.1519       73.34142         0.7054       -60.5461      -4.510784       0.858328      0.7717469
      1667.5000          0.663        56.8721        74.3222         0.6969       -60.6439      -4.601082      0.8791957       0.763538
      1668.0000         0.6536        56.4771       73.78344         0.6885        -60.624      -4.573681      0.8677328       0.766029
      1668.5000         0.6468        55.9943       73.12503         0.6801        -60.582      -4.524181      0.8537241       0.770529
      1669.0000          0.644        55.5114       72.46649          0.673        -60.507      -4.441681      0.8397126       0.778029
      1669.5000         0.6519        55.1587       71.98537         0.6787        -60.502      -4.429176      0.8294759      0.7791658
      1670.0000         0.6655        53.4746       69.69012         0.6844       -60.6019      -4.521576       0.780641      0.7707658
      1670.5000         0.6839         51.387       66.84505           0.69       -60.5587      -4.470879      0.7201074      0.7753747
      1671.0000         0.7012        49.3108       64.01551         0.6957       -60.3446      -4.249279      0.6599045      0.7955201
      1671.5000         0.7172        47.8954       62.08639         0.7014       -60.1305      -4.027676      0.6188593      0.8156658
      1672.0000         0.7206        47.0143       60.88527         0.7159       -59.9165      -3.806175      0.5933036      0.8358023
      1672.5000         0.7234        46.1833       59.75243          0.737       -59.7933      -3.675476      0.5692006       0.847684
      1673.0000         0.7333        45.7319        59.1368         0.7582       -59.8226      -3.697277      0.5561021      0.8457021
      1673.5000         0.7757        45.1689       58.36913         0.7793        -59.852      -3.719173      0.5397686      0.8437115
      1674.0000         0.8312        44.6061       57.60172         0.8004       -60.3801      -4.239773      0.5234409      0.7963843
      1674.5000         0.8868        43.4443       56.01814         0.8623        -61.212      -5.064175      0.4897476      0.7214386
      1675.0000         0.9485        40.7578       52.35703           0.94       -61.8451      -5.689774      0.4118518       0.664566
      1675.5000          0.996        38.6241       49.44916         0.9666       -62.4482       -6.28537      0.3499821      0.6104209
      1676.0000         1.0408        36.6812       46.80125         0.9909       -63.0515      -6.881168      0.2936437      0.5562574
