#------------------------------------------------------------------------------
# Created by    : vladimir.rabinovich
# Created on    : 09/19/2023 17:22:40
#------------------------------------------------------------------------------
~Version Information Section
VERS.           2.0     :   CWLS log ASCII Standard - VERSION 2.0
WRAP.           NO      :   One line per depth step
~Well Information Section
#MNEM       .UNIT                                         VALUE :DESCRIPTION
#------------------------------------------------------------------------------
STRT        .FT                                            3744 :START DEPTH
STOP        .FT                                            9989 :STOP DEPTH
STEP        .FT                                             0.5 :STEP      
NULL        .                                           -999.25 :NULL      
COMP        .                          SEAGULL ENERGY E & P INC :COMPANY   
WELL        .                               OCS G07243 ST00BP00 :WELL      
FLD         .                                           WILDCAT :FIELD     
LOC         .                                                   :LOCATION  
CNTY        .                             GALVESTON LARGE BLOCK :LOCATION  
STAT        .                                             TEXAS :STATE     
CTRY        .                                     UNITED STATES :COUNTRY   
SRVC        .                                                   :SERVICE COMPANY
DATE        .                             9/13/2023 11:19:34 AM :LOG DATE  
API         .                                    42706403030000 :API NUMBER
UWI         .                                    42706403030000 :UNIQUE WELL ID
XCOORD      .                                   1005609.3052046 :SURFACE X 
YCOORD      .                                  10500547.7567395 :SURFACE Y 
LAT         .                                          28.92005 :LATITUDE  
LON         .                                        -94.984771 :LONGITUDE 
ELEV        .FT                                              96 :ELEVATION VALUE
ELEV_TYPE   .                                                KB :ELEVATION REFERENCE TYPE
~Curve Information Section
#MNEM       .UNIT                                      API CODE :CURVE DESCRIPTION
#------------------------------------------------------------------------------
DEPT        .FT                                                 :DEPTH     
DCAL        .IN                                                 :          
DPHI        .%                                                  :          
GR          .GAPI                                               :          
GR_NORM     .GAPI                                               :GammaRay Normalized
ILD         .OHMM                                               :          
ILM         .OHMM                                               :          
NPHI        .%                                                  :          
SFL         .OHMM                                               :          
SP          .MV                                                 :          
SP_NORM     .MV                                                 :SP Normalized
VSH_GR      .V/V                                                :Volume of Shale from GR
VSH_SP      .V/V                                                :Volume of Shale from SP
~A        DEPTH           DCAL           DPHI             GR        GR_NORM            ILD            ILM           NPHI            SFL             SP        SP_NORM         VSH_GR         VSH_SP
# ...
      3826.0000          2.676        45.2701        30.8873       49.00061         0.4765          0.648        52.0574         0.5453       -74.5592      -36.51154      0.3404385      0.4049734
      3826.5000         3.3174        46.2797        31.4772       49.90374         0.5026           0.69        49.4731         0.6087       -74.6495      -36.62647       0.359654      0.4029919
      3827.0000         3.7785        47.3059        30.2825       48.03637         0.5132         0.6839        46.1977         0.8538       -74.9478      -37.00612      0.3199228      0.3964462
      3827.5000         3.5927         35.338        28.2001        44.7909         0.5219           0.65        34.9941         1.4532       -75.2708      -37.41721      0.2508702      0.3893584
      3828.0000         3.3339         26.958        24.2785       38.69016         0.5283         0.6237        28.2872         1.7646       -75.5935      -37.82792      0.1210672      0.3822772
      3828.5000         3.3721        28.2108        22.6943       36.21811          0.541         0.6254        28.9878         1.6878       -75.6554      -37.90671      0.0684704      0.3809188
      3829.0000         3.7908        36.1628        25.7759       40.98949         0.5689         0.6959        40.6723         1.1634       -75.4265      -37.61538      0.1699891      0.3859418
      3829.5000         4.4965        36.2329        27.2039       43.19371         0.6181         0.8145        45.0449         0.8368       -75.1019      -37.20225      0.2168875      0.3930646
      3830.0000         6.5754          21.23        27.7327       44.00198         0.6716          0.936        36.6437         0.9032       -74.8553       -36.8884      0.2340848      0.3984759
      3830.5000         7.1212        17.1505        28.2284       44.75887         0.7153         1.0692        27.4273         1.0445       -74.9589      -37.02025      0.2501888      0.3962025
      3831.0000         7.0587        20.5469        28.9843       45.91971         0.7473         1.1221        24.8477         1.1416       -75.2732      -37.42027      0.2748875      0.3893057
      3831.5000         6.9573        28.0069        29.5045       46.71465         0.7726         1.1131        30.0515         1.1056       -75.5736       -37.8026       0.291801      0.3827139
      3832.0000         6.8859        34.2902        29.2144       46.25162         0.7701         1.0265        38.4526          0.977        -75.895      -38.21165      0.2819493      0.3756613
      3832.5000         6.6468        36.0959        28.4906       45.11529         0.7559         0.9589        42.7869         0.9039       -76.1115       -38.4872      0.2577721      0.3709103
      3833.0000         3.9881        41.7296        27.8389        44.0909         0.7372         0.9298        48.9365         0.8556        -76.328      -38.76274      0.2359767      0.3661596
      3833.5000         3.6688         43.056        28.0157       44.35271         0.7163         0.9186        49.3282         0.8267       -76.5444      -39.03817       0.241547      0.3614109
      3834.0000         4.5959        32.1788        28.3881       44.91819          0.696         0.9225        44.6945         0.8078        -76.645      -39.16619      0.2535784      0.3592035
      3834.5000           6.75        28.0404        28.2375       44.67173         0.6808         0.9264         41.478         0.8026       -76.8522      -39.42991      0.2483347      0.3546567
      3835.0000         7.0282        31.7839        26.8664       42.53051         0.6776         0.9303        39.1325         0.8015       -76.9742      -39.58517      0.2027769      0.3519798
      3835.5000         5.6878         36.908        25.5096       40.41149         0.6915         0.9402        46.6881         0.8194       -76.8171      -39.38523      0.1576913       0.355427
      3836.0000         4.2743        41.0959        24.4382       38.73553         0.7197         0.9715        56.6497         0.8693       -76.6112      -39.12318      0.1220326      0.3599452
      3836.5000         3.2311        45.1467        23.7148       37.59984         0.7629         1.0226        56.8392         1.0284       -76.4628      -38.93431      0.0978689      0.3632016
      3837.0000         3.0485        43.4525        23.3949       37.09055         0.8077         1.1101        53.4141         1.2135        -76.385      -38.83529     0.08703305      0.3649088
      3837.5000           3.05        38.6373        23.9222        37.8965         0.8445         1.1797        47.3824         1.5136       -76.3008      -38.72812      0.1041808      0.3667566
      3838.0000         3.0602        37.6135        25.0581       39.64726         0.8794         1.2571        40.7376         1.7548       -76.1327      -38.51418       0.141431      0.3704453
      3838.5000          3.079        38.8714        26.2465       41.47953         0.9127         1.3022         42.134         1.6977       -76.1478      -38.53339      0.1804155      0.3701139
      3839.0000         3.1141        39.0895        26.9137       42.50267         0.9398         1.2921        48.7772         1.5171       -76.1639      -38.55389      0.2021845      0.3697605
      3839.5000         3.4213        39.1849         26.681       42.12875         0.9652         1.2248        57.0637         1.2866       -76.2732        -38.693      0.1942288      0.3673621
      3840.0000         4.6414        39.2822        26.1325       41.26457         0.9795          1.181        59.1143         1.0613       -76.4928      -38.97248       0.175842      0.3625434
      3840.5000         6.8394        24.8971        25.6378       40.48392         0.9619         1.2423        56.4332         1.1722       -76.6748      -39.20412      0.1592324      0.3585497
      3841.0000         7.5586        20.9243        26.0838       41.16365         0.9187         1.3257        35.8348         1.3389       -76.8224      -39.39198      0.1736948      0.3553106
      3841.5000         7.5858         9.1984        27.2101       42.89952         0.8563         1.3328         21.351         1.4535       -77.0667      -39.70291       0.210628      0.3499498
      3842.0000         5.6624        12.7716        29.2715       46.08707          0.799         1.3116        24.7236          1.431       -77.3696      -40.08841      0.2784482      0.3433032
      3842.5000         4.0204        30.8668        30.5829       48.11028         0.7734         1.2291        31.3508         1.1097       -77.7896      -40.62296      0.3214953       0.334087
      3843.0000         3.5373        38.8793         31.517       49.54777         0.7617         1.0617        37.4781         0.8908       -78.3828      -41.37794      0.3520802        0.32107
      3843.5000         3.8818        38.1309         32.405       50.91368         0.7545         0.9116        41.4255         0.8192       -78.8687      -41.99636      0.3811421      0.3104076
      3844.0000         4.1162        32.9877        32.6472       51.27703          0.754         0.8778        43.2057         0.8028        -79.248      -42.47911       0.388873      0.3020844
      3844.5000         3.5607        32.1302        32.1148       50.43784         0.7598         0.8829        43.6882         0.8078       -79.5073      -42.80913      0.3710179      0.2963943
      3845.0000         2.8788        32.7648        31.6083       49.63887         0.7707         0.9162        42.9207         0.8365       -79.6489      -42.98935      0.3540184      0.2932872
      3845.5000          2.485        26.2936        31.1022       48.84051         0.7877         0.9799        33.4527          0.918       -79.7258      -43.08722      0.3370322      0.2915997
      3846.0000         2.1327        20.5867        30.5961       48.04216         0.7805         1.0891        18.0899         0.9872       -79.8026      -43.18496       0.320046      0.2899145
