#------------------------------------------------------------------------------
# Created by    : vladimir.rabinovich
# Created on    : 09/19/2023 17:20:24
#------------------------------------------------------------------------------
~Version Information Section
VERS.           2.0     :   CWLS log ASCII Standard - VERSION 2.0
WRAP.           NO      :   One line per depth step
~Well Information Section
#MNEM       .UNIT                                         VALUE :DESCRIPTION
#------------------------------------------------------------------------------
STRT        .FT                                            2979 :START DEPTH
STOP        .FT                                           11003 :STOP DEPTH
STEP        .FT                                             0.5 :STEP      
NULL        .                                           -999.25 :NULL      
COMP        .                                        TEXACO USA :COMPANY   
WELL        .                               OCS G01821 ST00BP00 :WELL      
FLD         .                                           WILDCAT :FIELD     
LOC         .                                                   :LOCATION  
CNTY        .                           HIGH ISLAND LARGE BLOCK :LOCATION  
STAT        .                                             TEXAS :STATE     
CTRY        .                                     UNITED STATES :COUNTRY   
SRVC        .                                                   :SERVICE COMPANY
DATE        .                             9/13/2023 11:19:15 AM :LOG DATE  
API         .                                    42708300170000 :API NUMBER
UWI         .                                    42708300170000 :UNIQUE WELL ID
XCOORD      .                                  1345073.13508324 :SURFACE X 
YCOORD      .                                  10640242.4404634 :SURFACE Y 
LAT         .                                         29.315788 :LATITUDE  
LON         .                                        -93.927032 :LONGITUDE 
ELEV        .FT                                              74 :ELEVATION VALUE
ELEV_TYPE   .                                                KB :ELEVATION REFERENCE TYPE
~Curve Information Section
#MNEM       .UNIT                                      API CODE :CURVE DESCRIPTION
#------------------------------------------------------------------------------
DEPT        .FT                                                 :DEPTH     
ASN         .OHMM                                               :          
CILD        .MMHO                                               :          
ILD         .OHMM                                               :          
SP          .MV                                                 :          
SP_NORM     .MV                                                 :SP Normalized
VSH_SP      .V/V                                                :Volume of Shale from SP
~A        DEPTH            ASN           CILD            ILD             SP        SP_NORM         VSH_SP
# ...
      7235.0000         1.0719       1158.729         0.8867       -49.7926      -2.738373      0.9728379
      7235.5000         1.0133       1118.129         0.8925       -48.7448      -1.696102      0.9891234
      7236.0000          0.972       1071.881         0.8994       -47.7913      -0.748127              1
      7236.5000         1.0049       1026.283         0.9234       -47.6547      -0.617054              1
      7237.0000         1.0388       987.5342         0.9474       -49.4202      -2.388077      0.9783113
      7237.5000         1.1038       948.7861         0.9714       -51.3395      -4.312904      0.9482359
      7238.0000         1.1482       910.0371         0.9954        -61.361      -14.33993      0.7915636
      7238.5000         1.1807       889.5127         1.0194       -62.5752      -15.55965      0.7725054
      7239.0000         1.2057         892.75         1.0433       -63.4678      -16.45778      0.7584722
      7239.5000         1.2322       904.5127         1.0673       -64.3593       -17.3548      0.7444562
      7240.0000         1.2551       916.2617         1.0699       -64.9564      -17.95743      0.7350402
      7240.5000         1.2305       928.0244         1.0659       -65.3142      -18.32076      0.7293631
      7241.0000         1.1986       938.3486          1.062       -64.3729      -17.38498      0.7439846
      7241.5000         1.1667       947.7607         1.0581       -63.4157      -16.43331      0.7588546
      7242.0000         1.1348       957.1729         1.0528       -61.7086      -14.73173      0.7854417
      7242.5000         1.1269        966.585         1.0468       -59.2579      -12.28656      0.8236475
      7243.0000         1.1203       957.3975         1.0407       -56.8096      -9.843784      0.8618159
      7243.5000         1.1139       946.9355         1.0346       -54.9002      -7.939911      0.8915639
      7244.0000         1.1132       936.4863         1.0285       -53.8263      -6.871536      0.9082572
      7244.5000         1.1125       926.5869         1.0244       -52.7512      -5.801964      0.9249693
      7245.0000         1.1175       917.4365          1.027        -51.676      -4.732285      0.9416831
      7245.5000         1.1259       908.2871         1.0295        -50.738      -3.799812      0.9562529
      7246.0000         1.1342        899.125         1.0321       -50.2824      -3.349735      0.9632854
      7246.5000         1.1425       889.9756         1.0346       -49.9405      -3.013363      0.9685412
      7247.0000         1.1515       886.0508         1.0372        -49.769      -2.847389      0.9711345
      7247.5000         1.1403       894.6875         1.0371       -49.5974      -2.681316      0.9737294
      7248.0000         1.1205       903.3369         1.0289       -49.4259      -2.515339      0.9763228
      7248.5000         1.1003       921.0869         1.0208       -49.2544      -2.349365      0.9789162
      7249.0000           1.08       939.1357         1.0126       -49.1445      -2.244991       0.980547
      7249.5000         1.0597       957.1855         1.0044       -49.0755      -2.181519      0.9815388
      7250.0000         1.0443       975.2344         0.9947       -49.0065      -2.118042      0.9825306
      7250.5000         1.0315       993.2588         0.9814       -48.9375      -2.054569      0.9835224
      7251.0000         1.0186       1012.233         0.9681       -48.8686      -1.991192      0.9845126
      7251.5000         1.0199       1032.471         0.9548        -48.799       -1.92712      0.9855137
      7252.0000         1.0247       1023.371         0.9415       -48.7068      -1.840443      0.9868681
      7252.5000         1.0295       1014.259         0.9443       -48.6148      -1.753971      0.9882192
      7253.0000         1.0343       1005.159         0.9526       -48.5226      -1.667294      0.9895735
      7253.5000         1.0391       996.0596          0.961       -48.4411      -1.591324      0.9907606
      7254.0000          1.044       986.9473         0.9693       -48.3934      -1.549145      0.9914196
      7254.5000          1.055       972.6602         0.9776       -48.3458      -1.507072       0.992077
      7255.0000         1.0717       955.9609          0.986       -48.5198      -1.686596      0.9892719
      7255.5000         1.0884       939.2607         0.9959       -48.7333      -1.905624      0.9858496
      7256.0000         1.1051       922.5615         1.0167       -48.9468      -2.124649      0.9824274
      7256.5000         1.1266       905.8623         1.0375       -49.1604      -2.343777      0.9790035
      7257.0000         1.1525       889.1631         1.0583        -49.369      -2.557899      0.9756578
      7257.5000         1.1784       872.4629          1.079       -49.5729      -2.767326      0.9723855
      7258.0000         1.2039       855.7637         1.0998       -49.7771      -2.977051      0.9691086
      7258.5000         1.2285       839.0645         1.1206       -49.9813      -3.186779      0.9658316
      7259.0000         1.2531       819.0156         1.1402       -50.1855      -3.396503      0.9625546
      7259.5000         1.2777        794.041           1.14       -50.2056      -3.422131      0.9621542
      7260.0000         1.3023       791.0166         1.1399       -50.1793      -3.401352      0.9624789
      7260.5000         1.3068       814.0908         1.1398       -50.1483      -3.375881      0.9628769
      7261.0000          1.289        837.165         1.1271        -49.859      -3.092106      0.9673108
      7261.5000          1.257       860.2393         1.1082       -49.5698      -2.808434      0.9717432
      7262.0000         1.2041       884.0381         1.0893       -49.2802      -2.524357      0.9761819
      7262.5000         1.1623       908.3623         1.0703       -48.9909      -2.240582      0.9806159
      7263.0000         1.1398       932.6865         1.0514       -48.7017      -1.956905      0.9850484
      7263.5000         1.1173       957.0107         1.0325        -48.412      -1.672733      0.9894885
      7264.0000         1.1016       940.6357         1.0135       -48.1228      -1.389057       0.993921
      7264.5000         1.0878       918.5869         0.9946       -47.8335      -1.105286      0.9983549
      7265.0000         1.1071       896.5371         1.0036       -47.4859     -0.7632141              1
      7265.5000         1.1521       874.4883         1.0312       -47.0948      -0.377636              1
      7266.0000         1.1973       852.4395         1.0588       -47.3295     -0.6178627              1
      7266.5000         1.2424       830.3896         1.0865       -48.0917       -1.38559      0.9939752
      7267.0000         1.2728       810.7158         1.1141       -48.9496      -2.249016      0.9804841
      7267.5000         1.3024       791.3916         1.1417       -49.8075      -3.112438      0.9669932
      7268.0000         1.3319       772.0918         1.1693       -50.6654      -3.975868      0.9535021
      7268.5000         1.3578        752.793          1.197       -51.5233      -4.839291      0.9400111
      7269.0000         1.3785       746.1807         1.2124       -52.2185      -5.540016      0.9290622
      7269.5000         1.3946       758.7676         1.2223       -52.6903      -6.017342       0.921604
      7270.0000         1.3461       771.3418         1.2321       -52.9976       -6.33017      0.9167161
      7270.5000         1.3165       783.9287          1.242       -53.1237      -6.461792      0.9146595
      7271.0000         1.3284       796.0664         1.2335       -53.2498      -6.593422      0.9126028
      7271.5000         1.3433       807.8535          1.216       -53.3759      -6.725044      0.9105462
      7272.0000         1.3353       819.6523         1.1985       -53.5021      -6.856773      0.9084879
      7272.5000         1.3118       831.4395          1.181       -53.6885      -7.048695      0.9054891
