#------------------------------------------------------------------------------
# Created by    : vladimir.rabinovich
# Created on    : 09/19/2023 17:20:24
#------------------------------------------------------------------------------
~Version Information Section
VERS.           2.0     :   CWLS log ASCII Standard - VERSION 2.0
WRAP.           NO      :   One line per depth step
~Well Information Section
#MNEM       .UNIT                                         VALUE :DESCRIPTION
#------------------------------------------------------------------------------
STRT        .FT                                            3071 :START DEPTH
STOP        .FT                                           14991 :STOP DEPTH
STEP        .FT                                             0.5 :STEP      
NULL        .                                           -999.25 :NULL      
COMP        .                                        TEXACO USA :COMPANY   
WELL        .                                     ST TR 00012-L :WELL      
FLD         .                                           WILDCAT :FIELD     
LOC         .                                                   :LOCATION  
CNTY        .                           HIGH ISLAND LARGE BLOCK :LOCATION  
STAT        .                                             TEXAS :STATE     
CTRY        .                                     UNITED STATES :COUNTRY   
SRVC        .                                                   :SERVICE COMPANY
DATE        .                             9/13/2023 11:19:15 AM :LOG DATE  
API         .                                    42708000680000 :API NUMBER
UWI         .                                    42708000680000 :UNIQUE WELL ID
XCOORD      .                                  1354682.00685938 :SURFACE X 
YCOORD      .                                  10733491.7088446 :SURFACE Y 
LAT         .                                        29.5724948 :LATITUDE  
LON         .                                       -93.8991324 :LONGITUDE 
ELEV        .FT                                              44 :ELEVATION VALUE
ELEV_TYPE   .                                                KB :ELEVATION REFERENCE TYPE
~Curve Information Section
#MNEM       .UNIT                                      API CODE :CURVE DESCRIPTION
#------------------------------------------------------------------------------
DEPT        .FT                                                 :DEPTH     
ASN         .OHMM                                               :          
CILD        .MMHO                                               :          
ILD         .OHMM                                               :          
SP          .MV                                                 :          
SP_NORM     .MV                                                 :SP Normalized
VSH_SP      .V/V                                                :Volume of Shale from SP
~A        DEPTH            ASN           CILD            ILD             SP        SP_NORM         VSH_SP
# ...
      4667.0000         1.0443       1517.473         0.4892       -73.5452      -23.14778       0.604504
      4667.5000         1.0999       1474.105         0.5107       -73.4174      -23.00856        0.60699
      4668.0000         1.1243       1430.738         0.5322       -73.2893      -22.86904      0.6094814
      4668.5000         1.1424       1387.371         0.5536       -73.1615      -22.72982      0.6119674
      4669.0000         1.1223       1344.004         0.5751       -73.0336      -22.59051      0.6144552
      4669.5000         1.1081       1313.443         0.5966       -72.6841      -22.22959      0.6209002
      4670.0000          1.094       1293.738         0.6165       -71.6561      -21.19017      0.6394612
      4670.5000           1.11       1273.068         0.6348       -70.6287      -20.15135      0.6580116
      4671.0000         1.1261        1251.93         0.6531       -69.6007      -19.11193      0.6765726
      4671.5000         1.1422       1218.896         0.6714       -68.5726      -18.07242      0.6951354
      4672.0000         1.1417       1185.865         0.6897       -67.3219       -16.8103      0.7176732
      4672.5000         1.0943       1152.857         0.6965       -63.3317      -12.80868      0.7891307
      4673.0000         1.0324       1126.502         0.6804       -59.8266      -9.292164      0.8519257
      4673.5000         0.9655       1101.281         0.6642       -56.6448      -6.098942      0.9089475
      4674.0000         0.9469       1121.754          0.648       -54.0714      -3.514126      0.9551049
      4674.5000         0.9283       1148.184         0.6319       -52.0464      -1.477707      0.9914695
      4675.0000         0.9108       1174.764         0.6157       -50.0201       0.560009              1
      4675.5000          0.901        1203.42         0.5996       -47.9952       2.596325              1
      4676.0000         0.8912       1232.076         0.5834       -48.3515       2.251442              1
      4676.5000         0.8814        1260.73         0.5673       -49.0468       1.567566              1
      4677.0000         0.8716       1289.412         0.5511       -49.7415      0.8842812              1
      4677.5000         0.8618       1282.094          0.535       -50.4368      0.2004013              1
      4678.0000         0.8501       1259.025         0.5216       -51.1315     -0.4828835              1
      4678.5000         0.8334       1240.086         0.5085       -51.8262      -1.166164      0.9970328
      4679.0000         0.8168       1260.842         0.4954       -52.5215      -1.850048      0.9848205
      4679.5000         0.8001       1312.555         0.4823       -53.2162      -2.533329      0.9726191
      4680.0000         0.7835       1370.559         0.4692       -53.9115      -3.217209       0.960407
      4680.5000         0.7667       1428.514         0.4562        -54.424      -3.718292      0.9514591
      4681.0000         0.7497       1472.523         0.4431       -54.7009      -3.983776      0.9467183
      4681.5000         0.7326       1513.887           0.43       -54.9776      -4.249058      0.9419811
      4682.0000         0.7156       1555.252         0.4169       -55.2544      -4.514439      0.9372422
      4682.5000         0.6995        1607.42         0.4038       -55.5311       -4.77972       0.932505
      4683.0000         0.6836       1660.381         0.3969       -56.8563      -6.093502      0.9090446
      4683.5000         0.6677       1721.896         0.3972       -58.4808      -7.706585      0.8802395
      4684.0000         0.6736       1778.564         0.3975       -60.3763      -9.590668      0.8465952
      4684.5000         0.6826       1826.777         0.3978       -64.1501      -13.35305      0.7794098
      4685.0000         0.6915       1896.799         0.3981       -68.0334      -17.22493       0.710269
      4685.5000         0.7005       1975.027         0.3984       -72.6854      -21.86551      0.6274015
      4686.0000         0.7092           2114         0.3987       -77.0985       -26.2672      0.5488001
      4686.5000         0.7112       2434.828          0.399       -81.3325      -30.48977      0.4733969
      4687.0000         0.7112       2755.852         0.3957       -85.3625      -34.50836      0.4016364
      4687.5000         0.6803       3076.879         0.3821       -89.4524      -38.58684      0.3288064
      4688.0000         0.6495       3397.902         0.3686       -93.7411      -42.86412      0.2524264
      4688.5000         0.6186       3583.633          0.355        -97.342      -46.45361      0.1883285
      4689.0000         0.5888       3714.875         0.3414       -98.9081      -48.00828      0.1605664
      4689.5000         0.5631       3846.012         0.3279       -100.474      -49.56277      0.1328077
      4690.0000         0.5374        3977.25         0.3143        -102.04      -51.11735      0.1050473
      4690.5000         0.5475       3061.648         0.3007      -102.4282      -51.49413     0.09831905
      4691.0000         0.5622       2530.758         0.2872       -102.589      -51.64351     0.09565156
      4691.5000         0.5769       2374.871         0.2736      -102.6429      -51.68599     0.09489298
      4692.0000         0.5916       2400.781         0.2655      -102.4587      -51.49038     0.09838609
      4692.5000         0.6063       2426.691          0.259      -102.2743      -51.29456      0.1018829
      4693.0000          0.621       2492.387         0.2525      -102.0901      -51.09895       0.105376
      4693.5000         0.6303       1988.416         0.2459      -101.9059      -50.90332      0.1088692
      4694.0000         0.6339       1988.633         0.2394      -101.8076      -50.79361      0.1108285
      4694.5000         0.6374       1988.852         0.2329      -102.0157      -50.99029      0.1073163
      4695.0000          0.641        1989.07         0.2263       -102.224      -51.18717      0.1038006
      4695.5000         0.6391       1984.793         0.2198      -102.4321      -51.38385      0.1002884
      4696.0000         0.6322       1944.814         0.2137      -102.6404      -51.58074     0.09677254
      4696.5000         0.6253       1726.842         0.2181      -102.8485      -51.77742     0.09326036
      4697.0000         0.6184       1718.533         0.2225       -102.535       -51.4525     0.09906251
      4697.5000         0.6115       1799.928         0.2269      -101.3994      -50.30548       0.119545
      4698.0000         0.6046       1852.344         0.2313      -100.2638      -49.15846      0.1400274
      4698.5000         0.5977       1896.082         0.2357       -99.1282      -48.01144        0.16051
      4699.0000         0.5908       1922.191         0.2401       -97.9926      -46.86443      0.1809924
      4699.5000         0.5838       1948.299         0.2445       -96.8594      -45.71981       0.201432
      4700.0000         0.5769       1996.383         0.2489       -95.9371      -44.78609      0.2181055
      4700.5000           0.57       1989.881         0.2666       -95.0154      -43.85297      0.2347683
      4701.0000         0.5635       1983.385         0.3032       -93.8132      -42.63935      0.2564401
      4701.5000         0.5608       1976.881         0.3397       -92.2335      -41.04823       0.284853
      4702.0000          0.558       1970.379         0.3763       -90.6527      -39.45602      0.3132854
      4702.5000         0.5552       1963.883         0.4128       -88.8801        -37.672      0.3451429
      4703.0000         0.5525       1950.549         0.4494       -86.3726      -35.15308      0.3901236
      4703.5000         0.5902       1665.424         0.4859        -83.865      -32.63406      0.4351061
      4704.0000         0.6763       1567.219         0.5241       -70.3619      -19.11954      0.6764367
      4704.5000         0.7156       1484.936         0.5695       -61.5456      -10.29183      0.8340745
