#------------------------------------------------------------------------------
# Created by    : vladimir.rabinovich
# Created on    : 09/19/2023 17:22:15
#------------------------------------------------------------------------------
~Version Information Section
VERS.           2.0     :   CWLS log ASCII Standard - VERSION 2.0
WRAP.           NO      :   One line per depth step
~Well Information Section
#MNEM       .UNIT                                         VALUE :DESCRIPTION
#------------------------------------------------------------------------------
STRT        .FT                                              41 :START DEPTH
STOP        .FT                                            7991 :STOP DEPTH
STEP        .FT                                             0.5 :STEP      
NULL        .                                           -999.25 :NULL      
COMP        .                           ENERGY DEVELOPMENT CORP :COMPANY   
WELL        .                               OCS G11200 ST00BP00 :WELL      
FLD         .                                           WILDCAT :FIELD     
LOC         .                                                   :LOCATION  
CNTY        .                    NORTH PADRE ISLAND LARGE BLOCK :LOCATION  
STAT        .                                             TEXAS :STATE     
CTRY        .                                     UNITED STATES :COUNTRY   
SRVC        .                                                   :SERVICE COMPANY
DATE        .                             9/13/2023 11:18:55 AM :LOG DATE  
API         .                                    42701400410000 :API NUMBER
UWI         .                                    42701400410000 :UNIQUE WELL ID
XCOORD      .                                   309944.09600436 :SURFACE X 
YCOORD      .                                  9740515.29665267 :SURFACE Y 
LAT         .                                          26.78454 :LATITUDE  
LON         .                                        -97.077486 :LONGITUDE 
ELEV        .FT                                              91 :ELEVATION VALUE
ELEV_TYPE   .                                                KB :ELEVATION REFERENCE TYPE
~Curve Information Section
#MNEM       .UNIT                                      API CODE :CURVE DESCRIPTION
#------------------------------------------------------------------------------
DEPT        .FT                                                 :DEPTH     
CALI        .IN                                                 :          
DRHO        .G/C3                                               :          
DT          .US/F                                               :          
GR          .GAPI                                               :          
GR_NORM     .GAPI                                               :GammaRay Normalized
ILD         .OHMM                                               :          
ILM         .OHMM                                               :          
NPHI        .%                                                  :          
RFOC        .OHMM                                               :          
RHOB        .G/C3                                               :          
SP          .MV                                                 :          
SP_NORM     .MV                                                 :SP Normalized
VSH_GR      .V/V                                                :Volume of Shale from GR
VSH_SP      .V/V                                                :Volume of Shale from SP
~A        DEPTH           CALI           DRHO             DT             GR        GR_NORM            ILD            ILM           NPHI           RFOC           RHOB             SP        SP_NORM         VSH_GR         VSH_SP
# ...
      4325.0000        12.5725         0.0253       105.0454        78.1373       70.73161         0.9168         0.8983        35.8629         0.8883         2.3484       -55.4039       -2.39185      0.8028003      0.9896882
      4325.5000        12.8624         0.0312       106.4397        78.8313       71.80257         0.8623         0.8662         37.532         0.8558         2.3344       -55.0804      -2.068348      0.8255867      0.9982014
      4326.0000        13.0494         0.0453       109.1377        77.8405       70.27545         0.8082         0.8277        38.4185         0.8303         2.3075       -54.9941      -1.982048      0.7930947              1
      4326.5000         13.047         0.0667       112.8411        75.8092       67.14382         0.7452         0.7874        38.0334         0.8144         2.2807       -55.4453       -2.43325      0.7264643      0.9885986
      4327.0000         12.712         0.0806       115.9603        74.3729       64.92969         0.6679         0.7497          37.73         0.8222         2.2589       -57.0646      -4.052551       0.679355      0.9459855
      4327.5000        11.4789         0.0791       117.0076         74.155       64.59444         0.5945         0.7149        38.0297          0.841         2.2492       -59.5833      -6.571251      0.6722221      0.8797039
      4328.0000        11.2248         0.0748       115.6049        73.6527       63.82064         0.5283         0.6831        38.2628         0.8621         2.2527       -63.2574      -10.24535      0.6557584      0.7830171
      4328.5000        11.1402         0.0704       113.6625        72.4554       61.97507         0.4897         0.6486        37.9794         0.8845         2.2559       -66.8424      -13.83035      0.6164909       0.688675
      4329.0000        11.0801         0.0665       112.7681        70.6815       59.24037         0.4705         0.6172        37.0169         0.9039         2.2469        -72.058      -19.04595      0.5583058      0.5514224
      4329.5000        11.0236         0.0637       112.2913        70.0408       58.25312         0.4526         0.5717        36.6945         0.8968         2.2284       -75.2001      -22.18805      0.5373003      0.4687355
      4330.0000        10.9784         0.0622       112.2965        69.0784       56.76981         0.4409         0.5392        37.2238         0.8652         2.2052       -76.8936      -23.88155      0.5057405      0.4241697
      4330.5000        10.9626         0.0596       112.6816        67.5542       54.42014         0.4323         0.5259        37.4855         0.8505         2.1977       -76.6509      -23.63885      0.4557477      0.4305565
      4331.0000        10.9894         0.0541       112.6344        65.6963       51.55589         0.4287         0.5296        36.6531         0.8453         2.2113       -75.1902      -22.17815      0.3948061       0.468996
      4331.5000        11.0558         0.0457       112.0929        67.9587       55.04544         0.4381         0.5494        36.1821         0.8479         2.2429       -72.1074      -19.09535       0.469052      0.5501224
      4332.0000        11.1965         0.0368       110.6476        71.6576        60.7502         0.4513          0.582        36.0085         0.8491         2.2613       -68.3368      -15.32475      0.5904297      0.6493487
      4332.5000        11.3335         0.0412       108.8363        73.3765       63.40163         0.4798          0.633         37.345          0.845         2.2571       -65.4446      -12.43255      0.6468431      0.7254592
      4333.0000        11.4636         0.0795       107.9749         73.679       63.86887         0.5179         0.6934        38.9142         0.8347         2.2079       -62.8381       -9.82605      0.6567845      0.7940513
      4333.5000        11.5415         0.1046       111.1036        71.5598       60.60168         0.5703         0.7531        40.6498         0.8265         2.1426       -61.1458      -8.133751      0.5872698      0.8385855
      4334.0000        11.4916         0.1136       116.2461        69.9468       58.11509         0.6454         0.7927        42.3018         0.8399         2.0956       -60.1276      -7.115551      0.5343635      0.8653802
      4334.5000        11.4617         0.1044        122.256        69.1667       56.91288         0.7606         0.8259        43.2046          0.875         2.0968       -59.7157      -6.703648      0.5087846      0.8762198
      4335.0000        11.4994         0.0786       124.6506        68.2104       55.43896         0.8597         0.8614         43.584         0.8917         2.1126       -59.1597      -6.147648      0.4774246      0.8908514
      4335.5000        11.5567         0.0678       124.7097        67.2561       53.96814         0.9539         0.9099        42.4315         0.8828         2.1434       -57.8242      -4.812149      0.4461306      0.9259961
      4336.0000        11.6503         0.0878        120.874        67.7794       54.77587         1.0375         0.9498        40.2755         0.8794         2.1822       -56.1647      -3.152649      0.4633163      0.9696671
      4336.5000        11.7206         0.0796       116.1566        69.3926       57.26431         1.1117         0.9781        38.6861         0.8812         2.2203       -55.0934      -2.081348      0.5162618      0.9978592
      4337.0000        11.7794         0.0537       111.7798        70.8386       59.49491         1.1603         0.9951        37.1616         0.8957         2.2542       -54.1662      -1.154148      0.5637215              1
      4337.5000        11.7842         0.0445       107.2488        72.1277       61.48357         1.1793         1.0054         36.217         0.9261         2.3105       -53.4391     -0.4270477      0.6060335              1
      4338.0000        11.7815         0.0423       103.1354        72.7917       62.50827         1.1796         1.0101        36.5577         0.9512         2.3533       -52.9766     0.03544998      0.6278355              1
      4338.5000         11.785         0.0465       102.2903        72.7698       62.47526         1.1615         0.9977        37.7609         0.9612         2.3493        -52.965     0.04705048      0.6271331              1
      4339.0000        11.7954         0.0576       104.8453        71.1801        60.0246         1.1132         0.9719        37.9316          0.937         2.3238       -53.6231     -0.6110497      0.5749914              1
      4339.5000        11.8313         0.0705       108.2926        67.8969       54.96242         1.0486         0.9394        37.0878         0.8921         2.2964       -55.1843      -2.172249      0.4672856      0.9954671
      4340.0000        12.0752         0.0782       111.2081        64.4628       49.66756         0.9494           0.89        36.5585          0.907         2.2696       -57.9702      -4.958149      0.3546289      0.9221539
      4340.5000        11.9797         0.0719       110.6924        62.5231       46.67717         0.8446         0.8355        36.1577          0.989         2.2615       -61.5033      -8.491249      0.2910037      0.8291777
      4341.0000        11.1214         0.0591       108.6779        61.5482       45.17457         0.7552         0.7851        35.0369          1.012         2.2605       -65.1205      -12.10845      0.2590334      0.7339882
      4341.5000        10.9496         0.0543       106.3365        63.2529       47.80411         0.6751         0.7362        34.5622         0.9724         2.2548       -68.7401      -15.72805      0.3149811      0.6387356
      4342.0000        10.8985         0.0593       105.9587        63.6086       48.35339         0.5959         0.6897        35.2896         0.9154         2.2461       -72.0481      -19.03605      0.3266679      0.5516828
      4342.5000        10.8626         0.0644       108.4542        62.9276         47.304         0.5181         0.6431        35.7878         0.9041         2.2302       -75.8113      -22.79925      0.3043405      0.4526513
