#------------------------------------------------------------------------------
# Created by    : vladimir.rabinovich
# Created on    : 09/19/2023 17:20:37
#------------------------------------------------------------------------------
~Version Information Section
VERS.           2.0     :   CWLS log ASCII Standard - VERSION 2.0
WRAP.           NO      :   One line per depth step
~Well Information Section
#MNEM       .UNIT                                         VALUE :DESCRIPTION
#------------------------------------------------------------------------------
STRT        .FT                                             582 :START DEPTH
STOP        .FT                                            8015 :STOP DEPTH
STEP        .FT                                             0.5 :STEP      
NULL        .                                           -999.25 :NULL      
COMP        .                                CONTINENTAL OIL CO :COMPANY   
WELL        .                                OCS 00719 ST00BP00 :WELL      
FLD         .                                           WILDCAT :FIELD     
LOC         .                                                   :LOCATION  
CNTY        .                             GALVESTON LARGE BLOCK :LOCATION  
STAT        .                                             TEXAS :STATE     
CTRY        .                                     UNITED STATES :COUNTRY   
SRVC        .                                                   :SERVICE COMPANY
DATE        .                             9/13/2023 11:19:25 AM :LOG DATE  
API         .                                    42706000350000 :API NUMBER
UWI         .                                    42706000350000 :UNIQUE WELL ID
XCOORD      .                                  1010979.62119212 :SURFACE X 
YCOORD      .                                  10432235.4027546 :SURFACE Y 
LAT         .                                          28.73246 :LATITUDE  
LON         .                                        -94.964458 :LONGITUDE 
ELEV        .FT                                              63 :ELEVATION VALUE
ELEV_TYPE   .                                                KB :ELEVATION REFERENCE TYPE
~Curve Information Section
#MNEM       .UNIT                                      API CODE :CURVE DESCRIPTION
#------------------------------------------------------------------------------
DEPT        .FT                                                 :DEPTH     
ASN         .OHMM                                               :          
DT          .US/F                                               :          
LN          .OHMM                                               :          
SP          .MV                                                 :          
SP_NORM     .MV                                                 :SP Normalized
VSH_SP      .V/V                                                :Volume of Shale from SP
~A        DEPTH            ASN             DT             LN             SP        SP_NORM         VSH_SP
# ...
      6510.0000          0.904        -999.25         0.9357       -46.8274      -1.987157              1
      6510.5000         0.9051        -999.25         0.9316       -46.5367      -1.550074              1
      6511.0000         0.9065        -999.25         0.9352       -46.2462      -1.113291              1
      6511.5000         0.9089        -999.25         0.9387       -46.2002      -1.045131              1
      6512.0000          0.913        -999.25         0.9423       -46.3715      -1.304599              1
      6512.5000         0.9172        -999.25         0.9458       -46.5427      -1.563924              1
      6513.0000         0.9214        -999.25         0.9494       -46.7139      -1.823236              1
      6513.5000         0.9264        -999.25         0.9529       -46.8853      -2.082854      0.9986848
      6514.0000         0.9347        -999.25         0.9565       -47.0566      -2.342323      0.9945663
      6514.5000          0.943        -999.25           0.96       -46.9958      -2.251853      0.9960023
      6515.0000         0.9513        -999.25         0.9636       -46.8489      -2.031575      0.9994988
      6515.5000         0.9587        -999.25         0.9671       -46.7019      -1.811141              1
      6516.0000         0.9652        -999.25         0.9707       -46.6805      -1.780078              1
      6516.5000         0.9717        -999.25         0.9623        -46.696      -1.804648              1
      6517.0000         0.9667        -999.25         0.9498       -46.7116      -1.829368              1
      6517.5000         0.9119        -999.25         0.9373       -46.7272      -1.854087              1
      6518.0000         0.8898        -999.25         0.9248       -46.6915      -1.801468              1
      6518.5000         0.8586        -999.25         0.9123       -46.6219      -1.697724              1
      6519.0000         0.8135        -999.25         0.8998       -46.5524      -1.594141              1
      6519.5000          0.784        -999.25         0.8873       -46.4828      -1.490409              1
      6520.0000         0.7677        -999.25         0.8748       -46.4133      -1.386821              1
      6520.5000         0.7579        -999.25         0.8623       -46.4713      -1.475467              1
      6521.0000         0.7527        -999.25         0.8498       -46.5507      -1.596379              1
      6521.5000         0.7487        -999.25         0.8374       -46.6299      -1.716991              1
      6522.0000         0.7447        -999.25         0.8249       -46.7092      -1.837753              1
      6522.5000          0.753        -999.25         0.8124       -46.6728      -1.784064              1
      6523.0000         0.7692        -999.25          0.803       -46.6195      -1.704907              1
      6523.5000         0.7855        -999.25         0.7992       -46.5661      -1.625602              1
      6524.0000         0.8035        -999.25         0.7953       -46.5128      -1.546434              1
      6524.5000         0.8334        -999.25         0.7915        -46.593      -1.668553              1
      6525.0000         0.8428        -999.25         0.7876        -46.726      -1.870283              1
      6525.5000          0.825        -999.25         0.7838       -46.8589      -2.071846      0.9988596
      6526.0000          0.807        -999.25         0.7799       -46.9916      -2.273122      0.9956647
      6526.5000         0.7918        -999.25         0.7761       -46.6827      -1.808599              1
      6527.0000         0.7786        -999.25         0.7722       -46.2042      -1.088364              1
      6527.5000         0.7655        -999.25         0.7684       -45.7157     -0.3530548              1
      6528.0000         0.7523        -999.25         0.7645       -45.2495       0.348632              1
      6528.5000         0.7421        -999.25         0.7607       -45.7134     -0.3519908              1
      6529.0000         0.7373        -999.25         0.7568       -46.1768      -1.051854              1
      6529.5000         0.7637        -999.25         0.7529       -46.5954      -1.684174              1
      6530.0000         0.7772        -999.25         0.7491       -47.0034       -2.30051        0.99523
      6530.5000         0.7863        -999.25         0.7452       -47.4108      -2.915949      0.9854611
      6531.0000         0.7954        -999.25         0.7414       -48.2105      -4.122843      0.9663041
      6531.5000          0.804        -999.25         0.7377       -49.2704      -5.722052      0.9409198
      6532.0000         0.7966        -999.25         0.7378       -49.9946      -6.815121      0.9235695
      6532.5000         0.7891        -999.25         0.7379       -50.7188       -7.90819      0.9062192
      6533.0000         0.7816        -999.25         0.7379       -51.2392      -8.693995      0.8937461
      6533.5000         0.7741        -999.25          0.738       -51.1564      -8.570358      0.8957086
      6534.0000         0.7666        -999.25         0.7381       -49.8658      -6.625727      0.9265758
      6534.5000         0.7668        -999.25         0.7381       -49.1283      -5.515007      0.9442062
      6535.0000         0.7725        -999.25         0.7382       -48.3896       -4.40247      0.9618655
      6535.5000         0.7781        -999.25         0.7383       -47.7012      -3.365777       0.978321
      6536.0000         0.7837        -999.25         0.7384       -47.1752      -2.573937      0.9908899
      6536.5000         0.7842        -999.25         0.7384       -46.6492      -1.782085              1
      6537.0000         0.7819        -999.25         0.7385       -46.1237     -0.9909932              1
      6537.5000         0.7796        -999.25         0.7386       -45.8791     -0.6234161              1
      6538.0000         0.7773        -999.25         0.7386       -46.3621      -1.352825              1
      6538.5000         0.7711        -999.25         0.7387       -46.8456      -2.082998      0.9986826
      6539.0000         0.7628        -999.25         0.7388       -47.3218      -2.802163      0.9872673
      6539.5000         0.7717        -999.25         0.7389       -47.7975      -3.520569       0.975864
      6540.0000         0.7839        -999.25         0.7389       -48.2732      -4.238981      0.9644606
      6540.5000         0.7954        -999.25          0.743       -48.6453      -4.801191      0.9555367
      6541.0000         0.8053        -999.25         0.7484       -48.9022      -5.189714      0.9493696
      6541.5000         0.8153        -999.25         0.7537       -49.1594      -5.578699      0.9431953
      6542.0000         0.8252        -999.25         0.7591       -49.4162      -5.967067      0.9370307
      6542.5000         0.8358        -999.25         0.7645        -49.337      -5.848865      0.9389069
      6543.0000         0.8485        -999.25         0.7699       -48.8608      -5.132103      0.9502841
      6543.5000          0.861        -999.25         0.7753       -48.3845      -4.415181      0.9616638
      6544.0000         0.8705        -999.25         0.7807       -47.9083       -3.69842      0.9730409
      6544.5000           0.88        -999.25         0.7861       -47.5898      -3.219427       0.980644
      6545.0000         0.8895        -999.25         0.7915       -47.5253      -3.123373      0.9821687
      6545.5000         0.8947        -999.25         0.7969       -47.4608       -3.02733      0.9836932
      6546.0000         0.8986        -999.25         0.8023       -47.3961      -2.930983      0.9852225
      6546.5000         0.9024        -999.25         0.8111       -47.3315      -2.834785      0.9867495
      6547.0000         0.9023        -999.25         0.8219       -47.1313      -2.534149      0.9915215
      6547.5000         0.8958        -999.25         0.8328       -46.9044      -2.193247      0.9969326
