#------------------------------------------------------------------------------
# Created by    : vladimir.rabinovich
# Created on    : 09/19/2023 17:19:22
#------------------------------------------------------------------------------
~Version Information Section
VERS.           2.0     :   CWLS log ASCII Standard - VERSION 2.0
WRAP.           NO      :   One line per depth step
~Well Information Section
#MNEM       .UNIT                                         VALUE :DESCRIPTION
#------------------------------------------------------------------------------
STRT        .FT                                            2350 :START DEPTH
STOP        .FT                                            7008 :STOP DEPTH
STEP        .FT                                             0.5 :STEP      
NULL        .                                           -999.25 :NULL      
COMP        .                                  W&T OFFSHORE INC :COMPANY   
WELL        .                               OCS G04565 ST00BP00 :WELL      
FLD         .                              GALVESTON BLOCK 0303 :FIELD     
LOC         .                                                   :LOCATION  
CNTY        .                             GALVESTON LARGE BLOCK :LOCATION  
STAT        .                                             TEXAS :STATE     
CTRY        .                                     UNITED STATES :COUNTRY   
SRVC        .                                                   :SERVICE COMPANY
DATE        .                             9/13/2023 11:19:03 AM :LOG DATE  
API         .                                    42706403950000 :API NUMBER
UWI         .                                    42706403950000 :UNIQUE WELL ID
XCOORD      .                                  979190.041446607 :SURFACE X 
YCOORD      .                                   10483081.623763 :SURFACE Y 
LAT         .                                        28.8707847 :LATITUDE  
LON         .                                       -95.0663777 :LONGITUDE 
ELEV        .FT                                              91 :ELEVATION VALUE
ELEV_TYPE   .                                                KB :ELEVATION REFERENCE TYPE
~Curve Information Section
#MNEM       .UNIT                                      API CODE :CURVE DESCRIPTION
#------------------------------------------------------------------------------
DEPT        .FT                                                 :DEPTH     
AF20        .OHMM                                               :          
AFCO        .MMHO                                               :          
AO90        .OHMM                                               :          
AT10        .OHMM                                               :          
AT20        .OHMM                                               :          
AT30        .OHMM                                               :          
AT60        .OHMM                                               :          
AT90        .OHMM                                               :          
DCAL        .IN                                                 :          
DPHI        .%                                                  :          
DRHO        .G/C3                                               :          
GR          .GAPI                                               :          
GR_NORM     .GAPI                                               :GammaRay Normalized
GRN         .GAPI                                               :          
NPOR        .%                                                  :          
RWA         .OHMM                                               :          
SP          .MV                                                 :          
SP_NORM     .MV                                                 :SP Normalized
TENR        .LBF                                                :          
TPHI        .%                                                  :          
VSH_GR      .V/V                                                :Volume of Shale from GR
VSH_SP      .V/V                                                :Volume of Shale from SP
~A        DEPTH           AF20           AFCO           AO90           AT10           AT20           AT30           AT60           AT90           DCAL           DPHI           DRHO             GR        GR_NORM            GRN           NPOR            RWA             SP        SP_NORM           TENR           TPHI         VSH_GR         VSH_SP
# ...
      3706.0000           0.38           4000           0.25           0.51           0.38           0.32           0.29           0.29          6.725        35.3999          -0.02           35.1       39.48288        -999.25        41.2195           0.04          -41.5      -37.94313           2020        -999.25      0.1379337      0.3101248
      3706.5000           0.37           4000           0.25            0.5           0.37           0.32           0.28           0.28          7.725        35.7999          -0.01           30.1       34.98242        -999.25        43.6157           0.04          -42.6      -39.04166           2000        -999.25     0.04217919      0.2901516
      3707.0000           0.37       4166.664           0.24           0.49           0.36           0.31           0.27           0.27          8.225        34.9999              0           30.3       35.16197        -999.25        45.9811           0.04          -43.6      -40.04018           2000        -999.25     0.04599933      0.2719966
      3707.5000           0.36        4347.82           0.23           0.48           0.36            0.3           0.26           0.27          8.025        35.4999              0           33.5       38.04151        -999.25        46.5788           0.04          -44.3      -40.73871           2000        -999.25      0.1072662      0.2592961
      3708.0000           0.36        4347.82           0.23           0.47           0.35           0.29           0.26           0.27          8.025           36.4          -0.01           34.2       38.67106        -999.25        44.9069           0.04          -44.9      -41.33724           2000        -999.25      0.1206608      0.2484138
      3708.5000           0.35        4347.82           0.23           0.48           0.35           0.29           0.26           0.27          8.625           37.1          -0.01           33.1        37.6806        -999.25        42.9631           0.04          -45.3      -41.73577           2015        -999.25     0.09958714      0.2411679
      3709.0000           0.35       4545.453           0.22           0.48           0.35           0.29           0.26           0.27          8.625           37.1          -0.01           29.7       34.62014        -999.25        43.0588           0.04          -45.1      -41.53429           2015        -999.25     0.03447098       0.244831
      3709.5000           0.35       4545.453           0.22           0.48           0.35           0.29           0.26           0.27          8.725        36.4999          -0.01             27       32.18968        -999.25        44.1143           0.04          -45.3      -41.73282           2015        -999.25              0      0.2412214
      3710.0000           0.35        4347.82           0.23           0.49           0.35            0.3           0.26           0.27          9.625        36.4999          -0.01             31       35.78922        -999.25        43.5632           0.04            -45      -41.43135           2015        -999.25     0.05934516      0.2467027
      3710.5000           0.35       4545.453           0.22           0.49           0.35            0.3           0.26           0.27          9.525           36.4          -0.01           31.8       36.50877        -999.25        40.3741           0.04          -45.2      -41.62988           2010        -999.25     0.07465468      0.2430932
      3711.0000           0.34       4545.453           0.22           0.48           0.35           0.29           0.26           0.26          8.825           36.7          -0.01           32.5       37.13831        -999.25          39.27           0.04          -45.6       -42.0284           2010        -999.25     0.08804914      0.2358473
      3711.5000           0.34       4761.898           0.21           0.47           0.34           0.29           0.25           0.26          8.125        35.9999          -0.01           31.1       35.87786        -999.25          40.29           0.04          -45.8      -42.22693           2010        -999.25     0.06123101      0.2322377
      3712.0000           0.34       4761.898           0.21           0.47           0.34           0.28           0.25           0.26          8.125           35.6              0           31.8        36.5074        -999.25        41.4862           0.04          -46.5      -42.92546           2010        -999.25     0.07462546      0.2195371
      3712.5000           0.34       4761.898           0.21           0.46           0.33           0.28           0.25           0.25          8.525           36.4          -0.01           34.5       38.93694        -999.25        42.2641           0.04          -46.9      -43.32399           2000        -999.25      0.1263178      0.2122912
      3713.0000           0.33       4761.898           0.21           0.46           0.33           0.28           0.25           0.25          8.525           37.2          -0.01           35.7       40.01648        -999.25        43.0802           0.04          -46.9      -43.32251           2000        -999.25      0.1492869      0.2123179
      3713.5000           0.33           5000            0.2           0.45           0.33           0.28           0.24           0.25          8.525           38.3          -0.01             35       39.38602        -999.25        44.3762           0.04          -47.3      -43.72104           2000        -999.25      0.1358729       0.205072
      3714.0000           0.33           5000            0.2           0.45           0.33           0.27           0.24           0.25          8.625        38.9999          -0.01             35       39.38557        -999.25        45.7511           0.04          -46.9      -43.31956           2000        -999.25      0.1358632      0.2123715
      3714.5000           0.33           5000            0.2           0.45           0.33           0.27           0.24           0.25          8.825        39.7999          -0.01           33.2       37.76511        -999.25         45.777           0.04          -47.2      -43.61809           2000        -999.25      0.1013853      0.2069438
      3715.0000           0.33           5000            0.2           0.45           0.33           0.27           0.24           0.25          8.625           39.6          -0.01           34.7       39.11466        -999.25         46.134           0.04          -46.8      -43.21662           2015        -999.25      0.1300991      0.2142433
      3715.5000           0.34           5000            0.2           0.46           0.33           0.28           0.24           0.25          8.625        39.2999          -0.01           31.6        36.3242        -999.25        49.1647           0.04          -46.7      -43.11515           2015        -999.25     0.07072757      0.2160883
      3716.0000           0.34           5000            0.2           0.47           0.34           0.28           0.24           0.25          8.625           39.1          -0.01           34.6       39.02374        -999.25         50.292           0.04          -46.9      -43.31367           2015        -999.25      0.1281646      0.2124786
      3716.5000           0.35           5000            0.2           0.48           0.35           0.29           0.25           0.25          8.925        39.2999          -0.01           33.3       37.85328        -999.25        49.7901           0.04          -46.8       -43.2122           2015        -999.25      0.1032613      0.2143236
      3717.0000           0.35       4761.898           0.21           0.48           0.35           0.29           0.25           0.26          9.225           40.3          -0.02           40.6       44.42282        -999.25        50.0284           0.05          -46.9      -43.31073           2005        -999.25      0.2430387      0.2125322
      3717.5000           0.35       4761.898           0.21           0.49           0.36            0.3           0.25           0.26          9.325           40.3          -0.02           40.5       44.33237        -999.25        50.9547           0.05          -47.1      -43.50925           2005        -999.25      0.2411143      0.2089226
