#------------------------------------------------------------------------------
# Created by    : vladimir.rabinovich
# Created on    : 09/19/2023 17:20:48
#------------------------------------------------------------------------------
~Version Information Section
VERS.           2.0     :   CWLS log ASCII Standard - VERSION 2.0
WRAP.           NO      :   One line per depth step
~Well Information Section
#MNEM       .UNIT                                         VALUE :DESCRIPTION
#------------------------------------------------------------------------------
STRT        .FT                                             495 :START DEPTH
STOP        .FT                                            6623 :STOP DEPTH
STEP        .FT                                             0.5 :STEP      
NULL        .                                           -999.25 :NULL      
COMP        .                                      SHELL OIL CO :COMPANY   
WELL        .                                     ST TR 00691-L :WELL      
FLD         .                                           WILDCAT :FIELD     
LOC         .                                                   :LOCATION  
CNTY        .                      MATAGORDA ISLAND LARGE BLOCK :LOCATION  
STAT        .                                             TEXAS :STATE     
CTRY        .                                     UNITED STATES :COUNTRY   
SRVC        .                                                   :SERVICE COMPANY
DATE        .                             9/13/2023 11:12:05 AM :LOG DATE  
API         .                                    42703000200000 :API NUMBER
UWI         .                                    42703000200000 :UNIQUE WELL ID
XCOORD      .                                  411465.852171861 :SURFACE X 
YCOORD      .                                  10158718.0598508 :SURFACE Y 
LAT         .                                        27.9414781 :LATITUDE  
LON         .                                       -96.8060481 :LONGITUDE 
ELEV        .FT                                              11 :ELEVATION VALUE
ELEV_TYPE   .                                                KB :ELEVATION REFERENCE TYPE
~Curve Information Section
#MNEM       .UNIT                                      API CODE :CURVE DESCRIPTION
#------------------------------------------------------------------------------
DEPT        .FT                                                 :DEPTH     
ASN         .OHMM                                               :          
CILD        .OHMM                                               :          
ILD         .OHMM                                               :          
SP          .MV                                                 :          
SP_NORM     .MV                                                 :SP Normalized
VSH_SP      .V/V                                                :Volume of Shale from SP
~A        DEPTH            ASN           CILD            ILD             SP        SP_NORM         VSH_SP
# ...
      1711.0000          0.672       1806.217          0.507       -50.4552        -5.1722      0.7559846
      1711.5000         0.6766       1791.555         0.5141       -50.6338        -5.3508      0.7422462
      1712.0000         0.6811       1779.359         0.5212       -50.8124        -5.5294      0.7285077
      1712.5000         0.6857       1768.475         0.5283       -50.9113        -5.6283         0.7209
      1713.0000         0.6884       1758.654         0.5354         -50.83         -5.547      0.7271538
      1713.5000         0.6901       1752.846         0.5425       -50.7487        -5.4657      0.7334077
      1714.0000         0.6918       1747.033         0.5446       -50.6674        -5.3844      0.7396616
      1714.5000         0.6928       1743.533         0.5444       -50.5884        -5.3054      0.7457384
      1715.0000         0.6927       1740.631         0.5442       -50.5287        -5.2457      0.7503308
      1715.5000         0.6927       1737.729          0.544       -50.4689        -5.1859      0.7549307
      1716.0000         0.6928       1732.305         0.5438       -50.4092        -5.1262       0.759523
      1716.5000         0.6953       1725.164         0.5438       -50.3494        -5.0664      0.7641231
      1717.0000         0.6978       1718.025         0.5453       -50.3608        -5.0778      0.7632462
      1717.5000         0.7003       1708.998         0.5468       -50.4008        -5.1178      0.7601692
      1718.0000         0.7047       1699.908         0.5484       -50.4409        -5.1579      0.7570846
      1718.5000         0.7101       1690.799         0.5499        -50.481         -5.198          0.754
      1719.0000         0.7156       1681.549         0.5531       -50.4866        -5.2036      0.7535692
      1719.5000         0.7214       1672.297         0.5579       -50.4636        -5.1806      0.7553384
      1720.0000         0.7282       1662.641         0.5626       -50.4406        -5.1576      0.7571077
      1720.5000         0.7351       1648.639         0.5673       -50.4175        -5.1345      0.7588846
      1721.0000          0.742       1634.639         0.5721       -50.3944        -5.1114      0.7606615
      1721.5000         0.7466       1614.246         0.5768       -50.4692        -5.1862      0.7549077
      1722.0000         0.7496       1582.139         0.5768       -50.5479        -5.2649      0.7488538
      1722.5000         0.7417       1578.424         0.5766       -50.6522        -5.3692      0.7408308
      1723.0000         0.7294       1593.203         0.5764       -50.7965        -5.5135      0.7297307
      1723.5000         0.7184       1607.982         0.5805       -50.9409        -5.6579      0.7186231
      1724.0000          0.708        1641.92         0.5823       -50.9889        -5.7059      0.7149308
      1724.5000         0.6993       1681.348         0.5736       -50.9811        -5.6981      0.7155308
      1725.0000         0.6921       1726.129         0.5649       -50.9733        -5.6903      0.7161308
      1725.5000         0.6849       1777.164         0.5562       -50.9655        -5.6825      0.7167308
      1726.0000         0.6777       1799.875         0.5475       -50.8585        -5.5755      0.7249615
      1726.5000         0.6737       1812.932         0.5388       -50.7343        -5.4513      0.7345154
      1727.0000         0.6712        1822.07         0.5308       -50.6101        -5.3271      0.7440692
      1727.5000         0.6707       1830.227         0.5232       -50.4859        -5.2029      0.7536231
      1728.0000         0.6703       1833.648         0.5155       -50.3052        -5.0222      0.7675231
      1728.5000           0.67        1837.07         0.5079       -50.1137        -4.8307      0.7822539
      1729.0000         0.6697       1823.611         0.5003       -49.9222        -4.6392      0.7969846
      1729.5000         0.6768       1799.365         0.5002       -49.7307        -4.4477      0.8117154
      1730.0000         0.6876       1775.102         0.5012       -49.5474        -4.2644      0.8258154
      1730.5000         0.6981       1750.744         0.5022        -49.376         -4.093          0.839
      1731.0000         0.7071       1726.395          0.509       -49.2047        -3.9217      0.8521769
      1731.5000         0.7148       1702.043         0.5215       -49.0334        -3.7504      0.8653538
      1732.0000         0.7228       1661.154          0.534        -48.929         -3.646      0.8733846
      1732.5000         0.7323        1588.33         0.5468       -48.8727        -3.5897      0.8777154
      1733.0000         0.7417       1512.053         0.5625       -48.8165        -3.5335      0.8820385
      1733.5000          0.752       1488.691         0.5782       -48.7603        -3.4773      0.8863615
      1734.0000          0.769       1468.732         0.5938       -48.7967        -3.5137      0.8835616
      1734.5000         0.7889       1453.041         0.6095       -48.8982        -3.6152      0.8757538
      1735.0000         0.8025        1439.68         0.6203       -48.9998        -3.7168      0.8679385
      1735.5000          0.808       1426.922         0.6305       -49.1013        -3.8183      0.8601308
      1736.0000         0.8077       1418.959         0.6407       -49.1518        -3.8688      0.8562462
      1736.5000         0.8073       1419.367         0.6458       -49.1731        -3.8901      0.8546077
      1737.0000          0.802       1435.844         0.6456       -49.1944        -3.9114      0.8529692
      1737.5000         0.7966       1463.916         0.6454       -49.2157        -3.9327      0.8513308
      1738.0000         0.7912       1494.771         0.6452       -49.1829        -3.8999      0.8538538
      1738.5000         0.7859       1510.217          0.645       -49.0877        -3.8047      0.8611769
      1739.0000         0.7808       1520.908         0.6373       -48.9926        -3.7096      0.8684923
      1739.5000         0.7756       1531.602          0.629       -48.8806        -3.5976      0.8771077
      1740.0000         0.7705        1540.58         0.6207       -48.7211        -3.4381      0.8893769
      1740.5000         0.7687       1548.689         0.6125       -48.5616        -3.2786      0.9016461
      1741.0000         0.7696        1557.33         0.6042        -48.402         -3.119      0.9139231
      1741.5000          0.775       1569.586         0.6026       -48.2838        -3.0008      0.9230154
      1742.0000         0.7792       1582.428          0.606       -48.1887        -2.9057      0.9303308
      1742.5000          0.781       1597.689         0.6093       -48.0936        -2.8106      0.9376462
      1743.0000         0.7828       1613.258         0.6126       -48.0035        -2.7205      0.9445769
      1743.5000         0.7847       1600.771         0.6159       -48.0455        -2.7625      0.9413462
      1744.0000         0.7866       1569.365         0.6193         -48.11         -2.827      0.9363846
      1744.5000         0.8027       1529.924         0.6289       -48.5687        -3.2857         0.9011
      1745.0000         0.8275       1493.568         0.6386       -49.0298        -3.7468      0.8656307
      1745.5000         0.8403       1471.346         0.6482       -49.4935        -4.2105      0.8299615
      1746.0000         0.8434        1459.83         0.6578       -49.9551        -4.6721      0.7944539
      1746.5000         0.8376       1455.418         0.6563       -50.4139        -5.1309      0.7591615
      1747.0000         0.8301       1453.102         0.6476       -50.3875        -5.1045      0.7611923
      1747.5000         0.8182        1458.23         0.6389       -50.2729        -4.9899      0.7700077
      1748.0000         0.8062       1465.521         0.6206       -50.1584        -4.8754      0.7788154
      1748.5000         0.7921       1536.104         0.6005       -49.9592        -4.6762      0.7941385
