#------------------------------------------------------------------------------
# Created by    : vladimir.rabinovich
# Created on    : 09/19/2023 17:21:31
#------------------------------------------------------------------------------
~Version Information Section
VERS.           2.0     :   CWLS log ASCII Standard - VERSION 2.0
WRAP.           NO      :   One line per depth step
~Well Information Section
#MNEM       .UNIT                                         VALUE :DESCRIPTION
#------------------------------------------------------------------------------
STRT        .FT                                              40 :START DEPTH
STOP        .FT                                           13401 :STOP DEPTH
STEP        .FT                                             0.5 :STEP      
NULL        .                                           -999.25 :NULL      
COMP        .                                        TEXACO USA :COMPANY   
WELL        .                               OCS G01759 ST00BP00 :WELL      
FLD         .                                           WILDCAT :FIELD     
LOC         .                                                   :LOCATION  
CNTY        .                             GALVESTON LARGE BLOCK :LOCATION  
STAT        .                                             TEXAS :STATE     
CTRY        .                                     UNITED STATES :COUNTRY   
SRVC        .                                                   :SERVICE COMPANY
DATE        .                             9/13/2023 11:19:24 AM :LOG DATE  
API         .                                    42706001440000 :API NUMBER
UWI         .                                    42706001440000 :UNIQUE WELL ID
XCOORD      .                                   1131482.4965331 :SURFACE X 
YCOORD      .                                  10562344.6824913 :SURFACE Y 
LAT         .                                         29.095227 :LATITUDE  
LON         .                                        -94.593967 :LONGITUDE 
ELEV        .FT                                              83 :ELEVATION VALUE
ELEV_TYPE   .                                                KB :ELEVATION REFERENCE TYPE
~Curve Information Section
#MNEM       .UNIT                                      API CODE :CURVE DESCRIPTION
#------------------------------------------------------------------------------
DEPT        .FT                                                 :DEPTH     
CALI        .IN                                                 :          
DT          .US/F                                               :          
GR          .GAPI                                               :          
GR_NORM     .GAPI                                               :GammaRay Normalized
RHOB        .G/C3                                               :          
SP          .MV                                                 :          
SP_NORM     .MV                                                 :SP Normalized
VSH_GR      .V/V                                                :Volume of Shale from GR
VSH_SP      .V/V                                                :Volume of Shale from SP
~A        DEPTH           CALI             DT             GR        GR_NORM           RHOB             SP        SP_NORM         VSH_GR         VSH_SP
# ...
       596.5000        14.8474       234.8608        54.6243       73.71185         2.5166        -999.25        -999.25      0.8662096        -999.25
       597.0000        14.7813       216.0295        56.3016       73.81197         2.4954        -999.25        -999.25      0.8683397        -999.25
       597.5000        14.4428       203.1755        57.7878       73.58846         2.5044        -999.25        -999.25      0.8635843        -999.25
       598.0000        14.1062       180.2944        58.1237       72.81251          2.511        -999.25        -999.25      0.8470746        -999.25
       598.5000        13.7399       178.2009        57.7171       72.09663         2.5159        -999.25        -999.25      0.8318433        -999.25
       599.0000        13.4129       178.1968        57.1252       71.06695         2.5298        -999.25        -999.25       0.809935        -999.25
       599.5000        13.2415       177.7495        57.0525       70.91656         2.5743        -999.25        -999.25      0.8067354        -999.25
       600.0000        13.1536       175.0442         55.712       68.61913         2.6031        -999.25        -999.25      0.7578539        -999.25
       600.5000        13.1689       174.9976        56.4765       69.88653         2.6103        -999.25        -999.25      0.7848197        -999.25
       601.0000        13.1303       178.6948        57.1141       70.93902         2.6091        -999.25        -999.25      0.8072131        -999.25
       601.5000        13.0855       186.2568        57.7807       72.04062         2.6053        -999.25        -999.25      0.8306515        -999.25
       602.0000        13.1651       184.0569        58.4841       73.20455         2.6036        -999.25        -999.25       0.855416        -999.25
       602.5000        13.3616       175.3936        58.6816       73.51173         2.6095        -999.25        -999.25      0.8619516        -999.25
       603.0000        13.4785       175.1003        58.5679       73.29189         2.6175        -999.25        -999.25      0.8572742        -999.25
       603.5000        13.4756       175.1826        58.0115       72.32234         2.6086        -999.25        -999.25      0.8366455        -999.25
       604.0000        13.3435       175.1357        57.1274       70.79782         2.6051        -999.25        -999.25      0.8042089        -999.25
       604.5000          13.18       175.1077        56.7025       70.05095           2.61        -999.25        -999.25       0.788318        -999.25
       605.0000         13.366       175.1267        57.0781       70.65974         2.6124        -999.25        -999.25       0.801271        -999.25
       605.5000        13.6378       176.7661        57.9349       72.08346         2.6163        -999.25        -999.25      0.8315629        -999.25
       606.0000          13.58       184.8071         59.248       74.27992         2.6274        -999.25        -999.25      0.8782962        -999.25
       606.5000        13.5587       187.3367        60.9796       77.18511         2.6205        -999.25        -999.25      0.9401088        -999.25
       607.0000        13.6429       186.3997        63.0026       80.58379         2.6202        -999.25        -999.25              1        -999.25
       607.5000        13.7031       185.5923        64.8752       83.72775         2.6268        -999.25        -999.25              1        -999.25
       608.0000        13.6444       185.4832        65.7947       85.25767         2.6356        -999.25        -999.25              1        -999.25
       608.5000        13.5078       185.0994        65.9833       85.54977         2.6485        -999.25        -999.25              1        -999.25
       609.0000        13.4381       184.3281        65.3292       84.41476         2.6588        -999.25        -999.25              1        -999.25
       609.5000        13.4784       183.3171         63.753       81.71815         2.6549        -999.25        -999.25              1        -999.25
       610.0000        13.5109        182.614         61.711       78.23272         2.6455        -999.25        -999.25      0.9623983        -999.25
       610.5000        13.5742       182.4771         60.357       75.91243         2.6364        -999.25        -999.25      0.9130304        -999.25
       611.0000        13.6783       181.2166        60.6046       76.30447         2.6315        -999.25        -999.25      0.9213718        -999.25
       611.5000        13.3648       177.4443         61.357       77.55137         2.6323        -999.25        -999.25      0.9479015        -999.25
       612.0000        13.1136       181.4722        62.4786       79.42352         2.6354        -999.25        -999.25      0.9877346        -999.25
       612.5000         13.114       182.3391        62.4902       79.41589         2.6316        -999.25        -999.25      0.9875722        -999.25
       613.0000        13.4323       182.7197        61.6868       78.02804         2.6188        -999.25        -999.25      0.9580433        -999.25
       613.5000        13.7075       182.4001         58.705       72.95104         2.6025        -999.25        -999.25      0.8500222        -999.25
       614.0000        13.8635       180.7239        57.8296       71.44125         2.5888        -999.25        -999.25       0.817899        -999.25
       614.5000        13.9132       178.7522        57.0964       70.17229         2.5781        -999.25        -999.25      0.7908997        -999.25
       615.0000        13.9076       181.6318        55.2559       67.02808         2.5632        -999.25        -999.25      0.7240016        -999.25
       615.5000        13.8757       191.8469        52.9165       63.03901         2.5427        -999.25        -999.25      0.6391279        -999.25
       616.0000        13.8714       193.7649        51.9362       61.35156         2.5163        -999.25        -999.25      0.6032248        -999.25
       616.5000        13.8276       195.6318        51.4384       60.48127           2.48        -999.25        -999.25      0.5847078        -999.25
       617.0000        13.8684       196.8867        51.3304       60.27106         2.4635        -999.25        -999.25      0.5802354        -999.25
       617.5000        14.0665       198.2429        52.9858       63.04722         2.4497        -999.25        -999.25      0.6393026        -999.25
       618.0000        14.4971       199.9131          56.28       68.59869         2.4379        -999.25        -999.25       0.757419        -999.25
       618.5000        14.9381       197.4312        59.3205       73.72052         2.4524        -999.25        -999.25       0.866394        -999.25
       619.0000        15.0649       187.0898        62.4495       78.99221         2.4856        -999.25        -999.25      0.9785576        -999.25
       619.5000        15.0505       175.0649        64.8286       82.99395         2.5362        -999.25        -999.25              1        -999.25
       620.0000        15.0089        175.073        66.1819        85.2585         2.5923        -999.25        -999.25              1        -999.25
       620.5000        14.9318       175.0881        66.1205       85.12721         2.6197        -999.25        -999.25              1        -999.25
       621.0000        14.8007       175.4077        64.6456       82.60218         2.6382        -999.25        -999.25              1        -999.25
       621.5000        14.0669       179.7285        63.3318       80.34997         2.6413        -999.25        -999.25              1        -999.25
       622.0000        13.6781       174.9685        63.0062       79.77126         2.6422        -999.25        -999.25      0.9951331        -999.25
       622.5000        13.5573       174.9514        63.3962       80.40445         2.6446        -999.25        -999.25              1        -999.25
