#------------------------------------------------------------------------------
# Created by    : vladimir.rabinovich
# Created on    : 09/19/2023 17:22:42
#------------------------------------------------------------------------------
~Version Information Section
VERS.           2.0     :   CWLS log ASCII Standard - VERSION 2.0
WRAP.           NO      :   One line per depth step
~Well Information Section
#MNEM       .UNIT                                         VALUE :DESCRIPTION
#------------------------------------------------------------------------------
STRT        .FT                                              96 :START DEPTH
STOP        .FT                                            7107 :STOP DEPTH
STEP        .FT                                             0.5 :STEP      
NULL        .                                           -999.25 :NULL      
COMP        .                                  XTO OFFSHORE INC :COMPANY   
WELL        .                               OCS G23162 ST00BP00 :WELL      
FLD         .                                 BRAZOS BLOCK 0398 :FIELD     
LOC         .                                                   :LOCATION  
CNTY        .                                BRAZOS LARGE BLOCK :LOCATION  
STAT        .                                             TEXAS :STATE     
CTRY        .                                     UNITED STATES :COUNTRY   
SRVC        .                                                   :SERVICE COMPANY
DATE        .                             9/13/2023 11:18:28 AM :LOG DATE  
API         .                                    42704403370000 :API NUMBER
UWI         .                                    42704403370000 :UNIQUE WELL ID
XCOORD      .                                  864551.184430364 :SURFACE X 
YCOORD      .                                  10381025.1526549 :SURFACE Y 
LAT         .                                        28.5842785 :LATITUDE  
LON         .                                       -95.4179199 :LONGITUDE 
ELEV        .FT                                             100 :ELEVATION VALUE
ELEV_TYPE   .                                                KB :ELEVATION REFERENCE TYPE
~Curve Information Section
#MNEM       .UNIT                                      API CODE :CURVE DESCRIPTION
#------------------------------------------------------------------------------
DEPT        .FT                                                 :DEPTH     
DCAL        .IN                                                 :          
DPHI        .FRAC                                               :          
DT          .US/F                                               :          
GR          .GAPI                                               :          
GR_NORM     .GAPI                                               :GammaRay Normalized
HT01        .OHMM                                               :          
HT02        .OHMM                                               :          
HT03        .OHMM                                               :          
HT06        .OHMM                                               :          
HT09        .OHMM                                               :          
HT12        .OHMM                                               :          
NPHI        .FRAC                                               :          
RWA         .OHMM                                               :          
SP          .MV                                                 :          
TENS        .LB                                                 :          
VSH_GR      .V/V                                                :Volume of Shale from GR
~A        DEPTH           DCAL           DPHI             DT             GR        GR_NORM           HT01           HT02           HT03           HT06           HT09           HT12           NPHI            RWA             SP           TENS         VSH_GR
# ...
      5696.0000         0.1057         0.3892       117.2297        47.7427       38.06364         0.2449         0.2358         0.2338           0.23         0.2328          0.239         0.4093         0.0438        -999.25       3189.441       0.107737
      5696.5000         0.0884         0.3844       117.5922        46.4279       36.60158         0.2406         0.2325         0.2311         0.2273         0.2299         0.2357         0.4028         0.0424        -999.25       3183.396     0.07662931
      5697.0000         0.1007          0.384       117.9547        45.8506       35.95896         0.2334         0.2265         0.2257          0.222         0.2244         0.2298         0.4108         0.0423        -999.25       3186.259     0.06295662
      5697.5000          0.119         0.3823       117.0156        43.9666       33.86446         0.2259         0.2202           0.22         0.2164         0.2186         0.2235         0.4009         0.0403        -999.25       3207.576     0.01839277
      5698.0000         0.1234          0.382       115.3844        42.7399       32.50029         0.2196         0.2147          0.215         0.2116         0.2136         0.2181         0.4226         0.0416        -999.25       3245.754              0
      5698.5000         0.1161          0.387       114.9719        42.3311        32.0449         0.2143         0.2104         0.2109         0.2078         0.2096         0.2138         0.4422         0.0423        -999.25       3282.023              0
      5699.0000         0.1068          0.386       115.9844        42.6437       32.39105         0.2103         0.2071         0.2078          0.205         0.2068         0.2106          0.425         0.0403        -999.25       3294.749              0
      5699.5000         0.0573         0.3786       116.8953        44.3514       34.28732          0.208         0.2054         0.2063         0.2037         0.2054         0.2091         0.4237         0.0376        -999.25       3285.841     0.02738985
      5700.0000          0.059         0.3724       117.7016        45.4818       35.54216          0.209         0.2068         0.2078         0.2053          0.207         0.2105         0.4332         0.0378        -999.25       3270.251     0.05408851
      5700.5000         0.0476         0.3738       117.9797        45.3856        35.4341         0.2144         0.2125         0.2136         0.2111         0.2128         0.2162           0.42         0.0394        -999.25       3259.752      0.0517893
      5701.0000         0.0415         0.3773         117.95        41.2568       30.84538         0.2238         0.2221         0.2233         0.2207         0.2223         0.2257         0.4086         0.0418        -999.25       3260.707              0
      5701.5000         0.0533         0.3758       117.9828        37.3363       26.48809         0.2346         0.2329         0.2343         0.2316         0.2331         0.2363         0.4055         0.0422        -999.25       3265.161              0
      5702.0000         0.0932         0.3698       117.1734        39.3968       28.77636         0.2424         0.2406         0.2423         0.2396         0.2408         0.2438         0.3964         0.0418        -999.25       3266.115              0
      5702.5000         0.1207          0.366       116.6953        43.6299       33.47864         0.2437         0.2418         0.2437         0.2411         0.2421         0.2446         0.4057          0.042        -999.25       3264.843     0.01018378
      5703.0000         0.1136         0.3659       116.8297        43.7982       33.66446         0.2393         0.2374         0.2392          0.237         0.2376         0.2396         0.3975          0.042        -999.25       3259.434     0.01413743
      5703.5000         0.0427         0.3601       116.8031        43.4936       33.32485         0.2332         0.2311         0.2326         0.2307          0.231         0.2324         0.3893         0.0382        -999.25       3255.935    0.006911663
      5704.0000         0.0459         0.3567       116.2234        43.6138       33.45724         0.2284         0.2261         0.2271         0.2254         0.2253         0.2262         0.3872         0.0387        -999.25       3252.753    0.009728452
      5704.5000         0.1052         0.3615       115.2141        44.2793        34.1955         0.2262         0.2234         0.2237         0.2223         0.2218         0.2223         0.3958         0.0406        -999.25       3241.618     0.02543616
      5705.0000          0.134         0.3566          114.6        43.7742       33.63311         0.2284          0.225         0.2246         0.2232         0.2224         0.2224         0.4159         0.0373        -999.25       3217.438     0.01347043
      5705.5000         0.1035         0.3409       114.5297        43.4615       33.28449         0.2369         0.2326         0.2314         0.2299         0.2287         0.2282         0.4115         0.0343        -999.25       3187.214    0.006053032
      5706.0000         0.1132         0.3367       114.0141        49.0174       39.45654         0.2512         0.2456         0.2434         0.2416         0.2398         0.2388          0.389         0.0377        -999.25       3165.261      0.1373733
      5706.5000         0.0698          0.341       112.3656        51.6391       42.36837         0.2679         0.2608         0.2577         0.2554         0.2529         0.2513         0.3764         0.0396        -999.25       3157.308      0.1993271
      5707.0000        -0.0035         0.3389       111.0562        51.5429       42.26032         0.2819         0.2734         0.2694         0.2665         0.2634         0.2612         0.3865         0.0393        -999.25       3161.125      0.1970281
      5707.5000         0.0108         0.3359       111.5672        53.0822       43.96947         0.2893         0.2796         0.2752         0.2717         0.2681         0.2654         0.3956         0.0398        -999.25       3172.261      0.2333931
      5708.0000        -0.0342         0.3346       110.9703        50.0757       40.62775         0.2918         0.2814         0.2767         0.2728         0.2688         0.2659         0.3996         0.0406        -999.25       3184.986      0.1622925
      5708.5000        -0.0727         0.3366       108.8172        44.3995       34.31969         0.2945         0.2834         0.2786         0.2741         0.2699         0.2667         0.4017         0.0413        -999.25       3189.759     0.02807853
      5709.0000        -0.0727         0.3442       108.4437        43.7982       33.65041         0.2991         0.2875         0.2825         0.2774         0.2729         0.2696         0.3934         0.0451        -999.25        3182.76     0.01383842
      5709.5000         -0.076         0.3507       110.0969        45.6502       35.70702         0.3027         0.2907         0.2856         0.2799         0.2753         0.2719         0.3876         0.0469        -999.25       3170.988     0.05759608
      5710.0000        -0.0186          0.348       111.7016        45.5059       35.54552         0.3032         0.2912         0.2862           0.28         0.2755         0.2722         0.3965         0.0438        -999.25       3170.352     0.05415994
      5710.5000          0.069         0.3423       111.2094        43.4615       33.27278         0.3017         0.2898          0.285         0.2786         0.2743         0.2712         0.4072         0.0432        -999.25       3200.576    0.005803778
      5711.0000         0.1075         0.3434       110.8891        42.8843       32.63028         0.2977         0.2863         0.2818         0.2752         0.2712         0.2685         0.3959         0.0445        -999.25       3272.479              0
      5711.5000         0.1148         0.3457       110.8656        43.6058       33.43077         0.2901         0.2795         0.2752         0.2688         0.2653          0.263         0.3762         0.0426        -999.25       3356.152    0.009165337
