#------------------------------------------------------------------------------
# Created by    : vladimir.rabinovich
# Created on    : 09/19/2023 17:19:50
#------------------------------------------------------------------------------
~Version Information Section
VERS.           2.0     :   CWLS log ASCII Standard - VERSION 2.0
WRAP.           NO      :   One line per depth step
~Well Information Section
#MNEM       .UNIT                                         VALUE :DESCRIPTION
#------------------------------------------------------------------------------
STRT        .FT                                             816 :START DEPTH
STOP        .FT                                            7470 :STOP DEPTH
STEP        .FT                                             0.5 :STEP      
NULL        .                                           -999.25 :NULL      
COMP        .                                   KERR-MCGEE CORP :COMPANY   
WELL        .                               OCS G05003 ST00BP00 :WELL      
FLD         .                                 BRAZOS BLOCK 0412 :FIELD     
LOC         .                                                   :LOCATION  
CNTY        .                                BRAZOS LARGE BLOCK :LOCATION  
STAT        .                                             TEXAS :STATE     
CTRY        .                                     UNITED STATES :COUNTRY   
SRVC        .                                                   :SERVICE COMPANY
DATE        .                             9/13/2023 11:19:08 AM :LOG DATE  
API         .                                    42704401140000 :API NUMBER
UWI         .                                    42704401140000 :UNIQUE WELL ID
XCOORD      .                                  819493.037302503 :SURFACE X 
YCOORD      .                                  10380289.6446028 :SURFACE Y 
LAT         .                                         28.579682 :LATITUDE  
LON         .                                        -95.558179 :LONGITUDE 
ELEV        .FT                                              90 :ELEVATION VALUE
ELEV_TYPE   .                                                KB :ELEVATION REFERENCE TYPE
~Curve Information Section
#MNEM       .UNIT                                      API CODE :CURVE DESCRIPTION
#------------------------------------------------------------------------------
DEPT        .FT                                                 :DEPTH     
ASFL        .OHMM                                               :          
CALI        .IN                                                 :          
CILD        .MMHO                                               :          
GR          .GAPI                                               :          
GR_NORM     .GAPI                                               :GammaRay Normalized
ILD         .OHMM                                               :          
ILM         .OHMM                                               :          
RHOB        .G/C3                                               :          
SP          .MV                                                 :          
SP_NORM     .MV                                                 :SP Normalized
VSH_GR      .V/V                                                :Volume of Shale from GR
VSH_SP      .V/V                                                :Volume of Shale from SP
~A        DEPTH           ASFL           CALI           CILD             GR        GR_NORM            ILD            ILM           RHOB             SP        SP_NORM         VSH_GR         VSH_SP
# ...
      2599.5000         0.7736        -999.25       1702.934         67.681       62.64846         0.6187         0.6031        -999.25       -69.3875      -5.101784      0.6308183      0.8598811
      2600.0000         0.7919        -999.25        1662.01        70.9832       66.16553         0.6284          0.604        -999.25       -68.7036      -4.417885      0.7056495      0.9054744
      2600.5000         0.8273        -999.25       1604.914        72.8135       68.11675         0.6381         0.6039        -999.25       -68.0198      -3.734085       0.747165       0.951061
      2601.0000         0.8187        -999.25       1572.914        73.6174       68.97606         0.6479         0.5989        -999.25       -67.2227      -2.936989       0.765448              1
      2601.5000           0.81        -999.25       1558.949        74.9917       70.44217         0.6493         0.5931        -999.25       -66.4843      -2.198586      0.7966419              1
      2602.0000         0.8022        -999.25       1566.289        77.6482       73.27232         0.6435          0.587        -999.25       -65.8507      -1.564987       0.856858              1
      2602.5000         0.7968        -999.25       1579.473        80.8513       76.68398         0.6378         0.5824        -999.25        -65.559      -1.273285      0.9294463              1
      2603.0000         0.7941        -999.25       1592.654        82.2297       78.15444          0.632         0.5781        -999.25       -65.3761      -1.090385      0.9607328              1
      2603.5000         0.7914        -999.25       1605.838        82.6405       78.59557         0.6263         0.5746        -999.25       -65.1932      -0.907486      0.9701184              1
      2604.0000         0.7887        -999.25       1620.471        83.2286       79.22529         0.6192         0.5724        -999.25       -65.0104     -0.7246857      0.9835168              1
      2604.5000         0.7849        -999.25       1644.148         84.239       80.30428         0.6106         0.5705        -999.25       -64.8274      -0.541687              1              1
      2605.0000         0.7801        -999.25       1663.795        85.4159       81.56039          0.602           0.57        -999.25        -64.736     -0.4502869              1              1
      2605.5000         0.7745        -999.25       1668.252        86.8849       83.12725         0.5935         0.5729        -999.25       -64.9176     -0.6318893              1              1
      2606.0000         0.7669        -999.25       1674.109        88.4128       84.75677         0.5849         0.5759        -999.25        -65.371      -1.085289              1              1
      2606.5000         0.7687        -999.25       1681.598        86.8206       83.06703         0.5757         0.5779        -999.25       -65.9381       -1.65239              1              1
      2607.0000         0.7705        -999.25       1689.088        80.9739       76.85123         0.5643         0.5766        -999.25       -66.4983      -2.212585      0.9330048              1
      2607.5000         0.7728        -999.25       1736.684        72.9259       68.29362         0.5529         0.5628        -999.25       -66.9299      -2.644188       0.750928              1
      2608.0000         0.7766        -999.25       1798.193        72.9803       68.35558         0.5415         0.5397        -999.25       -67.3617      -3.075989      0.7522464      0.9949341
      2608.5000         0.7849        -999.25       1858.814        76.5376       72.14403         0.5301         0.5109        -999.25       -67.8403      -3.554588      0.8328516      0.9630274
      2609.0000         0.7878        -999.25       1919.264        77.4613       73.13078         0.5099         0.4821        -999.25       -68.3555      -4.069786      0.8538464       0.928681
      2609.5000          0.777        -999.25       2002.861        69.1594       64.30307         0.4892          0.453        -999.25       -68.8705      -4.584785      0.6660228      0.8943476
      2610.0000         0.7661        -999.25       2097.504        58.0704       52.51035         0.4685         0.4412        -999.25       -69.3798      -5.094086      0.4151139      0.8603943
      2610.5000          0.753        -999.25       2135.063        54.0297       48.21583         0.4479         0.4559        -999.25       -69.8767      -5.590988       0.323741      0.8272675
      2611.0000         0.7097        -999.25       2159.172          54.85       49.09258         0.4427         0.4711        -999.25       -70.3737       -6.08799      0.3423952       0.794134
      2611.5000         0.6531        -999.25       2183.273        58.7019       53.19444         0.4397         0.4856        -999.25       -70.6753      -6.389587      0.4296688      0.7740275
      2612.0000         0.6248        -999.25       2207.383        65.3063       60.22448         0.4368         0.4939        -999.25       -70.9447      -6.658989      0.5792443      0.7560674
      2612.5000         0.6771        -999.25       2218.648        70.2948        65.5355         0.4405         0.4938        -999.25       -71.0366      -6.750885      0.6922446       0.749941
      2613.0000         0.7583        -999.25       2162.957        71.5596       66.88512         0.4446          0.492        -999.25       -70.9817      -6.695984      0.7209599      0.7536011
      2613.5000         0.8234        -999.25        2104.75        69.1755       64.35293         0.4487         0.4942        -999.25        -70.707      -6.421288      0.6670836      0.7719142
      2614.0000         0.8316        -999.25       2032.643        65.6677       60.62532         0.4528          0.499        -999.25       -70.4323      -6.146584      0.5877728      0.7902278
      2614.5000          0.819        -999.25       1949.316        62.7234       57.49718         0.4568         0.5027        -999.25       -70.1576      -5.871887      0.5212165      0.8085409
      2615.0000         0.8064        -999.25       1908.787        61.1404       55.81723         0.4628          0.506        -999.25       -69.8829      -5.597183      0.4854729      0.8268545
      2615.5000         0.7886        -999.25       1924.564        61.1239       55.80377         0.4706         0.5083        -999.25       -69.6083      -5.322586      0.4851866      0.8451609
      2616.0000         0.7709        -999.25       1940.348        63.1469       57.95999         0.4785         0.5136        -999.25       -69.4716       -5.18589      0.5310637       0.854274
      2616.5000         0.7375        -999.25       1956.127         65.991       60.98972         0.4863         0.5201        -999.25       -69.3597       -5.07399      0.5955259       0.861734
      2617.0000         0.6901        -999.25       1937.994        69.6744       64.91232         0.4942         0.5274        -999.25        -69.259      -4.973289      0.6789856      0.8684474
      2617.5000         0.6769        -999.25       1918.783        71.6759       67.04567          0.502         0.5356        -999.25       -69.2537      -4.967987       0.724376      0.8688009
      2618.0000         0.6964        -999.25       1893.982        70.4613       65.75763         0.5066         0.5476        -999.25       -69.2484      -4.962685      0.6969708      0.8691543
      2618.5000         0.7183        -999.25        1861.33        69.0269       64.23577         0.5095         0.5608        -999.25       -69.2432      -4.957489      0.6645909      0.8695008
      2619.0000         0.7319        -999.25       1828.627        66.2423       61.27752         0.5124         0.5704        -999.25       -69.2379      -4.952187      0.6016494      0.8698542
      2619.5000         0.7447        -999.25       1795.395        63.0466       57.88193         0.5153         0.5775        -999.25       -69.1912      -4.905487      0.5294028      0.8729675
