#------------------------------------------------------------------------------
# Created by    : vladimir.rabinovich
# Created on    : 09/19/2023 17:19:47
#------------------------------------------------------------------------------
~Version Information Section
VERS.           2.0     :   CWLS log ASCII Standard - VERSION 2.0
WRAP.           NO      :   One line per depth step
~Well Information Section
#MNEM       .UNIT                                         VALUE :DESCRIPTION
#------------------------------------------------------------------------------
STRT        .FT                                             380 :START DEPTH
STOP        .FT                                            8002 :STOP DEPTH
STEP        .FT                                             0.5 :STEP      
NULL        .                                           -999.25 :NULL      
COMP        .                               AMOCO PRODUCTION CO :COMPANY   
WELL        .                               OCS G07253 ST00BP00 :WELL      
FLD         .                                           WILDCAT :FIELD     
LOC         .                                                   :LOCATION  
CNTY        .                             GALVESTON LARGE BLOCK :LOCATION  
STAT        .                                             TEXAS :STATE     
CTRY        .                                     UNITED STATES :COUNTRY   
SRVC        .                                                   :SERVICE COMPANY
DATE        .                             9/13/2023 11:19:27 AM :LOG DATE  
API         .                                    42706401230000 :API NUMBER
UWI         .                                    42706401230000 :UNIQUE WELL ID
XCOORD      .                                  925879.569593371 :SURFACE X 
YCOORD      .                                  10358786.1357032 :SURFACE Y 
LAT         .                                         28.526408 :LATITUDE  
LON         .                                        -95.225632 :LONGITUDE 
ELEV        .FT                                             100 :ELEVATION VALUE
ELEV_TYPE   .                                                KB :ELEVATION REFERENCE TYPE
~Curve Information Section
#MNEM       .UNIT                                      API CODE :CURVE DESCRIPTION
#------------------------------------------------------------------------------
DEPT        .FT                                                 :DEPTH     
ASFL        .OHMM                                               :          
CILD        .MMHO                                               :          
GR          .GAPI                                               :          
GR_NORM     .GAPI                                               :GammaRay Normalized
ILD         .OHMM                                               :          
SP          .MV                                                 :          
SP_NORM     .MV                                                 :SP Normalized
VSH_GR      .V/V                                                :Volume of Shale from GR
VSH_SP      .V/V                                                :Volume of Shale from SP
~A        DEPTH           ASFL           CILD             GR        GR_NORM            ILD             SP        SP_NORM         VSH_GR         VSH_SP
# ...
      4461.0000         0.7446       1327.682        67.3396       80.03191          0.756       -45.1172      -1.957222              1              1
      4461.5000         0.7393       1341.594        68.4268       81.11911         0.7502       -45.0416      -1.888458              1              1
      4462.0000          0.734       1355.496        70.0486       82.74091         0.7444       -44.8661      -1.719795              1              1
      4462.5000         0.7286       1369.408        70.0311        82.7234         0.7385       -44.6599      -1.520432              1              1
      4463.0000         0.7232       1383.309        68.9585       81.65081         0.7327       -44.4534      -1.320766              1              1
      4463.5000         0.7176       1397.359        67.8983       80.59061         0.7279       -44.2469      -1.121101              1              1
      4464.0000          0.712       1411.523        66.9777       79.67001         0.7231       -44.0406     -0.9216385      0.9929789              1
      4464.5000         0.7064       1425.686        66.0577       78.75001         0.7183       -43.8342     -0.7220764      0.9734044              1
      4465.0000         0.7012        1439.85        65.1372       77.82951         0.7135       -43.6277     -0.5224113      0.9538193              1
      4465.5000         0.6961       1455.809        64.4563       77.14861         0.7087       -43.6263     -0.5278473       0.939332              1
      4466.0000          0.691       1462.697        64.8649       77.55721         0.7039       -43.6765     -0.5848808      0.9480256              1
      4466.5000         0.7038       1423.215        65.2731       77.96541         0.6991       -43.7267     -0.6419182      0.9567108              1
      4467.0000         0.7183       1379.641        65.6816       78.37391         0.7059       -43.7768     -0.6988525      0.9654023              1
      4467.5000         0.7328       1329.078        66.0902       78.78251          0.717       -43.8398      -0.768692      0.9740959              1
      4468.0000         0.7519       1278.467        65.4338       78.12611         0.7281       -44.1614      -1.097126      0.9601299              1
      4468.5000         0.7725       1230.898        64.0315       76.72381         0.7392       -44.4833      -1.425861      0.9302938              1
      4469.0000         0.7703       1230.973        60.3979       73.09021         0.7503       -44.8052      -1.754597      0.8529832              1
      4469.5000         0.7602       1253.996        55.9128        68.6051         0.7519       -45.1271      -2.083336      0.7575554      0.9973118
      4470.0000         0.7458        1277.02        51.4427       64.13501         0.7533        -44.985      -1.948071       0.662447              1
      4470.5000         0.7313       1300.041        47.1534       59.84571         0.7546       -44.6544       -1.62431      0.5711852              1
      4471.0000         0.7168       1323.064        48.3364       61.02871          0.756       -44.3234      -1.300144      0.5963554              1
      4471.5000         0.7024       1357.006        50.3258       63.01811         0.7574       -43.9928     -0.9763832      0.6386831              1
      4472.0000         0.6889       1393.791        56.2593       68.95161         0.7588       -43.6768     -0.6672173      0.7649278              1
      4472.5000         0.7011       1430.578        60.0438       72.73611         0.7597        -43.465     -0.4622536      0.8454491              1
      4473.0000         0.7133       1415.205        62.4297       75.12201         0.7603       -43.2533     -0.2573891      0.8962129              1
      4473.5000         0.7254       1337.963        63.8358       76.52811          0.761       -43.0415    -0.05242538      0.9261299              1
      4474.0000         0.7376       1272.414        65.2219       77.91421         0.7616       -43.0164    -0.03416061      0.9556214              1
      4474.5000         0.7469       1274.783          66.83       79.52231         0.7623       -43.1486     -0.1731987      0.9898363              1
      4475.0000         0.7491        1277.15        68.6886       81.38091         0.7629       -43.2807     -0.3121338              1              1
      4475.5000         0.7513       1279.521        67.5006       80.19291         0.7635       -43.4129     -0.4511681              1              1
      4476.0000         0.7575       1278.883         66.314       79.00631         0.7642        -43.545     -0.5901031      0.9788576              1
      4476.5000         0.7652       1277.646        65.1272        77.8195          0.776       -43.6772     -0.7291412      0.9536065              1
      4477.0000         0.7729       1270.854        63.8171       76.50941         0.7887       -43.7379     -0.7966766      0.9257321              1
      4477.5000         0.7806        1247.42        62.4197       75.11201         0.8015        -43.537     -0.6026115      0.8960001              1
      4478.0000         0.7946       1223.986        61.0224       73.71471         0.8143       -43.3363     -0.4087486      0.8662704              1
      4478.5000         0.8106       1200.551        59.6238        72.3161         0.8271       -43.1355     -0.2147865      0.8365128              1
      4479.0000         0.8266       1175.844        58.2264        70.9187         0.8399       -43.0486     -0.1347198      0.8067809              1
      4479.5000         0.8426       1150.414        56.7866        69.4789          0.854       -43.1088     -0.2017555      0.7761469              1
      4480.0000         0.8563       1124.982        55.2696       67.96191         0.8691        -43.291     -0.3907928      0.7438704              1
      4480.5000         0.8699        1101.91        56.4887       69.18101         0.8842       -43.6185     -0.7251282      0.7698087              1
      4481.0000         0.8648       1087.566        59.3757       72.06801         0.8992       -43.9457      -1.059166      0.8312342              1
      4481.5000         0.8551       1098.953         62.856       75.54831         0.9141       -44.2733        -1.3936      0.9052832              1
      4482.0000         0.8455       1110.338        66.3712       79.06351         0.9196       -44.4539      -1.581036      0.9800746              1
      4482.5000         0.8359       1121.732        68.2698        80.9621         0.9251       -44.3171      -1.451073              1              1
      4483.0000         0.8263       1133.117        67.7625        80.4548         0.9295       -44.1805      -1.321308              1              1
      4483.5000         0.8173       1145.459         67.255        79.9473         0.9156       -44.0437      -1.215439      0.9988788              1
      4484.0000         0.8164       1157.926        66.7474        79.4397         0.9016        -43.907      -1.119976      0.9880788              1
      4484.5000         0.8155       1170.391        66.3561       79.04841         0.8876       -43.8111      -1.065308      0.9797534              1
      4485.0000         0.8146       1182.857        66.2555       78.94781         0.8737       -43.7914      -1.086842      0.9776129              1
      4485.5000         0.8122       1195.697        66.1548       78.84711         0.8597       -43.7718      -1.108475      0.9754704              1
      4486.0000         0.8082       1211.082        66.0305       78.72281         0.8457       -43.7521      -1.130009      0.9728257              1
      4486.5000         0.8041       1226.469         65.884       78.57631         0.8318       -43.7324      -1.151543      0.9697087              1
      4487.0000         0.7952       1241.855        65.7385       78.43081         0.8178       -43.7128      -1.173176      0.9666129              1
