#------------------------------------------------------------------------------
# Created by    : vladimir.rabinovich
# Created on    : 09/19/2023 17:19:20
#------------------------------------------------------------------------------
~Version Information Section
VERS.           2.0     :   CWLS log ASCII Standard - VERSION 2.0
WRAP.           NO      :   One line per depth step
~Well Information Section
#MNEM       .UNIT                                         VALUE :DESCRIPTION
#------------------------------------------------------------------------------
STRT        .FT                                            4783 :START DEPTH
STOP        .FT                                            9473 :STOP DEPTH
STEP        .FT                                             0.5 :STEP      
NULL        .                                           -999.25 :NULL      
COMP        .                                   FOREST OIL CORP :COMPANY   
WELL        .                               OCS G20658 ST00BP00 :WELL      
FLD         .                            HIGH ISLAND BLOCK 0052 :FIELD     
LOC         .                                                   :LOCATION  
CNTY        .                           HIGH ISLAND LARGE BLOCK :LOCATION  
STAT        .                                             TEXAS :STATE     
CTRY        .                                     UNITED STATES :COUNTRY   
SRVC        .                                                   :SERVICE COMPANY
DATE        .                             9/13/2023 11:19:51 AM :LOG DATE  
API         .                                    42708405710000 :API NUMBER
UWI         .                                    42708405710000 :UNIQUE WELL ID
XCOORD      .                                  1254974.65209524 :SURFACE X 
YCOORD      .                                  10682885.5467737 :SURFACE Y 
LAT         .                                         29.430813 :LATITUDE  
LON         .                                        -94.211177 :LONGITUDE 
ELEV        .FT                                             108 :ELEVATION VALUE
ELEV_TYPE   .                                                KB :ELEVATION REFERENCE TYPE
~Curve Information Section
#MNEM       .UNIT                                      API CODE :CURVE DESCRIPTION
#------------------------------------------------------------------------------
DEPT        .FT                                                 :DEPTH     
A28H_COND   .MMHO                                               :          
A28H_UNC    .OHMM                                               :          
AHT10       .OHMM                                               :          
AHT20       .OHMM                                               :          
AHT30       .OHMM                                               :          
AHT60       .OHMM                                               :          
AHT90       .OHMM                                               :          
DCAL        .IN                                                 :          
DPHZ        .V/V                                                :          
DRHO        .G/CC                                               :          
DTCO        .US/F                                               :          
DTSM        .US/F                                               :          
GR          .GAPI                                               :          
GR_ARC_FIL  .GAPI                                               :          
GR_NORM     .GAPI                                               :GammaRay Normalized
GR1         .GAPI                                               :          
GRM1        .GAPI                                               :          
NPOR        .V/V                                                :          
P28H_UNC    .OHMM                                               :          
ROP5        .F/HR                                               :          
ROP5_RM     .F/HR                                               :          
SP          .MV                                                 :          
TENS        .LB                                                 :          
VSH_GR      .V/V                                                :Volume of Shale from GR
~A        DEPTH      A28H_COND       A28H_UNC          AHT10          AHT20          AHT30          AHT60          AHT90           DCAL           DPHZ           DRHO           DTCO           DTSM             GR     GR_ARC_FIL        GR_NORM            GR1           GRM1           NPOR       P28H_UNC           ROP5        ROP5_RM             SP           TENS         VSH_GR
# ...
      8930.0000        -999.25        -999.25         0.5105         0.5051         0.5043         0.5004         0.4976         1.7566         0.2388         -0.003          133.6          362.6        64.4194        -999.25       81.29124           74.2         84.033         0.3998        -999.25          26.61        -999.25         2.3706           3188              1
      8930.5000        -999.25        -999.25         0.5042         0.5015         0.4998          0.496         0.4926          1.691         0.2406         -0.005            134          363.8        63.8553        -999.25       81.29124           71.5         84.033         0.3927        -999.25         25.444        -999.25         2.4023         3185.3              1
      8931.0000        -999.25        -999.25         0.4979         0.4967         0.4946         0.4904         0.4866         1.6871         0.2424         -0.005          134.4          364.2        63.9552        -999.25       81.29124           70.1         84.033         0.3921        -999.25         25.643        -999.25         2.2673         3180.8              1
      8931.5000        -999.25        -999.25         0.4957         0.4954          0.493         0.4887          0.484         1.7025         0.2466         -0.006          134.8          365.2        65.3449        -999.25       74.88625           73.6         78.909         0.4004        -999.25           26.2        -999.25         2.2989         3176.3      0.8911967
      8932.0000        -999.25        -999.25         0.4955         0.4927         0.4907         0.4859         0.4809         1.8183         0.2502         -0.006            135            366        67.0911        -999.25       83.85375           75.6         86.083         0.4057        -999.25         26.306        -999.25         2.3098         3171.8              1
      8932.5000        -999.25        -999.25         0.4923         0.4898         0.4878         0.4837         0.4778         1.8414         0.2538         -0.006          135.4          366.8        67.1176        -999.25       78.72875           74.7         81.983         0.4117        -999.25         26.803        -999.25         2.3206           3188      0.9729522
      8933.0000        -999.25        -999.25         0.4904         0.4852          0.484         0.4802         0.4748         1.8607         0.2514         -0.002          135.4          367.4         66.273        -999.25       82.57249           71.5         85.058         0.4188        -999.25         26.555        -999.25         2.2689           3188              1
      8933.5000        -999.25        -999.25         0.4867         0.4818         0.4804         0.4768         0.4716         1.8684         0.2496          0.002            135          367.8        63.9911        -999.25       87.69624           68.2         89.157         0.4404        -999.25          26.94        -999.25         2.0297           3188              1
      8934.0000        -999.25        -999.25         0.4833         0.4772         0.4761         0.4727         0.4686         1.8337         0.2454          0.007            135          367.8        63.6899        -999.25       86.41501             65         88.132         0.4416        -999.25         26.275        -999.25         2.0613           3188              1
      8934.5000        -999.25        -999.25         0.4789         0.4725         0.4715         0.4682         0.4654         1.7836         0.2454          0.012            135          367.8        63.7053        -999.25       84.36047           63.7         84.033          0.438        -999.25         27.254        -999.25         2.1555           3188              1
      8935.0000        -999.25        -999.25         0.4764         0.4726         0.4712         0.4691         0.4671         1.6948         0.2478          0.017          134.6          367.8        66.1121        -999.25       84.36047             68        -999.25         0.4356        -999.25         27.684        -999.25         2.2913           3170              1
      8935.5000        -999.25        -999.25         0.4744         0.4719         0.4699          0.467         0.4655         1.6678         0.2478          0.035          134.2            368        66.6131        -999.25       84.36047           73.7         84.033         0.4416        -999.25         27.536        -999.25         2.2813           3134              1
      8936.0000        -999.25        -999.25         0.4734         0.4707         0.4687          0.466         0.4642         1.7797         0.2466          0.052          133.8            368        67.9511        -999.25       84.36047           76.5         84.033         0.4566        -999.25         24.702        -999.25         2.2505           3134              1
      8936.5000        -999.25        -999.25         0.4724         0.4705         0.4687         0.4661         0.4639         1.7951         0.2454          0.071          133.6          367.4        68.4638        -999.25       82.57249           76.2         85.058         0.4644        -999.25         24.611        -999.25         2.3447           3134              1
      8937.0000        -999.25        -999.25         0.4738         0.4711         0.4699         0.4673         0.4643         1.8029         0.2478          0.101          133.4          366.6        70.9131        -999.25        90.2575             76         91.206         0.4428        -999.25         24.458        -999.25         2.3972           3134              1
      8937.5000        -999.25        -999.25         0.4753          0.473         0.4714         0.4692         0.4662         1.6485         0.2496          0.102          133.2          365.4        72.3299        -999.25       82.57249           76.5         85.058         0.4123        -999.25         23.972        -999.25         2.5121           3152              1
      8938.0000        -999.25        -999.25         0.4737         0.4711         0.4694         0.4686         0.4644          1.579          0.252          0.104          132.6            363        74.4548        -999.25       77.44875           78.2         80.959         0.4117        -999.25         23.491        -999.25         2.2938           3152       0.945718
      8938.5000        -999.25        -999.25         0.4725         0.4702         0.4681         0.4679          0.464         1.4864         0.2526         0.1071          132.2            361        75.8456        -999.25       78.72875             80         81.983           0.42        -999.25         23.368        -999.25         2.4921           3170      0.9729522
      8939.0000        -999.25        -999.25         0.4745         0.4726         0.4712         0.4705         0.4678          1.444         0.2526         0.1091          132.2          360.2        76.4231        -999.25       87.69624           79.9         89.157         0.4356        -999.25         23.263        -999.25         2.3154           3206              1
      8939.5000        -999.25        -999.25         0.4765         0.4749          0.474         0.4724          0.469         1.4015         0.2562         0.1121          132.2        359.802        73.8401        -999.25       83.85375           77.7         86.083         0.4368        -999.25         22.362        -999.25         2.7012           3242              1
      8940.0000        -999.25        -999.25         0.4781          0.477         0.4758         0.4746         0.4709         1.3629         0.2544         0.1131          132.4          360.2        70.3363        -999.25       82.57249           74.5         85.058         0.4356        -999.25         21.539        -999.25         2.5246           3224              1
      8940.5000        -999.25        -999.25         0.4789         0.4785         0.4774         0.4765         0.4725         1.2935         0.2502         0.1091       132.7952       362.3991        68.3219        -999.25       86.41501           72.9         88.132          0.417        -999.25         21.668        -999.25         2.3271           3224              1
