#------------------------------------------------------------------------------
# Created by    : vladimir.rabinovich
# Created on    : 09/19/2023 17:20:18
#------------------------------------------------------------------------------
~Version Information Section
VERS.           2.0     :   CWLS log ASCII Standard - VERSION 2.0
WRAP.           NO      :   One line per depth step
~Well Information Section
#MNEM       .UNIT                                         VALUE :DESCRIPTION
#------------------------------------------------------------------------------
STRT        .FT                                             780 :START DEPTH
STOP        .FT                                            9803 :STOP DEPTH
STEP        .FT                                             0.5 :STEP      
NULL        .                                           -999.25 :NULL      
COMP        .                                  SAMEDAN OIL CORP :COMPANY   
WELL        .                               OCS G04076 ST00BP00 :WELL      
FLD         .                            HIGH ISLAND BLOCK 0105 :FIELD     
LOC         .                                                   :LOCATION  
CNTY        .                           HIGH ISLAND LARGE BLOCK :LOCATION  
STAT        .                                             TEXAS :STATE     
CTRY        .                                     UNITED STATES :COUNTRY   
SRVC        .                                                   :SERVICE COMPANY
DATE        .                             9/13/2023 11:19:59 AM :LOG DATE  
API         .                                    42708401630000 :API NUMBER
UWI         .                                    42708401630000 :UNIQUE WELL ID
XCOORD      .                                  1167393.84075462 :SURFACE X 
YCOORD      .                                  10652000.2522841 :SURFACE Y 
LAT         .                                        29.3430877 :LATITUDE  
LON         .                                       -94.4850788 :LONGITUDE 
ELEV        .FT                                              87 :ELEVATION VALUE
ELEV_TYPE   .                                                KB :ELEVATION REFERENCE TYPE
~Curve Information Section
#MNEM       .UNIT                                      API CODE :CURVE DESCRIPTION
#------------------------------------------------------------------------------
DEPT        .FT                                                 :DEPTH     
ASFL        .OHMM                                               :          
CILD        .MMHO                                               :          
DT          .US/F                                               :          
GR          .GAPI                                               :          
GR_1        .GAPI                                               :          
GR_NORM     .GAPI                                               :GammaRay Normalized
ILD         .OHMM                                               :          
SP          .MV                                                 :          
SP_NORM     .MV                                                 :SP Normalized
VSH_GR      .V/V                                                :Volume of Shale from GR
VSH_SP      .V/V                                                :Volume of Shale from SP
~A        DEPTH           ASFL           CILD             DT             GR           GR_1        GR_NORM            ILD             SP        SP_NORM         VSH_GR         VSH_SP
# ...
      6787.5000         0.5299       5923.203        -999.25        -999.25        35.5903       38.07133         0.2136      -152.3481      -72.89919      0.1079006     0.02838929
      6788.0000         0.5273       5906.734        -999.25        -999.25         36.051       38.62006         0.2085      -152.4883      -73.04704      0.1195758     0.02639131
      6788.5000         0.5213       5869.547        -999.25        -999.25        37.0068        39.7537         0.2035      -152.2742      -72.84061      0.1436957     0.02918099
      6789.0000         0.5153       5778.727        -999.25        -999.25         37.954       40.87717         0.1984      -151.9592      -72.53326      0.1675995     0.03333437
      6789.5000         0.5092       5666.281        -999.25        -999.25           38.9       41.99924         0.1934      -150.9795      -71.56123      0.1914733     0.04646992
      6790.0000         0.5032       5469.172        -999.25        -999.25        39.8209       43.09165         0.1894      -149.8831      -70.47247      0.2147159      0.0611828
      6790.5000          0.502       5234.492        -999.25        -999.25         40.511        43.9114         0.1867      -148.8232      -69.42023      0.2321574     0.07540233
      6791.0000         0.5069       5158.742        -999.25        -999.25        38.0629        41.0237          0.184       -147.854      -68.45869       0.170717     0.08839612
      6791.5000         0.5189       5123.172        -999.25        -999.25         36.778        39.5102         0.1814      -147.3616      -67.97395      0.1385149     0.09494668
      6792.0000         0.5309       5087.641        -999.25        -999.25        35.7108       38.25388         0.1787      -147.2715       -67.8915      0.1117847     0.09606078
      6792.5000         0.5429       5089.383        -999.25        -999.25        34.8229        37.2094         0.1795      -147.5408      -68.16846     0.08956171     0.09231815
      6793.0000         0.5549       5099.141        -999.25        -999.25        34.1321       36.39776         0.1853      -147.8098      -68.44511     0.07229273     0.08857954
      6793.5000         0.5687       5108.906        -999.25        -999.25        33.5306       35.69162         0.1911      -148.0786      -68.72157     0.05726859     0.08484371
      6794.0000         0.5825       5133.789        -999.25        -999.25        33.0773       35.16056          0.197      -148.2397      -68.89033     0.04596929     0.08256314
      6794.5000         0.5963       5163.781        -999.25        -999.25        32.8668       34.91635         0.2028      -148.2256      -68.88388     0.04077343     0.08265026
      6795.0000         0.6102       5193.805        -999.25        -999.25        32.6559       34.67166         0.2086      -148.2112      -68.87714     0.03556727      0.0827414
      6795.5000         0.6366       5223.797        -999.25        -999.25        32.4011       34.37511         0.2144      -148.1343      -68.80788     0.02925767     0.08367724
      6796.0000         0.6659        5253.82        -999.25        -999.25        32.0114       33.91919          0.227      -147.5959      -68.27715      0.0195573     0.09084928
      6796.5000         0.6913       5213.742        -999.25        -999.25        31.6216       33.46314         0.2488      -147.0574      -67.74632    0.009854093     0.09802277
      6797.0000         0.7095       5130.164        -999.25        -999.25        30.7802        32.4736         0.2707      -145.9451      -66.64166              0      0.1129505
      6797.5000         0.7277       4955.375        -999.25        -999.25        29.6397       31.13069         0.2925      -143.9453      -64.64952              0      0.1398713
      6798.0000         0.7459       4817.578        -999.25        -999.25        29.6972       31.20309         0.3419      -137.5522      -58.26408              0      0.2261611
      6798.5000         0.7704       4520.461        -999.25        -999.25        31.5867       33.43978         0.4023      -125.8776      -46.59714    0.009357046      0.3838225
      6799.0000         0.7967       4342.734        -999.25        -999.25        36.1097       38.78767         0.4628      -118.9119      -39.63909       0.123142      0.4778501
      6799.5000         0.8403       4183.703        -999.25        -999.25         39.551       42.85765         0.5659      -108.0839      -28.81875      0.2097373      0.6240709
      6800.0000         0.9385       1462.338        -999.25        -999.25        68.3832       76.92415         0.6712      -103.4286       -24.1711      0.9345564      0.6868771
      6800.5000         0.9759       1324.348        -999.25        -999.25        69.1896       77.88131         0.7993      -100.0608      -20.81096      0.9549215      0.7322844
      6801.0000         0.9982       1278.398        -999.25        -999.25         70.045       78.89632         0.9283       -99.2053      -19.96312      0.9765176      0.7437416
      6801.5000         1.0157        1238.91        -999.25        -999.25        69.6608        78.4469         0.9344       -98.3732      -19.13867      0.9669553      0.7548828
      6802.0000          0.965        1187.48        -999.25        -999.25        67.9548       76.43592         0.8801       -99.2531      -20.02623      0.9241685      0.7428888
      6802.5000          0.869       1135.221        -999.25        -999.25         65.101       73.06894         0.8085      -101.2968      -22.07758      0.8525306      0.7151678
      6803.0000         0.8329       1212.975        -999.25        -999.25        64.1085       71.90088         0.7265      -105.5629      -26.35134      0.8276783      0.6574143
      6803.5000         0.7731       1358.209        -999.25        -999.25        62.9705       70.56092         0.6444      -108.8181       -29.6142      0.7991685      0.6133217
      6804.0000          0.726       1497.766        -999.25        -999.25        61.2559       68.53978         0.5623      -113.1208      -33.92455      0.7561655      0.5550736
      6804.5000         0.6891       1859.871        -999.25        -999.25        59.8878       66.92799         0.4745      -119.4307      -40.24211       0.721872      0.4697012
      6805.0000         0.6454       2036.813        -999.25        -999.25        58.8365       65.69046          0.392      -126.7808      -47.59987      0.6955417       0.370272
      6805.5000         0.6093       2173.629        -999.25        -999.25        57.8391       64.51662         0.3677      -129.1133      -49.94003      0.6705663      0.3386483
      6806.0000         0.5776       3470.063        -999.25        -999.25        56.0793       62.44208         0.3435      -128.7461      -49.58047      0.6264272      0.3435071
      6806.5000         0.5511        3591.32        -999.25        -999.25        53.7878       59.73937         0.3199       -127.444      -48.28604      0.5689228      0.3609994
      6807.0000         0.5283       3653.613        -999.25        -999.25        54.4542       60.53113         0.2987      -126.1418      -46.99149      0.5857688      0.3784933
      6807.5000         0.5087       3618.574        -999.25        -999.25        55.1212       61.32358         0.2775      -124.7761      -45.63345      0.6026293      0.3968452
      6808.0000         0.4958       3585.938        -999.25        -999.25        55.7881       62.11592         0.2562      -122.5317      -43.39671      0.6194877      0.4270715
      6808.5000         0.4833       3562.426        -999.25        -999.25        55.9423       62.30256         0.2502      -119.8247      -40.69736      0.6234586      0.4635491
      6809.0000         0.4968       3614.316        -999.25        -999.25        55.4827       61.76405         0.2592      -117.0762      -37.95652       0.612001      0.5005876
      6809.5000         0.5103       3705.727        -999.25        -999.25         53.321       59.21471         0.2646      -117.8716      -38.75957      0.5577597      0.4897355
