#------------------------------------------------------------------------------
# Created by    : vladimir.rabinovich
# Created on    : 09/19/2023 17:21:45
#------------------------------------------------------------------------------
~Version Information Section
VERS.           2.0     :   CWLS log ASCII Standard - VERSION 2.0
WRAP.           NO      :   One line per depth step
~Well Information Section
#MNEM       .UNIT                                         VALUE :DESCRIPTION
#------------------------------------------------------------------------------
STRT        .FT                                            4296 :START DEPTH
STOP        .FT                                         10848.5 :STOP DEPTH
STEP        .FT                                             0.5 :STEP      
NULL        .                                           -999.25 :NULL      
COMP        .                                 CHEVRON U S A INC :COMPANY   
WELL        .                               OCS G07271 ST00BP00 :WELL      
FLD         .                                           WILDCAT :FIELD     
LOC         .                                                   :LOCATION  
CNTY        .                           HIGH ISLAND LARGE BLOCK :LOCATION  
STAT        .                                             TEXAS :STATE     
CTRY        .                                     UNITED STATES :COUNTRY   
SRVC        .                                                   :SERVICE COMPANY
DATE        .                             9/13/2023 11:19:59 AM :LOG DATE  
API         .                                    42708403180000 :API NUMBER
UWI         .                                    42708403180000 :UNIQUE WELL ID
XCOORD      .                                  1325118.04890174 :SURFACE X 
YCOORD      .                                  10672078.9744079 :SURFACE Y 
LAT         .                                          29.40291 :LATITUDE  
LON         .                                        -93.990507 :LONGITUDE 
ELEV        .FT                                              89 :ELEVATION VALUE
ELEV_TYPE   .                                                KB :ELEVATION REFERENCE TYPE
~Curve Information Section
#MNEM       .UNIT                                      API CODE :CURVE DESCRIPTION
#------------------------------------------------------------------------------
DEPT        .FT                                                 :DEPTH     
CALI        .IN                                                 :          
DRHO        .G/C3                                               :          
DTLN        .US/F                                               :          
GR          .GAPI                                               :          
GR_1        .GAPI                                               :          
GR_NORM     .GAPI                                               :GammaRay Normalized
ILD         .OHMM                                               :          
ILM         .OHMM                                               :          
NPHI        .%                                                  :          
RHOB        .G/C3                                               :          
SFL         .OHMM                                               :          
SP          .MV                                                 :          
SP_NORM     .MV                                                 :SP Normalized
VSH_GR      .V/V                                                :Volume of Shale from GR
VSH_SP      .V/V                                                :Volume of Shale from SP
~A        DEPTH           CALI           DRHO           DTLN             GR           GR_1        GR_NORM            ILD            ILM           NPHI           RHOB            SFL             SP        SP_NORM         VSH_GR         VSH_SP
# ...
      7883.0000        15.3073        -0.0159       102.4915        43.4553        58.9173        73.8798         0.4857         0.5748        38.5037         2.2321          0.651       -53.8547      -17.46931       0.869783      0.7504385
      7883.5000        15.4102        -0.0198       102.6614        40.3912        53.5624       67.26881         0.4942         0.5903        35.8892         2.2325         0.6976       -56.7656      -20.38126      0.7291237      0.7088391
      7884.0000        15.3757        -0.0235       103.1145         39.103         51.073       64.19548         0.4991         0.6018        33.4286         2.2382         0.7447       -58.9365      -22.55322      0.6637336      0.6778111
      7884.5000        15.2766        -0.0274        104.136        38.8795        51.9126       65.23203         0.4987         0.6055        32.6995         2.2768         0.7853       -61.1897      -24.80747      0.6857878      0.6456075
      7885.0000        15.3365        -0.0335       105.5308        38.6537        51.4614       64.67499         0.4927         0.6013        32.4856         2.3153         0.8139       -63.5662      -27.18503      0.6739359      0.6116425
      7885.5000        15.3695        -0.0394       106.9242        38.3068        47.9025       60.28128         0.4771         0.5911        32.6836         2.3452         0.8304       -66.4807      -30.10058      0.5804527      0.5699917
      7886.0000        15.3559        -0.0452       107.5688          37.77        46.0217        57.9593         0.4489         0.5665        32.8816         2.3493         0.8311       -70.1427      -33.76364       0.531049      0.5176623
      7886.5000        15.3054        -0.0466       106.9613        37.2512        45.8486        57.7456         0.4274         0.5385        33.0125          2.323         0.8188       -73.3562       -36.9782      0.5265021      0.4717401
      7887.0000        15.2854         -0.044       105.7513        36.8794        45.7906       57.67399          0.413         0.5145        33.1416         2.2773         0.7829        -75.869      -39.49205      0.5249786      0.4358279
      7887.5000        15.2709        -0.0362       104.7496         36.753        44.2687        55.7951          0.408         0.4977        32.6707         2.2505         0.7252       -77.2048      -40.82891      0.4850022      0.4167299
      7888.0000        15.2626        -0.0269       104.4044        37.0943        41.4756       52.34683           0.41         0.4966        32.1236         2.2387         0.6865       -76.6846      -40.30976      0.4116347      0.4241463
      7888.5000        15.2783        -0.0209       104.1962        37.8578        39.9045        50.4072         0.4165         0.5061        32.3405         2.2621          0.681       -75.7551      -39.38131      0.3703659      0.4374099
      7889.0000        15.3347        -0.0169       103.9175         39.122        41.5543       52.44399         0.4309         0.5242        33.2051         2.2876         0.6833       -74.2847      -37.91197      0.4137019      0.4584005
      7889.5000        15.4082        -0.0194       103.7312        40.5009        44.8587        56.5235         0.4537         0.5508        33.8187          2.298         0.6827       -71.8839      -35.51223         0.5005      0.4926825
      7890.0000        15.4743        -0.0274       103.6008        41.6109        48.7336       61.30733         0.4771         0.5791        33.1192         2.3139          0.675       -69.3392      -32.96858      0.6022837      0.5290202
      7890.5000        15.4745        -0.0341       103.6274        41.0638        50.3931        63.3561         0.4984         0.5999        32.7763         2.3341         0.6753       -67.0618      -30.69223      0.6458745      0.5615395
      7891.0000        15.4747        -0.0383       103.7129        40.1733        50.9291       64.01782         0.5169         0.6163         33.305         2.3442         0.6814       -65.2402      -28.87169      0.6599537      0.5875474
      7891.5000        15.5466        -0.0381       104.0101        39.5632        51.5377       64.76917         0.5269         0.6188         34.348         2.3471         0.6902        -64.428      -28.06055      0.6759399       0.599135
      7892.0000        15.5632        -0.0382       104.3793          40.02        52.4583       65.90572         0.5172         0.6151        35.6627         2.3368         0.6855        -64.137       -27.7706      0.7001218      0.6032771
      7892.5000        15.5201        -0.0408       104.6443         40.496        52.4314       65.87251         0.4968            0.6        35.6871         2.3218         0.6648       -64.8347      -28.46936      0.6994151      0.5932949
      7893.0000        15.4767        -0.0417       105.2146         40.512        50.9513       64.04523         0.4664         0.5766        35.1179         2.3179         0.6407       -66.3873      -30.02301      0.6605368      0.5710999
      7893.5000        15.4912        -0.0408       105.7709        39.8656        50.4767        63.4593         0.4349         0.5504        34.1896          2.317         0.6367       -69.1039      -32.74066      0.6480702      0.5322763
      7894.0000        15.5074         -0.034       105.7889        38.3685        51.3176       64.49746         0.4087         0.5243        34.0685         2.3191         0.6773       -72.4668      -36.10462      0.6701587      0.4842197
      7894.5000        15.5027        -0.0298       105.5059        36.5599        52.6993       66.20325         0.3845         0.4993        34.4539         2.3103         0.6926       -76.0242      -39.66308      0.7064523      0.4333846
      7895.0000         15.448        -0.0273       105.2249        34.3877        52.3779       65.80646         0.3666         0.4755        34.8451         2.2812          0.697       -79.1218      -42.76173      0.6980097      0.3891181
      7895.5000        15.2708        -0.0318       105.1997        32.1831        51.8235       65.12202         0.3628         0.4631        35.2026         2.2448         0.7041       -80.2035      -43.84449      0.6834472      0.3736502
      7896.0000        15.1548        -0.0378       105.9312         33.197        51.2039       64.35708         0.3732          0.466        35.3079         2.2174         0.7136       -79.7159      -43.35794      0.6671719      0.3806009
      7896.5000        15.0915        -0.0414       105.8667        36.3109        49.9555       62.81584         0.3951          0.482        35.1534         2.2149         0.7203       -76.6818       -40.3249      0.6343796        0.42393
      7897.0000        15.1142        -0.0433       105.1415        39.6788        48.2959       60.76696         0.4284         0.5126        34.4857         2.2327          0.688       -73.1171      -36.76126      0.5907863      0.4748392
      7897.5000        15.1812        -0.0389        104.281        42.2944        46.2921       58.29313         0.4642         0.5521        33.1222         2.2572         0.6543       -68.3939       -32.0391      0.5381517      0.5422985
      7898.0000        15.3047        -0.0316       103.4152        42.6519        46.3105       58.31585         0.5008         0.5976        32.3005         2.2919         0.6519       -63.9511      -27.59736      0.5386351       0.605752
      7898.5000        15.5789        -0.0207       102.8309        39.7684        49.5941       62.36967         0.5314         0.6308        31.9569         2.3301         0.6795       -60.5209      -24.16822      0.6248866      0.6547397
      7899.0000        15.7886        -0.0133       102.9713        37.3322        50.7312        63.7735          0.556         0.6498        32.0707         2.3414         0.7129        -59.386      -23.03437      0.6547553      0.6709375
      7899.5000         15.871        -0.0172       103.6661        36.2442        50.1559       63.06325         0.5682         0.6576        32.4216         2.3361         0.7347        -59.454      -23.10343      0.6396437       0.669951
