#------------------------------------------------------------------------------
# Created by    : vladimir.rabinovich
# Created on    : 09/19/2023 17:19:49
#------------------------------------------------------------------------------
~Version Information Section
VERS.           2.0     :   CWLS log ASCII Standard - VERSION 2.0
WRAP.           NO      :   One line per depth step
~Well Information Section
#MNEM       .UNIT                                         VALUE :DESCRIPTION
#------------------------------------------------------------------------------
STRT        .FT                                             790 :START DEPTH
STOP        .FT                                           12500 :STOP DEPTH
STEP        .FT                                             0.5 :STEP      
NULL        .                                           -999.25 :NULL      
COMP        .                                 CHEVRON U S A INC :COMPANY   
WELL        .                               OCS G04596 ST00BP00 :WELL      
FLD         .                                           WILDCAT :FIELD     
LOC         .                                                   :LOCATION  
CNTY        .                        MUSTANG ISLAND LARGE BLOCK :LOCATION  
STAT        .                                             TEXAS :STATE     
CTRY        .                                     UNITED STATES :COUNTRY   
SRVC        .                                                   :SERVICE COMPANY
DATE        .                             9/13/2023 11:19:13 AM :LOG DATE  
API         .                                    42702401310000 :API NUMBER
UWI         .                                    42702401310000 :UNIQUE WELL ID
XCOORD      .                                  486632.184756912 :SURFACE X 
YCOORD      .                                  10088502.2555927 :SURFACE Y 
LAT         .                                          27.75488 :LATITUDE  
LON         .                                        -96.567316 :LONGITUDE 
ELEV        .FT                                              90 :ELEVATION VALUE
ELEV_TYPE   .                                                KB :ELEVATION REFERENCE TYPE
~Curve Information Section
#MNEM       .UNIT                                      API CODE :CURVE DESCRIPTION
#------------------------------------------------------------------------------
DEPT        .FT                                                 :DEPTH     
ASFL        .OHMM                                               :          
CILD        .MMHO                                               :          
GR          .GAPI                                               :          
GR_NORM     .GAPI                                               :GammaRay Normalized
ILD         .OHMM                                               :          
SP          .MV                                                 :          
SP_NORM     .MV                                                 :SP Normalized
VSH_GR      .V/V                                                :Volume of Shale from GR
VSH_SP      .V/V                                                :Volume of Shale from SP
~A        DEPTH           ASFL           CILD             GR        GR_NORM            ILD             SP        SP_NORM         VSH_GR         VSH_SP
# ...
     11708.0000         0.6594       1919.186        53.9017       80.25699         0.5511       -39.8612      -1.264709              1      0.9945978
     11708.5000         0.6435       1966.607        54.4102       80.76669         0.5393       -39.8574       -1.26091              1      0.9946753
     11709.0000         0.6291       2014.229        55.3292        81.6869         0.5276       -39.8529      -1.256413              1      0.9947671
     11709.5000         0.6238       2053.879        53.5267       79.88562         0.5171       -39.8481       -1.25161      0.9975664      0.9948651
     11710.0000         0.6295       2092.152        52.7572       79.11733         0.5135       -39.8433      -1.246811      0.9812198       0.994963
     11710.5000         0.6354       2115.223        52.5472       78.90854         0.5098       -39.8384      -1.241913      0.9767774       0.995063
     11711.0000         0.6414       2099.012         52.594       78.95656         0.5062       -39.8336       -1.23711      0.9777991       0.995161
     11711.5000         0.6472       2082.805        52.6408       79.00457         0.5026       -39.8287      -1.232212      0.9788206       0.995261
     11712.0000         0.6507       2066.594        52.6876       79.05258         0.4989       -39.8239      -1.227409      0.9798422       0.995359
     11712.5000         0.6511       2050.383        52.9042       79.27039         0.4988       -39.8097      -1.213211      0.9844764      0.9956487
     11713.0000         0.6422       2034.176        53.3858        79.7532         0.5001       -39.7829      -1.186413       0.994749      0.9961957
     11713.5000         0.6333       2023.133        53.9286       80.29721         0.5014       -39.7562       -1.15971              1      0.9967406
     11714.0000         0.6243       2048.418        54.7055       81.07533         0.5027       -39.7294      -1.132912              1      0.9972875
     11714.5000         0.6154       2073.703        54.8611       81.23214          0.504       -39.7026       -1.10611              1      0.9978345
     11715.0000          0.608       2100.512        52.6359       79.00815         0.5053       -39.6758      -1.079311      0.9788968      0.9983814
     11715.5000         0.6034       2133.426        50.9081       77.28156         0.5066        -39.649      -1.052509      0.9421609      0.9989284
     11716.0000         0.6099       2166.336        49.4623       75.83698         0.5079       -39.6223       -1.02581       0.911425      0.9994733
     11716.5000         0.6163       2196.492        49.0383       75.41418         0.5092       -39.5955      -0.999012      0.9024295              1
     11717.0000         0.6228       2211.348        49.5297        75.9068         0.5106       -39.5734     -0.9769096      0.9129106              1
     11717.5000         0.6292       2194.891         50.021       76.39931          0.512       -39.5522     -0.9557114      0.9233895              1
     11718.0000         0.6333       2178.438        50.5124       76.89192         0.5134       -39.5311     -0.9346123      0.9338707              1
     11718.5000         0.6363        2161.98        51.0037       77.38443         0.5148         -39.51     -0.9135094      0.9443496              1
     11719.0000         0.6394         2145.5        51.4951       77.87704         0.5162       -39.4889     -0.8924103      0.9548308              1
     11719.5000         0.6424       2129.047        51.9865       78.36966         0.5176       -39.4678     -0.8713112      0.9653119              1
     11720.0000         0.6454        2112.59        51.3616       77.74597          0.519       -39.4467     -0.8502121      0.9520419              1
     11720.5000         0.6485       2096.996        51.5515       77.93708         0.5204       -39.4578     -0.8613129      0.9561081              1
     11721.0000         0.6478       2081.574        52.1384       78.52519         0.5217       -39.4902     -0.8937111      0.9686211              1
     11721.5000         0.6462       2066.125        52.7266       79.11461          0.523       -39.5225     -0.9260101      0.9811619              1
     11722.0000         0.6445        2050.68        53.3135       79.70271         0.5243       -39.5549     -0.9584122      0.9936748              1
     11722.5000         0.6429       2036.758        53.9017       80.29213         0.5256       -39.5873     -0.9908104              1              1
     11723.0000         0.6412       2024.055        54.1979       80.58954         0.5269       -39.6196      -1.023109              1      0.9995284
     11723.5000         0.6406       2030.389        54.1377       80.53055         0.5282        -39.652      -1.055511              1      0.9988671
     11724.0000          0.641       2036.723        54.0775       80.47157         0.5279       -39.6813      -1.084812              1      0.9982691
     11724.5000         0.6414       2043.055        53.9924       80.38768         0.5274       -39.6984       -1.10191              1      0.9979202
     11725.0000         0.6418       2049.055        53.7546       80.15109         0.5269       -39.7154      -1.118912              1      0.9975733
     11725.5000         0.6484       2054.395        53.5169        79.9146         0.5264       -39.7324       -1.13591      0.9981829      0.9972263
     11726.0000         0.6566       2046.377        53.1524       79.55132         0.5259       -39.7494      -1.152912      0.9904535      0.9968793
     11726.5000         0.6649       2028.961        52.7596       79.15973         0.5254       -39.7664       -1.16991      0.9821219      0.9965324
     11727.0000         0.6732       2011.547         53.126       79.52734         0.5249       -39.7834      -1.186913      0.9899433      0.9961855
     11727.5000         0.6815       1994.133        54.2043       80.60685         0.5244       -39.8004      -1.203911              1      0.9958386
     11728.0000         0.6885       1976.717        55.2827       81.68646         0.5243       -39.8174      -1.220913              1      0.9954916
     11728.5000         0.6907       1959.031         56.361       82.76598         0.5248       -39.8344      -1.237911              1      0.9951447
     11729.0000          0.693       1940.928         57.014       83.42018         0.5252        -39.847      -1.250511              1      0.9948875
     11729.5000         0.6948       1922.775        56.2274        82.6348         0.5257       -39.8572      -1.260712              1      0.9946793
     11730.0000         0.6918       1904.998        55.4395       81.84811         0.5261       -39.8673      -1.270809              1      0.9944733
     11730.5000         0.6889       1901.357        54.4984       80.90822         0.5266       -39.8775       -1.28101              1      0.9942651
     11731.0000         0.6859       1899.568        53.4495       79.86053         0.5271       -39.8876      -1.291111      0.9970326       0.994059
     11731.5000         0.6826       1902.852        52.3516       78.76384         0.5275       -39.8978      -1.301311      0.9736987      0.9938508
     11732.0000         0.6788       1906.129         51.141       77.55446         0.5277        -39.908      -1.311512      0.9479672      0.9936426
     11732.5000          0.675       1909.414        50.8334       77.24806         0.5277       -39.9182      -1.321712      0.9414482      0.9934344
     11733.0000         0.6704       1927.793        52.4252       78.84108         0.5276       -39.9283       -1.33181      0.9753421      0.9932284
     11733.5000         0.6629       1950.324        54.4298       80.84689         0.5276       -39.9385       -1.34201              1      0.9930202
     11734.0000         0.6554       1977.922        54.8807         81.299         0.5275       -39.9486      -1.352112              1      0.9928141
