#------------------------------------------------------------------------------
# Created by    : vladimir.rabinovich
# Created on    : 09/19/2023 17:20:01
#------------------------------------------------------------------------------
~Version Information Section
VERS.           2.0     :   CWLS log ASCII Standard - VERSION 2.0
WRAP.           NO      :   One line per depth step
~Well Information Section
#MNEM       .UNIT                                         VALUE :DESCRIPTION
#------------------------------------------------------------------------------
STRT        .FT                                            3530 :START DEPTH
STOP        .FT                                           11780 :STOP DEPTH
STEP        .FT                                             0.5 :STEP      
NULL        .                                           -999.25 :NULL      
COMP        .                                        TEXACO INC :COMPANY   
WELL        .                                     ST TR 00820-L :WELL      
FLD         .                                           WILDCAT :FIELD     
LOC         .                                                   :LOCATION  
CNTY        .                        MUSTANG ISLAND LARGE BLOCK :LOCATION  
STAT        .                                             TEXAS :STATE     
CTRY        .                                     UNITED STATES :COUNTRY   
SRVC        .                                                   :SERVICE COMPANY
DATE        .                             9/13/2023 11:18:55 AM :LOG DATE  
API         .                                    42702302010000 :API NUMBER
UWI         .                                    42702302010000 :UNIQUE WELL ID
XCOORD      .                                  295719.314319733 :SURFACE X 
YCOORD      .                                  9994218.17259751 :SURFACE Y 
LAT         .                                        27.4796405 :LATITUDE  
LON         .                                       -97.1466422 :LONGITUDE 
ELEV        .FT                                              78 :ELEVATION VALUE
ELEV_TYPE   .                                                KB :ELEVATION REFERENCE TYPE
~Curve Information Section
#MNEM       .UNIT                                      API CODE :CURVE DESCRIPTION
#------------------------------------------------------------------------------
DEPT        .FT                                                 :DEPTH     
ASFL        .OHMM                                               :          
CILD        .MMHO                                               :          
GR          .GAPI                                               :          
GR_NORM     .GAPI                                               :GammaRay Normalized
ILD         .OHMM                                               :          
SP          .MV                                                 :          
SP_NORM     .MV                                                 :SP Normalized
VSH_GR      .V/V                                                :Volume of Shale from GR
VSH_SP      .V/V                                                :Volume of Shale from SP
~A        DEPTH           ASFL           CILD             GR        GR_NORM            ILD             SP        SP_NORM         VSH_GR         VSH_SP
# ...
      4616.5000         1.9558       1702.904        28.7787       35.47174         0.6204      -128.5435      -71.23357     0.05259031      0.1109675
      4617.0000         1.7519       1784.293        29.4207       36.29105         0.5519      -129.4014      -72.09146     0.07002234      0.1001081
      4617.5000          1.707       1865.633         30.062       37.10946         0.4831      -130.3386      -73.02866     0.08743522     0.08824486
      4618.0000         1.6622       3714.625        30.7034       37.92797         0.4142      -131.0508      -73.74086      0.1048505     0.07922962
      4618.5000         1.0561        3808.41        31.3447       38.74639         0.3454      -130.5671      -73.25716      0.1222636     0.08535245
      4619.0000         1.0196       3855.352        31.9861       39.56491         0.2887      -130.0833      -72.77336       0.139679     0.09147644
      4619.5000         0.9831       3902.293         32.628       40.38409         0.2396      -130.3557      -73.04576      0.1571083     0.08802834
      4620.0000         0.9582         4012.5        33.0254        40.8901         0.2177      -130.6467      -73.33676      0.1678744     0.08434479
      4620.5000         0.9386       4411.867        33.3055       41.24588         0.2206       -130.938      -73.62807      0.1754442     0.08065738
      4621.0000         0.9711       4350.227        33.5861       41.60229         0.2526       -131.229      -73.91907      0.1830274     0.07697383
      4621.5000         1.0169       4288.578        33.8665       41.95845         0.2847      -131.7288      -74.41887      0.1906052     0.07064722
      4622.0000         1.0726        3922.75        33.9429       42.05331         0.3167      -132.4075      -75.09756      0.1926237     0.06205614
      4622.5000         1.1336       3591.734        33.5876       41.59525         0.3488      -133.0869      -75.77696      0.1828777     0.05345617
      4623.0000          1.197       3498.047        33.2325       41.13744         0.3808      -133.7664      -76.45647      0.1731371     0.04485485
      4623.5000         1.2635        2951.02        32.8772       40.67938         0.4121      -134.4456      -77.13567      0.1633911     0.03625739
      4624.0000         1.3687       2591.949        32.5436       40.24911         0.4339      -135.3381      -78.02817      0.1542364      0.0249599
      4624.5000         1.5153       2302.656        32.2205        39.8323         0.4557      -134.2039      -76.89397      0.1453681     0.03931688
      4625.0000         1.9356       2128.121        31.8971        39.4151         0.4775      -133.0696      -75.75966      0.1364914      0.0536752
      4625.5000          1.966       2016.697        32.4936       40.17611         0.4993      -131.9368      -74.62686      0.1526833     0.06801441
      4626.0000         2.0824       1905.174        33.5848       41.57076         0.5211      -129.8708      -72.56087      0.1823567     0.09416623
      4626.5000         1.9895       1831.773        34.6754       42.96464         0.5429      -126.0856      -68.77567      0.2120136      0.1420802
      4627.0000         1.9169       1786.791        35.7666       44.35929         0.5617         -122.3      -64.99007       0.241687      0.1899992
      4627.5000         1.8443       1741.762        36.8572       45.75316          0.575      -116.7422      -59.43226      0.2713439      0.2603511
      4628.0000         1.7038       1648.613        38.2915       47.58726         0.5883      -110.2023      -52.89236      0.3103672      0.3431347
      4628.5000         1.6081        1553.26        39.9166       49.66573         0.6017      -104.6787      -47.36876      0.3545901      0.4130536
      4629.0000         1.6209       1481.623        40.7387       50.71571          0.615       -93.2365      -35.92656        0.37693      0.5578916
      4629.5000         1.6475        1413.76        40.1885       50.00802         0.6436       -92.5343      -35.22436      0.3618727      0.5667802
      4630.0000         1.9353       1345.846         39.468        49.0822         0.6823       -95.7993      -38.48936      0.3421744      0.5254511
      4630.5000          1.975       1289.104        38.7377       48.14383         0.7227       -99.0668      -41.75686      0.3222091      0.4840904
      4631.0000         1.8656       1263.967        38.0073       47.20533         0.7451      -102.3319      -45.02196      0.3022411        0.44276
      4631.5000         1.6189       1476.332        38.3486       47.63949         0.6401      -105.9308      -48.62086      0.3114785      0.3972043
      4632.0000         1.3045       1647.143        39.9927        49.7423         0.5638      -109.8881      -52.57816      0.3562192      0.3471119
      4632.5000         1.1455       1848.924        42.3961       52.81764         0.5073      -113.1034      -55.79346      0.4216519      0.3064119
      4633.0000         1.0663       2034.729        44.6375       55.68549         0.4508      -112.3025      -54.99256        0.48267      0.3165499
      4633.5000         1.0081        2220.73        45.3898       56.64606         0.3944      -111.5016      -54.19166      0.5031078      0.3266878
      4634.0000         0.9708        2406.73        46.1417       57.60613           0.37      -110.7013      -53.39136      0.5235347      0.3368182
      4634.5000         0.9543       2591.461        47.7416       59.65233           0.38      -109.9003      -52.59036      0.5670709      0.3469575
      4635.0000         0.9603       2681.031        49.3864       61.75603         0.3952      -108.6311      -51.32116      0.6118305      0.3630233
      4635.5000          0.996       2545.301        51.0484       63.88177          0.411      -106.9041      -49.59416       0.657059      0.3848841
      4636.0000         1.0331       2409.574        52.7116       66.00905         0.4268      -105.1771      -47.86716      0.7023202      0.4067448
      4636.5000         1.0702       2324.855        53.5265       67.04981         0.4426      -104.0289      -46.71896      0.7244641       0.421279
      4637.0000         1.1073       2242.926        53.3137       66.77428         0.4584      -104.2511      -46.94116      0.7186016      0.4184664
      4637.5000         1.1425           2161        52.4354       65.64632         0.4742      -106.7974      -49.48746      0.6946027      0.3862347
      4638.0000         1.1675       2079.023        51.5572       64.51853           0.49      -109.4081      -52.09816       0.670607      0.3531879
      4638.5000         1.1925       2022.676         50.679       63.39074         0.4976      -111.5709      -54.26096      0.6466114      0.3258106
      4639.0000         1.2175       1970.197        49.8007        62.2628         0.4907      -113.7336      -56.42366      0.6226127      0.2984347
      4639.5000         1.2424        2088.43        48.7273       60.88497         0.4839      -115.8953      -58.58536      0.5932972      0.2710714
      4640.0000          1.177       2253.855        47.5624       59.38996         0.4771      -116.8704      -59.56046      0.5614884      0.2587284
      4640.5000         1.0049       2423.098        46.3976       57.89506         0.4485      -117.6978      -60.38786      0.5296822      0.2482549
      4641.0000         0.9283       2583.129        45.2327       56.40005         0.4191      -118.5244      -61.21446      0.4978735      0.2377917
      4641.5000         0.9098       2726.305        44.0691       54.90671         0.3896      -119.3517      -62.04176      0.4661002      0.2273195
      4642.0000         0.8913       2869.484        43.2498       53.85434         0.3601      -119.7388      -62.42886      0.4437094      0.2224195
      4642.5000         0.8759        3012.66        42.4722       52.85539         0.3376      -119.7969      -62.48696      0.4224551      0.2216841
