#------------------------------------------------------------------------------
# Created by    : vladimir.rabinovich
# Created on    : 09/19/2023 17:20:37
#------------------------------------------------------------------------------
~Version Information Section
VERS.           2.0     :   CWLS log ASCII Standard - VERSION 2.0
WRAP.           NO      :   One line per depth step
~Well Information Section
#MNEM       .UNIT                                         VALUE :DESCRIPTION
#------------------------------------------------------------------------------
STRT        .FT                                             495 :START DEPTH
STOP        .FT                                            7007 :STOP DEPTH
STEP        .FT                                             0.5 :STEP      
NULL        .                                           -999.25 :NULL      
COMP        .                                      SHELL OIL CO :COMPANY   
WELL        .                                OCS 00718 ST00BP00 :WELL      
FLD         .                                           WILDCAT :FIELD     
LOC         .                                                   :LOCATION  
CNTY        .                             GALVESTON LARGE BLOCK :LOCATION  
STAT        .                                             TEXAS :STATE     
CTRY        .                                     UNITED STATES :COUNTRY   
SRVC        .                                                   :SERVICE COMPANY
DATE        .                             9/13/2023 11:19:25 AM :LOG DATE  
API         .                                    42706000330000 :API NUMBER
UWI         .                                    42706000330000 :UNIQUE WELL ID
XCOORD      .                                  1012682.17104467 :SURFACE X 
YCOORD      .                                  10442833.5651685 :SURFACE Y 
LAT         .                                         28.761679 :LATITUDE  
LON         .                                        -94.959691 :LONGITUDE 
ELEV        .FT                                              75 :ELEVATION VALUE
ELEV_TYPE   .                                                KB :ELEVATION REFERENCE TYPE
~Curve Information Section
#MNEM       .UNIT                                      API CODE :CURVE DESCRIPTION
#------------------------------------------------------------------------------
DEPT        .FT                                                 :DEPTH     
ASN         .OHMM                                               :          
CILD        .MMHO                                               :          
DT          .US/F                                               :          
ILD         .OHMM                                               :          
LAT         .OHMM                                               :          
LN          .OHMM                                               :          
SP          .MV                                                 :          
SP_NORM     .MV                                                 :SP Normalized
VSH_SP      .V/V                                                :Volume of Shale from SP
~A        DEPTH            ASN           CILD             DT            ILD            LAT             LN             SP        SP_NORM         VSH_SP
       495.0000         1.1918        -999.25        -999.25        -999.25         0.2222         1.1924       -53.7631       20.95113              1
       495.5000         1.1861        -999.25        -999.25        -999.25         0.2104         1.3765       -54.9952        18.9506              1
       496.0000         1.1804        -999.25        -999.25        -999.25         0.1957         1.4098       -59.5394       11.57233              1
       496.5000         1.1845        -999.25        -999.25        -999.25         0.1702         1.4098       -61.4631       8.448875              1
       497.0000          1.196        -999.25        -999.25        -999.25         0.1467         1.3976       -63.2897       5.483084              1
       497.5000         1.2107        -999.25        -999.25        -999.25         0.1496           1.38       -64.0382       4.267766              1
       498.0000          1.228        -999.25        -999.25        -999.25         0.1861         1.3983       -64.1469        4.09128              1
       498.5000         1.2389        -999.25        -999.25        -999.25         0.2375         1.4157       -63.7806       4.686022              1
       499.0000         1.2421        -999.25        -999.25        -999.25         0.3211         1.4086       -63.3445       5.394104              1
       499.5000          1.226        -999.25        -999.25        -999.25         0.4763         1.4181       -63.5585       5.046644              1
       500.0000          1.216        -999.25        -999.25        -999.25         0.7658         1.4061       -64.7485        3.11448              1
       500.5000         1.2031        -999.25        -999.25        -999.25         0.9235          1.442       -66.3196      0.5635247              1
       501.0000         1.1898        -999.25        -999.25        -999.25         0.9469         1.4893       -67.0166       -0.56817       0.981061
       501.5000         1.1766        -999.25        -999.25        -999.25         0.9531         1.4726       -66.8984     -0.3762489      0.9874583
       502.0000         1.1706        -999.25        -999.25        -999.25         1.1082         1.4644       -65.8948       1.253267              1
       502.5000           1.17        -999.25        -999.25        -999.25            1.1          1.489       -65.4381       1.994789              1
       503.0000         1.1758        -999.25        -999.25        -999.25         1.1046          1.525       -65.3881       2.075978              1
       503.5000         1.1989        -999.25        -999.25        -999.25         1.1864         1.5603       -65.7316        1.51825              1
       504.0000          1.242        -999.25        -999.25        -999.25          1.209         1.5908       -65.3749       2.097408              1
       504.5000         1.2834        -999.25        -999.25        -999.25         1.1979         1.5763       -64.6991        3.19469              1
       505.0000         1.3944        -999.25        -999.25        -999.25         1.1585         1.5447        -64.577       3.392929              1
       505.5000         1.4574        -999.25        -999.25        -999.25         1.1569         1.5537       -64.6677       3.245665              1
       506.0000         1.4899        -999.25        -999.25        -999.25         1.1221         1.5904       -64.0013       4.327685              1
       506.5000         1.5171        -999.25        -999.25        -999.25         1.2161         1.6434       -63.1726       5.673215              1
       507.0000         1.5306        -999.25        -999.25        -999.25         1.1909         1.6959       -63.9617       4.391977              1
       507.5000         1.5322        -999.25        -999.25        -999.25         1.3063         1.7487       -64.1343       4.111732              1
       508.0000         1.5265        -999.25        -999.25        -999.25          1.255         1.7906       -64.6461       3.280735              1
       508.5000         1.5072        -999.25        -999.25        -999.25         1.3374          1.822       -65.2363       2.322453              1
       509.0000         1.4682        -999.25        -999.25        -999.25         1.2514         1.8354       -65.0205       2.672837              1
       509.5000         1.4162        -999.25        -999.25        -999.25         1.1667         1.8293       -64.8687       2.919313              1
       510.0000         1.3592        -999.25        -999.25        -999.25         1.1402         1.8053       -64.7218       3.157824              1
       510.5000         1.3267        -999.25        -999.25        -999.25         1.2191         1.7656        -64.053       4.243734              1
       511.0000         1.3059        -999.25        -999.25        -999.25         1.3677         1.7079       -63.1523       5.706172              1
       511.5000          1.288        -999.25        -999.25        -999.25          1.493         1.6364       -62.7391       6.377073              1
       512.0000         1.2721        -999.25        -999.25        -999.25         1.5772         1.6162       -62.7993       6.279328              1
       512.5000         1.2544        -999.25        -999.25        -999.25         1.5351         1.5781       -63.0714       5.837531              1
       513.0000         1.2348        -999.25        -999.25        -999.25          1.539         1.5465       -63.1895       5.645777              1
       513.5000         1.2044        -999.25        -999.25        -999.25         1.5838         1.5453       -63.2881       5.485679              1
       514.0000         1.1574        -999.25        -999.25        -999.25         1.6429         1.5545       -63.7736       4.697388              1
       514.5000         1.1077        -999.25        -999.25        -999.25         1.6189         1.5267       -64.5214        3.48321              1
       515.0000         1.0703        -999.25        -999.25        -999.25         1.6144          1.509       -65.1238       2.505109              1
       515.5000         1.0487        -999.25        -999.25        -999.25         1.6455         1.5306       -65.8427       1.337862              1
       516.0000         1.0389        -999.25        -999.25        -999.25         1.6357         1.5383       -66.2219      0.7221604              1
       516.5000         1.0527        -999.25        -999.25        -999.25          1.581         1.5088       -66.2136      0.7356382              1
       517.0000         1.0688        -999.25        -999.25        -999.25         1.4799         1.4917       -66.3156      0.5700282              1
       517.5000         1.0887        -999.25        -999.25        -999.25         1.5505         1.4834       -66.4829      0.2983803              1
       518.0000         1.1186        -999.25        -999.25        -999.25         1.5162         1.4779        -66.203      0.7528445              1
       518.5000         1.1548        -999.25        -999.25        -999.25         1.4581         1.4692       -65.3978       2.060233              1
       519.0000         1.1759        -999.25        -999.25        -999.25         1.4666         1.4547       -65.0448       2.633383              1
       519.5000         1.1765        -999.25        -999.25        -999.25         1.5251          1.409       -65.2321       2.329267              1
       520.0000         1.1544        -999.25        -999.25        -999.25          1.603         1.3836       -66.1613      0.8205552              1
       520.5000         1.1144        -999.25        -999.25        -999.25          1.578         1.3898       -67.2986      -1.026041      0.9657986
       521.0000         1.0904        -999.25        -999.25        -999.25         1.6285         1.4024       -67.2699     -0.9794387       0.967352
