#------------------------------------------------------------------------------
# Created by    : vladimir.rabinovich
# Created on    : 09/19/2023 17:22:30
#------------------------------------------------------------------------------
~Version Information Section
VERS.           2.0     :   CWLS log ASCII Standard - VERSION 2.0
WRAP.           NO      :   One line per depth step
~Well Information Section
#MNEM       .UNIT                                         VALUE :DESCRIPTION
#------------------------------------------------------------------------------
STRT        .FT                                             456 :START DEPTH
STOP        .FT                                           11667 :STOP DEPTH
STEP        .FT                                             0.5 :STEP      
NULL        .                                           -999.25 :NULL      
COMP        .                              PATRICK PETROLEUM CO :COMPANY   
WELL        .                                     ST TR 00693-L :WELL      
FLD         .                                           WILDCAT :FIELD     
LOC         .                                                   :LOCATION  
CNTY        .                      MATAGORDA ISLAND LARGE BLOCK :LOCATION  
STAT        .                                             TEXAS :STATE     
CTRY        .                                     UNITED STATES :COUNTRY   
SRVC        .                                                   :SERVICE COMPANY
DATE        .                             9/13/2023 11:12:01 AM :LOG DATE  
API         .                                    42703302660000 :API NUMBER
UWI         .                                    42703302660000 :UNIQUE WELL ID
XCOORD      .                                  384413.417453263 :SURFACE X 
YCOORD      .                                  10143960.4717662 :SURFACE Y 
LAT         .                                        27.8986234 :LATITUDE  
LON         .                                       -96.8882217 :LONGITUDE 
ELEV        .FT                                              92 :ELEVATION VALUE
ELEV_TYPE   .                                                KB :ELEVATION REFERENCE TYPE
~Curve Information Section
#MNEM       .UNIT                                      API CODE :CURVE DESCRIPTION
#------------------------------------------------------------------------------
DEPT        .FT                                                 :DEPTH     
CILD        .MMHO                                               :          
DPHI        .%                                                  :          
DT          .US/F                                               :          
GR          .GAPI                                               :          
GR_NORM     .GAPI                                               :GammaRay Normalized
ILD         .OHMM                                               :          
SN          .OHMM                                               :          
SP          .MV                                                 :          
SP_NORM     .MV                                                 :SP Normalized
VSH_GR      .V/V                                                :Volume of Shale from GR
VSH_SP      .V/V                                                :Volume of Shale from SP
~A        DEPTH           CILD           DPHI             DT             GR        GR_NORM            ILD             SN             SP        SP_NORM         VSH_GR         VSH_SP
# ...
      7161.0000         1229.6         25.884        -999.25          80.78       72.24116         0.8051         1.0253          -21.2      -4.533333      0.8349183      0.9357576
      7161.5000         1204.4          24.18        -999.25          82.57        74.1367         0.8128         1.0314         -20.08      -3.413332      0.8752488      0.9561213
      7162.0000        1198.92          23.82        -999.25        82.4909       74.04384         0.8214         1.0329          -18.9      -2.233332      0.8732731      0.9775758
      7162.5000       1194.455          23.88        -999.25        80.8111       72.24811         0.8295           1.03       -19.3778      -2.711132      0.8350661      0.9688885
      7163.0000       1186.535         23.952        -999.25          79.06       70.37653         0.8352         1.0276            -21      -4.333332      0.7952452      0.9393939
      7163.5000        1184.95             24        -999.25           77.3       68.49548         0.8371         1.0159            -23      -6.333332      0.7552229      0.9030303
      7164.0000       1193.663         23.904        -999.25        76.9818       68.14825         0.8303         1.0056       -24.9364      -8.269732       0.747835      0.8678231
      7164.5000         1207.2          23.88        -999.25          78.36       69.60571         0.8176         0.9977         -24.67      -8.003332       0.778845      0.8726667
      7165.0000         1237.6          24.24        -999.25          80.47       71.84168         0.7971           0.99         -22.25      -5.583332      0.8264188      0.9166667
      7165.5000         1263.2          24.72        -999.25          82.82       74.33298         0.7761         0.9827         -20.02      -3.353333       0.879425      0.9572122
      7166.0000       1277.455         24.564        -999.25        83.4364          74.98         0.7675         0.9749       -18.5091      -1.842432      0.8931916       0.984683
      7166.5000           1292          24.42        -999.25          82.27       73.73044         0.7675          0.964          -17.6     -0.9333324       0.866605              1
      7167.0000         1298.4          24.84        -999.25          80.93        72.2962         0.7651         0.9729         -19.17      -2.503332      0.8360894      0.9726667
      7167.5000           1300         25.224        -999.25        79.7111       70.99079         0.7636         0.9778       -20.5667      -3.900032      0.8083147      0.9472721
      7168.0000           1300         25.296        -999.25           79.2       70.43835          0.764          0.984          -23.1      -6.433332      0.7965607      0.9012122
      7168.5000         1300.8         25.272        -999.25           79.5       70.74879          0.764          0.991         -22.31      -5.643332      0.8031659      0.9155758
      7169.0000         1303.6         25.608        -999.25          79.88       71.14433          0.764         0.9991         -20.09      -3.423332      0.8115816      0.9559394
      7169.5000         1304.8         26.004        -999.25          79.55       70.78457          0.764         1.0034         -18.22      -1.553331       0.803927      0.9899395
      7170.0000           1308         26.388        -999.25          78.84       70.02053          0.764         1.0042       -17.8273      -1.160631      0.7876709      0.9970794
      7170.5000           1304         26.724        -999.25          78.78         69.948          0.764          0.981         -18.09      -1.423332      0.7861276      0.9923031
      7171.0000         1313.2         26.856        -999.25           78.8       69.96056         0.7622         0.9675         -18.08      -1.413332       0.786395      0.9924849
      7171.5000         1326.4         26.856        -999.25          78.81       69.96249         0.7515         0.9537         -17.82      -1.153332      0.7864359      0.9972122
      7172.0000           1352         26.784        -999.25        79.1454       70.31059         0.7254         0.9401          -18.3      -1.633331      0.7938423      0.9884849
      7172.5000           1376         27.144        -999.25          79.64       70.82805         0.7133         0.9316         -19.05      -2.383331      0.8048521      0.9748485
      7173.0000         1394.4          27.54        -999.25          79.54       70.71295         0.7101         0.9289          -19.5      -2.833332      0.8024032      0.9666667
      7173.5000           1412         27.396        -999.25          78.44       69.53403         0.7062         0.9223          -19.4      -2.733332      0.7773197      0.9684849
      7174.0000         1425.2         27.564        -999.25        76.3455       67.29713         0.7029         0.9218       -19.0818      -2.415133      0.7297261      0.9742703
      7174.5000         1436.4         28.296        -999.25          73.98       64.77193         0.6993         0.9183         -18.85      -2.183332      0.6759986      0.9784849
      7175.0000           1440         28.596        -999.25             73       63.72066         0.6958         0.9174          -18.7      -2.033333      0.6536312      0.9812121
      7175.5000         1440.4          28.74        -999.25           72.7        63.3928         0.6922         0.9087         -19.16      -2.493332      0.6466552      0.9728485
      7176.0000       1446.909         28.896        -999.25          72.91        63.6075          0.685            0.9       -19.3727      -2.706032      0.6512234      0.9689813
      7176.5000         1456.4         29.232        -999.25          73.19       63.89666         0.6769         0.9108          -19.9      -3.233332      0.6573758       0.959394
      7177.0000         1467.6         29.424        -999.25        73.6182       64.34348         0.6681         0.9174         -20.46      -3.793331      0.6668826      0.9492121
      7177.5000           1468         29.484        -999.25             74       64.74094         0.6759         0.9174         -21.24      -4.573332      0.6753392      0.9350303
      7178.0000           1460         28.704        -999.25           74.6       65.37052         0.6775         0.9174          -21.4      -4.733332      0.6887345      0.9321212
      7178.5000           1440          28.02        -999.25          75.26       66.06394          0.689         0.9214         -21.38      -4.713331      0.7034881      0.9324849
      7179.0000         1395.6           28.2        -999.25          75.77       66.59779         0.7098         0.9383         -21.34      -4.673332      0.7148465      0.9332122
      7179.5000         1345.2          28.44        -999.25          76.29       67.14227         0.7398         0.9792         -21.45      -4.783333      0.7264313      0.9312121
      7180.0000           1290         27.672        -999.25        76.8273       67.70515         0.7727         1.0241       -21.8364      -5.169731      0.7384074      0.9241867
      7180.5000         1236.8         26.784        -999.25          77.35        68.2525         0.8069         1.0635         -22.38      -5.713331      0.7500532      0.9143031
      7181.0000           1190         26.784        -999.25           77.7       68.61613          0.836         1.1028         -23.21      -6.543331      0.7577901      0.8992122
      7181.5000         1148.8         26.784        -999.25          76.89       67.74572         0.8633          1.143         -24.27      -7.603333      0.7392706      0.8799394
      7182.0000         1093.2          26.82        -999.25          73.25       63.86467         0.8987         1.1792          -26.2      -9.533333      0.6566952      0.8448485
      7182.5000         1030.8          26.82        -999.25          68.14       58.41979          0.959         1.2296         -28.24      -11.57333      0.5408466      0.8077576
      7183.0000          957.6         26.844        -999.25        61.5677       51.41927         1.0434         1.2855         -29.44      -12.77333      0.3918993      0.7859394
