#------------------------------------------------------------------------------
# Created by    : vladimir.rabinovich
# Created on    : 09/19/2023 17:20:32
#------------------------------------------------------------------------------
~Version Information Section
VERS.           2.0     :   CWLS log ASCII Standard - VERSION 2.0
WRAP.           NO      :   One line per depth step
~Well Information Section
#MNEM       .UNIT                                         VALUE :DESCRIPTION
#------------------------------------------------------------------------------
STRT        .FT                                             222 :START DEPTH
STOP        .FT                                            9192 :STOP DEPTH
STEP        .FT                                             0.5 :STEP      
NULL        .                                           -999.25 :NULL      
COMP        .                                      PAN AMERICAN :COMPANY   
WELL        .                                     ST TR 00060-L :WELL      
FLD         .                                           WILDCAT :FIELD     
LOC         .                                                   :LOCATION  
CNTY        .                             GALVESTON LARGE BLOCK :LOCATION  
STAT        .                                             TEXAS :STATE     
CTRY        .                                     UNITED STATES :COUNTRY   
SRVC        .                                                   :SERVICE COMPANY
DATE        .                             9/13/2023 11:19:24 AM :LOG DATE  
API         .                                    42706000830000 :API NUMBER
UWI         .                                    42706000830000 :UNIQUE WELL ID
XCOORD      .                                  1150669.84230747 :SURFACE X 
YCOORD      .                                  10684730.4394491 :SURFACE Y 
LAT         .                                        29.4325033 :LATITUDE  
LON         .                                       -94.5389235 :LONGITUDE 
ELEV        .FT                                              11 :ELEVATION VALUE
ELEV_TYPE   .                                                KB :ELEVATION REFERENCE TYPE
~Curve Information Section
#MNEM       .UNIT                                      API CODE :CURVE DESCRIPTION
#------------------------------------------------------------------------------
DEPT        .FT                                                 :DEPTH     
ASN         .OHMM                                               :          
CILD        .MMHO                                               :          
ILD         .OHMM                                               :          
SP          .MV                                                 :          
SP_NORM     .MV                                                 :SP Normalized
VSH_SP      .V/V                                                :Volume of Shale from SP
~A        DEPTH            ASN           CILD            ILD             SP        SP_NORM         VSH_SP
# ...
      1400.0000         1.1873       759.5156         1.4331       -68.0367     -0.5861053              1
      1400.5000         1.1862         751.04         1.4364       -68.1193     -0.6649704              1
      1401.0000         1.1851       742.0801         1.4581       -68.2018      -0.743721              1
      1401.5000          1.184       729.7363         1.5062        -68.093     -0.6311874              1
      1402.0000         1.1852       717.3965         1.5542       -67.5903     -0.1247406              1
      1402.5000         1.1945       698.5049         1.6022       -67.0879      0.3814011              1
      1403.0000         1.2039       676.8545         1.6503       -66.5852      0.8878479              1
      1403.5000         1.2351       663.9189         1.7094       -66.0828        1.39399              1
      1404.0000         1.2803       636.0967         1.7685       -65.3719       2.108627              1
      1404.5000         1.3346       609.1787         1.8276       -64.5836       2.900673              1
      1405.0000         1.4163       582.2559         1.8867       -65.0134       2.474617              1
      1405.5000         1.4448       567.6416         1.9315       -65.4434       2.048363              1
      1406.0000         1.4318       553.9541         1.9645       -65.8732       1.622307              1
      1406.5000         1.4187       549.7402         1.9517       -66.2347       1.264542              1
      1407.0000         1.4057        557.043         1.9247       -66.2899       1.213089              1
      1407.5000           1.39       569.6006         1.8978       -66.3451       1.161629              1
      1408.0000         1.3716       582.1611         1.8739       -66.4004       1.110077              1
      1408.5000         1.3533       594.7178         1.8502       -66.4556       1.058624              1
      1409.0000         1.3349       607.2754         1.8265       -66.5107       1.007263              1
      1409.5000         1.3224       617.6533         1.8028       -66.5659      0.9558029              1
      1410.0000         1.3144       625.9189         1.7791       -66.6211      0.9043427              1
      1410.5000         1.3064       634.1855         1.7554       -66.6764      0.8527908              1
      1411.0000         1.2984       642.4521         1.7317        -66.703      0.8299255              1
      1411.5000         1.2913       650.7178         1.7079       -66.5027       1.033974              1
      1412.0000         1.2864       659.1611         1.6969       -66.3024       1.238022              1
      1412.5000         1.2816       667.9424         1.6886       -66.7307      0.8134613              1
      1413.0000         1.2768       676.7246         1.6803       -67.9521     -0.4041977              1
      1413.5000         1.2719       685.5059         1.6721       -69.1277      -1.576057       0.980136
      1414.0000         1.2671       696.0791         1.6638       -70.3032       -2.74781      0.9397307
      1414.5000         1.2591       709.7363          1.642       -71.4788      -3.919662       0.899322
      1415.0000         1.2504       725.4404         1.6179       -72.4534      -4.890526       0.865844
      1415.5000         1.2417       753.3174         1.5937       -73.3713       -5.80468      0.8343214
      1416.0000         1.2329       775.3037         1.5696       -74.2889      -6.718544      0.8028088
      1416.5000         1.2242       792.5205         1.5202       -75.1917      -7.617599      0.7718069
      1417.0000         1.2136       803.6055           1.46       -75.8253      -8.247459      0.7500876
      1417.5000         1.2003       789.4619         1.3997        -75.375      -7.793411      0.7657444
      1418.0000          1.187       769.7187         1.3385       -74.0251      -6.439766      0.8124219
      1418.5000         1.1742       747.5615         1.2757        -72.455      -4.865929      0.8666921
      1419.0000         1.1648        723.999         1.2492       -70.8611       -3.26828      0.9217834
      1419.5000         1.1572       700.4355         1.2346       -69.2672      -1.670639      0.9768745
      1420.0000         1.1667       673.9521           1.22        -67.984     -0.3836975              1
      1420.5000         1.2094       645.2441         1.2228       -67.2059      0.3981476              1
      1421.0000         1.2667       616.9941         1.2326       -66.4277       1.180092              1
      1421.5000          1.328       593.7988         1.2424       -65.6497       1.961838              1
      1422.0000         1.3914       570.6025         1.7196       -65.3438       2.271469              1
      1422.5000         1.4332       551.9648         1.8328       -65.0471       2.571922              1
      1423.0000         1.4709       540.8223         1.8965       -64.7505       2.872261              1
      1423.5000         1.4918       529.6787         1.9164       -64.4539         3.1726              1
      1424.0000         1.5011       522.5264         1.8925       -64.1301       3.500153              1
      1424.5000         1.4629        538.252         1.8556       -63.5093       4.124687              1
      1425.0000         1.4248       564.1982         1.8187       -63.4183       4.219433              1
      1425.5000         1.3866       600.9238         1.7817       -63.8684       3.773071              1
      1426.0000         1.3485       641.8525         1.7448       -64.3185       3.326721              1
      1426.5000         1.3103       698.5723         1.7078       -64.7686       2.880363              1
      1427.0000         1.2759       730.6104         1.6709       -65.1417       2.511002              1
      1427.5000         1.2455        754.833         1.6372       -65.4401       2.216347              1
      1428.0000         1.2152       772.3311          1.604       -65.7384       1.921783              1
      1428.5000         1.1853       786.5596         1.5709       -66.0369       1.627029              1
      1429.0000          1.163       797.5654         1.5377       -66.3352       1.332481              1
      1429.5000         1.1408       806.1562         1.5046       -66.6335       1.037918              1
      1430.0000         1.1185       803.1748         1.4714        -66.932      0.7431641              1
      1430.5000         1.0955       794.6592         1.4435       -67.2303      0.4486008              1
      1431.0000         1.0902       783.9111         1.4559       -67.3439      0.3387451              1
      1431.5000         1.1036        773.165         1.4684       -67.4288      0.2575912              1
      1432.0000          1.117       760.4336         1.4808       -67.5138      0.1763306              1
      1432.5000         1.1304       743.9229         1.4933       -67.5989     0.09497833              1
      1433.0000         1.1438       727.4111         1.5057       -67.6838     0.01381683              1
      1433.5000         1.1571       713.7109         1.5181       -67.7749    -0.07353973              1
      1434.0000         1.1705       702.0029         1.5306       -67.9324     -0.2273026              1
      1434.5000         1.1861       690.2949          1.543       -68.0898     -0.3809509              1
      1435.0000         1.2034       679.1006         1.5555       -68.2473     -0.5347061              1
      1435.5000         1.2206        669.666         1.5679       -68.2491     -0.5327682              1
      1436.0000         1.2379       660.2334         1.5804       -67.7588    -0.03871918              1
      1436.5000         1.2519       664.7236         1.5922       -67.2682      0.4556122              1
      1437.0000         1.2602       669.6338         1.5934       -66.7778      0.9497604              1
      1437.5000         1.2652       678.7861         1.5946       -66.2874       1.443909              1
