#------------------------------------------------------------------------------
# Created by    : vladimir.rabinovich
# Created on    : 09/19/2023 17:19:22
#------------------------------------------------------------------------------
~Version Information Section
VERS.           2.0     :   CWLS log ASCII Standard - VERSION 2.0
WRAP.           NO      :   One line per depth step
~Well Information Section
#MNEM       .UNIT                                         VALUE :DESCRIPTION
#------------------------------------------------------------------------------
STRT        .FT                                            2350 :START DEPTH
STOP        .FT                                            7008 :STOP DEPTH
STEP        .FT                                             0.5 :STEP      
NULL        .                                           -999.25 :NULL      
COMP        .                                  W&T OFFSHORE INC :COMPANY   
WELL        .                               OCS G04565 ST00BP00 :WELL      
FLD         .                              GALVESTON BLOCK 0303 :FIELD     
LOC         .                                                   :LOCATION  
CNTY        .                             GALVESTON LARGE BLOCK :LOCATION  
STAT        .                                             TEXAS :STATE     
CTRY        .                                     UNITED STATES :COUNTRY   
SRVC        .                                                   :SERVICE COMPANY
DATE        .                             9/13/2023 11:19:03 AM :LOG DATE  
API         .                                    42706403950000 :API NUMBER
UWI         .                                    42706403950000 :UNIQUE WELL ID
XCOORD      .                                  979190.041446607 :SURFACE X 
YCOORD      .                                   10483081.623763 :SURFACE Y 
LAT         .                                        28.8707847 :LATITUDE  
LON         .                                       -95.0663777 :LONGITUDE 
ELEV        .FT                                              91 :ELEVATION VALUE
ELEV_TYPE   .                                                KB :ELEVATION REFERENCE TYPE
~Curve Information Section
#MNEM       .UNIT                                      API CODE :CURVE DESCRIPTION
#------------------------------------------------------------------------------
DEPT        .FT                                                 :DEPTH     
AF20        .OHMM                                               :          
AFCO        .MMHO                                               :          
AO90        .OHMM                                               :          
AT10        .OHMM                                               :          
AT20        .OHMM                                               :          
AT30        .OHMM                                               :          
AT60        .OHMM                                               :          
AT90        .OHMM                                               :          
DCAL        .IN                                                 :          
DPHI        .%                                                  :          
DRHO        .G/C3                                               :          
GR          .GAPI                                               :          
GR_NORM     .GAPI                                               :GammaRay Normalized
GRN         .GAPI                                               :          
NPOR        .%                                                  :          
RWA         .OHMM                                               :          
SP          .MV                                                 :          
SP_NORM     .MV                                                 :SP Normalized
TENR        .LBF                                                :          
TPHI        .%                                                  :          
VSH_GR      .V/V                                                :Volume of Shale from GR
VSH_SP      .V/V                                                :Volume of Shale from SP
~A        DEPTH           AF20           AFCO           AO90           AT10           AT20           AT30           AT60           AT90           DCAL           DPHI           DRHO             GR        GR_NORM            GRN           NPOR            RWA             SP        SP_NORM           TENR           TPHI         VSH_GR         VSH_SP
# ...
      6994.0000           0.87       1149.424           0.87           0.76           0.87           0.86           0.82           0.84         -7.075           38.4           0.06        97.3999       86.68845        -999.25        -999.25           0.18           -1.2           -1.2           3015        -999.25              1           0.98
      6994.5000           0.87       1149.424           0.87           0.76           0.87           0.86           0.82           0.84         -7.075           38.4           0.06        97.3999       86.68845        -999.25        -999.25           0.18           -1.3           -1.3           3015        -999.25              1      0.9783334
      6995.0000           0.87       1149.424           0.87           0.76           0.87           0.86           0.82           0.84         -7.075           38.4           0.06        97.3999       86.68845        -999.25        -999.25           0.18           -1.6           -1.6           3015        -999.25              1      0.9733334
      6995.5000           0.87       1149.424           0.87           0.76           0.87           0.86           0.82           0.84         -7.075           38.4           0.06        97.3999       86.68845        -999.25        -999.25           0.18           -0.9           -0.9           3015        -999.25              1          0.985
      6996.0000           0.87       1149.424           0.87           0.76           0.87           0.86           0.82           0.84         -7.075           38.4           0.06        97.3999       86.68845        -999.25        -999.25           0.18           -0.6           -0.6           3145        -999.25              1           0.99
      6996.5000           0.87       1149.424           0.87           0.76           0.87           0.86           0.82           0.84         -7.075           38.4           0.06        97.3999       86.68845        -999.25        -999.25           0.18           -0.4           -0.4           3145        -999.25              1      0.9933333
      6997.0000           0.87       1149.424           0.87           0.76           0.87           0.86           0.82           0.84         -7.075           38.4           0.06        97.3999       86.68845        -999.25        -999.25           0.18           -0.4           -0.4           3145        -999.25              1      0.9933333
      6997.5000           0.87       1149.424           0.87           0.76           0.87           0.86           0.82           0.84         -7.075           38.4           0.06        97.3999       86.68845        -999.25        -999.25           0.18           -0.5           -0.5           3145        -999.25              1      0.9916667
      6998.0000           0.87       1149.424           0.87           0.76           0.87           0.86           0.82           0.84         -7.075           38.4           0.06        97.3999       86.68845        -999.25        -999.25           0.18           -0.4           -0.4           3095        -999.25              1      0.9933333
      6998.5000           0.87       1149.424           0.87           0.76           0.87           0.86           0.82           0.84         -7.075           38.4           0.06        97.3999       86.68845        -999.25        -999.25           0.18           -0.6           -0.6           3095        -999.25              1           0.99
      6999.0000           0.87       1149.424           0.87           0.76           0.87           0.86           0.82           0.84         -7.075           38.4           0.06        97.3999       86.68845        -999.25        -999.25           0.18            0.6            0.6           3095        -999.25              1              1
      6999.5000           0.87       1149.424           0.87           0.76           0.87           0.86           0.82           0.84         -7.075           38.4           0.06        97.3999       86.68845        -999.25        -999.25           0.18            0.9            0.9           2950        -999.25              1              1
      7000.0000           0.87       1149.424           0.87           0.76           0.87           0.86           0.82           0.84         -7.075           38.4           0.06        97.3999       86.68845        -999.25        -999.25           0.18            1.3            1.3           2950        -999.25              1              1
      7000.5000           0.87       1149.424           0.87           0.76           0.87           0.86           0.82           0.84         -7.075           38.4           0.06        97.3999       86.68845        -999.25        -999.25           0.18            1.8            1.8           2950        -999.25              1              1
      7001.0000           0.87       1149.424           0.87           0.76           0.87           0.86           0.82           0.84         -7.075           38.4           0.06        97.3999       86.68845        -999.25        -999.25           0.18            2.3            2.3           2950        -999.25              1              1
      7001.5000           0.87       1149.424           0.87           0.76           0.87           0.86           0.82           0.84         -7.075           38.4           0.06        97.3999       86.68845        -999.25        -999.25           0.18            2.9            2.9           3045        -999.25              1              1
      7002.0000           0.87       1149.424           0.87           0.76           0.87           0.86           0.82           0.84         -7.075           38.4           0.06        97.3999       86.68845        -999.25        -999.25           0.18            2.3            2.3           3045        -999.25              1              1
      7002.5000           0.87       1149.424           0.87           0.76           0.87           0.86           0.82           0.84         -7.075           38.4           0.06        97.3999       86.68845        -999.25        -999.25           0.18            1.4            1.4           3045        -999.25              1              1
      7003.0000           0.87       1149.424           0.87           0.76           0.87           0.86           0.82           0.84         -7.075           38.4           0.06        97.3999       86.68845        -999.25        -999.25           0.18            1.3            1.3           3045        -999.25              1              1
      7003.5000           0.87       1149.424           0.87           0.76           0.87           0.86           0.82           0.84         -7.075           38.4           0.06        97.3999       86.68845        -999.25        -999.25           0.18            0.8            0.8           2820        -999.25              1              1
      7004.0000           0.87       1149.424           0.87           0.76           0.87           0.86           0.82           0.84         -7.075           38.4           0.06        97.3999       86.68845        -999.25        -999.25           0.18           -0.1           -0.1           2820        -999.25              1      0.9983333
      7004.5000           0.87       1149.424           0.87           0.76           0.87           0.86           0.82           0.84         -7.075           38.4           0.06        97.3999       86.68845        -999.25        -999.25           0.18           -0.5           -0.5           2820        -999.25              1      0.9916667
      7005.0000           0.87       1149.424           0.87           0.76           0.87           0.86           0.82           0.84         -7.075           38.4           0.06        97.3999       86.68845        -999.25        -999.25           0.18           -0.4           -0.4           2565        -999.25              1      0.9933333
      7005.5000           0.87       1149.424           0.87           0.76           0.87           0.86           0.82           0.84         -7.075           38.4           0.06        97.3999       86.68845        -999.25        -999.25           0.18           -0.2           -0.2           2565        -999.25              1      0.9966667
