#------------------------------------------------------------------------------
# Created by    : vladimir.rabinovich
# Created on    : 09/19/2023 17:20:05
#------------------------------------------------------------------------------
~Version Information Section
VERS.           2.0     :   CWLS log ASCII Standard - VERSION 2.0
WRAP.           NO      :   One line per depth step
~Well Information Section
#MNEM       .UNIT                                         VALUE :DESCRIPTION
#------------------------------------------------------------------------------
STRT        .FT                                             712 :START DEPTH
STOP        .FT                                            9469 :STOP DEPTH
STEP        .FT                                             0.5 :STEP      
NULL        .                                           -999.25 :NULL      
COMP        .                                 MESA PETROLEUM CO :COMPANY   
WELL        .                                ST TR 00279-L SW/4 :WELL      
FLD         .                                           WILDCAT :FIELD     
LOC         .                                                   :LOCATION  
CNTY        .                             GALVESTON LARGE BLOCK :LOCATION  
STAT        .                                             TEXAS :STATE     
CTRY        .                                     UNITED STATES :COUNTRY   
SRVC        .                                                   :SERVICE COMPANY
DATE        .                             9/13/2023 11:18:53 AM :LOG DATE  
API         .                                    42706300950000 :API NUMBER
UWI         .                                    42706300950000 :UNIQUE WELL ID
XCOORD      .                                  947289.050530544 :SURFACE X 
YCOORD      .                                  10490529.0152507 :SURFACE Y 
LAT         .                                         28.889695 :LATITUDE  
LON         .                                        -95.166438 :LONGITUDE 
ELEV        .FT                                              84 :ELEVATION VALUE
ELEV_TYPE   .                                                KB :ELEVATION REFERENCE TYPE
~Curve Information Section
#MNEM       .UNIT                                      API CODE :CURVE DESCRIPTION
#------------------------------------------------------------------------------
DEPT        .FT                                                 :DEPTH     
ASFL        .OHMM                                               :          
CILD        .MMHO                                               :          
GR          .GAPI                                               :          
GR_NORM     .GAPI                                               :GammaRay Normalized
ILD         .OHMM                                               :          
SP          .MV                                                 :          
SP_NORM     .MV                                                 :SP Normalized
VSH_GR      .V/V                                                :Volume of Shale from GR
VSH_SP      .V/V                                                :Volume of Shale from SP
~A        DEPTH           ASFL           CILD             GR        GR_NORM            ILD             SP        SP_NORM         VSH_GR         VSH_SP
       712.0000         1.3988       111.0313        22.2986       68.36771         2.1649       -48.0598       9.567322      0.7525045              1
       712.5000         1.4115       133.3096        22.0613       68.03569         2.2625       -46.4524       11.17472      0.7454402              1
       713.0000         1.5023       155.5884        23.6185       70.00603         2.3968       -46.6337       10.99342      0.7873623              1
       713.5000          2.142       177.8667        25.5148       72.27886         2.9878       -52.1823        5.44482      0.8357205              1
       714.0000         2.1321       194.2622        26.9125       73.85394         3.9211       -55.8475       1.779621      0.8692327              1
       714.5000         2.1107       209.8042        27.8777       74.82398         4.1629       -59.6744      -2.047279       0.889872      0.9181088
       715.0000         2.0577       225.3447        28.8429       75.79391         4.6068        -66.061      -8.433876      0.9105087       0.662645
       715.5000         2.0973       236.3423        29.5477       76.39962         4.7831       -71.4731      -13.84598      0.9233962      0.4461609
       716.0000         2.1526       242.8125        30.2363       76.98251         4.9594       -72.9662      -15.33908      0.9357982      0.3864368
       716.5000         2.2078       243.9243        30.9249       77.56557         5.2021       -74.2627      -16.63558      0.9482036      0.3345767
       717.0000         2.2808       230.9468        31.7231       78.30181         5.4695       -75.5195      -17.89238      0.9638683      0.2843048
       717.5000         2.3707       228.7832        32.3488       78.79684         5.6088       -76.7734      -19.14628      0.9744008      0.2341489
       718.0000         2.4607       239.3022        31.2986       76.94683         5.7018       -77.3667      -19.73958      0.9350389      0.2104169
       718.5000         2.5701       250.0864        30.1128       74.90723         5.7053       -77.3287      -19.70158      0.8916433       0.211937
       719.0000         2.6531       267.5591        29.2501       73.31958         3.4883       -77.2294      -19.60228      0.8578634      0.2159088
       719.5000         2.7192       285.0303        28.3874       71.73206         3.3208         -77.09      -19.46288      0.8240863       0.221485
       720.0000         2.7615       299.5137        27.4603        70.0543         3.1311        -76.905      -19.27788      0.7883893      0.2288849
       720.5000         2.7913       303.5356        26.4573       68.27048          3.183       -76.7201      -19.09298      0.7504357      0.2362808
       721.0000          2.821       307.5571        25.5617       66.63679         3.2488       -76.4229      -18.79578      0.7156763      0.2481689
       721.5000          2.849        305.606        24.9054       65.33807         3.3144       -76.0115      -18.38438       0.688044       0.264625
       722.0000         2.8596       302.3242        24.2491       64.03919           3.38       -75.5557      -17.92858      0.6604083      0.2828568
       722.5000         2.8702       299.0415        23.7661       62.98294         3.4456       -74.7455      -17.11838      0.6379349      0.3152649
       723.0000         2.8625       295.7598        23.4179       62.11517         3.5236       -73.3754      -15.74828      0.6194717       0.370069
       723.5000         2.8338       292.4775        23.7059        62.1377         3.5812       -71.3427      -13.71558      0.6199511      0.4513769
       724.0000         2.7765       289.1958        24.0025       62.17212         3.5978        -69.308      -11.68088      0.6206835      0.5327649
       724.5000         2.7191       285.9141        24.4336       62.39488          3.583       -67.7878      -10.16068       0.625423      0.5935727
       725.0000         2.6618       283.3081        25.3768       63.33401         3.5681       -66.6868      -9.059677      0.6454044      0.6376129
       725.5000         2.5724       282.3135        26.3201       64.27341          3.559       -62.1762       -4.54908      0.6653918      0.8180368
       726.0000         2.4674       281.3188        27.2632        65.2124         3.5524        -60.339       -2.71188      0.6853703      0.8915248
       726.5000            2.4       280.3242        28.2097       66.15631         3.5458       -59.7603      -2.133179      0.7054535      0.9146729
       727.0000         2.4888       279.3291        29.5395       67.63637         3.5792       -59.1816      -1.554478       0.736944      0.9378209
       727.5000         2.5549       278.3345        30.8691       69.11628         3.6298       -58.6028     -0.9756775      0.7684315      0.9609729
       728.0000         2.6285       277.2231        32.1988        70.5962         3.6804       -58.0331     -0.4059792      0.7999191      0.9837608
       728.5000         2.7683       275.9453        33.4428       71.95634         3.8841       -57.4651      0.1620216      0.8288584              1
       729.0000         2.8284       274.6675        34.3486       72.84316         4.0092       -56.8973      0.7298203      0.8477269              1
       729.5000         2.8884       273.3896        33.8837       71.81224         4.1033       -56.4753       1.151821      0.8257924              1
       730.0000          2.951       268.2104        33.3227       70.64672          4.172       -56.2335        1.39362       0.800994              1
       730.5000         3.0256       262.6777        32.6276        69.2937         4.2118       -56.1719       1.455219      0.7722064              1
       731.0000         3.0698       257.1445        31.9325       67.94056         4.2516       -56.2022       1.424919      0.7434161              1
       731.5000         3.0653       254.1836        31.2374       66.58753          4.246       -56.2727        1.35442      0.7146283              1
       732.0000         3.0051       258.6792        30.5422       65.23425         4.1967       -56.7377      0.8894196       0.685835              1
       732.5000         2.9405       263.1748        30.1289       64.27552         4.1474       -57.2026      0.4245224      0.6654366              1
       733.0000         2.8587       267.6709         29.745       63.35778         4.0981       -57.7362     -0.1090775      0.6459102      0.9956369
       733.5000          2.777       272.1665        29.4793       62.60559         4.0359       -57.5262      0.1009216      0.6299061              1
       734.0000         2.6952       276.6621        29.8883       62.79727         3.9394       -57.0599      0.5672226      0.6339844              1
       734.5000         2.6261       286.8887        30.2973       62.98911         3.8429       -56.5235       1.103622      0.6380661              1
       735.0000         2.5676       297.8193        30.7062       63.18066         3.7464       -55.9326       1.694523      0.6421416              1
       735.5000         2.5092       308.7485        31.1152       63.37234         3.6454       -55.3417       2.285419        0.64622              1
       736.0000         2.4507       319.6797        31.5242       63.56418         3.5377       -54.8325       2.794621      0.6503017              1
       736.5000         2.3981       328.5171        32.1276       64.02786         3.4299       -54.4594       3.167721      0.6601673              1
       737.0000         2.3512       330.3804        32.8693       64.68519         3.3189        -54.347       3.280121       0.674153              1
       737.5000         2.3043       332.2441        33.6111       65.34254         3.2013       -54.4177       3.209419      0.6881391              1
       738.0000         2.2642       334.1074        34.3528       65.99988         3.0896       -54.4883       3.138821      0.7021251              1
