#------------------------------------------------------------------------------
# Created by    : vladimir.rabinovich
# Created on    : 09/19/2023 17:20:04
#------------------------------------------------------------------------------
~Version Information Section
VERS.           2.0     :   CWLS log ASCII Standard - VERSION 2.0
WRAP.           NO      :   One line per depth step
~Well Information Section
#MNEM       .UNIT                                         VALUE :DESCRIPTION
#------------------------------------------------------------------------------
STRT        .FT                                             900 :START DEPTH
STOP        .FT                                            8286 :STOP DEPTH
STEP        .FT                                             0.5 :STEP      
NULL        .                                           -999.25 :NULL      
COMP        .                                       ALLIED CORP :COMPANY   
WELL        .                               OCS G04069 ST00BP00 :WELL      
FLD         .                                           WILDCAT :FIELD     
LOC         .                                                   :LOCATION  
CNTY        .                             GALVESTON LARGE BLOCK :LOCATION  
STAT        .                                             TEXAS :STATE     
CTRY        .                                     UNITED STATES :COUNTRY   
SRVC        .                                                   :SERVICE COMPANY
DATE        .                             9/13/2023 11:18:53 AM :LOG DATE  
API         .                                    42706400840000 :API NUMBER
UWI         .                                    42706400840000 :UNIQUE WELL ID
XCOORD      .                                  987200.391396966 :SURFACE X 
YCOORD      .                                   10401886.486665 :SURFACE Y 
LAT         .                                         28.647914 :LATITUDE  
LON         .                                        -95.037018 :LONGITUDE 
ELEV        .FT                                              83 :ELEVATION VALUE
ELEV_TYPE   .                                                KB :ELEVATION REFERENCE TYPE
~Curve Information Section
#MNEM       .UNIT                                      API CODE :CURVE DESCRIPTION
#------------------------------------------------------------------------------
DEPT        .FT                                                 :DEPTH     
ASFL        .OHMM                                               :          
CILD        .MMHO                                               :          
DPHI        .%                                                  :          
DT          .US/F                                               :          
GR          .GAPI                                               :          
GR_NORM     .GAPI                                               :GammaRay Normalized
ILD         .OHMM                                               :          
SP          .MV                                                 :          
SP_NORM     .MV                                                 :SP Normalized
VSH_GR      .V/V                                                :Volume of Shale from GR
VSH_SP      .V/V                                                :Volume of Shale from SP
~A        DEPTH           ASFL           CILD           DPHI             DT             GR        GR_NORM            ILD             SP        SP_NORM         VSH_GR         VSH_SP
# ...
      6300.0000         1.0098       1228.086        18.2646       100.3098        57.2723       82.77304         0.7652        -58.478      -8.807396              1      0.8645016
      6300.5000         1.0013       1232.279        19.8417       102.0179        55.5563       80.31066         0.7788       -59.3264      -9.657425              1      0.8514242
      6301.0000          0.987       1236.479        21.6169       104.3129         53.828       77.83063         0.7764       -59.9473      -10.27996      0.9538431      0.8418468
      6301.5000         0.9727        1240.74        22.3777       105.0881        51.6171       74.65811         0.7673       -59.8873      -10.22158      0.8863428      0.8427448
      6302.0000         0.9584        1245.48        22.1612       105.0281        49.7987        72.0488         0.7582       -59.5701      -9.906017      0.8308255      0.8475997
      6302.5000         0.9441       1250.221        22.4612       105.4918        50.9626       73.71893         0.7501       -59.2529       -9.59045      0.8663603      0.8524546
      6303.0000         0.9344       1254.957        23.1046       106.4371        52.1254        75.3875         0.7472       -58.9357      -9.274879      0.9018616      0.8573095
      6303.5000         0.9315       1259.697        22.8961       107.0229        53.2893       77.05763         0.7443       -58.6182      -8.959011      0.9373964      0.8621691
      6304.0000         0.9342       1264.438        22.0383       106.6708         54.452       78.72604         0.7414       -58.3004      -8.642841      0.9728945      0.8670332
      6304.5000          0.944       1269.498        20.6861       105.1388        55.2766        79.9093         0.7386       -57.9677      -8.311775      0.9980702      0.8721265
      6305.0000         0.9538       1274.824        19.3324       102.2653        56.0459       81.01321         0.7357       -57.6349      -7.980602              1      0.8772215
      6305.5000         0.9636       1280.148        18.5926       101.6644        55.7729       80.62146         0.7328       -57.3022      -7.649536              1      0.8823148
      6306.0000         0.9734       1285.475        19.3771       102.4916        55.4996       80.22929         0.7299       -56.9695       -7.31847              1      0.8874081
      6306.5000         0.9795       1291.168          21.22       103.7194        55.2266       79.83755         0.7327       -56.6368      -6.987396      0.9965437      0.8925016
      6307.0000         0.9715       1298.553        21.7345         105.14        55.1041       79.66178         0.7364        -56.416       -6.76823      0.9928039      0.8958734
      6307.5000         0.9635       1305.932        22.5625       106.3617        56.0072       80.95767         0.7402       -56.6078      -6.961658              1      0.8928975
      6308.0000         0.9555       1313.316        22.9375       107.6661        56.9103       82.25358         0.7439       -56.7995      -7.154991              1      0.8899232
      6308.5000         0.9475       1305.236        23.1377       109.1672        57.8476       83.59856         0.7476       -56.9911      -7.348221              1      0.8869504
      6309.0000         0.9369       1286.322        23.3693       110.0756        58.8324        85.0117         0.7513       -57.0988      -7.457554              1      0.8852684
      6309.5000         0.9242       1267.432        23.3653       109.4108        59.8159       86.42296         0.7551       -57.0285      -7.388885              1      0.8863248
      6310.0000         0.9249       1248.518        22.5461       107.4337        59.6166       86.13699         0.7588       -56.9186      -7.280613              1      0.8879906
      6310.5000         0.9442       1229.604        21.0316        104.748        58.8635       85.05632         0.7683       -56.5728      -6.936447              1      0.8932855
      6311.0000         0.9634       1210.689        20.4352       102.4482        58.1108       83.97624         0.7797       -56.2269      -6.592175              1      0.8985819
      6311.5000         0.9814       1191.801        20.6667       101.6001        56.8738       82.20122         0.7911       -55.8811      -6.248009              1      0.9038768
      6312.0000          0.992       1173.734        21.0709       101.7256        55.3978       80.08323         0.8025       -55.5353      -5.903839              1      0.9091717
      6312.5000         1.0025       1167.518        21.1465       101.8693        53.9231        77.9671         0.8139       -55.1895      -5.559669      0.9567469      0.9144666
      6313.0000         1.0049       1161.301        20.1708       101.8594         52.686       76.19193         0.8253        -54.909      -5.280804      0.9189771      0.9187568
      6313.5000         0.9997        1155.09        19.6872       101.7115         51.516       74.51302         0.8308       -54.7795      -5.152931      0.8832558      0.9207242
      6314.0000         0.9944       1159.801         20.485       102.1157         50.775       73.44974         0.8326         -54.65      -5.025066      0.8606327      0.9226913
      6314.5000         0.9892       1168.434        22.3674        102.912         50.338       72.82268         0.8343       -54.5205      -4.897194       0.847291      0.9246585
      6315.0000         0.9931        1177.08         23.124       104.1484        49.9005       72.19489          0.836        -54.391      -4.769325      0.8339337      0.9266258
      6315.5000         1.0101       1185.713        23.4441       104.2053        50.0543       72.41557         0.8307       -54.1919      -4.571854      0.8386292      0.9296638
      6316.0000         1.0257       1198.281        23.1906       103.2445        50.2737       72.73041         0.8171       -53.9316      -4.313187      0.8453278      0.9336433
      6316.5000         1.0274       1211.096        22.0279       102.0601        50.4928       73.04481         0.8035       -53.6718      -4.055016      0.8520172      0.9376152
      6317.0000         1.0082       1223.922        20.8276       102.3951        50.7122       73.35961         0.7899       -53.4116      -3.796448      0.8587151      0.9415931
      6317.5000          0.989       1236.748        19.9357        102.954        51.0071        73.7828         0.7763       -53.1513      -3.537781      0.8677191      0.9455726
      6318.0000         0.9698       1249.576        20.1731       103.8789        51.4782        74.4588         0.7716       -52.8914       -3.27951      0.8821021       0.949546
      6318.5000         0.9561       1262.402        20.4527       104.8025        51.9493        75.1348         0.7698       -52.6312      -3.020943      0.8964852      0.9535239
      6319.0000         0.9427       1271.656        20.5039       105.7261        52.4203       75.81065         0.7681       -52.3689      -2.760273      0.9108649      0.9575343
      6319.5000         0.9482       1279.473        20.0238       106.7178        52.8907       76.48566         0.7664        -52.105      -2.498005      0.9252269      0.9615691
      6320.0000         0.9786       1284.355        19.7209       108.0272        52.8274       76.39482         0.7647       -51.9351      -2.329735      0.9232941      0.9641579
      6320.5000         1.0089       1267.482        20.5297       108.3127        52.0327       75.25447         0.7711       -51.9669      -2.363167      0.8990313      0.9636436
      6321.0000         1.0338       1250.609        21.6973       107.7966        51.0723       73.87635         0.7826       -51.9988      -2.396698      0.8697096      0.9631277
      6321.5000         1.0531        1233.76        21.3384       106.6782        50.1107        72.4965         0.7941       -52.2223       -2.62183       0.840351      0.9596642
      6322.0000         1.0723       1216.889        19.5647       105.0052        49.8048       72.05756         0.8056       -52.5057       -2.90686      0.8310118      0.9552791
