#------------------------------------------------------------------------------
# Created by    : vladimir.rabinovich
# Created on    : 09/19/2023 17:21:35
#------------------------------------------------------------------------------
~Version Information Section
VERS.           2.0     :   CWLS log ASCII Standard - VERSION 2.0
WRAP.           NO      :   One line per depth step
~Well Information Section
#MNEM       .UNIT                                         VALUE :DESCRIPTION
#------------------------------------------------------------------------------
STRT        .FT                                            3376 :START DEPTH
STOP        .FT                                            7813 :STOP DEPTH
STEP        .FT                                             0.5 :STEP      
NULL        .                                           -999.25 :NULL      
COMP        .                                MARINER ENERGY INC :COMPANY   
WELL        .                               OCS G27491 ST00BP00 :WELL      
FLD         .                                           WILDCAT :FIELD     
LOC         .                                                   :LOCATION  
CNTY        .                             GALVESTON LARGE BLOCK :LOCATION  
STAT        .                                             TEXAS :STATE     
CTRY        .                                     UNITED STATES :COUNTRY   
SRVC        .                                                   :SERVICE COMPANY
DATE        .                             9/13/2023 11:19:33 AM :LOG DATE  
API         .                                    42706404580000 :API NUMBER
UWI         .                                    42706404580000 :UNIQUE WELL ID
XCOORD      .                                  1038987.60828679 :SURFACE X 
YCOORD      .                                  10490484.8642062 :SURFACE Y 
LAT         .                                         28.893877 :LATITUDE  
LON         .                                         -94.87996 :LONGITUDE 
ELEV        .FT                                             110 :ELEVATION VALUE
ELEV_TYPE   .                                                KB :ELEVATION REFERENCE TYPE
~Curve Information Section
#MNEM       .UNIT                                      API CODE :CURVE DESCRIPTION
#------------------------------------------------------------------------------
DEPT        .FT                                                 :DEPTH     
CALI        .IN                                                 :          
DPSS        .%                                                  :          
DRHO        .G/CM3                                              :          
GR          .GAPI                                               :          
GR_NORM     .GAPI                                               :GammaRay Normalized
M2R1        .OHMM                                               :          
M2R2        .OHMM                                               :          
M2R3        .OHMM                                               :          
M2R6        .OHMM                                               :          
M2R9        .OHMM                                               :          
M2RX        .OHMM                                               :          
NPSS        .%                                                  :Neutron Porosity Sandstone
SP          .MV                                                 :          
SP_NORM     .MV                                                 :SP Normalized
TENS        .LB                                                 :          
VSH_GR      .V/V                                                :Volume of Shale from GR
VSH_SP      .V/V                                                :Volume of Shale from SP
~A        DEPTH           CALI           DPSS           DRHO             GR        GR_NORM           M2R1           M2R2           M2R3           M2R6           M2R9           M2RX           NPSS             SP        SP_NORM           TENS         VSH_GR         VSH_SP
# ...
      7501.0000         12.424        17.0769         0.1003        91.1783       88.42393         0.8912            0.9         0.8912         0.9073         0.8912         0.8912             45       -50.9662      -6.654823        20.4082              1      0.9358803
      7501.5000        12.4632        17.5385         0.1005        93.1453       91.01582         0.8912         0.9073         0.8912         0.8912         0.8825         0.8825           45.6       -52.1368       -7.82542        20.4082              1      0.9153435
      7502.0000        12.5417        17.7692         0.1047        95.3129       93.87199         0.9147         0.9222            0.9         0.9147         0.9073         0.9073          43.32       -52.1291      -7.817722        20.4082              1      0.9154785
      7502.5000        12.6201        17.6538         0.0929        96.8938       95.95515         0.9525         0.9297         0.9372         0.9448         0.9372         0.9297           40.2       -52.1213      -7.809921        20.4082              1      0.9156154
      7503.0000        12.5809        17.1923         0.0811        98.0836       97.52292         0.9919              1          0.976          0.976         0.9681         0.9603          36.36       -51.7192      -7.407822        20.4082              1      0.9226698
      7503.5000        12.2672           16.5         0.0693        98.0916       97.53346         1.0968         1.1173         1.0377         1.0093         1.0377         1.0281          33.24       -51.7111      -7.399723        20.4082              1      0.9228119
      7504.0000         11.795        15.3462         0.0535        93.7535       91.81723         1.2834         1.3074          1.181          1.192         1.2142          1.192           31.8        -52.098      -7.786621        20.4082              1      0.9160242
      7504.5000         11.195        14.4231         0.0457           87.2       83.18178         1.5157         1.5157         1.3441         1.4077         1.4077         1.3819          31.32       -52.4857       -8.17432        20.4082              1      0.9092224
      7505.0000         11.075        13.7308         0.0339           82.4        76.8569         1.7573          1.617         1.5298         1.5728         1.5583         1.5298          30.72       -52.4782      -8.166821        20.4082      0.9331256       0.909354
      7505.5000         10.875        13.6154         0.0341             82       76.32983         1.7736          1.632         1.5018         1.5157         1.5298         1.5018          30.12       -53.2633      -8.951923        20.4082      0.9219112      0.8955803
      7506.0000         10.915        13.9615         0.0343           86.4       82.12764          1.617         1.5018         1.3441         1.3692         1.3947         1.3692          31.56       -53.2566      -8.945221        20.4082              1      0.8956979
      7506.5000         11.155        14.6538         0.0345           87.8        83.9724         1.4607         1.3692          1.203         1.2368         1.2716         1.2483           33.6       -52.4558      -8.144421        20.4082              1       0.909747
      7507.0000         11.395        15.3462         0.0307           88.6       85.02654         1.3195          1.181         1.0767          1.107         1.0968         1.0767          35.16       -52.0509      -7.739521        40.8163              1      0.9168505
      7507.5000         11.595        15.8077         0.0349             90        86.8713         1.1701         1.0767         0.9839         0.9839              1         0.9839           34.2       -51.6451      -7.333721       102.0408              1      0.9239698
      7508.0000         11.795        16.2692         0.0511        92.3895       90.01991         1.1173         1.0187          0.976         0.9603         0.9681         0.9525          33.72       -50.8403      -6.528923       142.8571              1      0.9380891
      7508.5000         11.835        16.9615         0.0753        93.7871        91.8615         1.1277         1.0377              1          0.976         0.9839         0.9681           33.6       -50.8312      -6.519821        81.6327              1      0.9382488
      7509.0000         11.675        17.6538         0.0915        91.5962       88.97459         1.1701         1.0968         1.0377         1.0281         1.0281         1.0093          33.72        -50.822       -6.51062        40.8163              1      0.9384102
      7509.5000         11.515        17.7692         0.0637           84.4       79.49228         1.2716          1.181         1.0767         1.1173         1.1487         1.1277          35.28       -50.4134       -6.10202              0      0.9891974      0.9455786
      7510.0000         11.195        17.4231         0.0439             80       73.69447         1.4473         1.4473         1.2834         1.3441         1.3441         1.3195          35.64       -50.8037      -6.492321        20.4082      0.8658397      0.9387312
      7510.5000         10.835        17.8846          0.036             81       75.01214         1.6625          1.632         1.5298          1.617         1.5728          1.544          32.28          -52.4      -8.088623        40.8163      0.8938753      0.9107259
      7511.0000         10.635          18.24          0.024           82.2       76.59338         1.6625         1.6625          1.617         1.6472         1.6472          1.617        29.3878          -54.4      -10.08862        61.2245      0.9275187      0.8756382
      7511.5000         10.595          18.12          0.024           83.2       77.91104         1.5298          1.544         1.5298         1.5018         1.5298         1.5018        28.6531          -56.4      -12.08862        61.2245      0.9555541      0.8405505
      7512.0000         10.595        17.4231          0.028           83.6       78.43813         1.3692         1.4208         1.3947         1.3692         1.3566         1.3318          30.96          -56.8      -12.48862        20.4082      0.9667688       0.833533
      7512.5000         10.675        16.6154           0.04           83.2       77.91104         1.3819         1.3566         1.3074         1.3195         1.3195         1.2953          31.32            -56      -11.68862        20.4082      0.9555541       0.847568
      7513.0000         10.715        16.0385          0.052           82.2       76.59338         1.4473         1.3441         1.3074         1.3074         1.3195         1.2953          30.72          -55.2      -10.88862        61.2245      0.9275187      0.8616031
      7513.5000         10.715        15.8077          0.052             82       76.32983          1.488         1.3318         1.2953         1.3074         1.3074         1.2834          30.72          -55.2      -10.88862       102.0408      0.9219112      0.8616031
      7514.0000         10.715        15.6923          0.052           82.4        76.8569          1.434         1.3074         1.2368         1.2483         1.2483         1.2255           32.4          -54.4      -10.08862       102.0408      0.9331256      0.8756382
      7514.5000         10.675        15.4615          0.052           83.4       78.17459         1.3947         1.2483         1.1701          1.192          1.192         1.1701          33.96          -53.2      -8.888622        61.2245      0.9611615      0.8966908
      7515.0000         10.675        15.3462          0.048           84.2       79.22873         1.3692          1.203         1.1487         1.1701         1.1701         1.1487           34.8          -52.4      -8.088623        20.4082        0.98359      0.9107259
      7515.5000         10.675             15          0.044           85.4       80.80995         1.3819          1.203         1.1381         1.1487         1.1594         1.1381          34.68          -51.6       -7.28862        20.4082              1      0.9247611
