#------------------------------------------------------------------------------
# Created by    : vladimir.rabinovich
# Created on    : 09/19/2023 17:20:37
#------------------------------------------------------------------------------
~Version Information Section
VERS.           2.0     :   CWLS log ASCII Standard - VERSION 2.0
WRAP.           NO      :   One line per depth step
~Well Information Section
#MNEM       .UNIT                                         VALUE :DESCRIPTION
#------------------------------------------------------------------------------
STRT        .FT                                             254 :START DEPTH
STOP        .FT                                            9030 :STOP DEPTH
STEP        .FT                                             0.5 :STEP      
NULL        .                                           -999.25 :NULL      
COMP        .                                    MOBIL OIL CORP :COMPANY   
WELL        .                                OCS 00724 ST00BP00 :WELL      
FLD         .                                           WILDCAT :FIELD     
LOC         .                                                   :LOCATION  
CNTY        .                             GALVESTON LARGE BLOCK :LOCATION  
STAT        .                                             TEXAS :STATE     
CTRY        .                                     UNITED STATES :COUNTRY   
SRVC        .                                                   :SERVICE COMPANY
DATE        .                             9/13/2023 11:19:25 AM :LOG DATE  
API         .                                    42706000340000 :API NUMBER
UWI         .                                    42706000340000 :UNIQUE WELL ID
XCOORD      .                                  1011870.95166473 :SURFACE X 
YCOORD      .                                   10400634.765487 :SURFACE Y 
LAT         .                                         28.645607 :LATITUDE  
LON         .                                        -94.960058 :LONGITUDE 
ELEV        .FT                                              34 :ELEVATION VALUE
ELEV_TYPE   .                                                KB :ELEVATION REFERENCE TYPE
~Curve Information Section
#MNEM       .UNIT                                      API CODE :CURVE DESCRIPTION
#------------------------------------------------------------------------------
DEPT        .FT                                                 :DEPTH     
ASN         .OHMM                                               :          
CALI        .IN                                                 :          
CILD        .MMHO                                               :          
DT          .US/F                                               :          
ILD         .OHMM                                               :          
SP          .MV                                                 :          
SP_NORM     .MV                                                 :SP Normalized
VSH_SP      .V/V                                                :Volume of Shale from SP
~A        DEPTH            ASN           CALI           CILD             DT            ILD             SP        SP_NORM         VSH_SP
# ...
      8425.5000         0.4234          9.912       1937.646       105.1715         0.4068       -40.9114      -0.665966              1
      8426.0000         0.4219         9.9069       1951.797        104.676         0.4046       -41.1639     -0.9226379              1
      8426.5000         0.4242         9.8773       1938.123       104.7158         0.4025       -41.4053      -1.168213      0.9950526
      8427.0000         0.4265         9.8374       1924.447       105.6378         0.4003       -41.6282      -1.395287      0.9883739
      8427.5000         0.4288         9.7704        1910.75       108.6337         0.3981       -41.8511      -1.622364      0.9816952
      8428.0000         0.4312         9.7033       1894.041       111.6991         0.3959       -42.0374      -1.812836      0.9760931
      8428.5000         0.4335         9.7227       1879.703       113.8094         0.3955       -41.8553      -1.634911      0.9813262
      8429.0000         0.4358         9.7796       1887.633        114.532         0.3968       -41.6499      -1.433681      0.9872447
      8429.5000         0.4385         9.8363       1885.902       115.0405         0.3981        -41.398      -1.185955      0.9945307
      8430.0000         0.4413         9.8863       1881.781       115.4307         0.3994       -41.1462     -0.9383278              1
      8430.5000         0.4442         9.9328       1877.615       115.6613         0.4008        -40.894     -0.6903038              1
      8431.0000         0.4471         9.9755       1874.367       115.5964         0.4021       -40.7209     -0.5213776              1
      8431.5000         0.4494          9.924       1882.008       114.9399         0.4034       -40.8065     -0.6111526              1
      8432.0000         0.4474         9.8724       1889.648       112.1531         0.4042       -40.8919     -0.7007256              1
      8432.5000         0.4453         9.8289       1897.697       108.6921          0.402       -40.9774     -0.7904015              1
      8433.0000         0.4424         9.7953       1905.475       107.1919         0.3998        -41.063     -0.8801727              1
      8433.5000         0.4387         9.7617       1889.807        106.702         0.3976       -41.1492     -0.9705467              1
      8434.0000         0.4351         9.7775       1874.207       108.0942         0.3953       -41.2956       -1.12112      0.9964376
      8434.5000         0.4314         9.8179       1858.947       111.1373         0.3931        -41.442      -1.271694       0.992009
      8435.0000         0.4278         9.8487       1865.152       115.4792         0.3909       -41.4456      -1.279465      0.9917805
      8435.5000         0.4242         9.8677       1879.801       116.0861         0.3894       -41.3095      -1.147545      0.9956604
      8436.0000         0.4199         9.8867       1900.607       116.6918         0.3928       -41.1733      -1.015518      0.9995436
      8436.5000         0.4155         9.8984       1927.957        117.293         0.3962       -41.0551     -0.9014893              1
      8437.0000         0.4111         9.8864       1953.947       117.4725         0.3997       -40.9652     -0.8157616              1
      8437.5000         0.4071         9.8743       1944.066       117.3975         0.4031       -40.8753     -0.7300377              1
      8438.0000         0.4038         9.8645       1933.889       112.1082         0.4065       -40.7853     -0.6442108              1
      8438.5000         0.4115          9.855       1928.646       109.4023         0.4098       -40.6953     -0.5583839              1
      8439.0000         0.4226         9.8456       1922.229       109.0276         0.4122       -40.6054     -0.4726563              1
      8439.5000         0.4337         9.8362       1912.844       108.7023         0.4146       -40.5155     -0.3869324              1
      8440.0000         0.4448         9.8268       1879.822       108.3774          0.417       -40.6005     -0.4761047              1
      8440.5000         0.4534         9.8276       1864.654       108.1646         0.4194       -40.7339      -0.613678              1
      8441.0000          0.462         9.8305       1850.232        108.464         0.4218       -40.8671     -0.7510529              1
      8441.5000         0.4661         9.8334       1836.375       110.3641         0.4205       -41.0005     -0.8886261              1
      8442.0000         0.4566         9.8418       1820.912       113.3263         0.4148       -41.2033        -1.0956      0.9971882
      8442.5000          0.447         9.8698       1803.455       116.9451          0.409       -41.4118      -1.308273      0.9909331
      8443.0000         0.4375         9.8979       1843.553       117.0536         0.4033       -41.6201      -1.520748      0.9846839
      8443.5000          0.428         9.9146       1871.039       117.1444         0.3975        -41.823      -1.727825      0.9785933
      8444.0000         0.4206         9.9145        1886.75       113.6735         0.3918        -41.954      -1.862995      0.9746178
      8444.5000         0.4137         9.9144       1954.854       112.9926         0.3873       -42.0848      -1.997971      0.9706479
      8445.0000         0.4067          9.915       1977.381       112.3115         0.3835       -42.2159      -2.133244      0.9666693
      8445.5000         0.3998         9.9184       1988.984       111.6429         0.3797       -42.0861      -2.007618      0.9703642
      8446.0000         0.3932         9.9218       1992.307       111.0867         0.3759       -41.9517      -1.877388      0.9741945
      8446.5000          0.395         9.9252       1980.359       110.6294         0.3721       -41.8174      -1.747265      0.9780216
      8447.0000         0.3968         9.9286       1974.934        110.499         0.3683       -41.6829       -1.61694      0.9818547
      8447.5000         0.4009         9.9319       1987.012       112.7914         0.3645       -41.5485      -1.486713      0.9856849
      8448.0000         0.4059         9.9579       1996.328       113.7015         0.3607       -41.3127      -1.255085      0.9924975
      8448.5000          0.411         9.9842       2005.656       114.6118         0.3569       -41.0389     -0.9854584              1
      8449.0000           0.41        10.0106        2014.35       116.3153          0.358       -40.7654     -0.7161331              1
      8449.5000         0.4043        10.0369        2021.98       117.4677         0.3612       -40.4918     -0.4467049              1
      8450.0000         0.3987        10.0609       2015.867       117.4581         0.3643        -40.218     -0.1770782              1
      8450.5000          0.393        10.0807         2002.6       114.2747         0.3675       -39.9453     0.09144592              1
      8451.0000         0.3874        10.0184       1987.703       112.7937         0.3707       -39.6763      0.3562698              1
      8451.5000         0.3864         9.7275       1971.912       111.4025         0.3738       -39.4075      0.6208954              1
      8452.0000         0.3857         9.6108        1972.09       110.1597          0.377       -39.1384      0.8858223              1
      8452.5000         0.3931         9.4991        1972.27       109.4281         0.3806        -38.841        1.17905              1
      8453.0000         0.4025         9.4196       1972.449       114.0264         0.3872       -38.5179       1.497978              1
      8453.5000         0.4119         9.3449       1972.627       115.7129         0.3938       -38.1954       1.816303              1
      8454.0000          0.422         9.3741       1972.807       118.1908         0.4004       -38.0122       1.995331              1
      8454.5000         0.4455        10.0403       1987.158       119.0769          0.407       -37.8301       2.173256              1
