#------------------------------------------------------------------------------
# Created by    : vladimir.rabinovich
# Created on    : 09/19/2023 17:22:39
#------------------------------------------------------------------------------
~Version Information Section
VERS.           2.0     :   CWLS log ASCII Standard - VERSION 2.0
WRAP.           NO      :   One line per depth step
~Well Information Section
#MNEM       .UNIT                                         VALUE :DESCRIPTION
#------------------------------------------------------------------------------
STRT        .FT                                            3496 :START DEPTH
STOP        .FT                                          7091.5 :STOP DEPTH
STEP        .FT                                             0.5 :STEP      
NULL        .                                           -999.25 :NULL      
COMP        .                          SEAGULL ENERGY E & P INC :COMPANY   
WELL        .                               OCS G07251 ST00BP00 :WELL      
FLD         .                              GALVESTON BLOCK 0349 :FIELD     
LOC         .                                                   :LOCATION  
CNTY        .                             GALVESTON LARGE BLOCK :LOCATION  
STAT        .                                             TEXAS :STATE     
CTRY        .                                     UNITED STATES :COUNTRY   
SRVC        .                                                   :SERVICE COMPANY
DATE        .                             9/13/2023 11:19:36 AM :LOG DATE  
API         .                                    42706402300000 :API NUMBER
UWI         .                                    42706402300000 :UNIQUE WELL ID
XCOORD      .                                  1015542.86720011 :SURFACE X 
YCOORD      .                                  10434819.2372955 :SURFACE Y 
LAT         .                                         28.739771 :LATITUDE  
LON         .                                        -94.950355 :LONGITUDE 
ELEV        .FT                                              93 :ELEVATION VALUE
ELEV_TYPE   .                                                KB :ELEVATION REFERENCE TYPE
~Curve Information Section
#MNEM       .UNIT                                      API CODE :CURVE DESCRIPTION
#------------------------------------------------------------------------------
DEPT        .FT                                                 :DEPTH     
DCAL        .IN                                                 :          
DPHI        .%                                                  :          
DRHO        .G/C3                                               :          
GR          .GAPI                                               :          
GR_NORM     .GAPI                                               :GammaRay Normalized
ILD         .OHMM                                               :          
ILM         .OHMM                                               :          
NPHI        .%                                                  :          
SGRD        .OHMM                                               :          
SP          .MV                                                 :          
SP_NORM     .MV                                                 :SP Normalized
VSH_GR      .V/V                                                :Volume of Shale from GR
VSH_SP      .V/V                                                :Volume of Shale from SP
~A        DEPTH           DCAL           DPHI           DRHO             GR        GR_NORM            ILD            ILM           NPHI           SGRD             SP        SP_NORM         VSH_GR         VSH_SP
# ...
      5168.0000         0.2502        28.3097        -0.0229         77.875       81.13947         0.5298         0.5298        39.5012         0.6478       -41.7645      -3.832394              1      0.9410401
      5168.5000          0.276        26.9193        -0.0166        78.9814       82.62619         0.5739         0.5784        42.3826          0.677       -39.5568      -1.615513              1      0.9751459
      5169.0000          0.239        24.2043        -0.0083        78.4377       81.89559         0.6116         0.6239        43.0569         0.7155       -39.5488      -1.598331              1      0.9754103
      5169.5000         0.1985        21.9573        -0.0009        78.3827       81.82168         0.6356         0.6513        43.0137         0.7509       -39.5408      -1.581146              1      0.9756747
      5170.0000         0.1725        21.6101         0.0021        80.2522       84.33383         0.6539           0.67        42.7701         0.7714       -39.4686      -1.499767              1      0.9769267
      5170.5000         0.1715        21.8221         0.0047        81.0206       85.36637         0.6658         0.6805        42.8649         0.7863       -39.0781      -1.100082              1      0.9830757
      5171.0000         0.1892        22.1624         0.0074        81.4153       85.89675          0.672         0.6845        43.2811         0.7794       -38.5503     -0.5631027              1      0.9913369
      5171.5000         0.2113        22.4935         0.0092        80.9355       85.25201         0.6714          0.686         43.606         0.7728        -38.392     -0.3956223              1      0.9939135
      5172.0000         0.2244        22.8083         0.0103        79.6682       83.54908           0.67         0.6869         43.931         0.7693       -38.2296      -0.224041              1      0.9965532
      5172.5000         0.2371        23.1006         0.0115        77.5049       80.64215         0.6681         0.6887        44.1387         0.7652       -37.9155     0.09923935              1              1
      5173.0000         0.2437        23.4001         0.0116        78.3665       81.79993         0.6646         0.6905        43.8363         0.7578        -37.329      0.6949234              1              1
      5173.5000         0.2589        23.7112         0.0121        79.1079       82.79618         0.6616         0.6918        43.9709         0.7518       -36.8068       1.226303              1              1
      5174.0000         0.2802        24.0873         0.0126        79.7872       83.70899         0.6601         0.6932        44.3022         0.7445       -36.6677       1.374584              1              1
      5174.5000         0.2942        24.6835         0.0149        80.3547       84.47157         0.6597         0.6939        44.6388         0.7354       -36.6799       1.371567              1              1
      5175.0000         0.2962        24.9992         0.0187        81.2594       85.68726         0.6625         0.6936        45.0068         0.7257       -36.8911       1.169544              1              1
      5175.5000         0.3045        24.8333         0.0255        82.2679       87.04242         0.6637         0.6937        45.4257         0.7212        -36.847       1.222828              1              1
      5176.0000         0.2977        24.6117         0.0291        83.6584       88.91091         0.6626         0.6924         45.434          0.726        -36.707       1.372009              1              1
      5176.5000         0.2954        24.4073         0.0308        81.1987       85.60569         0.6616         0.6906        45.1418         0.7439       -36.5562       1.531994              1              1
      5177.0000         0.3007        24.2286         0.0325        78.8878       82.50042         0.6593         0.6872        44.8057          0.759       -36.4596       1.637775              1              1
      5177.5000         0.3136        24.2043         0.0343        77.2147       80.25219         0.6595         0.6843        44.7597         0.7657       -36.5952       1.511356              1              1
      5178.0000          0.327        24.5896         0.0357        75.7003       78.21722         0.6589         0.6838        44.9815         0.7552       -36.6837       1.432037      0.9620686              1
      5178.5000         0.3281        24.9126         0.0373        77.4373       80.55131         0.6585         0.6844        45.3654         0.7379       -36.6166       1.508316              1              1
      5179.0000         0.3292        25.4429         0.0387        80.1833       84.24124         0.6584         0.6869        46.0666         0.7222       -36.3549       1.779198              1              1
      5179.5000         0.3102         25.915         0.0369        82.2467       87.01393         0.6647         0.6899        46.6317         0.7181       -36.2238       1.919479              1              1
      5180.0000         0.2933         26.387          0.031        82.9016       87.89397         0.6721         0.6974        46.7356         0.7228       -36.4468       1.705662              1              1
      5180.5000         0.2766        26.3073         0.0237        83.2114       88.31026         0.6811         0.7082        46.6097         0.7258       -36.8145       1.347145              1              1
      5181.0000         0.2701        26.3093         0.0179        83.4872       88.68087         0.6975         0.7236        46.0688         0.7293       -37.1071       1.063725              1              1
      5181.5000         0.2745        26.6328         0.0124        81.0787       85.44444         0.7187          0.744        45.5828         0.7385       -37.5475      0.6325035              1              1
      5182.0000         0.2719        26.9076          0.009        79.9438       83.91942         0.7413         0.7657        44.7001         0.7621       -37.8452      0.3439865              1              1
      5182.5000          0.273        26.7739         0.0067        78.8629       82.46696          0.763          0.782        43.2856         0.7938       -38.1818     0.01656723              1              1
      5183.0000         0.2792        26.5326          0.006        77.6686       80.86212         0.7746         0.7876        42.3271         0.8338       -38.4473     -0.2397499              1      0.9963115
      5183.5000         0.2752        26.2626         0.0061        76.9802       79.93709          0.781         0.7927        41.6229         0.8649       -38.8452     -0.6284676      0.9986615      0.9903313
      5184.0000         0.2839        25.8483         0.0059        77.1014       80.09995         0.7793         0.7939        41.9019          0.841       -39.3116      -1.085686              1      0.9832972
      5184.5000         0.2783        25.3431         0.0057        76.2043       78.89446         0.7699         0.7886        42.5926         0.8088       -39.7115      -1.476402      0.9764779      0.9772861
      5185.0000         0.2786        25.0919         0.0071        75.4449       77.87402         0.7582         0.7829        43.5743         0.7887       -40.0748      -1.830524      0.9547665      0.9718381
      5185.5000         0.2797        25.2666         0.0097        74.4624       76.55379         0.7445         0.7746        44.0476         0.7782       -40.3787      -2.125244      0.9266765      0.9673039
      5186.0000         0.2889        25.4601         0.0104        71.7125       72.85861         0.7305         0.7646        43.9348         0.7808       -40.7183      -2.455662      0.8480556      0.9622206
      5186.5000         0.2872        25.5645         0.0085        70.1794        70.7985         0.7196         0.7552        42.7036         0.7838       -40.8713       -2.59948      0.8042234       0.960008
