#------------------------------------------------------------------------------
# Created by    : vladimir.rabinovich
# Created on    : 09/19/2023 17:22:28
#------------------------------------------------------------------------------
~Version Information Section
VERS.           2.0     :   CWLS log ASCII Standard - VERSION 2.0
WRAP.           NO      :   One line per depth step
~Well Information Section
#MNEM       .UNIT                                         VALUE :DESCRIPTION
#------------------------------------------------------------------------------
STRT        .FT                                            2981 :START DEPTH
STOP        .FT                                           10477 :STOP DEPTH
STEP        .FT                                             0.5 :STEP      
NULL        .                                           -999.25 :NULL      
COMP        .                          SEAGULL ENERGY E & P INC :COMPANY   
WELL        .                               OCS G13783 ST00BP00 :WELL      
FLD         .                                           WILDCAT :FIELD     
LOC         .                                                   :LOCATION  
CNTY        .                             GALVESTON LARGE BLOCK :LOCATION  
STAT        .                                             TEXAS :STATE     
CTRY        .                                     UNITED STATES :COUNTRY   
SRVC        .                                                   :SERVICE COMPANY
DATE        .                             9/13/2023 11:19:39 AM :LOG DATE  
API         .                                    42706403890000 :API NUMBER
UWI         .                                    42706403890000 :UNIQUE WELL ID
XCOORD      .                                  1047250.65699841 :SURFACE X 
YCOORD      .                                  10470150.2239286 :SURFACE Y 
LAT         .                                         28.838318 :LATITUDE  
LON         .                                         -94.85315 :LONGITUDE 
ELEV        .FT                                              94 :ELEVATION VALUE
ELEV_TYPE   .                                                KB :ELEVATION REFERENCE TYPE
~Curve Information Section
#MNEM       .UNIT                                      API CODE :CURVE DESCRIPTION
#------------------------------------------------------------------------------
DEPT        .FT                                                 :DEPTH     
CILD        .MMHO                                               :          
CNC         .%                                                  :          
DT24        .US/F                                               :          
GR          .GAPI                                               :          
GR_NORM     .GAPI                                               :GammaRay Normalized
PORZ        .%                                                  :          
RFOC        .OHMM                                               :          
RILD        .OHMM                                               :          
RILM        .OHMM                                               :          
RWAZ        .OHMM                                               :          
SP          .MV                                                 :          
SP_NORM     .MV                                                 :SP Normalized
TEN         .LBF                                                :          
VSH_GR      .V/V                                                :Volume of Shale from GR
VSH_SP      .V/V                                                :Volume of Shale from SP
ZCOR        .G/C3                                               :          
ZDEN        .G/C3                                               :          
~A        DEPTH           CILD            CNC           DT24             GR        GR_NORM           PORZ           RFOC           RILD           RILM           RWAZ             SP        SP_NORM            TEN         VSH_GR         VSH_SP           ZCOR           ZDEN
# ...
      6446.0000       1000.673         32.244         95.151         65.179       50.18576         20.852          1.191          0.999          1.011          0.055           -6.1      -4.902395        -56.314      0.3656545      0.9299658          0.085          2.306
      6446.5000       997.5078         31.253        96.9889        65.7289        50.8476         22.156          1.145          1.003          0.998          0.063         -5.583      -4.385396        -46.951      0.3797361      0.9373515          0.098          2.284
      6447.0000       1002.346         31.935       100.8829        67.5189       52.99755         23.641          1.112          0.998          0.983          0.072         -5.316      -4.118395       -32.7939      0.4254799      0.9411658          0.115           2.26
      6447.5000       1013.055         33.603        105.349        69.4359       55.29992         24.032          1.098          0.987          0.971          0.074         -5.237      -4.039395        -20.911      0.4744663      0.9422944          0.117          2.253
      6448.0000       1030.227         35.465        107.001        72.3329       58.77828         23.449          1.086          0.971          0.969          0.069         -5.085      -3.887395        -16.263       0.548474      0.9444658           0.11          2.263
      6448.5000       1052.334           36.9       107.1329         75.924       63.08956         23.028          1.077           0.95          0.972          0.065         -4.701      -3.503396        -12.404      0.6402034      0.9499515          0.107           2.27
      6449.0000        1072.42        37.0309        106.616        76.9349        64.3046         23.212          1.091          0.933          0.975          0.065         -4.285      -3.087395         -8.217      0.6660553      0.9558944          0.109          2.267
      6449.5000        1083.66         36.322        105.219        74.9049       61.87055         23.372          1.119          0.923          0.977          0.065         -4.047      -2.849395        -11.992      0.6142671      0.9592944          0.111          2.264
      6450.0000       1083.256        36.5309       104.1329        73.7339       60.46732         23.073          1.122          0.923          0.982          0.064          -3.72      -2.522395        -18.822       0.584411      0.9639658          0.109          2.269
      6450.5000       1075.113          37.83        103.459        75.8799       63.04447         22.508          1.094           0.93          0.995          0.061         -3.325      -2.127395        -21.444      0.6392441      0.9696087          0.101          2.279
      6451.0000        1068.75         37.825       103.4419        78.8429       66.60204          21.74           1.07          0.936          1.016          0.057         -4.037      -2.839396        -24.864      0.7149369      0.9594372          0.091          2.291
      6451.5000       1069.832         35.553        103.439        78.8379       66.59799          20.84          1.087          0.935          1.036          0.052         -6.813      -5.615396        -21.899      0.7148509      0.9197801          0.079          2.306
      6452.0000       1076.479         32.989       103.6119        74.8309       61.79155         20.386          1.154          0.929          1.046          0.049        -10.884      -9.686395         -7.127      0.6125863      0.8616229          0.062          2.314
      6452.5000       1087.365         32.254       103.6429        69.1119       54.93071         20.668          1.237           0.92          1.048           0.05        -14.723      -13.52539          2.463      0.4666108      0.8067801          0.048          2.309
      6453.0000       1101.406         33.178       102.9969        65.2219       50.26467         21.187          1.301          0.908          1.039          0.052        -17.476      -16.27839         -3.095      0.3673334      0.7674515          0.048            2.3
      6453.5000       1113.721          33.93        102.674        64.3739       49.24903         21.459           1.35          0.898          1.021          0.053        -18.737      -17.53939        -13.527      0.3457241      0.7494372          0.053          2.296
      6454.0000       1118.891         33.084       101.7379        64.8639       49.83899         21.162          1.371          0.894              1          0.051        -18.743      -17.54539        -19.452      0.3582763      0.7493515          0.054          2.301
      6454.5000         1114.6         31.344        101.006         65.063       50.07987         20.212          1.325          0.897          0.987          0.047        -18.282      -17.08439        -18.917      0.3634015      0.7559372          0.053          2.316
      6455.0000       1102.041         30.512        101.938        65.2129        50.2617         19.335          1.243          0.907          0.988          0.043        -18.012      -16.81439         -8.495      0.3672703      0.7597944          0.054          2.331
      6455.5000       1087.734          30.89        103.106        65.7599       50.92007         19.346           1.19          0.919          0.998          0.043         -17.63      -16.43239          6.712       0.381278      0.7652515          0.067          2.331
      6456.0000       1080.111         31.156        104.344         67.043       52.46174         19.853          1.179          0.926          1.013          0.046        -16.602      -15.40439         10.582      0.4140796      0.7799372           0.09          2.322
      6456.5000        1080.66         30.478       102.2629        68.6649       54.40998         19.731          1.194          0.925          1.028          0.045         -15.44      -14.24239          1.982      0.4555316      0.7965372          0.104          2.324
      6457.0000       1083.844         29.594         96.922        68.8889       54.68074         18.409          1.221          0.923          1.039          0.039        -14.982       -13.7844         -3.388      0.4612924      0.8030801          0.096          2.346
      6457.5000       1085.326         28.825         94.954         67.412       52.91042         16.652          1.245          0.921          1.043          0.032        -15.179      -13.98139         -9.092       0.423626      0.8002658          0.082          2.375
      6458.0000        1086.49         28.577         95.563        66.3409       51.62706         16.001           1.24           0.92          1.041          0.029        -15.742      -14.54439        -24.749      0.3963203      0.7922229          0.075          2.386
      6458.5000       1090.848         29.279        98.4159         66.929       52.33474         16.807          1.225          0.917          1.032          0.032        -16.741      -15.54339        -39.076      0.4113774      0.7779515           0.07          2.373
      6459.0000       1101.139         30.635       103.1609         68.002        53.6243         17.994          1.223          0.908          1.018          0.037        -18.064      -16.86639        -37.926      0.4388148      0.7590515          0.061          2.353
      6459.5000       1119.518         32.352       104.9979        69.2389       55.11054         18.747          1.223          0.893          1.004          0.039        -19.708       -18.5104        -25.271       0.470437      0.7355658          0.055          2.341
      6460.0000       1145.416         33.715        104.522        69.7069        55.6741         19.032          1.221          0.873          0.992           0.04        -21.486      -20.28839         -8.348      0.4824277      0.7101658          0.062          2.336
      6460.5000        1173.24         33.075        104.293        68.6869       54.45206         19.368          1.241          0.852          0.981           0.04        -23.075       -21.8774          9.764      0.4564267      0.6874658           0.07           2.33
