#------------------------------------------------------------------------------
# Created by    : vladimir.rabinovich
# Created on    : 09/19/2023 17:20:30
#------------------------------------------------------------------------------
~Version Information Section
VERS.           2.0     :   CWLS log ASCII Standard - VERSION 2.0
WRAP.           NO      :   One line per depth step
~Well Information Section
#MNEM       .UNIT                                         VALUE :DESCRIPTION
#------------------------------------------------------------------------------
STRT        .FT                                             609 :START DEPTH
STOP        .FT                                           12866 :STOP DEPTH
STEP        .FT                                             0.5 :STEP      
NULL        .                                           -999.25 :NULL      
COMP        .                                        SUN OIL CO :COMPANY   
WELL        .                               OCS G01769 ST00BP00 :WELL      
FLD         .                                           WILDCAT :FIELD     
LOC         .                                                   :LOCATION  
CNTY        .                             GALVESTON LARGE BLOCK :LOCATION  
STAT        .                                             TEXAS :STATE     
CTRY        .                                     UNITED STATES :COUNTRY   
SRVC        .                                                   :SERVICE COMPANY
DATE        .                             9/13/2023 11:19:24 AM :LOG DATE  
API         .                                    42706001410000 :API NUMBER
UWI         .                                    42706001410000 :UNIQUE WELL ID
XCOORD      .                                  1110717.91749569 :SURFACE X 
YCOORD      .                                  10538856.4752018 :SURFACE Y 
LAT         .                                         29.029845 :LATITUDE  
LON         .                                        -94.657945 :LONGITUDE 
ELEV        .FT                                              65 :ELEVATION VALUE
ELEV_TYPE   .                                                KB :ELEVATION REFERENCE TYPE
~Curve Information Section
#MNEM       .UNIT                                      API CODE :CURVE DESCRIPTION
#------------------------------------------------------------------------------
DEPT        .FT                                                 :DEPTH     
ASN         .OHMM                                               :          
CALI        .IN                                                 :          
CILD        .MMHO                                               :          
DT          .US/F                                               :          
ILD         .OHMM                                               :          
SP          .MV                                                 :          
SP_NORM     .MV                                                 :SP Normalized
VSH_SP      .V/V                                                :Volume of Shale from SP
~A        DEPTH            ASN           CALI           CILD             DT            ILD             SP        SP_NORM         VSH_SP
# ...
      4680.0000         0.6648        13.7549       2442.629        110.192          0.331      -103.6934      -19.24895      0.6500192
      4680.5000         0.6583        14.2964       2461.512       105.7153         0.3369      -105.2059      -20.76145      0.6225191
      4681.0000         0.6519        14.3182       2478.938       103.7087         0.3428      -106.3986      -21.95415      0.6008337
      4681.5000         0.6492        13.6372       2479.691       100.9302         0.3486      -107.6394      -23.19495      0.5782737
      4682.0000         0.6467        13.5682       2466.238        98.3055         0.3545      -107.8778      -23.43335      0.5739391
      4682.5000         0.6442        13.3755       2452.797        97.5336         0.3604      -104.7565      -20.31205        0.63069
      4683.0000         0.6417        13.4718        2425.73        97.7965         0.3663      -103.0125      -18.56805      0.6623992
      4683.5000         0.6392        13.4848       2395.395         98.407         0.3721      -102.1395      -17.69505      0.6782718
      4684.0000          0.634        13.4584       2349.629          99.45         0.3777      -100.1733      -15.72885      0.7140209
      4684.5000         0.6271         13.292       2205.453       100.1702         0.3793       -97.7903      -13.34585      0.7573482
      4685.0000         0.6202        13.0178       2187.594       100.4069         0.3808       -95.8593      -11.41485      0.7924573
      4685.5000         0.6258        12.8473       2171.488        98.8109         0.3824       -92.8887      -8.444252      0.8464682
      4686.0000         0.6384        12.7488       2161.137        97.2917          0.384        -94.048      -9.603546        0.82539
      4686.5000         0.6509        12.7785       2149.988        95.9655         0.3856       -95.2074      -10.76295        0.80431
      4687.0000         0.6634        12.8376        2136.41         95.261         0.3871       -96.7075      -12.26305      0.7770355
      4687.5000         0.6752        12.9041       2122.836        94.8632         0.3887       -98.3892      -13.94475      0.7464591
      4688.0000         0.6865        12.9325       2108.961        95.5214         0.3897       -99.7893      -15.34485      0.7210028
      4688.5000         0.6978        12.9591       2095.055        96.7239         0.3898      -101.0463      -16.60185      0.6981481
      4689.0000         0.7091        13.0154       2081.754        97.4779         0.3898      -102.1821      -17.73765      0.6774973
      4689.5000         0.7204        13.0784       2075.492        98.3594         0.3899      -105.3713      -20.92685      0.6195118
      4690.0000         0.7192        13.1381       2085.598        99.6484         0.3899      -105.1929      -20.74845      0.6227554
      4690.5000          0.713        13.1481       2103.039       101.1095         0.3899      -104.3213      -19.87685      0.6386028
      4691.0000         0.7015        13.1455       2120.465       101.9615           0.39       -103.449      -19.00455      0.6544628
      4691.5000         0.6854        13.1321       2190.738       101.7643         0.3844       -102.671      -18.22655      0.6686082
      4692.0000         0.6694        13.0705       2205.809       101.4596         0.3775      -102.0135      -17.56905      0.6805628
      4692.5000         0.6534        13.0333       2221.844       101.7546         0.3707      -101.3617      -16.91725      0.6924136
      4693.0000         0.6373        13.1046       2240.875       102.0338         0.3638      -100.7703      -16.32585      0.7031664
      4693.5000         0.6213        13.1792       2268.246       102.9949          0.357      -100.1782      -15.73375      0.7139319
      4694.0000         0.6053        13.1646        2293.18       104.9657         0.3556       -98.6003      -14.15585      0.7426208
      4694.5000         0.5892        13.0999       2310.777       106.4008         0.3569       -95.3013      -10.85685      0.8026027
      4695.0000         0.5732        13.0351        2339.73       107.5464         0.3582       -93.0343      -8.589851      0.8438209
      4695.5000         0.5572         13.003       2364.762       109.8796         0.3595       -91.2305      -6.786049      0.8766173
      4696.0000         0.5411        12.9957       2372.094       112.0186         0.3609       -89.5414      -5.096947      0.9073282
      4696.5000         0.5395        12.9884       2360.949       113.2273         0.3622       -87.1646      -2.720146      0.9505428
      4697.0000         0.5644        13.0013       2346.965       109.1547         0.3613        -85.999       -1.55455      0.9717355
      4697.5000         0.5893        13.0168       2328.133       104.6465         0.3585       -89.1426      -4.698151      0.9145791
      4698.0000         0.6472        13.0292       2309.285        97.0851         0.3557       -92.2861      -7.841652      0.8574245
      4698.5000         0.6583        13.1066       2290.449        96.2179         0.3529       -95.6062      -11.16175      0.7970591
      4699.0000         0.6512         13.201       2265.852        97.2434         0.3501       -97.9465      -13.50205      0.7545081
      4699.5000         0.6441        13.1963       2240.441        99.1116         0.3473        -98.946      -14.50155      0.7363355
      4700.0000          0.637        13.1322       2228.816       101.4819         0.3465       -99.9462      -15.50175      0.7181501
      4700.5000         0.6298        13.1755       2217.188       100.9883         0.3458        -99.635      -15.19055      0.7238082
      4701.0000         0.6227        13.2352       2221.547       100.4792         0.3451       -98.2188      -13.77435      0.7495572
      4701.5000         0.6156        13.1974        2255.98       101.9482         0.3443       -96.5618      -12.11735      0.7796846
      4702.0000         0.6085        13.1234        2290.02       103.9203         0.3436       -94.6901      -10.24565      0.8137155
      4702.5000         0.6014         13.091        2318.75       105.9938         0.3455       -93.3344      -8.889946      0.8383646
      4703.0000         0.5943        13.0587       2343.816       107.7554          0.348       -91.3995      -6.955048      0.8735446
      4703.5000         0.5873        12.9913       2360.344       106.4725         0.3505       -87.6165       -3.17205      0.9423264
      4704.0000           0.59        12.8855       2379.352       104.4882         0.3529       -88.1622      -3.717751      0.9324045
      4704.5000         0.5928        12.8881        2400.48       103.3278         0.3554         -90.26      -5.815552      0.8942627
      4705.0000         0.5955         13.006       2430.102       102.5699         0.3578       -92.1083      -7.663849      0.8606573
      4705.5000         0.5973         13.091       2454.094       102.5833         0.3612       -91.9176      -7.473152      0.8641245
      4706.0000         0.5988        13.0894       2446.125       104.3694         0.3666        -91.118      -6.673546      0.8786628
      4706.5000         0.6004        13.0216       2426.621        103.835          0.372       -90.3186      -5.874153      0.8931972
      4707.0000         0.6019        12.9873       2404.551       102.6597         0.3774       -89.5803      -5.135849      0.9066209
      4707.5000         0.6035        12.8523       2381.867       102.1067         0.3828       -88.9124      -4.467949      0.9187646
      4708.0000          0.605        12.7425       2292.266       100.9994         0.3863       -88.0431      -3.598648        0.93457
      4708.5000         0.6072        12.8177       2192.195       101.4856         0.3788       -86.9781      -2.533653      0.9539336
      4709.0000         0.6097        12.8753       2161.934       103.0704         0.3714       -85.4521      -1.007652       0.981679
