#------------------------------------------------------------------------------
# Created by    : vladimir.rabinovich
# Created on    : 09/19/2023 17:20:01
#------------------------------------------------------------------------------
~Version Information Section
VERS.           2.0     :   CWLS log ASCII Standard - VERSION 2.0
WRAP.           NO      :   One line per depth step
~Well Information Section
#MNEM       .UNIT                                         VALUE :DESCRIPTION
#------------------------------------------------------------------------------
STRT        .FT                                            3496 :START DEPTH
STOP        .FT                                           13495 :STOP DEPTH
STEP        .FT                                             0.5 :STEP      
NULL        .                                           -999.25 :NULL      
COMP        .                      TEXAS EASTERN EXPLORATION CO :COMPANY   
WELL        .                                ST TR 00798-L NE/4 :WELL      
FLD         .                                           WILDCAT :FIELD     
LOC         .                                                   :LOCATION  
CNTY        .                        MUSTANG ISLAND LARGE BLOCK :LOCATION  
STAT        .                                             TEXAS :STATE     
CTRY        .                                     UNITED STATES :COUNTRY   
SRVC        .                                                   :SERVICE COMPANY
DATE        .                             9/13/2023 11:18:55 AM :LOG DATE  
API         .                                    42702302040000 :API NUMBER
UWI         .                                    42702302040000 :UNIQUE WELL ID
XCOORD      .                                  329124.923046376 :SURFACE X 
YCOORD      .                                  10022065.1107101 :SURFACE Y 
LAT         .                                        27.5591082 :LATITUDE  
LON         .                                       -97.0466418 :LONGITUDE 
ELEV        .FT                                              82 :ELEVATION VALUE
ELEV_TYPE   .                                                KB :ELEVATION REFERENCE TYPE
~Curve Information Section
#MNEM       .UNIT                                      API CODE :CURVE DESCRIPTION
#------------------------------------------------------------------------------
DEPT        .FT                                                 :DEPTH     
ASFL        .OHMM                                               :          
CILD        .MMHO                                               :          
GR          .GAPI                                               :          
GR_NORM     .GAPI                                               :GammaRay Normalized
ILD         .OHMM                                               :          
SFL         .OHMM                                               :          
SP          .MV                                                 :          
SP_NORM     .MV                                                 :SP Normalized
VSH_GR      .V/V                                                :Volume of Shale from GR
VSH_SP      .V/V                                                :Volume of Shale from SP
~A        DEPTH           ASFL           CILD             GR        GR_NORM            ILD            SFL             SP        SP_NORM         VSH_GR         VSH_SP
# ...
      9474.0000         0.8212       1474.807        61.8915       72.57179         0.7832          0.682       -40.3533      0.5823746       0.841953              1
      9474.5000         0.7982       1535.477         63.135       74.15792         0.7522         0.6831       -40.2363      0.6993713      0.8757004              1
      9475.0000         0.7612       1596.049        64.1401       75.43867          0.708          0.681       -40.1475      0.7881737      0.9029503              1
      9475.5000         0.7352       1656.721         65.047       76.59365         0.6746         0.6789       -40.1959      0.7397728      0.9275245              1
      9476.0000          0.718       1717.293        65.7892       77.53768          0.644         0.6757       -40.2443      0.6913719      0.9476103              1
      9476.5000         0.7019       1777.865        66.3937       78.30534         0.6135         0.6726       -40.2927       0.642971      0.9639435              1
      9477.0000         0.6931       1838.535        65.7301        77.4488         0.5862         0.6705       -40.3636      0.5720711      0.9457191              1
      9477.5000         0.6853       1899.107        64.7422       76.17687         0.5592         0.6703       -40.4363      0.4993744      0.9186569              1
      9478.0000         0.6774       1959.779        63.6658        74.7916         0.5479         0.6701       -40.5089      0.4267731      0.8891829              1
      9478.5000         0.6695       2014.502        62.5685       73.37956         0.5366         0.6726       -40.4708      0.4648743      0.8591396              1
      9479.0000         0.6617        2042.26        63.2038       74.18666         0.5285         0.6765       -40.3799      0.5557709       0.876312              1
      9479.5000         0.6556       2061.293        65.8407       77.55746         0.5235         0.6805       -40.2888      0.6468735      0.9480312              1
      9480.0000         0.6527       2071.652        67.2563       79.36401         0.5184           0.68       -40.2072      0.7284737      0.9864682              1
      9480.5000         0.6539       2074.824        68.7578       81.28057         0.5154         0.6783       -40.1589      0.7767715              1              1
      9481.0000           0.66       2072.113        71.2645        84.4846         0.5179         0.6774       -40.1107      0.8249741              1              1
      9481.5000         0.6658       2062.559        73.0303       86.73967         0.5205         0.6827       -40.0624      0.8732719              1              1
      9482.0000         0.6706       2048.355        73.4739       87.30125          0.522          0.688       -40.1708      0.7648735              1              1
      9482.5000         0.6747       2033.066        72.3508       85.85616         0.5218          0.691       -40.2728      0.6628723              1              1
      9483.0000         0.6778       2016.633        71.2351       84.42056         0.5211          0.686       -40.3361      0.5995712              1              1
      9483.5000         0.6797        2003.25        70.2053       83.09497         0.5153         0.6811       -40.3995       0.536171              1              1
      9484.0000         0.6807       2002.705        69.2235       81.83088         0.5094         0.6766       -40.4494      0.4862709              1              1
      9484.5000         0.6816       2017.576        68.6307       81.06501         0.4965         0.6722        -40.486      0.4496727              1              1
      9485.0000         0.6751       2032.422        68.2909       80.62318         0.4834         0.6679       -40.3189      0.6167717              1              1
      9485.5000         0.6685       2057.129        67.8934       80.10745         0.4703          0.665       -40.1515      0.7841721              1              1
      9486.0000         0.6596       2085.434        67.5675       79.68343         0.4573         0.6624        -39.891       1.044674      0.9932644              1
      9486.5000         0.6497       2123.996        67.4386       79.51174         0.4444         0.6598       -39.6228       1.312874      0.9896115              1
      9487.0000         0.6399       2175.301        68.2393       80.53071         0.4341          0.638       -39.3547       1.580975              1              1
      9487.5000         0.6289       2258.078        69.3428       81.93748         0.4274         0.6085       -39.1068       1.828873              1              1
      9488.0000         0.6175       2294.461        70.5618       83.49221         0.4208         0.5853       -38.9172       2.018475              1              1
      9488.5000         0.6067       2334.313         70.134       82.93769         0.4182         0.5696       -38.7277       2.207973              1              1
      9489.0000         0.5971       2376.844        69.2863       81.84534         0.4232         0.5566       -38.7252       2.210472              1              1
      9489.5000          0.587       2407.379         68.399       80.70226         0.4288         0.5479       -38.8671       2.068573              1              1
      9490.0000         0.5761       2403.711        69.5885       82.21921         0.4453         0.5529       -39.0087       1.926971              1              1
      9490.5000         0.5687        2308.34        71.1982       84.27435         0.4619         0.5716        -39.268       1.667671              1              1
      9491.0000         0.5646       2212.773        70.7411       83.68229         0.4785         0.5961       -39.6373       1.298374              1              1
      9491.5000         0.5795       2117.406        68.6816       81.03784         0.4988         0.6249       -39.9383      0.9973717              1              1
      9492.0000          0.627       2022.037        66.6248       78.39685         0.5192         0.6549       -40.0975      0.8381729      0.9658905              1
      9492.5000         0.6727       1926.469        64.5677       75.75549         0.5397         0.6849       -39.9558      0.9798737      0.9096912              1
      9493.0000         0.7182       1831.102        63.5073       74.39069         0.5506         0.7035       -39.8142       1.121471      0.8806531              1
      9493.5000         0.7637       1735.732        64.0873       75.12698         0.5578         0.7208       -39.7038       1.231873      0.8963188              1
      9494.0000         0.8094       1708.469         64.585       75.75784          0.565         0.7343       -39.6013       1.334373      0.9097413              1
      9494.5000         0.7814       1698.406        65.1011       76.41228         0.5751         0.7424       -39.6691       1.266571      0.9236655              1
      9495.0000         0.7545       1714.584        65.6454       77.10284         0.5836         0.7446       -39.7693       1.166374      0.9383584              1
      9495.5000         0.7384       1719.895        66.2045       77.81235         0.5786         0.7406       -39.9165       1.019173      0.9534542              1
      9496.0000         0.7279       1728.234        66.2401       77.85134         0.5737         0.7365        -40.064      0.8716736      0.9542838              1
      9496.5000         0.7222       1736.004        65.5176       76.91936         0.5647         0.7327       -40.1978      0.7378731      0.9344544              1
      9497.0000         0.7231       1743.639         64.795       75.98724         0.5531         0.7292       -40.3171      0.6185722      0.9146222              1
      9497.5000         0.7281       1752.338        64.1825       75.19614         0.5415         0.7258       -40.4365      0.4991722      0.8977903              1
      9498.0000         0.7352       1769.834        63.7856       74.68119           0.53         0.7223       -40.5558      0.3798714      0.8868338              1
