#------------------------------------------------------------------------------
# Created by    : vladimir.rabinovich
# Created on    : 09/19/2023 17:22:10
#------------------------------------------------------------------------------
~Version Information Section
VERS.           2.0     :   CWLS log ASCII Standard - VERSION 2.0
WRAP.           NO      :   One line per depth step
~Well Information Section
#MNEM       .UNIT                                         VALUE :DESCRIPTION
#------------------------------------------------------------------------------
STRT        .FT                                            1000 :START DEPTH
STOP        .FT                                            7796 :STOP DEPTH
STEP        .FT                                             0.5 :STEP      
NULL        .                                           -999.25 :NULL      
COMP        .                                SHELL OFFSHORE INC :COMPANY   
WELL        .                               OCS G06060 ST00BP00 :WELL      
FLD         .                                           WILDCAT :FIELD     
LOC         .                                                   :LOCATION  
CNTY        .                                BRAZOS LARGE BLOCK :LOCATION  
STAT        .                                             TEXAS :STATE     
CTRY        .                                     UNITED STATES :COUNTRY   
SRVC        .                                                   :SERVICE COMPANY
DATE        .                             9/13/2023 11:19:08 AM :LOG DATE  
API         .                                    42704401260000 :API NUMBER
UWI         .                                    42704401260000 :UNIQUE WELL ID
XCOORD      .                                   881020.58603234 :SURFACE X 
YCOORD      .                                   10392321.681828 :SURFACE Y 
LAT         .                                         28.616238 :LATITUDE  
LON         .                                        -95.367327 :LONGITUDE 
ELEV        .FT                                              90 :ELEVATION VALUE
ELEV_TYPE   .                                                KB :ELEVATION REFERENCE TYPE
~Curve Information Section
#MNEM       .UNIT                                      API CODE :CURVE DESCRIPTION
#------------------------------------------------------------------------------
DEPT        .FT                                                 :DEPTH     
CALI        .IN                                                 :          
CILD        .MMHO                                               :          
DPHI        .%                                                  :          
DT          .US/F                                               :          
GR          .GAPI                                               :          
GR_NORM     .GAPI                                               :GammaRay Normalized
ILD         .OHMM                                               :          
ILM         .OHMM                                               :          
SFL         .OHMM                                               :          
SP          .MV                                                 :          
SP_NORM     .MV                                                 :SP Normalized
VSH_GR      .V/V                                                :Volume of Shale from GR
VSH_SP      .V/V                                                :Volume of Shale from SP
~A        DEPTH           CALI           CILD           DPHI             DT             GR        GR_NORM            ILD            ILM            SFL             SP        SP_NORM         VSH_GR         VSH_SP
# ...
      2805.0000        -999.25       1827.748        -999.25       148.7405        77.7009       89.60909         0.5503         0.5841          0.662       -89.6396       5.688957              1              1
      2805.5000        -999.25       1817.484        -999.25       147.6501        76.6123       88.53072          0.559         0.5917         0.6746       -89.5101       5.813026              1              1
      2806.0000        -999.25       1804.836        -999.25       146.2991         75.947       87.87565         0.5613         0.5975         0.6954        -89.394       5.923698              1              1
      2806.5000        -999.25       1787.637        -999.25       145.0999        75.3873       87.32618         0.5625         0.6004         0.7276       -89.9562       5.356056              1              1
      2807.0000        -999.25       1774.486        -999.25       143.8999        74.3573       86.30641         0.5671         0.6021         0.7608       -90.8064       4.500427              1              1
      2807.5000        -999.25       1762.979        -999.25       144.4204        72.6747       84.63404         0.5715         0.6037         0.7699       -91.5948       3.706581              1              1
      2808.0000        -999.25       1750.951        -999.25       145.6423        70.3712       82.34077         0.5757         0.6061         0.7661       -92.2979       2.998055              1              1
      2808.5000        -999.25       1738.129        -999.25       146.3948        68.2136        80.1934         0.5816         0.6099         0.7245       -92.6727       2.617821              1              1
      2809.0000        -999.25       1720.715        -999.25       146.2881        66.9868       78.97683          0.589         0.6159         0.6897       -92.7318       2.553284      0.9782304              1
      2809.5000        -999.25       1701.586        -999.25       145.2139        66.4333       78.43356         0.5966         0.6243         0.6747       -92.4697       2.809944      0.9666714              1
      2810.0000        -999.25       1679.186        -999.25       144.0344        65.5792       77.58969         0.6042         0.6335         0.6759       -92.4493       2.824913      0.9487168              1
      2810.5000        -999.25       1654.428        -999.25       143.1204         64.672       76.69271         0.6137         0.6411         0.6907       -93.1951       2.073677      0.9296321              1
      2811.0000        -999.25       1628.438        -999.25        142.812         64.061       76.09194          0.623         0.6489         0.7102       -93.9125       1.350845      0.9168499              1
      2811.5000        -999.25       1601.322        -999.25        142.002        65.1366       77.17777         0.6319         0.6569         0.7305       -94.4623      0.7956009      0.9399526              1
      2812.0000        -999.25       1576.281        -999.25       140.3484        66.5225       78.57391          0.641         0.6642         0.7518       -94.6923       0.560173      0.9696576              1
      2812.5000        -999.25       1553.781        -999.25       138.3689        67.5084       79.57004         0.6503         0.6716         0.7684       -94.2703       0.976738      0.9908519              1
      2813.0000        -999.25       1536.627        -999.25        137.582        67.4879       79.55977         0.6558         0.6793         0.7821        -93.922       1.319603      0.9906334              1
      2813.5000        -999.25       1524.588        -999.25       136.5986        65.5056       77.58769         0.6574         0.6858         0.7876       -93.7288        1.50737      0.9486743              1
      2814.0000        -999.25       1527.494        -999.25       135.4624        62.8442       74.93652         0.6508         0.6902         0.7962       -93.6676       1.563133      0.8922665              1
      2814.5000        -999.25       1544.699        -999.25       134.7595        61.0599       73.16245         0.6404         0.6931         0.8139        -94.318      0.9072952      0.8545203              1
      2815.0000        -999.25       1575.727        -999.25       134.1194        59.7896       71.90239         0.6233         0.6825         0.8324       -96.0005     -0.7806396      0.8277104              1
      2815.5000        -999.25       1628.967        -999.25       133.2781        59.0613       71.18431         0.6051         0.6645         0.8365       -97.7113       -2.49688      0.8124322      0.9616185
      2816.0000        -999.25       1693.563        -999.25       133.4094        58.6774       70.81065         0.5882         0.6451         0.8273       -98.8903      -3.681305      0.8044818      0.9312486
      2816.5000        -999.25       1748.236        -999.25       134.2297        58.1735       70.31697         0.5734         0.6259         0.8041       -99.3546      -4.151039      0.7939781      0.9192041
      2817.0000        -999.25       1784.928        -999.25        135.635         57.121        69.2747         0.5617         0.6089         0.7732        -98.943      -3.744881      0.7718022      0.9296184
      2817.5000        -999.25       1812.141        -999.25       137.7388        55.5225       67.68643          0.549          0.594          0.728       -98.2139       -3.02121      0.7380092      0.9481741
      2818.0000        -999.25         1832.9        -999.25       138.9121        54.6843       66.85846         0.5381         0.5864         0.6951       -97.4707      -2.283447      0.7203928      0.9670911
      2818.5000        -999.25       1851.363        -999.25        136.873         57.308       69.49239         0.5288         0.5855          0.684       -97.1771      -1.995285      0.7764339      0.9744799
      2819.0000        -999.25       1868.086        -999.25       134.5793        60.2159       72.41052         0.5253         0.5874         0.6936       -97.4967      -2.320313      0.8385218      0.9661458
      2819.5000        -999.25       1882.068        -999.25        134.144        62.1411       74.34595         0.5225         0.5877         0.7309       -98.8262      -3.655258       0.879701      0.9319165
      2820.0000        -999.25       1891.834        -999.25       136.3843        62.4857       74.70078         0.5221         0.5871         0.7609       -99.6335      -4.467987      0.8872505      0.9110773
      2820.5000        -999.25       1888.264        -999.25       138.8721        61.4816       73.70691         0.5288         0.5892         0.7627      -100.3531      -5.193024      0.8661044      0.8924866
      2821.0000        -999.25       1836.084        -999.25       139.9902        60.3115       72.54704         0.5424         0.5938         0.7271      -100.4913      -5.336662      0.8414264      0.8888035
      2821.5000        -999.25       1792.469        -999.25       138.6113        61.6189       73.86467         0.5563         0.6012         0.7081       -99.1909      -4.041695      0.8694611      0.9220079
      2822.0000        -999.25       1762.121        -999.25       135.8682         63.307         75.563         0.5698         0.6103         0.7024       -97.6095      -2.465721      0.9055957      0.9624174
      2822.5000        -999.25       1728.193        -999.25       134.3081        64.0808       76.34703          0.583         0.6198         0.7545       -96.7074      -1.569061      0.9222773      0.9854087
      2823.0000        -999.25       1692.551        -999.25       137.0508        63.5025       75.77896         0.5949         0.6263         0.7941       -96.9457      -1.812798      0.9101906      0.9791591
      2823.5000        -999.25       1661.266        -999.25       140.0955         62.314       74.60069          0.606         0.6307         0.7782       -96.9154      -1.787933      0.8851211      0.9797966
