#------------------------------------------------------------------------------
# Created by    : vladimir.rabinovich
# Created on    : 09/19/2023 17:19:46
#------------------------------------------------------------------------------
~Version Information Section
VERS.           2.0     :   CWLS log ASCII Standard - VERSION 2.0
WRAP.           NO      :   One line per depth step
~Well Information Section
#MNEM       .UNIT                                         VALUE :DESCRIPTION
#------------------------------------------------------------------------------
STRT        .FT                                             290 :START DEPTH
STOP        .FT                                         11377.5 :STOP DEPTH
STEP        .FT                                             0.5 :STEP      
NULL        .                                           -999.25 :NULL      
COMP        .                         SONAT EXPLORATION GOM INC :COMPANY   
WELL        .                               OCS G04571 ST00BP00 :WELL      
FLD         .                                           WILDCAT :FIELD     
LOC         .                                                   :LOCATION  
CNTY        .                           HIGH ISLAND LARGE BLOCK :LOCATION  
STAT        .                                             TEXAS :STATE     
CTRY        .                                     UNITED STATES :COUNTRY   
SRVC        .                                                   :SERVICE COMPANY
DATE        .                             9/13/2023 11:19:19 AM :LOG DATE  
API         .                                    42708401190000 :API NUMBER
UWI         .                                    42708401190000 :UNIQUE WELL ID
XCOORD      .                                  1324427.25220013 :SURFACE X 
YCOORD      .                                  10679041.7751219 :SURFACE Y 
LAT         .                                         29.422046 :LATITUDE  
LON         .                                        -93.992863 :LONGITUDE 
ELEV        .FT                                             116 :ELEVATION VALUE
ELEV_TYPE   .                                                KB :ELEVATION REFERENCE TYPE
~Curve Information Section
#MNEM       .UNIT                                      API CODE :CURVE DESCRIPTION
#------------------------------------------------------------------------------
DEPT        .FT                                                 :DEPTH     
ASFL        .OHMM                                               :          
CALI        .IN                                                 :          
CILD        .MMHO                                               :          
GR          .GAPI                                               :          
GR_NORM     .GAPI                                               :GammaRay Normalized
ILD         .OHMM                                               :          
RHOB        .G/C3                                               :          
SP          .MV                                                 :          
SP_NORM     .GAPI                                               :SP Normalized
VSH_GR      .V/V                                                :Volume of Shale from GR
VSH_SP      .V/V                                                :Volume of Shale from SP
~A        DEPTH           ASFL           CALI           CILD             GR        GR_NORM            ILD           RHOB             SP        SP_NORM         VSH_GR         VSH_SP
# ...
      6950.0000         1.0359        13.5055       2840.004        51.2493       58.72915         0.3962         2.4118      -128.0229      -78.11595      0.5474288              0
      6950.5000         1.0061        13.6433       2942.938        51.8808       59.51915         0.3702         2.2507      -126.6511      -76.83333      0.5642372              0
      6951.0000         0.9354        13.8919       3009.707        52.5123       60.30914         0.3442         2.2349      -125.5106      -75.76659      0.5810456              0
      6951.5000         0.8908        14.1812       3073.891        52.9534       60.86095         0.3183         2.2899      -124.5765      -74.89248      0.5927862              0
      6952.0000         0.8693        14.4648       3137.184        53.1671       61.12828         0.2923         2.3459      -123.6438      -74.01969      0.5984741              0
      6952.5000         0.8545        14.5566       3197.195        53.2366       61.21523         0.2663         2.3803      -122.8008      -73.23061      0.6003239              0
      6953.0000         0.8381        14.5458       3238.699        52.8612       60.74561         0.2987         2.3672       -122.126      -72.59853       0.590332              0
      6953.5000         0.8649        14.4741       3265.402        51.8721       59.50827         0.3517         2.2755      -121.3923      -71.91147      0.5640059              0
      6954.0000         0.9268        14.4162        3190.34        46.7902       53.15092         0.4048          2.214      -119.8163      -70.43826      0.4287429              0
      6954.5000         1.0196        14.3651       3087.902         42.886       48.26684         0.4708         2.1726      -116.4218      -67.26778      0.3248264     0.03903176
      6955.0000         1.1125        14.3346       2985.465        39.0659       43.48798         0.5543         2.1451      -103.8678      -55.54844      0.2231485      0.2064509
      6955.5000         1.2053        14.3229       2882.926        36.1835       39.88215         0.6378         2.1651       -98.9938      -50.99709      0.1464288      0.2714701
      6956.0000         1.3234        14.3427       2780.492        35.1183       38.54961         0.7213         2.2256       -94.1196      -46.44557      0.1180769      0.3364918
      6956.5000         1.4494        14.3625       2256.086         34.052       37.21569         0.8046         2.4462       -89.2455      -41.89413     0.08969554      0.4015124
      6957.0000         1.5755        14.4313       1605.098        36.8119       40.66827         0.8731         2.4989       -84.2279      -37.20877      0.1631547      0.4684462
      6957.5000          1.439        14.5148       1328.785        39.4073       43.91506         0.9136         2.5162        -77.993      -31.38725      0.2322353      0.5516107
      6958.0000         1.2627        14.6235        1210.65        42.0002       47.15872         0.9542          2.489       -71.7582      -25.56583      0.3012494      0.6347739
      6958.5000         1.0865        14.7499       1156.477        46.1569       52.35866         0.9292         2.4189       -65.5232      -19.74422      0.4118864      0.7179397
      6959.0000         0.9103        14.9109       1130.004         52.936       60.83919         0.8961         2.3659       -59.2884       -13.9228      0.5923231      0.8011029
      6959.5000         0.7765        15.0821       1123.707         59.106       68.55772         0.8629         2.3223       -55.2703       -10.1703      0.7565473        0.85471
      6960.0000         0.7232        15.2582       1153.619         58.626       67.95725         0.8385         2.3163       -52.8877      -7.944264      0.7437713      0.8865105
      6960.5000         0.6805        15.4066       1425.063         58.146       67.35678         0.8142         2.3314       -49.7827      -5.043989      0.7309954       0.927943
      6961.0000         0.6795        15.4946       1436.514        57.6301        66.7114           0.79         2.3698       -49.0657      -4.372515      0.7172638      0.9375355
      6961.5000         0.6916         15.572       1444.699        57.0394       65.97245         0.7657         2.3989       -49.0488      -4.354467      0.7015415      0.9377933
      6962.0000         0.7032        15.6129       1447.689        56.4487        65.2335         0.7415         2.4177       -49.0318      -4.336324      0.6858191      0.9380525
      6962.5000         0.7093        15.5889       1447.762        55.9669       64.63078         0.7173         2.3943       -49.2745      -4.560571      0.6729952       0.934849
      6963.0000         0.7015        15.5445       1447.832         56.458       65.24513          0.693         2.3616        -49.568      -4.832228      0.6860666      0.9309682
      6963.5000         0.6577        15.4747       1447.904        56.9492       65.85961         0.6688         2.3251       -49.8149      -5.060392      0.6991407      0.9277087
      6964.0000         0.6151        15.2729       1470.668         57.893       67.04028         0.6445         2.3006       -49.7437      -4.991662      0.7242613      0.9286906
      6964.5000         0.5732        15.1872       1517.813        58.9198        68.3248         0.6203         2.2881       -49.6724      -4.922847      0.7515914      0.9296736
      6965.0000         0.5583        15.4034       1594.268        59.9454       69.60779          0.605         2.3165       -49.8332      -5.070649      0.7788891      0.9275622
      6965.5000         0.5419        15.5524       1641.885          61.65       71.74022         0.5899         2.3406       -50.0082       -5.23171        0.82426      0.9252613
      6966.0000          0.539         15.612       1666.873        63.7209       74.33087         0.5747         2.3473       -50.3035      -5.505048      0.8793802      0.9213564
      6966.5000         0.5461        15.6761       1691.861        65.8462       76.98957         0.5595         2.3459       -51.0494      -6.198946      0.9359483      0.9114437
      6967.0000          0.553        15.6691       1704.443         67.202       78.68565         0.5443         2.3356       -51.7953      -6.892843      0.9720352      0.9015308
      6967.5000         0.5579        15.6398       1698.543        68.7335       80.60153         0.5292         2.3047       -52.6799      -7.716196              1      0.8897686
      6968.0000         0.5576        15.5874       1685.924        70.6115       82.95088          0.514         2.2862       -53.7759      -8.736856              1      0.8751878
      6968.5000         0.5572        15.4674       1673.307        71.2671       84.36459         0.4988         2.2707        -54.872      -9.757607              1      0.8606056
      6969.0000         0.5553        15.3029       1660.701        71.7823       85.11054         0.5045         2.2559       -55.9977      -10.80598              1      0.8456288
      6969.5000         0.5526        15.1841       1647.846        71.4623       84.64722         0.5179          2.227       -57.1408       -11.8706              1        0.83042
      6970.0000         0.5499          15.16       1632.197        70.4036       83.11435         0.5313          2.216       -58.2827       -12.9341              1      0.8152272
      6970.5000         0.5473         15.361       1616.574        68.0878       79.76131         0.5448         2.2298        -61.426      -15.86557      0.9949216       0.773349
      6971.0000         0.5644        15.4964       1600.949        65.5295       76.05717         0.5581         2.2729       -68.2745      -22.25523      0.9161099      0.6820682
      6971.5000         0.5982        15.5916       1585.301        62.4814       71.64384         0.5712         2.2961       -72.9111      -26.58045      0.8222095      0.6202793
      6972.0000         0.6312        15.4766       1569.678        59.8687       67.86093         0.5641         2.3124       -77.4191      -30.78564      0.7417219      0.5602052
