#------------------------------------------------------------------------------
# Created by    : vladimir.rabinovich
# Created on    : 09/19/2023 17:19:48
#------------------------------------------------------------------------------
~Version Information Section
VERS.           2.0     :   CWLS log ASCII Standard - VERSION 2.0
WRAP.           NO      :   One line per depth step
~Well Information Section
#MNEM       .UNIT                                         VALUE :DESCRIPTION
#------------------------------------------------------------------------------
STRT        .FT                                             960 :START DEPTH
STOP        .FT                                            9172 :STOP DEPTH
STEP        .FT                                             0.5 :STEP      
NULL        .                                           -999.25 :NULL      
COMP        .                                ODECO OIL & GAS CO :COMPANY   
WELL        .                               OCS G06101 ST00BP00 :WELL      
FLD         .                                           WILDCAT :FIELD     
LOC         .                                                   :LOCATION  
CNTY        .                             GALVESTON LARGE BLOCK :LOCATION  
STAT        .                                             TEXAS :STATE     
CTRY        .                                     UNITED STATES :COUNTRY   
SRVC        .                                                   :SERVICE COMPANY
DATE        .                             9/13/2023 11:19:27 AM :LOG DATE  
API         .                                    42706401070000 :API NUMBER
UWI         .                                    42706401070000 :UNIQUE WELL ID
XCOORD      .                                  1041316.87817256 :SURFACE X 
YCOORD      .                                  10447909.9182991 :SURFACE Y 
LAT         .                                         28.776905 :LATITUDE  
LON         .                                        -94.870587 :LONGITUDE 
ELEV        .FT                                              92 :ELEVATION VALUE
ELEV_TYPE   .                                                KB :ELEVATION REFERENCE TYPE
~Curve Information Section
#MNEM       .UNIT                                      API CODE :CURVE DESCRIPTION
#------------------------------------------------------------------------------
DEPT        .FT                                                 :DEPTH     
ASFL        .OHMM                                               :          
GR          .GAPI                                               :          
GR_NORM     .GAPI                                               :GammaRay Normalized
ILD         .OHMM                                               :          
SP          .MV                                                 :          
SP_NORM     .MV                                                 :SP Normalized
VSH_GR      .V/V                                                :Volume of Shale from GR
VSH_SP      .V/V                                                :Volume of Shale from SP
~A        DEPTH           ASFL             GR        GR_NORM            ILD             SP        SP_NORM         VSH_GR         VSH_SP
# ...
      6948.5000         0.7879        64.9435       66.11526         0.7375        -75.337      -15.56354      0.7045799      0.7406077
      6949.0000         0.8211        64.9645       66.14304         0.7838       -70.5035      -8.796644      0.7051712      0.8533893
      6949.5000         0.8578        67.9817       70.13404         0.8302        -67.592      -4.720546       0.790086      0.9213243
      6950.0000         0.8951        69.0916       71.60217         0.8766       -66.4993      -3.190759      0.8213227      0.9468207
      6950.5000         0.9148        70.2003        73.0687         0.9229       -65.7188      -2.098067      0.8525256      0.9650322
      6951.0000         0.9337        71.0317       74.16844         0.9691       -65.1438       -1.29306      0.8759243       0.978449
      6951.5000         0.9497        71.5375       74.83749         1.0116       -64.5687     -0.4879257      0.8901593      0.9918679
      6952.0000         0.9549        72.0432       75.50639         1.0541       -64.1731     0.06591339      0.9043913              1
      6952.5000         0.9601        72.5496       76.17624         1.0718       -63.8376      0.5356171      0.9186434              1
      6953.0000         0.9581         73.037       76.82096         1.0669       -63.5021       1.005315      0.9323609              1
      6953.5000         0.9538        73.4783       77.40469         1.0621       -63.1672       1.474181      0.9447805              1
      6954.0000         0.9472        73.9196       77.98842         1.0497       -62.9571       1.768318      0.9572004              1
      6954.5000         0.9405        74.7821       79.12928         1.0306       -62.9242       1.814381       0.981474              1
      6955.0000         0.9342         75.791       80.46381         1.0114       -62.8912       1.860577              1              1
      6955.5000         0.9287        74.2253       78.39278         0.9924       -63.1541        1.49252      0.9658039              1
      6956.0000         0.9232        72.3654       75.93259         0.9733       -63.8406      0.5314194      0.9134595              1
      6956.5000         0.9202        70.1261       72.97056         0.9503        -64.573     -0.4939392      0.8504374      0.9917677
      6957.0000         0.9219        67.6705       69.72241         0.9237       -65.3054      -1.519298      0.7813279      0.9746784
      6957.5000         0.9235        65.8081       67.25891         0.8971       -66.4117      -3.068118       0.728913      0.9488647
      6958.0000         0.9308        64.1256       65.03339         0.8661       -67.9872      -5.273819      0.6815616       0.912103
      6958.5000         0.9387         62.577       62.98497         0.8155       -69.5626      -7.479381      0.6379782      0.8753437
      6959.0000         0.9467        61.3151        61.3158         0.7648       -71.6852      -10.45103      0.6024637      0.8258162
      6959.5000         0.9544        60.0605       59.65627         0.7209       -75.1182      -15.25723      0.5671546      0.7457129
      6960.0000         0.9453        59.0868       58.36831         0.6787       -79.0326      -20.73738      0.5397512      0.6543769
      6960.5000          0.917        58.1131       57.08034         0.6369       -81.8092      -24.62462      0.5123477      0.5895897
      6961.0000         0.8698        57.1089       55.75203         0.5969       -83.2133      -26.59037      0.4840858      0.5568272
      6961.5000          0.813        55.9359       54.20045         0.5787       -84.3523      -28.18497      0.4510734      0.5302506
      6962.0000         0.7638         54.764       52.65031         0.5929        -85.303      -29.51594      0.4180918      0.5080676
      6962.5000         0.7774        53.4985       50.97638          0.607       -86.0846      -30.61019      0.3824761      0.4898302
      6963.0000         0.8117        52.7314       49.96169         0.6211       -86.8662      -31.70443      0.3608871      0.4715929
      6963.5000         0.8562         54.612       52.44926          0.668       -87.8777      -33.12052       0.413814      0.4479913
      6964.0000         0.9048        56.7759       55.31156         0.7571       -89.3584       -35.1935      0.4747141      0.4134417
      6964.5000         0.9336        58.9081       58.13193         0.8112       -88.1041      -33.43748       0.534722      0.4427086
      6965.0000          0.894        61.0209       60.92664         0.8654        -87.791      -32.99914      0.5941838      0.4500143
      6965.5000          0.855        61.9564       62.16407         0.9058       -87.4784       -32.5615      0.6205122      0.4573083
      6966.0000         0.8258        60.7145       60.52135         0.8592       -87.3021      -32.31468      0.5855607       0.461422
      6966.5000         0.7966        58.4899       57.57875         0.8126        -87.126      -32.06814      0.5229521       0.465531
      6967.0000         0.7674         55.531       53.66486          0.766       -86.9755      -31.85744       0.439678      0.4690426
      6967.5000           0.75        56.8974       55.47227         0.7267       -86.8337      -31.65892      0.4781334      0.4723513
      6968.0000         0.7355        66.2336       67.82174         0.6953       -86.6921      -31.46068      0.7408881      0.4756553
      6968.5000          0.721        69.8635       72.62321         0.6639       -80.8171      -23.23568       0.843047      0.6127386
      6969.0000         0.7178        71.6384       74.97095         0.6828        -76.115      -16.65274      0.8929989      0.7224544
      6969.5000         0.7328        73.1349       76.95045         0.7078       -73.4042      -12.85762      0.9351161      0.7857063
      6970.0000         0.7488        74.1268       78.26249         0.7331       -71.1576      -9.712382      0.9630317       0.838127
      6970.5000         0.8003        75.1188       79.57465         0.7705       -67.2703      -4.270164        0.99095      0.9288306
      6971.0000         0.8415         75.416       79.96778         0.8078       -66.9235      -3.784642      0.9993145      0.9369226
      6971.5000         0.8541        74.5839       78.86712         0.8451       -66.5764      -3.298703      0.9758961      0.9450216
      6972.0000         0.8666        73.6223       77.59515         0.8824       -66.2457      -2.835718       0.948833       0.952738
      6972.5000         0.8792        72.6595       76.32162         0.9198       -65.9609      -2.437001      0.9217365      0.9593833
      6973.0000         0.8944        71.4075       74.66553         0.9583       -65.7781      -2.181081      0.8865006      0.9636487
      6973.5000         0.9103        68.3099       70.56817         0.9969       -66.0348      -2.540459      0.7993227       0.957659
      6974.0000         0.9686        65.2124       66.47095         1.0355       -66.2916      -2.899986       0.712148      0.9516669
      6974.5000         1.0248        63.4619       64.15548         1.0741       -66.8433      -3.672362      0.6628826       0.938794
      6975.0000         1.0914         61.743        61.8818         1.1121       -67.4712      -4.551421      0.6145064       0.924143
      6975.5000         1.1449        60.5493       60.30283         1.1374       -68.0996      -5.431184      0.5809113      0.9094803
      6976.0000         1.1729        59.7992       59.31063         1.1626        -68.629      -6.172339      0.5598007      0.8971277
      6976.5000         1.1862        59.0537       58.32452         1.1879       -68.9701      -6.649882      0.5388196      0.8891686
      6977.0000         1.1983        59.0455       58.31368         1.2132        -69.311      -7.127138      0.5385889      0.8812144
      6977.5000         1.2105         59.843       59.36857         1.2385       -69.6848      -7.650461      0.5610334      0.8724923
