#------------------------------------------------------------------------------
# Created by    : vladimir.rabinovich
# Created on    : 09/19/2023 17:21:20
#------------------------------------------------------------------------------
~Version Information Section
VERS.           2.0     :   CWLS log ASCII Standard - VERSION 2.0
WRAP.           NO      :   One line per depth step
~Well Information Section
#MNEM       .UNIT                                         VALUE :DESCRIPTION
#------------------------------------------------------------------------------
STRT        .FT                                            6712 :START DEPTH
STOP        .FT                                           10254 :STOP DEPTH
STEP        .FT                                             0.5 :STEP      
NULL        .                                           -999.25 :NULL      
COMP        .                                SHELL OFFSHORE INC :COMPANY   
WELL        .                               OCS G17145 ST00BP00 :WELL      
FLD         .                                           WILDCAT :FIELD     
LOC         .                                                   :LOCATION  
CNTY        .                           HIGH ISLAND LARGE BLOCK :LOCATION  
STAT        .                                             TEXAS :STATE     
CTRY        .                                     UNITED STATES :COUNTRY   
SRVC        .                                                   :SERVICE COMPANY
DATE        .                             9/13/2023 11:19:48 AM :LOG DATE  
API         .                                    42708404610000 :API NUMBER
UWI         .                                    42708404610000 :UNIQUE WELL ID
XCOORD      .                                  1236256.25309123 :SURFACE X 
YCOORD      .                                  10648843.7308139 :SURFACE Y 
LAT         .                                         29.336637 :LATITUDE  
LON         .                                        -94.268822 :LONGITUDE 
ELEV        .FT                                             110 :ELEVATION VALUE
ELEV_TYPE   .                                                KB :ELEVATION REFERENCE TYPE
~Curve Information Section
#MNEM       .UNIT                                      API CODE :CURVE DESCRIPTION
#------------------------------------------------------------------------------
DEPT        .FT                                                 :DEPTH     
CALI        .IN                                                 :          
CPCHM       .MMHO                                               :          
CPCM        .MMHO                                               :          
DFL         .OHMM                                               :          
DPHI        .%                                                  :          
DRHO        .G/C3                                               :          
DT          .US/F                                               :          
GR          .GAPI                                               :          
GR_NORM     .GAPI                                               :GammaRay Normalized
GRAM        .GAPI                                               :          
HDCN        .MMHO                                               :          
HDRS        .OHMM                                               :          
HMRS        .OHMM                                               :          
NPHI        .%                                                  :          
PE          .G/C3                                               :          
RACHM       .OHMM                                               :          
RACM        .OHMM                                               :          
RHOB        .G/C3                                               :          
ROPS        .F/HR                                               :          
RPCHM       .OHMM                                               :          
RPCM        .OHMM                                               :          
RPTHM       .MINS                                               :          
RPTM        .MINS                                               :          
SP01        .MV                                                 :          
TENS        .LBS                                                :          
VSH_GR      .V/V                                                :Volume of Shale from GR
~A        DEPTH           CALI          CPCHM           CPCM            DFL           DPHI           DRHO             DT             GR        GR_NORM           GRAM           HDCN           HDRS           HMRS           NPHI             PE          RACHM           RACM           RHOB           ROPS          RPCHM           RPCM          RPTHM           RPTM           SP01           TENS         VSH_GR
# ...
      8962.0000         8.6601       2048.426        -999.25         0.8239        19.0265        -0.1142       106.5234        44.0951       78.56483         86.001       1660.303         0.6023         0.6519        35.8762         9.3252          0.504        -999.25         2.3361         35.213          0.488        -999.25       101.9105        -999.25       477.2915       4185.047      0.9694644
      8962.5000         8.5137       2062.547        -999.25         0.8207        18.3786        -0.0943         102.35        45.6866       82.14218        88.5449       1697.463         0.5891         0.6449        35.6064         9.0942          0.517        -999.25         2.3468         27.754          0.485        -999.25        88.8899        -999.25       475.9287       4182.063              1
      8963.0000         8.5706       1894.158        -999.25         0.7735        19.1511        -0.0924        97.2109        48.0272       84.86343          90.48       1791.152         0.5583         0.6132        37.1584         8.7645          0.534        -999.25          2.334         27.754          0.528        -999.25        88.8613        -999.25       474.7378       4185.188              1
      8963.5000          8.652       1805.096        -999.25         0.7247        18.9724        -0.0673        95.3359        47.9335       85.69873         91.074       1878.486         0.5323         0.5822        36.7575         8.0937          0.547        -999.25          2.337        65.3429          0.554        -999.25        89.2532        -999.25        474.249        4184.93              1
      8964.0000         8.6683       1844.385        -999.25         0.7542        18.5676        -0.0598       100.8265        50.0868       86.40326         91.575       1924.527         0.5196         0.5623        36.0762         8.4549          0.548        -999.25         2.3436        65.3429          0.542        -999.25        90.0931        -999.25       473.3647       4184.844              1
      8964.5000         8.6276       1905.502        -999.25         0.7124        19.5538        -0.0686       102.5093        51.8188       82.79327        89.0079         1982.9         0.5043         0.5409        36.6932         8.6679          0.544        -999.25         2.3274         60.066          0.525        -999.25         91.152        -999.25       470.9531       4184.984              1
      8965.0000         8.5706       1888.244        -999.25         0.6449        21.1286         -0.048        106.189        50.5549       79.22141        86.4679        2107.91         0.4744         0.5083        36.3781         8.8765          0.538        -999.25         2.3014         60.066           0.53        -999.25        91.3043        -999.25       467.2314       4183.508      0.9834343
      8965.5000         8.4161       1919.521        -999.25         0.5926         22.801        -0.0378        113.264        50.2272       80.65873          87.49       2268.859         0.4407         0.4758        36.8618         7.6891          0.536        -999.25         2.2738         51.579          0.521        -999.25        91.4568        -999.25       463.5942       4183.641              1
      8966.0000         8.2859       1893.771        -999.25         0.6795        25.3666        -0.0369       119.2891        51.2103       83.30093        89.3689       2413.445         0.4143         0.4518         35.591         7.1092          0.533        -999.25         2.2314         51.579          0.528        -999.25        91.7084        -999.25       461.3018       4186.492              1
      8966.5000         8.1639       1908.443        -999.25         0.7303        26.6111        -0.0471       119.0812        52.0997       83.53733         89.537       2532.652         0.3948         0.4312        36.9135         7.3631          0.529        -999.25         2.2109         48.546          0.524        -999.25        91.9917        -999.25        460.354       4201.383              1
      8967.0000         8.1964       1938.359        -999.25         0.6323        26.9297        -0.0465       112.3187        50.6017       82.67094        88.9209       2634.441         0.3796         0.4116        37.4017         7.2419          0.512        -999.25         2.2057         48.546          0.516        -999.25        92.2108        -999.25       461.1538       4217.047              1
      8967.5000          8.172       2072.363        -999.25         0.5321        27.3912        -0.0552       110.4233        48.9166       82.00732         88.449       2684.516         0.3725         0.4014        39.2595          7.225          0.491        -999.25          2.198         54.615          0.483        -999.25        92.4304        -999.25       463.1475       4232.133              1
      8968.0000         8.1639       2216.648        -999.25            0.5        24.6798        -0.0439       117.1094        47.2314       82.40249          88.73        2650.73         0.3773         0.4075        39.0138         7.0892          0.472        -999.25         2.2428         54.615          0.451        -999.25        92.4459        -999.25        464.814       4244.313              1
      8968.5000         8.1313           2352        -999.25         0.5888        25.6866        -0.0553       130.3015        44.8909       82.89734        89.0819       2569.984         0.3891         0.4272        39.2125         7.7132          0.458        -999.25         2.2262         52.894          0.425        -999.25        92.4436        -999.25       466.8901       4237.125              1
      8969.0000         8.0744       2333.563        -999.25         0.6263        29.6226        -0.0955       135.0469        45.7335       83.14484        89.2579       2459.727         0.4065          0.454         40.484         8.6631          0.459        -999.25         2.1612         52.894          0.429        -999.25        92.4412        -999.25       470.4507        4233.43              1
      8969.5000         8.1801       2205.238        -999.25         0.6255        32.6264        -0.1615       133.2625        44.0951       82.97749        89.1389       2353.707         0.4249         0.4743        45.1199         9.4157          0.463        -999.25         2.1117         52.316          0.453        -999.25        92.7324        -999.25       474.9224       4235.414              1
      8970.0000         8.5869       2203.574        -999.25         0.6056        31.0793        -0.1926       130.0264         44.376       83.97172        89.8459       2297.523         0.4353         0.4769        49.1262         9.4526           0.47        -999.25         2.1372         52.316          0.454        -999.25        93.1187        -999.25       479.5591       4236.555              1
      8970.5000         9.4411       2153.699        -999.25         0.5358        30.6556        -0.2524       119.2749        43.6738       85.33311         90.814       2246.906         0.4451         0.4716        50.9788        10.5979          0.479        -999.25         2.1442         50.627          0.464        -999.25        93.5044        -999.25       483.2466       4241.555              1
      8971.0000        10.7916       2053.465        -999.25         0.5448        27.4301        -0.3202       110.4047        41.7546       85.28248         90.778       2196.785         0.4552         0.4673        47.1255        12.4463          0.493        -999.25         2.1974         50.627          0.487        -999.25        93.7975        -999.25        485.377        4237.18              1
      8971.5000        11.7841       1975.551        -999.25         0.5215        20.1012        -0.2754       122.1094        39.5078       85.05172        90.6139       2217.176          0.451         0.4592        45.9403        10.0277          0.518        -999.25         2.3183         52.116          0.506        -999.25        94.0443        -999.25       485.9336       4224.328              1
