#------------------------------------------------------------------------------
# Created by    : vladimir.rabinovich
# Created on    : 09/19/2023 17:22:15
#------------------------------------------------------------------------------
~Version Information Section
VERS.           2.0     :   CWLS log ASCII Standard - VERSION 2.0
WRAP.           NO      :   One line per depth step
~Well Information Section
#MNEM       .UNIT                                         VALUE :DESCRIPTION
#------------------------------------------------------------------------------
STRT        .FT                                              41 :START DEPTH
STOP        .FT                                            7991 :STOP DEPTH
STEP        .FT                                             0.5 :STEP      
NULL        .                                           -999.25 :NULL      
COMP        .                           ENERGY DEVELOPMENT CORP :COMPANY   
WELL        .                               OCS G11200 ST00BP00 :WELL      
FLD         .                                           WILDCAT :FIELD     
LOC         .                                                   :LOCATION  
CNTY        .                    NORTH PADRE ISLAND LARGE BLOCK :LOCATION  
STAT        .                                             TEXAS :STATE     
CTRY        .                                     UNITED STATES :COUNTRY   
SRVC        .                                                   :SERVICE COMPANY
DATE        .                             9/13/2023 11:18:55 AM :LOG DATE  
API         .                                    42701400410000 :API NUMBER
UWI         .                                    42701400410000 :UNIQUE WELL ID
XCOORD      .                                   309944.09600436 :SURFACE X 
YCOORD      .                                  9740515.29665267 :SURFACE Y 
LAT         .                                          26.78454 :LATITUDE  
LON         .                                        -97.077486 :LONGITUDE 
ELEV        .FT                                              91 :ELEVATION VALUE
ELEV_TYPE   .                                                KB :ELEVATION REFERENCE TYPE
~Curve Information Section
#MNEM       .UNIT                                      API CODE :CURVE DESCRIPTION
#------------------------------------------------------------------------------
DEPT        .FT                                                 :DEPTH     
CALI        .IN                                                 :          
DRHO        .G/C3                                               :          
DT          .US/F                                               :          
GR          .GAPI                                               :          
GR_NORM     .GAPI                                               :GammaRay Normalized
ILD         .OHMM                                               :          
ILM         .OHMM                                               :          
NPHI        .%                                                  :          
RFOC        .OHMM                                               :          
RHOB        .G/C3                                               :          
SP          .MV                                                 :          
SP_NORM     .MV                                                 :SP Normalized
VSH_GR      .V/V                                                :Volume of Shale from GR
VSH_SP      .V/V                                                :Volume of Shale from SP
~A        DEPTH           CALI           DRHO             DT             GR        GR_NORM            ILD            ILM           NPHI           RFOC           RHOB             SP        SP_NORM         VSH_GR         VSH_SP
# ...
      7619.0000         10.285         0.0225        85.7804        41.4061       29.47507         0.4105         0.4549        26.9838         0.9518         2.2783       -96.4473      -60.30272              0              0
      7619.5000        10.2867         0.0223        86.7145        43.7562       32.47967          0.414           0.46        26.9553         0.9645          2.283       -96.4607      -60.31612              0              0
      7620.0000        10.2846         0.0214         87.491        46.0334       35.39091         0.4171         0.4643        27.1218         0.9149         2.2879       -96.3092      -60.16462     0.05087037              0
      7620.5000        10.2821         0.0199        87.4497        47.5229       37.29322         0.4193         0.4684        27.2109         0.8194         2.2904       -95.7839      -59.63932     0.09134512    0.006113279
      7621.0000        10.2826         0.0176        86.2611        47.3682       37.08961         0.4163         0.4664        26.7665         0.8069         2.3035       -94.8228      -58.67822     0.08701308     0.02240307
      7621.5000        10.2912         0.0127        84.8502        46.4687       35.93205         0.4043         0.4591        26.3473         0.8425         2.3237       -93.8062      -57.66162      0.0623841     0.03963361
      7622.0000        10.2999          0.006        83.9193        45.5804       34.78883         0.4012         0.4545        25.9933         0.9464         2.3392       -92.6752      -56.53062     0.03806029     0.05880304
      7622.5000        10.3053         0.0148        83.4589        44.7513       33.72145         0.3994         0.4528        26.2427         0.9836         2.3403       -93.1899      -57.04532     0.01534994     0.05007928
      7623.0000        10.3098         0.0251        83.5287        43.9487       32.68801         0.4075           0.46        26.3451         0.9355         2.3252       -93.3193      -57.17472              0     0.04788615
      7623.5000        10.3143         0.0289        83.8954        43.2914       31.84066         0.4169         0.4724        26.1311         0.9058         2.3223       -93.4486      -57.30402              0     0.04569458
      7624.0000        10.3116         0.0268        83.6436        43.1693       31.67881         0.4392         0.4879        25.2843         0.8991         2.3309       -93.5479      -57.40332              0     0.04401159
      7624.5000        10.3068         0.0228        83.3324        43.2895        31.8273         0.4594         0.5045        24.7482         0.9378         2.3432       -93.6373      -57.49272              0     0.04249631
      7625.0000        10.3047         0.0241        82.8375        44.1563       32.93205         0.4764         0.5313        24.3502         1.0607          2.353        -93.692      -57.54742              0     0.04156914
      7625.5000        10.3052         0.0306        82.3431        44.9225       33.90796         0.5002         0.5632        23.9896         1.1012         2.3521       -93.6061      -57.46152     0.01931836     0.04302507
      7626.0000        10.3038         0.0472        81.8489        45.7477       34.95944         0.5332         0.6065          22.98         1.1077          2.346       -93.4756      -57.33102     0.04169018     0.04523694
      7626.5000        10.3029         0.0512        81.2396        44.2318       33.01238         0.5823         0.6488        22.3867         1.1301         2.3487       -93.1696      -57.02502   0.0002634576     0.05042338
      7627.0000        10.3097         0.0323        79.6635         41.225       29.15574         0.5998         0.6812        22.6925         1.2604          2.387       -92.8041      -56.65952              0     0.05661832
      7627.5000         10.316         0.0261        77.6614        39.0535       26.36898         0.6009         0.6848        23.4176         1.4588         2.4048       -92.3179      -56.17332              0     0.06485897
      7628.0000        10.3201          0.031        75.5201         39.402       26.80989         0.5924         0.6734        24.2098         1.4998         2.3939       -91.9077      -55.76312              0     0.07181155
      7628.5000        10.3242         0.0433        74.8972        40.3406        28.0066         0.5731         0.6248        25.1021         1.4078          2.382       -91.5372      -55.39262              0     0.07809118
      7629.0000        10.3233           0.05        75.8008        41.6754       29.71078         0.5482         0.5727        26.0594         1.2721          2.373       -91.4519      -55.30732              0     0.07953702
      7629.5000         10.322         0.0424        76.9087        44.9489       33.89809         0.5224         0.5459        26.7344         1.1475         2.3581       -91.5363      -55.39172     0.01910839     0.07810644
      7630.0000         10.322         0.0432        78.0737        47.1909       36.76423         0.4968         0.5305        26.5418         1.0155         2.3394        -91.764      -55.61942     0.08009005     0.07424714
      7630.5000        10.3225         0.0591        79.5791        46.4158         35.766         0.4697         0.5204        25.6861         1.0419         2.3375       -92.1996      -56.05502     0.05885112     0.06686408
      7631.0000        10.3195         0.0485         80.816        44.6532       33.50296         0.4515         0.5075         25.157         1.1935         2.3474       -92.3064      -56.16182     0.01070136     0.06505397
      7631.5000        10.3127          0.023        81.6781        43.5609       32.09846         0.4373          0.503        24.8475         1.2511         2.3454       -92.4623      -56.31772              0     0.06241149
      7632.0000        10.3059         0.0132        82.4158        43.7939       32.39143         0.4397         0.5089        25.5427         1.1691         2.3341        -92.668      -56.52342              0     0.05892511
      7632.5000        10.3075         0.0155        83.0908        46.0396       35.26232         0.4457         0.5187        26.2871         1.0147         2.3228       -92.7006      -56.55602     0.04813442     0.05837256
      7633.0000        10.3122         0.0186        83.4647        46.5316       35.88702         0.4446          0.526         26.824         0.9805         2.3136       -92.7328      -56.58822     0.06142596     0.05782674
      7633.5000        10.3169         0.0216        83.3197         44.574       33.37423         0.4392         0.5275         27.225         1.0236         2.3065       -92.6311      -56.48652    0.007962247     0.05955046
      7634.0000        10.3209         0.0227        82.2966         43.147       31.54103         0.4344         0.5287        27.3706         1.1056         2.3062       -92.5048      -56.36022              0     0.06169122
      7634.5000        10.3248         0.0224        80.7615        43.8607       32.44968         0.4326         0.5281        27.1152         1.1513         2.3155       -92.4221      -56.27752              0     0.06309296
      7635.0000        10.3272         0.0209        79.7014        44.7833       33.62591         0.4381         0.5275         26.769         1.1434         2.3191       -92.3473      -56.20272     0.01331727     0.06436073
      7635.5000        10.3277         0.0198        80.1677        44.3657       33.08559         0.4434         0.5289        26.6786         1.1026         2.3166       -92.2759      -56.13132     0.00182099     0.06557083
      7636.0000        10.3244         0.0198        81.8544        43.0303       31.36972         0.4466         0.5321        26.4585         1.0679         2.3161       -92.2075      -56.06292              0     0.06673024
      7636.5000        10.3224         0.0257        82.7859        42.6614       30.89175         0.4512         0.5353        26.0288         1.0554         2.3221       -92.1393      -55.99472              0     0.06788616
