#------------------------------------------------------------------------------
# Created by    : vladimir.rabinovich
# Created on    : 09/19/2023 17:22:56
#------------------------------------------------------------------------------
~Version Information Section
VERS.           2.0     :   CWLS log ASCII Standard - VERSION 2.0
WRAP.           NO      :   One line per depth step
~Well Information Section
#MNEM       .UNIT                                         VALUE :DESCRIPTION
#------------------------------------------------------------------------------
STRT        .FT                                             890 :START DEPTH
STOP        .FT                                            9495 :STOP DEPTH
STEP        .FT                                             0.5 :STEP      
NULL        .                                           -999.25 :NULL      
COMP        .                                   MARATHON OIL CO :COMPANY   
WELL        .                               OCS G04138 ST00BP00 :WELL      
FLD         .                                           WILDCAT :FIELD     
LOC         .                                                   :LOCATION  
CNTY        .                      MATAGORDA ISLAND LARGE BLOCK :LOCATION  
STAT        .                                             TEXAS :STATE     
CTRY        .                                     UNITED STATES :COUNTRY   
SRVC        .                                                   :SERVICE COMPANY
DATE        .                             9/13/2023 11:12:11 AM :LOG DATE  
API         .                                    42703402070000 :API NUMBER
UWI         .                                    42703402070000 :UNIQUE WELL ID
XCOORD      .                                  590883.400226114 :SURFACE X 
YCOORD      .                                  10259990.6406746 :SURFACE Y 
LAT         .                                         28.233929 :LATITUDE  
LON         .                                        -96.259589 :LONGITUDE 
ELEV        .FT                                              90 :ELEVATION VALUE
ELEV_TYPE   .                                                KB :ELEVATION REFERENCE TYPE
~Curve Information Section
#MNEM       .UNIT                                      API CODE :CURVE DESCRIPTION
#------------------------------------------------------------------------------
DEPT        .FT                                                 :DEPTH     
SP          .MV                                                 :          
SP_NORM     .MV                                                 :SP Normalized
VSH_SP      .V/V                                                :Volume of Shale from SP
~A        DEPTH             SP        SP_NORM         VSH_SP
# ...
      7160.0000         18.336      0.9058113              1
      7160.5000        18.3942      0.8452415              1
      7161.0000        18.4524       0.784668              1
      7161.5000        18.5013      0.7333965              1
      7162.0000        18.5461       0.686224              1
      7162.5000        18.5909      0.6390533              1
      7163.0000        18.6357      0.5918808              1
      7163.5000        18.6805      0.5447102              1
      7164.0000        18.7253      0.4975376              1
      7164.5000        18.7553      0.4651661              1
      7165.0000        18.7637      0.4543934              1
      7165.5000        18.7722      0.4435234              1
      7166.0000        18.7806      0.4327507              1
      7166.5000        18.7891      0.4218788              1
      7167.0000        18.7975      0.4111061              1
      7167.5000        18.7158      0.4904366              1
      7168.0000        18.6226      0.5812626              1
      7168.5000        18.5293      0.6721916              1
      7169.0000        18.4361      0.7630196              1
      7169.5000        18.3428      0.8539486              1
      7170.0000         18.142       1.052376              1
      7170.5000        17.8423       1.349705              1
      7171.0000        17.6369       1.552732              1
      7171.5000        17.4708       1.716461              1
      7172.0000        17.3048       1.880091              1
      7172.5000        17.0942       2.088318              1
      7173.0000         16.885       2.295147              1
      7173.5000        16.7265       2.451275              1
      7174.0000        16.5679       2.607504              1
      7174.5000        16.4655       2.707531              1
      7175.0000        16.3686       2.802059              1
      7175.5000        16.2716       2.896687              1
      7176.0000        16.1986       2.967316              1
      7176.5000        16.1343       3.029243              1
      7177.0000        16.0701       3.091072              1
      7177.5000        16.0094       3.149401              1
      7178.0000        15.9669       3.189529              1
      7178.5000        15.9244       3.229656              1
      7179.0000        15.8819       3.269786              1
      7179.5000        15.7836       3.365713              1
      7180.0000        15.6478       3.499142              1
      7180.5000         15.512       3.632569              1
      7181.0000        15.3762       3.765999              1
      7181.5000        15.2874       3.852426              1
      7182.0000        15.2281       3.909355              1
      7182.5000        15.1975       3.937582              1
      7183.0000        15.8513       3.281411              1
      7183.5000        16.4984       2.631939              1
      7184.0000         17.143       1.984968              1
      7184.5000        17.8054       1.320194              1
      7185.0000         18.472      0.6512241              1
      7185.5000        19.7545     -0.6336479              1
      7186.0000        21.1036      -1.985119      0.9776109
      7186.5000         22.521      -3.404892      0.9453434
      7187.0000        24.2872      -5.173464      0.9051486
      7187.5000        29.7018      -10.59044      0.7820356
      7188.0000        30.5825      -11.47351      0.7619658
      7188.5000        29.6432      -10.53658      0.7832596
      7189.0000        28.0368       -8.93255      0.8197148
      7189.5000        25.3313      -6.229424      0.8811495
      7190.0000          20.29      -1.190495      0.9956706
      7190.5000        19.0556     0.04153442              1
      7191.0000        17.8151       1.279663              1
      7191.5000        17.2345       1.857889              1
      7192.0000        19.0983   -0.008281708              1
      7192.5000        20.4523      -1.364653      0.9917125
      7193.0000        21.4695      -2.384224      0.9685404
      7193.5000        22.2781      -3.195196      0.9501092
      7194.0000        22.4066      -3.326069      0.9471348
      7194.5000         22.535      -3.456841      0.9441627
      7195.0000        23.1083      -4.032511      0.9310793
      7195.5000        23.9066      -4.833185      0.9128821
      7196.0000        26.7755      -7.704454       0.847626
      7196.5000        28.6808      -9.612127      0.8042699
      7197.0000        30.9276       -11.8613      0.7531523
      7197.5000        30.1763      -11.11237      0.7701734
      7198.0000        25.1459      -6.084343      0.8844467
      7198.5000        19.4496     -0.3904133              1
      7199.0000         17.587       1.469814              1
      7199.5000        16.5161       2.538343              1
      7200.0000        14.2997       4.752371              1
      7200.5000        15.0219         4.0278              1
      7201.0000        16.5368       2.510527              1
      7201.5000        16.9424       2.102556              1
      7202.0000        17.5254       1.517183              1
      7202.5000        18.1262      0.9140129              1
      7203.0000        19.0666    -0.02876091              1
      7203.5000        24.3946      -5.359131      0.9009289
      7204.0000        31.5473       -12.5142      0.7383136
      7204.5000        34.7919      -15.76118      0.6645188
      7205.0000        36.6508      -17.62245      0.6222171
      7205.5000        38.5073      -19.48132        0.57997
      7206.0000        42.4179      -23.39429      0.4910388
      7206.5000        50.2244      -31.20316      0.3135645
      7207.0000        62.1013      -43.08244     0.04358101
      7207.5000        62.9344       -43.9179     0.02459309
      7208.0000        63.3083      -44.29418     0.01604141
      7208.5000        63.6821      -44.67035    0.007492065
      7209.0000        64.0127      -45.00333              0
      7209.5000        64.3154      -45.30839              0
      7210.0000        64.6628      -45.65817              0
      7210.5000        65.1208      -46.11853              0
      7211.0000        65.4874       -46.4875              0
      7211.5000        65.8042      -46.80668              0
      7212.0000        65.1617      -46.16655              0
      7212.5000        64.7388      -45.74603              0
      7213.0000        64.6243       -45.6339              0
      7213.5000        64.5264      -45.53836              0
      7214.0000        64.4919      -45.50624              0
      7214.5000        64.4574      -45.47411              0
      7215.0000         64.423      -45.44208              0
      7215.5000        63.3955      -44.41695     0.01325104
      7216.0000          60.29      -41.31383     0.08377665
      7216.5000        56.6258        -37.652          0.167
      7217.0000         53.386      -34.41457      0.2405779
      7217.5000        49.4633      -30.49424      0.3296764
      7218.0000        35.6432      -16.67651      0.6437156
      7218.5000        33.4453      -14.48099      0.6936139
      7219.0000        31.2643      -12.30236      0.7431282
      7219.5000        29.0541      -10.09453      0.7933062
      7220.0000        46.1431       -27.1859      0.4048659
      7220.5000        48.1435      -29.18867      0.3593483
      7221.0000        51.8638      -32.91135      0.2747421
      7221.5000         54.718      -35.76791      0.2098201
      7222.0000        59.3141      -40.36639      0.1053094
      7222.5000        61.7781      -42.83276     0.04925555
      7223.0000        63.8615      -44.91853    0.001851515
      7223.5000        65.7423       -46.8017              0
      7224.0000         67.397      -48.45878              0
      7224.5000         68.072      -49.13615              0
      7225.0000        68.4246      -49.49112              0
      7225.5000        68.7649      -49.83379              0
