#------------------------------------------------------------------------------
# Created by    : vladimir.rabinovich
# Created on    : 09/19/2023 17:20:54
#------------------------------------------------------------------------------
~Version Information Section
VERS.           2.0     :   CWLS log ASCII Standard - VERSION 2.0
WRAP.           NO      :   One line per depth step
~Well Information Section
#MNEM       .UNIT                                         VALUE :DESCRIPTION
#------------------------------------------------------------------------------
STRT        .FT                                            1092 :START DEPTH
STOP        .FT                                            8058 :STOP DEPTH
STEP        .FT                                             0.5 :STEP      
NULL        .                                           -999.25 :NULL      
COMP        .                                    EXXON CO U S A :COMPANY   
WELL        .                               OCS G03029 ST00BP00 :WELL      
FLD         .                                           WILDCAT :FIELD     
LOC         .                                                   :LOCATION  
CNTY        .                        MUSTANG ISLAND LARGE BLOCK :LOCATION  
STAT        .                                             TEXAS :STATE     
CTRY        .                                     UNITED STATES :COUNTRY   
SRVC        .                                                   :SERVICE COMPANY
DATE        .                             9/13/2023 11:19:13 AM :LOG DATE  
API         .                                    42702400190000 :API NUMBER
UWI         .                                    42702400190000 :UNIQUE WELL ID
XCOORD      .                                  486295.566528254 :SURFACE X 
YCOORD      .                                  10047803.1546112 :SURFACE Y 
LAT         .                                         27.643077 :LATITUDE  
LON         .                                        -96.564717 :LONGITUDE 
ELEV        .FT                                              70 :ELEVATION VALUE
ELEV_TYPE   .                                                KB :ELEVATION REFERENCE TYPE
~Curve Information Section
#MNEM       .UNIT                                      API CODE :CURVE DESCRIPTION
#------------------------------------------------------------------------------
DEPT        .FT                                                 :DEPTH     
ASN         .OHMM                                               :          
CALI        .IN                                                 :          
CIL         .MMHO                                               :          
DRHO        .G/C3                                               :          
DT          .US/F                                               :          
GR          .GAPI                                               :          
GR_NORM     .GAPI                                               :GammaRay Normalized
ILD         .OHMM                                               :          
NPHI        .%                                                  :          
RHOB        .G/C3                                               :          
SN          .OHMM                                               :          
SP          .MV                                                 :          
SP_NORM     .MV                                                 :SP Normalized
VSH_GR      .V/V                                                :Volume of Shale from GR
VSH_SP      .V/V                                                :Volume of Shale from SP
~A        DEPTH            ASN           CALI            CIL           DRHO             DT             GR        GR_NORM            ILD           NPHI           RHOB             SN             SP        SP_NORM         VSH_GR         VSH_SP
# ...
      7144.0000         0.8278        10.8029       1452.742        -0.0427       127.6952        81.9617       75.37228         0.6656        36.5347         2.3597         0.9138       -64.2535      -1.571552       0.901538              1
      7144.5000         0.8318        10.6976       1441.586        -0.0448       128.0657         81.467       74.56074         0.6651        37.5793         2.3577         0.9057       -64.0795      -1.398796       0.884271              1
      7145.0000         0.8404        11.0661       1429.191        -0.0415       129.8435        82.1985       75.76077         0.6695         36.995         2.3618            0.9       -63.7432      -1.063747      0.9098037              1
      7145.5000         0.8495        11.4958       1415.709        -0.0347       131.4746        81.4259       74.49331          0.683        36.5424         2.3574         0.9067       -63.3768     -0.6986008      0.8828363              1
      7146.0000         0.8594        11.2294       1395.531        -0.0291       130.9106        79.6094       71.51333         0.6977        35.8802         2.3477         0.9141       -63.0723     -0.3953476      0.8194325              1
      7146.5000         0.8694        10.7683       1370.643        -0.0207       129.2888        78.0569       68.96645         0.7132        35.6669         2.3498         0.9288       -62.9155     -0.2397995      0.7652437              1
      7147.0000         0.8794        10.8376       1329.561        -0.0241       127.6621        77.3491       67.80529         0.7282        35.6557         2.3479         0.9495       -63.1716     -0.4971504      0.7405381              1
      7147.5000         0.8885        10.9216       1287.781        -0.0253       126.2178        78.0519       68.95826         0.7451        36.5815         2.3426         0.9669       -63.5696     -0.8963966      0.7650694              1
      7148.0000         0.8971        10.9877       1247.748        -0.0286       125.5885        78.9813       70.48296         0.7633        37.2183         2.3316          0.982       -63.7289       -1.05695      0.7975097              1
      7148.5000         0.9051        11.0477        1224.51        -0.0244       125.7242        80.4565       72.90301         0.7759        36.2991         2.3319         0.9804       -63.8123      -1.141598      0.8490002              1
      7149.0000          0.904        11.0607        1236.74        -0.0147       127.3547        82.3529       76.01405         0.7756        36.1611          2.344         0.9695       -63.9821      -1.312649      0.9151925              1
      7149.5000         0.9028        11.0479       1253.746          -0.01       128.1294        82.5323       76.30836         0.7695         36.032         2.3504         0.9511       -64.3577      -1.689495      0.9214545              1
      7150.0000         0.9022        11.0244       1273.037        -0.0098       127.0323          81.33       74.33598         0.7604        35.8489         2.3564          0.932       -64.6281      -1.961143       0.879489              1
      7150.5000         0.9115        10.9378       1291.203        -0.0144       125.7417        81.5114       74.63358         0.7531        35.6201         2.3611         0.9185       -64.8657      -2.199997      0.8858207      0.9953489
      7151.0000         0.9291        10.8437       1309.445        -0.0146       124.1937        82.0825       75.57045         0.7464        35.8375         2.3576         0.9162       -64.5558      -1.891346      0.9057543              1
      7151.5000          0.947        10.9283       1327.887        -0.0146       123.4672        82.7517       76.66828         0.7371        36.5875           2.36         0.9239       -64.0786      -1.415394      0.9291124              1
      7152.0000         0.9636        11.1814       1344.904        -0.0312       124.1613          84.79       80.01212         0.7272        37.7527         2.3324         0.9349       -63.5677     -0.9057465              1              1
      7152.5000         0.9608        10.8394       1356.688         -0.043       124.5217        86.8185       83.33989         0.7202        38.0789         2.3469         0.9312       -62.9946     -0.3338928              1              1
      7153.0000         0.9408        10.9617       1361.277        -0.0392       124.2749        88.1772       85.56883         0.7157        39.1126         2.3689           0.93        -62.295      0.3644562              1              1
      7153.5000         0.9215        11.4891       1365.201         -0.044       125.2607        87.7991       84.94857         0.7104        39.1463         2.3675         0.9289        -62.195      0.4632072              1              1
      7154.0000         0.9074        11.6084       1372.191        -0.0613         126.89        86.8783       83.43798         0.7047        38.7692         2.3412         0.9237       -62.5741     0.08285522              1              1
      7154.5000         0.9059        11.6653       1401.578        -0.0608       128.4167        85.8702        81.7842         0.6907        38.4047         2.3357         0.9089       -62.9183     -0.2625961              1              1
      7155.0000         0.9099        11.6843       1425.469        -0.0427       129.7698        84.7563       79.95685         0.6769        37.4407         2.3366         0.8901       -63.0233     -0.3688431      0.9990819              1
      7155.5000         0.9165        10.5472       1437.338         -0.023       130.0334        84.0605       78.81538         0.6647         37.413         2.3461          0.873       -62.8696     -0.2163925      0.9747954              1
      7156.0000         0.9232        10.2014       1445.727        -0.0081       128.7915        84.6411       79.76786         0.6606        36.5141         2.3663         0.8642       -63.2712     -0.6192436      0.9950609              1
      7156.5000         0.9287        10.1414       1444.533        -0.0042        127.426        84.2748       79.16695         0.6617        35.7164         2.3671         0.8627       -63.8431      -1.192394      0.9822756              1
      7157.0000         0.9207        10.0284       1440.436         -0.005       126.6161        83.6189       78.09093         0.6662        34.8669         2.3678         0.8778       -64.3944      -1.744946      0.9593814              1
      7157.5000         0.9127         9.6639         1411.6        -0.0105       126.5342        87.0876       83.78135         0.6723        34.3867         2.3648         0.8954       -64.8269      -2.178688              1      0.9958445
      7158.0000         0.9043         9.3156       1382.762        -0.0159       126.4915        90.6211       89.57806         0.6792        34.3185         2.3622         0.9174       -64.8844      -2.237442              1      0.9944781
      7158.5000         0.8954         9.3278       1356.574        -0.0102       126.0244        93.2588       93.90522         0.6905          34.01         2.3701           0.94       -64.6505      -2.004791              1      0.9998886
      7159.0000         0.8864         9.9215       1332.686        -0.0091       126.0219        92.4415       92.56445          0.705        33.7611         2.3693         0.9621        -64.121      -1.476543              1              1
      7159.5000         0.8642        10.2119        1308.82         -0.011       125.8539        92.6353       92.88236         0.7204        33.6982         2.3751         0.9844       -63.4102     -0.7669907              1              1
      7160.0000         0.8535         10.376       1285.906        -0.0166       125.0345        93.6476       94.54304         0.7368        33.9351         2.3723         0.9994       -62.6801    -0.03813934              1              1
      7160.5000         0.9087        10.5088       1263.316        -0.0131       124.5173        94.1796       95.41581         0.7566        34.2244         2.3814         1.0141       -62.0097      0.6310081              1              1
