#------------------------------------------------------------------------------
# Created by    : vladimir.rabinovich
# Created on    : 09/19/2023 17:22:18
#------------------------------------------------------------------------------
~Version Information Section
VERS.           2.0     :   CWLS log ASCII Standard - VERSION 2.0
WRAP.           NO      :   One line per depth step
~Well Information Section
#MNEM       .UNIT                                         VALUE :DESCRIPTION
#------------------------------------------------------------------------------
STRT        .FT                                            4012 :START DEPTH
STOP        .FT                                            9352 :STOP DEPTH
STEP        .FT                                             0.5 :STEP      
NULL        .                                           -999.25 :NULL      
COMP        .                                   KERR-MCGEE CORP :COMPANY   
WELL        .                                ST TR 00007-L SE/4 :WELL      
FLD         .                                           WILDCAT :FIELD     
LOC         .                                                   :LOCATION  
CNTY        .                           HIGH ISLAND LARGE BLOCK :LOCATION  
STAT        .                                             TEXAS :STATE     
CTRY        .                                     UNITED STATES :COUNTRY   
SRVC        .                                                   :SERVICE COMPANY
DATE        .                             9/13/2023 11:19:15 AM :LOG DATE  
API         .                                    42708302700000 :API NUMBER
UWI         .                                    42708302700000 :UNIQUE WELL ID
XCOORD      .                                   1285759.2062487 :SURFACE X 
YCOORD      .                                  10728779.4927599 :SURFACE Y 
LAT         .                                        29.5578886 :LATITUDE  
LON         .                                       -94.1158411 :LONGITUDE 
ELEV        .FT                                             125 :ELEVATION VALUE
ELEV_TYPE   .                                                KB :ELEVATION REFERENCE TYPE
~Curve Information Section
#MNEM       .UNIT                                      API CODE :CURVE DESCRIPTION
#------------------------------------------------------------------------------
DEPT        .FT                                                 :DEPTH     
CALI        .IN                                                 :          
CILD        .MMHO                                               :          
DPHI        .%                                                  :          
ILD         .OHMM                                               :          
ILM         .OHMM                                               :          
SFL         .OHMM                                               :          
SP          .MV                                                 :          
SP_NORM     .MV                                                 :SP Normalized
VSH_SP      .V/V                                                :Volume of Shale from SP
~A        DEPTH           CALI           CILD           DPHI            ILD            ILM            SFL             SP        SP_NORM         VSH_SP
# ...
      4356.5000        16.2825       2574.719        22.4494         0.3998         0.4405         0.6323        -95.035       -23.5883      0.6630242
      4357.0000        16.2831       2285.852        20.3764         0.4632          0.502          0.635       -90.9147       -19.4883      0.7215957
      4357.5000        16.2837       1953.785         20.016         0.5388         0.5563         0.6388       -82.0007       -10.5946      0.8486485
      4358.0000        16.2843       1585.781        20.4729          0.622         0.6065         0.6496       -76.1631        -4.7773      0.9317529
      4358.5000        16.2857       1420.828        20.8952         0.6878         0.6492         0.6619       -73.3291        -1.9635        0.97195
      4359.0000        16.2882        1274.43        21.2586         0.7353         0.6881           0.67       -71.3077         0.0376              1
      4359.5000        16.2906       1167.309         21.449         0.7899         0.7094         0.6764       -70.1722         1.1528              1
      4360.0000        16.2931       1120.547        21.2474         0.8344         0.7284          0.687       -69.6642         1.6406              1
      4360.5000        16.2955        1099.18        20.9615         0.8594         0.7397         0.6938       -69.2789         2.0056              1
      4361.0000        16.2979         1080.4        20.3794         0.8762         0.7512         0.7011       -69.0553          2.209              1
      4361.5000        16.3004       1065.645        19.7627         0.8788         0.7623         0.7097       -68.8365         2.4116              1
      4362.0000        16.3028       1061.719        19.2398         0.8796         0.7726         0.7184       -68.6394         2.5925              1
      4362.5000        16.3053       1058.002        18.8004         0.8734         0.7829         0.7292       -68.6902         2.5255              1
      4363.0000        16.3077       1091.828        18.5108         0.8671         0.7897         0.7415       -69.1694         2.0301              1
      4363.5000        16.3053       1119.564        18.1868         0.8607         0.7965         0.7541       -69.9646         1.2187              1
      4364.0000        16.2992       1137.693        17.8633         0.8543         0.8032          0.755       -70.6125         0.5546              1
      4364.5000        16.2931       1154.832        17.6256         0.8475         0.8084         0.7532       -71.0173         0.1336              1
      4365.0000         16.287       1163.143        17.4931         0.8408         0.8135         0.7581       -71.2673        -0.1326      0.9981057
      4365.5000        16.2758       1166.455        17.5082         0.8406         0.8187          0.763       -71.2731        -0.1546      0.9977914
      4366.0000        16.2645       1163.328        17.5234         0.8442         0.8245          0.768       -71.2789        -0.1766      0.9974771
      4366.5000        16.2538       1148.236        17.5669         0.8499         0.8309         0.7734       -71.2084        -0.1223      0.9982529
      4367.0000        16.2477       1131.545        17.6409         0.8622         0.8374         0.7789       -71.1215        -0.0515      0.9992643
      4367.5000        16.2416        1118.35        17.7149         0.8747         0.8439         0.7831       -71.0793        -0.0255      0.9996357
      4368.0000        16.2371       1108.494         17.789         0.8859         0.8479         0.7868       -71.1234        -0.0858      0.9987743
      4368.5000        16.2347       1101.764         17.863           0.89         0.8496         0.7855       -71.2008        -0.1794      0.9974371
      4369.0000        16.2324       1101.438        17.9371         0.8942         0.8513         0.7794       -71.6823        -0.6771      0.9903271
      4369.5000        16.2305       1118.436        18.0111         0.8935         0.8531         0.7577       -72.2028        -1.2138        0.98266
      4370.0000        16.2307       1136.711        18.0851          0.893         0.8548         0.7592        -72.755        -1.7822        0.97454
      4370.5000        16.2308       1174.354        17.9912         0.8929         0.8543         0.7688       -73.6967        -2.7401      0.9608557
      4371.0000         16.231       1195.291        17.8284         0.8928         0.8514         0.7797       -75.0997        -4.1593      0.9405814
      4371.5000        16.2346       1207.908        17.8625         0.8951         0.8485         0.7885       -75.5667        -4.6425      0.9336786
      4372.0000        16.2392       1223.447        17.9929         0.8987         0.8457         0.7737       -75.0183        -4.1103      0.9412814
      4372.5000        16.2437       1255.014        18.1626         0.9024         0.8429         0.7461       -74.3264        -3.4346      0.9509343
      4373.0000        16.2485       1286.582        18.1892         0.9061         0.8402         0.7222       -73.7697         -2.894      0.9586571
      4373.5000        16.2538       1312.049        18.2474         0.9112         0.8376         0.7019       -73.5366        -2.6771      0.9617557
      4374.0000        16.2591       1333.564        18.3166         0.9171         0.8351         0.6842       -73.8096        -2.9663      0.9576243
      4374.5000        16.2612       1366.529        18.2998         0.9231         0.8325          0.682       -74.3788        -3.5517      0.9492614
      4375.0000        16.2595        1414.74        18.2043         0.9284         0.8348         0.6827       -74.6949         -3.884      0.9445143
      4375.5000        16.2524       1437.801        17.9274         0.9296         0.8395          0.686       -74.9839        -4.1892      0.9401543
      4376.0000        16.2323       1435.898        17.5811         0.9308         0.8442         0.6842       -75.4504        -4.6719      0.9332586
      4376.5000        16.1856       1433.973        17.1112         0.9275         0.8489         0.6758        -76.142        -5.3797      0.9231471
      4377.0000        16.1158       1453.584        16.4801         0.9167         0.8559         0.6656       -76.8705        -6.1244      0.9125085
      4377.5000        16.0615       1475.014        15.7776         0.9069         0.8665         0.6685       -77.7649         -7.035         0.8995
      4378.0000        16.0465        1494.48        15.0464         0.8975         0.8772         0.6883       -78.8918        -8.1781        0.88317
      4378.5000        16.0719       1479.002        14.3033         0.8913          0.888         0.7018       -79.6705         -8.973      0.8718143
      4379.0000        16.1183       1445.227        13.6365         0.8966         0.8943         0.6947       -78.9438        -8.2625      0.8819643
      4379.5000        16.1723       1396.133        12.9929          0.902         0.8991         0.6821       -78.1688        -7.5036      0.8928057
      4380.0000         16.204       1348.365        12.9808         0.9313         0.9039         0.7219       -77.0388        -6.3898      0.9087172
      4380.5000        16.2172       1302.414        14.5419         0.9655         0.9104         0.7771       -75.9475        -5.3147      0.9240757
      4381.0000        16.2291       1239.525        16.0781         0.9883         0.9254         0.8414       -75.2603        -4.6437      0.9336614
      4381.5000        16.2401       1156.264        16.7872         0.9982         0.9406         0.8807       -74.6066        -4.0062      0.9427686
      4382.0000        16.2512       1070.742        16.8328         1.0107         0.9583         0.8873       -74.2593        -3.6751      0.9474986
      4382.5000        16.2574       996.7588        16.8784         1.0391         0.9826         0.8817        -73.912         -3.344      0.9522285
