#------------------------------------------------------------------------------
# Created by    : vladimir.rabinovich
# Created on    : 09/19/2023 17:19:47
#------------------------------------------------------------------------------
~Version Information Section
VERS.           2.0     :   CWLS log ASCII Standard - VERSION 2.0
WRAP.           NO      :   One line per depth step
~Well Information Section
#MNEM       .UNIT                                         VALUE :DESCRIPTION
#------------------------------------------------------------------------------
STRT        .FT                                             380 :START DEPTH
STOP        .FT                                            8002 :STOP DEPTH
STEP        .FT                                             0.5 :STEP      
NULL        .                                           -999.25 :NULL      
COMP        .                               AMOCO PRODUCTION CO :COMPANY   
WELL        .                               OCS G07253 ST00BP00 :WELL      
FLD         .                                           WILDCAT :FIELD     
LOC         .                                                   :LOCATION  
CNTY        .                             GALVESTON LARGE BLOCK :LOCATION  
STAT        .                                             TEXAS :STATE     
CTRY        .                                     UNITED STATES :COUNTRY   
SRVC        .                                                   :SERVICE COMPANY
DATE        .                             9/13/2023 11:19:27 AM :LOG DATE  
API         .                                    42706401230000 :API NUMBER
UWI         .                                    42706401230000 :UNIQUE WELL ID
XCOORD      .                                  925879.569593371 :SURFACE X 
YCOORD      .                                  10358786.1357032 :SURFACE Y 
LAT         .                                         28.526408 :LATITUDE  
LON         .                                        -95.225632 :LONGITUDE 
ELEV        .FT                                             100 :ELEVATION VALUE
ELEV_TYPE   .                                                KB :ELEVATION REFERENCE TYPE
~Curve Information Section
#MNEM       .UNIT                                      API CODE :CURVE DESCRIPTION
#------------------------------------------------------------------------------
DEPT        .FT                                                 :DEPTH     
ASFL        .OHMM                                               :          
CILD        .MMHO                                               :          
GR          .GAPI                                               :          
GR_NORM     .GAPI                                               :GammaRay Normalized
ILD         .OHMM                                               :          
SP          .MV                                                 :          
SP_NORM     .MV                                                 :SP Normalized
VSH_GR      .V/V                                                :Volume of Shale from GR
VSH_SP      .V/V                                                :Volume of Shale from SP
~A        DEPTH           ASFL           CILD             GR        GR_NORM            ILD             SP        SP_NORM         VSH_GR         VSH_SP
# ...
      7482.0000         0.9864       1270.693        48.7766       58.09137          0.799        -56.128      -15.65181       0.533859      0.6407419
      7482.5000         0.9714       1270.244        48.8792       58.28185         0.7947       -55.0847      -14.60851      0.5379116      0.6681972
      7483.0000         0.9604       1262.369        48.9819       58.47252         0.8021       -53.9966      -13.52041      0.5419686      0.6968313
      7483.5000         0.9494       1250.344        49.0844       58.66283         0.8095       -54.4349      -13.95871      0.5460176      0.6852972
      7484.0000         0.9402       1237.781        46.6071       54.06343         0.8169       -59.4147      -18.93851      0.4481582      0.5542498
      7484.5000         0.9354       1285.619        43.9702       49.16772         0.7768       -65.4453       -24.9691      0.3439941      0.3955499
      7485.0000         0.9306       1364.518        41.6745        44.9055         0.7338         -67.38       -26.9038      0.2533086      0.3446367
      7485.5000          0.922       1466.816        42.1688       45.82323         0.6909       -68.7407      -28.26451      0.2728346      0.3088287
      7486.0000         0.8786       1558.916        42.9717        47.3139         0.6476       -69.5892      -29.11301      0.3045512      0.2864997
      7486.5000         0.8385       1643.215        43.7748       48.80495         0.5939       -69.7853      -29.30911      0.3362755      0.2813393
      7487.0000         0.8121       1745.416        44.5778        50.2958         0.5403       -69.2275      -28.75131      0.3679957      0.2960182
      7487.5000          0.787       1828.314        45.2388       51.52303         0.4866       -68.7078      -28.23161      0.3941069      0.3096945
      7488.0000         0.7697       1922.613        44.4769       50.10847         0.4702        -68.244      -27.76781        0.36401      0.3218997
      7488.5000         0.7841       1976.914        43.7162       48.69615         0.4871       -70.0492      -29.57301      0.3339607      0.2743945
      7489.0000         0.8141       1908.613         43.288       47.90114         0.5041       -72.2578       -31.7816      0.3170456      0.2162736
      7489.5000         0.8445       1848.115        44.1035       49.41521          0.521       -74.6631      -34.18691      0.3492599      0.1529761
      7490.0000          0.893       1789.516        44.9189        50.9291         0.5379        -76.172       -35.6958      0.3814701      0.1132683
      7490.5000         0.9289       1751.289        45.5968        52.1877         0.5548       -77.4282      -36.95201       0.408249     0.08021034
      7491.0000         0.9478        1729.49        45.9227       52.79276         0.5897       -78.0643      -37.58811      0.4211225     0.06347084
      7491.5000         0.9311        1707.74        45.5165       52.03862         0.6228          -78.7       -38.2238       0.405077     0.04674199
      7492.0000         0.8824       1723.314        44.2155       49.62316         0.5976       -79.1818      -38.70561      0.3536843     0.03406294
      7492.5000         0.8469       1807.914        42.8149       47.02278         0.5725       -79.6592      -39.18301       0.298357     0.02149973
      7493.0000         0.8135       1924.014        41.3433       44.29058         0.5473       -80.1185      -39.64231      0.2402252    0.009412967
      7493.5000         0.7851       2019.014        39.7996       41.42453         0.5222        -80.568      -40.09181      0.1792454              0
      7494.0000         0.7578       2093.961        37.9147         37.925         0.4962       -80.9188      -40.44261      0.1047872              0
      7494.5000         0.7314       2317.609        36.0298       34.42548           0.47       -81.2225      -40.74631     0.03032928              0
      7495.0000         0.7056       2637.609        34.4213       31.43911         0.4439       -81.7339      -41.25771              0              0
      7495.5000          0.687       2765.309        32.8153        28.4574         0.4178       -82.3309      -41.85471              0              0
      7496.0000         0.6683       2854.906        32.3676       27.62619          0.393       -82.9166      -42.44041              0              0
      7496.5000         0.6555       2944.305        32.9809       28.76485         0.3686       -83.3303      -42.85411              0              0
      7497.0000         0.6427       3018.906        34.1026       30.84741         0.3442        -83.015      -42.53881              0              0
      7497.5000         0.6337       3062.355        34.4188       31.43448         0.3329       -82.5662      -42.09001              0              0
      7498.0000         0.6266       3097.504        32.3422       27.57903         0.3243       -82.1173      -41.64111              0              0
      7498.5000         0.6196       3061.105        30.6329       24.40552         0.3157       -81.7734      -41.29721              0              0
      7499.0000          0.611       2976.004        29.8896        23.0255         0.3071       -81.5186      -41.04241              0              0
      7499.5000         0.6073       2875.906        29.1476       21.64789         0.2986       -81.3552      -40.87901              0              0
      7500.0000         0.6363       2757.809        29.8187       22.89387         0.3147       -81.2787      -40.80251              0              0
      7500.5000         0.6652       2636.809         30.537       24.22747         0.3438       -81.0834       -40.6072              0              0
      7501.0000         0.7206       2510.008        31.4546        25.9311         0.3729       -80.1011       -39.6249              0    0.009870931
      7501.5000         0.7846       2370.008        32.4866       27.84712          0.402       -78.2137      -37.73751              0     0.05953929
      7502.0000         0.8426       2244.012        33.9507       30.56538          0.431       -76.9426       -36.4664              0     0.09298937
      7502.5000         0.8921       2182.609        35.5916       33.61191         0.4591       -75.7786      -35.30241     0.01301932      0.1236208
      7503.0000         0.9163       2145.313        37.3196       36.82014         0.4871       -74.7627      -34.28651     0.08127959       0.150355
      7503.5000         0.9391       2115.563        38.7401       39.45746          0.507       -74.1154      -33.63921      0.1373927      0.1673892
      7504.0000         0.8681        2084.16        39.7423       41.31815         0.4867       -74.3755      -33.89931      0.1769818      0.1605444
      7504.5000         0.8212       2053.188        39.2543       40.41213         0.4665       -75.1162      -34.64001      0.1577049      0.1410524
      7505.0000         0.7864       2083.613        37.3669       36.90796         0.4462       -75.8583      -35.38211     0.08314806      0.1215235
      7505.5000         0.7579        2207.41         35.863       34.11579         0.4333       -76.5311       -36.0549     0.02374024      0.1038183
      7506.0000          0.732       2307.309        36.6511       35.57899         0.4314       -76.3799      -35.90371     0.05487207      0.1077972
      7506.5000         0.7524       2390.508        37.4391         37.042         0.4392       -74.9619      -34.48571          0.086       0.145113
      7507.0000         0.7911        2253.41        38.1382       38.33996         0.4865       -73.2687      -32.79251      0.1136161      0.1896709
      7507.5000         0.8501       2095.613        38.7289       39.43666         0.5338       -68.2665      -27.79031      0.1369502      0.3213076
      7508.0000         0.8992       1938.014        39.3196       40.53337         0.5812       -65.8188      -25.34261      0.1602844      0.3857208
