#------------------------------------------------------------------------------
# Created by    : vladimir.rabinovich
# Created on    : 09/19/2023 17:22:29
#------------------------------------------------------------------------------
~Version Information Section
VERS.           2.0     :   CWLS log ASCII Standard - VERSION 2.0
WRAP.           NO      :   One line per depth step
~Well Information Section
#MNEM       .UNIT                                         VALUE :DESCRIPTION
#------------------------------------------------------------------------------
STRT        .FT                                             272 :START DEPTH
STOP        .FT                                            9222 :STOP DEPTH
STEP        .FT                                             0.5 :STEP      
NULL        .                                           -999.25 :NULL      
COMP        .                   MCMORAN OFFSHORE EXPLORATION CO :COMPANY   
WELL        .                               OCS G03108 ST00BP00 :WELL      
FLD         .                       MATAGORDA ISLAND BLOCK 0700 :FIELD     
LOC         .                                                   :LOCATION  
CNTY        .                      MATAGORDA ISLAND LARGE BLOCK :LOCATION  
STAT        .                                             TEXAS :STATE     
CTRY        .                                     UNITED STATES :COUNTRY   
SRVC        .                                                   :SERVICE COMPANY
DATE        .                             9/13/2023 11:12:09 AM :LOG DATE  
API         .                                    42703400850000 :API NUMBER
UWI         .                                    42703400850000 :UNIQUE WELL ID
XCOORD      .                                  483045.974763742 :SURFACE X 
YCOORD      .                                  10146137.6323278 :SURFACE Y 
LAT         .                                         27.912878 :LATITUDE  
LON         .                                       -96.5835889 :LONGITUDE 
ELEV        .FT                                              85 :ELEVATION VALUE
ELEV_TYPE   .                                                KB :ELEVATION REFERENCE TYPE
~Curve Information Section
#MNEM       .UNIT                                      API CODE :CURVE DESCRIPTION
#------------------------------------------------------------------------------
DEPT        .FT                                                 :DEPTH     
CILD        .MMHO                                               :          
DT          .US/F                                               :          
GR          .GAPI                                               :          
GR_NORM     .GAPI                                               :GammaRay Normalized
ILD         .OHMM                                               :          
ILM         .OHMM                                               :          
SFL         .OHMM                                               :          
SP          .MV                                                 :          
SP_NORM     .MV                                                 :SP Normalized
VSH_GR      .V/V                                                :Volume of Shale from GR
VSH_SP      .V/V                                                :Volume of Shale from SP
~A        DEPTH           CILD             DT             GR        GR_NORM            ILD            ILM            SFL             SP        SP_NORM         VSH_GR         VSH_SP
# ...
      6819.5000       2574.355       107.9749        -999.25        -999.25         0.3765          0.463         0.4893       -91.1946        -62.653        -999.25     0.03725397
      6820.0000       2258.801       106.3857        -999.25        -999.25         0.4052         0.4896          0.482       -90.7321        -62.193        -999.25     0.04455554
      6820.5000       2157.699       101.7595        -999.25        -999.25         0.4547         0.5323         0.6112       -90.8944       -62.3577        -999.25     0.04194126
      6821.0000       2134.582        98.1151        -999.25        -999.25         0.4745         0.5538         0.8948       -91.8424       -63.3081        -999.25     0.02685553
      6821.5000        2137.27        95.6248        -999.25        -999.25         0.4849         0.5331           1.24       -92.7516       -64.2197        -999.25     0.01238566
      6822.0000       2210.109        94.5352        -999.25        -999.25         0.4739         0.4999         1.3525       -93.1227       -64.5932        -999.25    0.006457132
      6822.5000       2404.379       100.9563        -999.25        -999.25         0.4549         0.4411         0.8707       -93.5952       -65.0681        -999.25              0
      6823.0000       2523.977       106.4353        -999.25        -999.25         0.4357         0.4147         0.5795       -94.1953       -65.6706        -999.25              0
      6823.5000       2696.727       115.5488        -999.25        -999.25         0.4165         0.3987         0.4328       -94.1932       -65.6709        -999.25              0
      6824.0000       2859.613       117.5868        -999.25        -999.25          0.396          0.388         0.3575       -93.8147       -65.2948        -999.25              0
      6824.5000        2868.43       114.7109        -999.25        -999.25         0.3863         0.3913         0.3422       -93.3474       -64.8299        -999.25    0.002699958
      6825.0000       2730.348       112.7028        -999.25        -999.25         0.3885         0.3855         0.3441       -92.5287       -64.0136        -999.25     0.01565709
      6825.5000       2320.684       105.5924        -999.25        -999.25         0.3932          0.385         0.3764       -92.0707        -63.558        -999.25     0.02288891
      6826.0000       2105.684        97.9961        -999.25        -999.25         0.4597         0.4359         0.5713       -91.8297       -63.3194        -999.25     0.02667618
      6826.5000       1879.385        89.4181        -999.25        -999.25         0.5446         0.5873         0.9171       -91.6145       -63.1066        -999.25     0.03005394
      6827.0000       1650.305         84.084        -999.25        -999.25         0.6055          0.689         2.0592       -91.2859       -62.7804        -999.25     0.03523176
      6827.5000       1569.781        83.2882        -999.25        -999.25         0.6371         0.7182         2.9196       -91.4783       -62.9752        -999.25     0.03213967
      6828.0000       1541.766        95.4177        -999.25        -999.25         0.6506         0.6865         2.8765       -92.6439       -64.1432        -999.25     0.01359994
      6828.5000       1619.959       107.2187        -999.25        -999.25         0.6135         0.6284         1.9058        -93.786       -65.2877        -999.25              0
      6829.0000        1994.42       112.4449        -999.25        -999.25         0.5213         0.5116         1.0381       -94.2003       -65.7044        -999.25              0
      6829.5000       2443.453       115.0654        -999.25        -999.25         0.4294         0.4459         0.7061        -94.178       -65.6845        -999.25              0
      6830.0000       2749.684       116.3026        -999.25        -999.25         0.3495         0.3798         0.4392       -93.6782       -65.1871        -999.25              0
      6830.5000       3395.469       115.4423        -999.25        -999.25         0.2998         0.3531         0.3678       -93.1511       -64.6625        -999.25    0.005357167
      6831.0000       3554.285       113.7762        -999.25        -999.25         0.2795         0.3519         0.3439         -92.59       -64.1038        -999.25     0.01422543
      6831.5000       3448.621       111.9739        -999.25        -999.25         0.2866          0.333         0.3195       -91.4436       -62.9598        -999.25     0.03238412
      6832.0000       3074.559       105.4436        -999.25        -999.25         0.3199          0.325         0.2911       -87.0759       -58.5945        -999.25      0.1016746
      6832.5000       2607.676        95.6061        -999.25        -999.25         0.3881         0.3656         0.2822       -85.6056       -57.1266        -999.25      0.1249746
      6833.0000       2236.785        87.0281        -999.25        -999.25         0.4666         0.4454          0.349       -84.6174       -56.1408        -999.25      0.1406222
      6833.5000       1989.857        81.7795        -999.25        -999.25         0.5666         0.5843         0.7241       -84.6118       -56.1376        -999.25       0.140673
      6834.0000       1601.713        77.3096        -999.25        -999.25         0.6591         0.6579          2.231       -85.1125       -56.6407        -999.25      0.1326873
      6834.5000       1438.482        83.7952        -999.25        -999.25         0.7002         0.6996           3.57        -86.111       -57.6416        -999.25         0.1168
      6835.0000       1275.152        88.8131        -999.25        -999.25         0.7631         0.7204         2.5952       -87.1094       -58.6424        -999.25      0.1009143
      6835.5000        1228.74        92.7991        -999.25        -999.25         0.8085         0.7262         1.4957       -87.8225       -59.3579        -999.25     0.08955716
      6836.0000       1198.297        92.2245        -999.25        -999.25         0.8157         0.7076         1.0514       -87.7471       -59.2849        -999.25     0.09071586
      6836.5000       1580.689        90.7878        -999.25        -999.25         0.7168         0.6625         0.6461       -87.5652       -59.1054        -999.25     0.09356508
      6837.0000        1872.84        89.9442        -999.25        -999.25         0.5865         0.6007         0.9529       -87.4779       -59.0205        -999.25     0.09491269
      6837.5000       2292.715        97.1829        -999.25        -999.25         0.4296         0.5018          1.079       -87.6792       -59.2242        -999.25     0.09167935
      6838.0000       2647.145       105.5626        -999.25        -999.25         0.3968         0.4263         0.8989       -87.2692       -58.8166        -999.25      0.0981492
      6838.5000       2785.879       109.7673        -999.25        -999.25         0.3676         0.4078         0.5504       -85.7628       -57.3126        -999.25      0.1220222
      6839.0000       2858.523       111.2264        -999.25        -999.25         0.3369         0.3922         0.3492       -82.4902       -54.0424        -999.25      0.1739302
      6839.5000       2944.254       112.0724        -999.25        -999.25         0.3126         0.3738         0.3237       -78.9872       -50.5418        -999.25      0.2294952
      6840.0000       3009.109       112.4053        -999.25        -999.25         0.3116         0.3811         0.3042       -74.1265       -45.6836        -999.25      0.3066095
      6840.5000       2885.941       108.2253        -999.25        -999.25         0.3261         0.4484         0.4402       -67.8488       -39.4083        -999.25      0.4062175
      6841.0000       2673.523       106.8542        -999.25        -999.25         0.3741         0.5193         0.5008       -65.3292       -36.8911        -999.25       0.446173
      6841.5000       2287.164       104.4023        -999.25        -999.25         0.4325         0.5947         0.5492       -64.2863       -35.8506        -999.25      0.4626889
