#------------------------------------------------------------------------------
# Created by    : vladimir.rabinovich
# Created on    : 09/19/2023 17:22:45
#------------------------------------------------------------------------------
~Version Information Section
VERS.           2.0     :   CWLS log ASCII Standard - VERSION 2.0
WRAP.           NO      :   One line per depth step
~Well Information Section
#MNEM       .UNIT                                         VALUE :DESCRIPTION
#------------------------------------------------------------------------------
STRT        .FT                                            3370 :START DEPTH
STOP        .FT                                           10136 :STOP DEPTH
STEP        .FT                                             0.5 :STEP      
NULL        .                                           -999.25 :NULL      
COMP        .                                  W&T OFFSHORE INC :COMPANY   
WELL        .                               OCS G04565 ST00BP00 :WELL      
FLD         .                              GALVESTON BLOCK 0303 :FIELD     
LOC         .                                                   :LOCATION  
CNTY        .                             GALVESTON LARGE BLOCK :LOCATION  
STAT        .                                             TEXAS :STATE     
CTRY        .                                     UNITED STATES :COUNTRY   
SRVC        .                                                   :SERVICE COMPANY
DATE        .                             9/13/2023 11:19:27 AM :LOG DATE  
API         .                                    42706401000000 :API NUMBER
UWI         .                                    42706401000000 :UNIQUE WELL ID
XCOORD      .                                  988505.563749319 :SURFACE X 
YCOORD      .                                  10486369.8338556 :SURFACE Y 
LAT         .                                        28.8802688 :LATITUDE  
LON         .                                       -95.0374578 :LONGITUDE 
ELEV        .FT                                              93 :ELEVATION VALUE
ELEV_TYPE   .                                                KB :ELEVATION REFERENCE TYPE
~Curve Information Section
#MNEM       .UNIT                                      API CODE :CURVE DESCRIPTION
#------------------------------------------------------------------------------
DEPT        .FT                                                 :DEPTH     
DPHI        .DEC                                                :          
DRHO        .G/C3                                               :          
DT          .US/F                                               :          
GR          .GAPI                                               :          
GR_1        .GAPI                                               :          
GR_NORM     .GAPI                                               :GammaRay Normalized
ILD         .OHMM                                               :          
NPHI        .DEC                                                :          
RHOB        .G/C3                                               :          
SP          .MV                                                 :          
SP_NORM     .MV                                                 :SP Normalized
VSH_GR      .V/V                                                :Volume of Shale from GR
VSH_SP      .V/V                                                :Volume of Shale from SP
~A        DEPTH           DPHI           DRHO             DT             GR           GR_1        GR_NORM            ILD           NPHI           RHOB             SP        SP_NORM         VSH_GR         VSH_SP
# ...
      3902.0000         0.2731        -0.0259        105.897        48.9548        -999.25       60.50388         0.4465         0.3366         2.2069       -67.2657      -18.94141      0.5851889      0.7294084
      3902.5000         0.2471        -0.0275       110.7557        50.3528        -999.25       62.55173         0.5114         0.3525         2.2302       -61.3041        -12.981      0.6287602      0.8145571
      3903.0000         0.2354        -0.0274       114.8185        50.4837        -999.25       62.74348         0.5909         0.3912         2.2505       -59.1799      -10.85799      0.6328399      0.8448859
      3903.5000         0.2276        -0.0228       119.1888        50.5243        -999.25       62.80295         0.6638         0.4306         2.2724       -57.3741      -9.053371      0.6341053      0.8706661
      3904.0000         0.2292         -0.015       122.9365        51.8514        -999.25       64.74695         0.7033         0.4462         2.2821       -55.3851      -7.065563       0.675467      0.8990634
      3904.5000          0.242        -0.0125       123.0841        54.6887        -999.25       68.90314          0.722         0.4426         2.2616       -53.5858      -5.267448      0.7638965      0.9247507
      3905.0000         0.2558        -0.0139        122.672         57.605        -999.25       73.17507         0.7169         0.4413         2.2293       -51.7736      -3.456436      0.8547888      0.9506223
      3905.5000         0.2685        -0.0155       123.6951        62.8599        -999.25       80.87268         0.7058          0.453         2.2135       -50.2892      -1.973225              1      0.9718111
      3906.0000         0.2736        -0.0153       126.1699        66.5133        -999.25       86.22433         0.6931         0.4728         2.2035       -49.5595      -1.244713              1      0.9822184
      3906.5000         0.2749        -0.0137       129.3865        67.8955        -999.25       88.24905         0.6785         0.4831         2.1999        -48.915     -0.6013985              1      0.9914086
      3907.0000         0.2752        -0.0147       129.8574        67.0793        -999.25       87.05344         0.6639         0.4755         2.1985       -48.2191     0.09331131              1              1
      3907.5000         0.2773         -0.015       129.5183        66.2351        -999.25       85.81682         0.6518         0.4846         2.1943       -47.5121      0.7991257              1              1
      3908.0000         0.2913        -0.0127       128.7949        67.9788        -999.25       88.37106         0.6533         0.5173         2.1693       -46.9741       1.335941              1              1
      3908.5000          0.308        -0.0082       131.9207        68.5728        -999.25       89.24118         0.6606         0.5326         2.1492       -47.5015      0.8073502              1              1
      3909.0000         0.3183        -0.0137       136.7339        66.5713        -999.25       86.30929         0.6662         0.5218         2.1346       -48.4733      -0.165638              1      0.9976338
      3909.5000         0.3236        -0.0202       136.3315        65.1838        -999.25       84.27683         0.6685         0.5067          2.121       -49.5503      -1.243824              1      0.9822311
      3910.0000         0.3274        -0.0281       134.2903        64.6451        -999.25       83.48773         0.6643         0.4972         2.1151       -50.6133      -2.308014              1      0.9670284
      3910.5000         0.3374        -0.0361       133.6006        63.9918        -999.25       82.53073           0.66         0.5062         2.1033       -51.2662      -2.962101              1      0.9576843
      3911.0000         0.3485        -0.0463       133.3398        63.4229        -999.25       81.69739         0.6555         0.5037         2.0831       -51.7405      -3.437588              1      0.9508916
      3911.5000         0.3547        -0.0559       132.9109        65.6477        -999.25       84.95637         0.6496         0.4954         2.0683       -52.1146      -3.812878              1      0.9455303
      3912.0000         0.3516        -0.0612        132.374        69.2159        -999.25       90.18321         0.6445         0.4962         2.0644       -52.8047      -4.504162              1      0.9356548
      3912.5000         0.3367         -0.059       133.3762         70.584        -999.25       92.18727         0.6406         0.5212         2.0773       -53.7627      -5.463348              1      0.9219522
      3913.0000         0.3176        -0.0445       135.9441        69.1259        -999.25       90.05139         0.6426         0.5418         2.0958       -54.9304       -6.63224              1      0.9052537
      3913.5000         0.3034        -0.0359        139.175        67.4689        -999.25       87.62415         0.6499          0.532         2.1182       -56.3194      -8.022427              1      0.8853939
      3914.0000         0.2959         -0.031       137.5288        66.1786        -999.25       85.73405         0.6653         0.4795         2.1474       -57.1153      -8.819511              1       0.874007
      3914.5000         0.3057        -0.0289       126.9968        65.3644        -999.25       84.54138          0.677          0.443         2.1596       -57.9029      -9.608303              1      0.8627385
      3915.0000          0.326         -0.033       122.4136        65.0427        -999.25       84.07014         0.6779          0.433         2.1327       -58.0223      -9.728889              1      0.8610159
      3915.5000         0.3374         -0.039       120.3429         67.191        -999.25       87.21707         0.6702         0.4662         2.1086       -56.1722      -7.879978              1      0.8874289
      3916.0000         0.3394        -0.0423       128.8569        69.9889        -999.25       91.31554         0.6581         0.4982         2.0948       -54.3442      -6.053165              1      0.9135262
      3916.5000         0.3316        -0.0382       132.5039        72.4261        -999.25       94.88567          0.646         0.5027         2.1018       -52.6653       -4.37545              1      0.9374936
      3917.0000         0.3262        -0.0338       132.4658         73.854        -999.25       96.97731         0.6347         0.4966         2.1066       -51.6127      -3.324043              1      0.9525137
      3917.5000         0.3268         -0.033       131.6094        73.9794        -999.25       97.16101         0.6251         0.4979         2.1067       -51.4458      -3.158329              1       0.954881
      3918.0000          0.323        -0.0337       133.1824         65.223        -999.25       84.33425         0.6156         0.5065         2.1122       -53.2015      -4.915215              1      0.9297826
      3918.5000         0.3059        -0.0366       132.9419        58.1977        -999.25       74.04328         0.6209            0.5         2.1438       -57.5575      -9.272404      0.8732613      0.8675371
      3919.0000         0.2831         -0.039       130.2227        51.5378        -999.25       64.28757         0.6284         0.4662         2.1858       -62.3394      -14.05549      0.6656931      0.7992073
      3919.5000         0.2557        -0.0375       120.1362        45.7496        -999.25       55.80876         0.6382         0.3998         2.2215       -67.2399      -18.95718      0.4852927      0.7291832
      3920.0000         0.2442        -0.0364       111.0708        43.1975        -999.25       52.07033         0.6452         0.3495         2.2473       -70.2439      -21.96236      0.4057517      0.6862519
      3920.5000         0.2433        -0.0364       108.6899        42.5376        -999.25       51.10368         0.6366         0.3496         2.2481       -72.3894      -24.10905      0.3851848       0.655585
