#------------------------------------------------------------------------------
# Created by    : vladimir.rabinovich
# Created on    : 09/19/2023 17:20:45
#------------------------------------------------------------------------------
~Version Information Section
VERS.           2.0     :   CWLS log ASCII Standard - VERSION 2.0
WRAP.           NO      :   One line per depth step
~Well Information Section
#MNEM       .UNIT                                         VALUE :DESCRIPTION
#------------------------------------------------------------------------------
STRT        .FT                                            2010 :START DEPTH
STOP        .FT                                            7000 :STOP DEPTH
STEP        .FT                                             0.5 :STEP      
NULL        .                                           -999.25 :NULL      
COMP        .                                    TEXAS GULF INC :COMPANY   
WELL        .                                ST OF TEX TR 693-L :WELL      
FLD         .                                           WILDCAT :FIELD     
LOC         .                                                   :LOCATION  
CNTY        .                      MATAGORDA ISLAND LARGE BLOCK :LOCATION  
STAT        .                                             TEXAS :STATE     
CTRY        .                                     UNITED STATES :COUNTRY   
SRVC        .                                                   :SERVICE COMPANY
DATE        .                             9/13/2023 11:12:01 AM :LOG DATE  
API         .                                    42703300330000 :API NUMBER
UWI         .                                    42703300330000 :UNIQUE WELL ID
XCOORD      .                                  377893.250269135 :SURFACE X 
YCOORD      .                                  10151490.3803449 :SURFACE Y 
LAT         .                                        27.9187241 :LATITUDE  
LON         .                                       -96.9091122 :LONGITUDE 
ELEV        .FT                                              70 :ELEVATION VALUE
ELEV_TYPE   .                                                KB :ELEVATION REFERENCE TYPE
~Curve Information Section
#MNEM       .UNIT                                      API CODE :CURVE DESCRIPTION
#------------------------------------------------------------------------------
DEPT        .FT                                                 :DEPTH     
ASN         .OHMM                                               :          
CILD        .MMHO                                               :          
ILD         .OHMM                                               :          
SP          .MV                                                 :          
SP_NORM     .MV                                                 :SP Normalized
VSH_SP      .V/V                                                :Volume of Shale from SP
~A        DEPTH            ASN           CILD            ILD             SP        SP_NORM         VSH_SP
# ...
      5620.0000           0.92       3682.215         0.3282      -114.0704       -68.4707              0
      5620.5000         0.8989        3759.34         0.3054      -115.2499        -69.655              0
      5621.0000         0.8777       3836.465         0.2838      -114.5675       -68.9774              0
      5621.5000         0.8565        3861.91         0.2972      -112.6637       -67.0784              0
      5622.0000         0.8353       3756.645         0.3107      -111.1973       -65.6168              0
      5622.5000         0.8161       3651.383         0.3241      -110.3423       -64.7666    0.003704737
      5623.0000         0.8092       3362.234         0.3376      -109.4878       -63.9169     0.01719205
      5623.5000         0.8263        3142.43         0.3511      -108.6334       -63.0672     0.03067937
      5624.0000         0.8582       3050.734         0.3629      -107.7791       -62.2177     0.04416348
      5624.5000         0.8901       2959.043         0.3746      -106.9247       -61.3681     0.05764922
      5625.0000         0.9027       2873.434         0.3864      -106.2959       -60.7441     0.06755399
      5625.5000         0.8995       2794.813         0.3959       -105.677         -60.13     0.07730157
      5626.0000         0.9131       2716.488         0.3895      -105.0587       -59.5165      0.0870397
      5626.5000         1.0029       2674.184         0.3832      -104.5526       -59.0152      0.0949968
      5627.0000         0.9625        3057.32         0.3773      -104.1813       -58.6486      0.1008158
      5627.5000         0.9222        3407.73         0.3723      -104.1345       -58.6066      0.1014825
      5628.0000         0.8819       3648.391         0.3672      -104.3073       -58.7842     0.09866351
      5628.5000         0.8436       3803.043         0.3622      -104.3273        -58.809     0.09826987
      5629.0000         0.8146       3918.383         0.3572      -104.3473       -58.8338     0.09787617
      5629.5000         0.7856       4012.121         0.3521      -103.5046       -57.9959      0.1111762
      5630.0000         0.7565       4067.797         0.3471      -103.3245       -57.8206      0.1139588
      5630.5000         0.7275       4126.359         0.3421      -104.6666       -59.1675     0.09257937
      5631.0000         0.7132       4087.801          0.337      -106.0076       -60.5132     0.07121906
      5631.5000         0.7364       4049.188          0.332      -107.3497       -61.8601     0.04983969
      5632.0000         0.7278       4010.574          0.327      -108.6919       -63.2071     0.02845873
      5632.5000         0.7192       3971.961         0.3219      -109.1852       -63.7052     0.02055238
      5633.0000         0.7334       3933.348         0.3233      -108.0903       -62.6151     0.03785554
      5633.5000         0.7552       3889.445         0.3272      -106.9955       -61.5251     0.05515713
      5634.0000         0.7733        3812.02         0.3311       -105.851       -60.3854     0.07324763
      5634.5000         0.7857       3734.594         0.3351      -107.9624       -62.5016     0.03965717
      5635.0000         0.7886       3657.168          0.339       -109.302        -63.846     0.01831745
      5635.5000         0.7797       3670.641         0.3429      -110.6417       -65.1904              0
      5636.0000         0.7707       3695.934         0.3469      -111.9111       -66.4646              0
      5636.5000         0.7617       3721.227         0.3508      -112.3639       -66.9222              0
      5637.0000         0.7527       3746.492         0.3547      -111.0406       -65.6037              0
      5637.5000         0.7437       3763.176         0.3587       -99.9901        -54.558       0.165746
      5638.0000         0.7347       3759.848         0.3626       -94.9496       -49.5223      0.2456778
      5638.5000         0.7258       3681.516         0.3665       -91.9297       -46.5072      0.2935365
      5639.0000         0.7331       3524.867         0.3748       -88.9124       -43.4947       0.341354
      5639.5000         0.7659       3368.418          0.387        -85.895        -40.482      0.3891746
      5640.0000         0.7985       3081.266         0.3992       -82.8751       -37.4669      0.4370333
      5640.5000         0.8308       2655.027         0.4114       -79.8577       -34.4543      0.4848524
      5641.0000          0.863        2408.18         0.4237       -76.1295       -30.7309       0.543954
      5641.5000         0.8952       2253.828         0.4359        -73.813       -28.4192      0.5806476
      5642.0000         0.8952       2384.633         0.4484       -78.6597       -33.2707      0.5036397
      5642.5000         0.8841       2487.902         0.4672       -81.7753       -36.3911      0.4541095
      5643.0000          0.873       2591.168         0.4801       -82.9136       -37.5341      0.4359667
      5643.5000         0.8619       2638.863         0.4694       -84.0693       -38.6946       0.417546
      5644.0000         0.8509       2589.523         0.4586        -82.035       -36.6651      0.4497603
      5644.5000          0.865       2529.109         0.4491       -79.7285       -34.3634      0.4862953
      5645.0000         0.8872       2453.578         0.4568       -77.6531       -32.2928      0.5191619
      5645.5000         0.9095       2378.051         0.4646       -76.0698       -30.7143      0.5442175
      5646.0000         0.9488        2302.52         0.4723       -74.9402       -29.5895      0.5620714
      5646.5000         1.0079       2239.512         0.4801        -75.175       -29.8291      0.5582682
      5647.0000          1.067        2276.18         0.4878       -81.3341        -35.993      0.4604286
      5647.5000         1.1312        2408.48         0.4956       -85.3507       -40.0143      0.3965984
      5648.0000         1.2025        2608.73          0.495       -89.5461       -44.2145      0.3299286
      5648.5000         1.1626       2817.758         0.4833       -93.8535       -48.5267       0.261481
      5649.0000         1.1027       2961.438         0.4716       -96.2023       -50.8803      0.2241222
      5649.5000         1.0428       3105.211         0.4598       -98.6306       -53.3134      0.1855016
      5650.0000         1.0034       3206.383         0.4481        -100.87       -55.5576      0.1498794
      5650.5000         1.0303       3249.938         0.4364       -98.3523       -53.0447      0.1897667
      5651.0000         1.0572       3293.488         0.4261       -99.7888        -54.486      0.1668889
      5651.5000         1.0842       3337.039         0.4184      -101.3423       -56.0442      0.1421555
      5652.0000         1.1111       3380.594         0.4107      -102.8994       -57.6061      0.1173635
      5652.5000         1.1494       3424.145         0.4029      -104.4591       -59.1706     0.09253015
      5653.0000         1.1122       3466.398         0.3952        -106.02       -60.7363     0.06767776
      5653.5000         1.0624       3507.508         0.3874      -107.5349        -62.256     0.04355555
      5654.0000         1.0076       3548.563         0.3797      -108.4806       -63.2065     0.02846824
      5654.5000         0.9504       3554.852          0.372      -109.4263        -64.157     0.01338099
      5655.0000         1.0534       3534.195         0.3642       -107.653       -62.3885     0.04145238
      5655.5000         1.1122        3513.52         0.3565      -106.5605       -61.3007     0.05871903
      5656.0000         1.1709       3492.863         0.3487      -107.3851       -62.1301     0.04555396
      5656.5000         1.1337       3467.098          0.341      -108.2097       -62.9595      0.0323889
      5657.0000         1.0802       3428.086         0.3333      -109.0342       -63.7888     0.01922541
      5657.5000         1.0446       3389.074         0.3342      -107.7499       -62.5093     0.03953492
