#------------------------------------------------------------------------------
# Created by    : vladimir.rabinovich
# Created on    : 09/19/2023 17:19:40
#------------------------------------------------------------------------------
~Version Information Section
VERS.           2.0     :   CWLS log ASCII Standard - VERSION 2.0
WRAP.           NO      :   One line per depth step
~Well Information Section
#MNEM       .UNIT                                         VALUE :DESCRIPTION
#------------------------------------------------------------------------------
STRT        .FT                                            4790 :START DEPTH
STOP        .FT                                           12963 :STOP DEPTH
STEP        .FT                                             0.5 :STEP      
NULL        .                                           -999.25 :NULL      
COMP        .                         ATLANTIC RICHFIELD CO THE :COMPANY   
WELL        .                               OCS G06150 ST00BP00 :WELL      
FLD         .                                           WILDCAT :FIELD     
LOC         .                                                   :LOCATION  
CNTY        .                           HIGH ISLAND LARGE BLOCK :LOCATION  
STAT        .                                             TEXAS :STATE     
CTRY        .                                     UNITED STATES :COUNTRY   
SRVC        .                                                   :SERVICE COMPANY
DATE        .                             9/13/2023 11:19:59 AM :LOG DATE  
API         .                                    42708402440000 :API NUMBER
UWI         .                                    42708402440000 :UNIQUE WELL ID
XCOORD      .                                  1291497.32246636 :SURFACE X 
YCOORD      .                                   10652058.279547 :SURFACE Y 
LAT         .                                         29.347015 :LATITUDE  
LON         .                                        -94.095521 :LONGITUDE 
ELEV        .FT                                             105 :ELEVATION VALUE
ELEV_TYPE   .                                                KB :ELEVATION REFERENCE TYPE
~Curve Information Section
#MNEM       .UNIT                                      API CODE :CURVE DESCRIPTION
#------------------------------------------------------------------------------
DEPT        .FT                                                 :DEPTH     
ALL         .OHMM                                               :          
CILD        .MMHO                                               :          
GR          .GAPI                                               :          
GR_NORM     .GAPI                                               :GammaRay Normalized
ILD         .OHMM                                               :          
SP          .MV                                                 :          
SP_NORM     .MV                                                 :SP Normalized
VSH_GR      .V/V                                                :Volume of Shale from GR
VSH_SP      .V/V                                                :Volume of Shale from SP
~A        DEPTH            ALL           CILD             GR        GR_NORM            ILD             SP        SP_NORM         VSH_GR         VSH_SP
# ...
      9692.5000          0.637       5140.344        41.2145       50.41316         0.1833      -106.9646      -74.23293      0.3704928              0
      9693.0000         0.6287       5122.422        41.1547       50.43342         0.1823      -107.0648      -74.33392      0.3709238              0
      9693.5000         0.6205        5105.43        41.0601       50.41016         0.1812      -107.1649      -74.43483      0.3704289              0
      9694.0000         0.6122       5103.508        40.9653       50.38667         0.1801      -107.2651      -74.53583       0.369929              0
      9694.5000         0.6137       5118.898        40.8707       50.36342          0.179      -107.3652      -74.63672      0.3694345              0
      9695.0000         0.6183       5156.336         40.776       50.34005          0.178      -107.4655      -74.73782      0.3689372              0
      9695.5000          0.623       5193.813        40.6814        50.3168         0.1789      -107.5656      -74.83873      0.3684424              0
      9696.0000         0.6276        5231.25        40.5866        50.2933         0.1802      -107.6655      -74.93942      0.3679427              0
      9696.5000          0.618        5268.68         40.492       50.25786         0.1815      -107.7656      -75.04033      0.3671885              0
      9697.0000         0.5811       5306.164        40.3974       50.13961         0.1828      -107.8658      -75.14133      0.3646726              0
      9697.5000         0.5439       5343.742        40.3028       50.02136         0.1841      -107.9838      -75.26013      0.3621566              0
      9698.0000         0.5038       5381.719         40.208       49.90286         0.1854      -108.1072      -75.38433      0.3596353              0
      9698.5000         0.4636       5419.703        40.2122       49.90811         0.1867      -108.2307      -75.50863       0.359747              0
      9699.0000         0.4309       5435.539        40.2181       49.91549          0.188      -108.3544      -75.63313      0.3599039              0
      9699.5000         0.4295       5390.656         40.224       49.92286         0.1893      -108.4778      -75.75732      0.3600608              0
      9700.0000         0.4584       5345.875        40.2299       49.93023         0.1906      -108.6013      -75.88164      0.3602177              0
      9700.5000         0.4874           5301        40.2358       49.93761         0.1919      -108.7247      -76.00583      0.3603747              0
      9701.0000         0.5163       5249.867        40.2418       49.94511         0.1932      -108.8484      -76.13033      0.3605342              0
      9701.5000         0.5453       5195.555        40.1389       49.81648         0.1945      -108.9742      -76.25693      0.3577975              0
      9702.0000         0.5742       5141.141        39.9992       49.64186         0.1958      -109.1161      -76.39963      0.3540821              0
      9702.5000         0.6031       5086.828        39.8596       49.46736         0.1971      -109.2583      -76.54263      0.3503693              0
      9703.0000         0.6091       5032.516        39.7198       49.29261         0.1984      -109.4003      -76.68543      0.3466512              0
      9703.5000         0.6119       4982.078        39.5801       49.11798         0.1997      -109.5424      -76.82833      0.3429359              0
      9704.0000         0.6076       4943.453        39.4401       48.94299         0.1981      -109.6843      -76.97104      0.3392124              0
      9704.5000         0.5119        4944.25        39.3005       48.76848         0.1964      -109.3495      -76.63704      0.3354996              0
      9705.0000         0.4348       4993.398        39.1608       48.59386         0.1947      -108.7937      -76.08203      0.3317843              0
      9705.5000          0.491       5042.547        39.0211       48.41923          0.193       -108.239      -75.52814      0.3280688              0
      9706.0000         0.5473       5091.695        38.8813       48.24448         0.1914      -107.6832      -74.97313      0.3243507              0
      9706.5000         0.6041       5106.141        38.7537       48.08498         0.1897      -106.6964      -73.98714      0.3209571              0
      9707.0000         0.6741       5094.078        38.6553       47.96198          0.188      -105.6367      -72.92824      0.3183401              0
      9707.5000         0.7441       5082.016        38.5571       47.83923         0.1863      -104.5789      -71.87124      0.3157284              0
      9708.0000         0.8283       5144.219        38.4589       47.71648         0.1846      -103.5192      -70.81234      0.3131167              0
      9708.5000         0.8664       5210.844        38.3606       47.59361          0.183      -102.4595      -69.75344      0.3105023              0
      9709.0000         0.8879       5277.469        38.2623       47.47073          0.188      -101.6572      -68.95194      0.3078879              0
      9709.5000         0.8255       5344.188        38.1641       47.34798         0.1933      -101.0148      -68.31034      0.3052763              0
      9710.0000         0.5584       5410.813        38.0658       47.22511         0.1987      -100.3723      -67.66864      0.3026619              0
      9710.5000         0.4694       5477.539        37.9675       47.10223         0.2041       -99.7299      -67.02704      0.3000475              0
      9711.0000         0.4582       5350.938        37.8693       46.97948         0.2094       -99.0864      -66.38434      0.2974358              0
      9711.5000         0.4787       5173.016        37.8542       46.96061         0.2148       -97.7941      -65.09283      0.2970342              0
      9712.0000         0.4991       5008.984        37.8884       47.00336         0.2202       -95.4531      -62.75264      0.2979439     0.03457471
      9712.5000         0.5196       4884.875        37.9225       47.04598         0.2543       -93.1122      -60.41254      0.2988507      0.0705763
      9713.0000         0.5498       4750.234        38.0023       47.14573         0.2994       -90.2284      -57.52954       0.300973      0.1149301
      9713.5000         0.5876       4462.891         38.254       47.46036         0.3445       -84.3058      -51.60774      0.3076673      0.2060347
      9714.0000         0.6253       3873.504        38.5057       47.77498         0.3897        -78.745      -46.04774      0.3143613      0.2915732
      9714.5000         0.6631       3781.559        38.7571       48.08923         0.4349       -65.1422      -32.44574      0.3210475      0.5008348
      9715.0000         0.7008       3685.645        39.0087       48.40374         0.4813       -59.2639      -26.56824      0.3277391      0.5912578
      9715.5000         0.7313       3577.023        39.2604       49.27521          0.537       -55.6897      -22.99485       0.346281      0.6462331
      9716.0000         0.7387       3468.203        39.5121       52.42647         0.5926       -52.4256      -19.73154      0.4133291      0.6964378
      9716.5000         0.7461       3339.324        39.7639       55.57773         0.6482       -50.1068      -17.41354      0.4803772      0.7320994
      9717.0000         0.7535       3200.516        40.0156       58.72899         0.6437       -48.2827      -15.59024      0.5474253      0.7601501
      9717.5000         0.7608       3007.098        40.2673       61.88025         0.6346       -46.5584      -13.86674      0.6144734      0.7866654
      9718.0000         0.7669       2675.867        40.5189       65.03151         0.6256       -47.2433      -14.55245      0.6815215      0.7761162
      9718.5000         0.7722       2313.656        40.6986       68.18277         0.6165       -47.9274      -15.23734      0.7485695      0.7655793
