#------------------------------------------------------------------------------
# Created by    : vladimir.rabinovich
# Created on    : 09/19/2023 17:19:47
#------------------------------------------------------------------------------
~Version Information Section
VERS.           2.0     :   CWLS log ASCII Standard - VERSION 2.0
WRAP.           NO      :   One line per depth step
~Well Information Section
#MNEM       .UNIT                                         VALUE :DESCRIPTION
#------------------------------------------------------------------------------
STRT        .FT                                            2960 :START DEPTH
STOP        .FT                                           11758 :STOP DEPTH
STEP        .FT                                             0.5 :STEP      
NULL        .                                           -999.25 :NULL      
COMP        .                             CHAMPLIN PETROLEUM CO :COMPANY   
WELL        .                               OCS G06095 ST00BP00 :WELL      
FLD         .                                           WILDCAT :FIELD     
LOC         .                                                   :LOCATION  
CNTY        .                             GALVESTON LARGE BLOCK :LOCATION  
STAT        .                                             TEXAS :STATE     
CTRY        .                                     UNITED STATES :COUNTRY   
SRVC        .                                                   :SERVICE COMPANY
DATE        .                             9/13/2023 11:19:27 AM :LOG DATE  
API         .                                    42706401150000 :API NUMBER
UWI         .                                    42706401150000 :UNIQUE WELL ID
XCOORD      .                                  1057213.14222316 :SURFACE X 
YCOORD      .                                  10507856.7651171 :SURFACE Y 
LAT         .                                        28.9424301 :LATITUDE  
LON         .                                       -94.8238502 :LONGITUDE 
ELEV        .FT                                              89 :ELEVATION VALUE
ELEV_TYPE   .                                                KB :ELEVATION REFERENCE TYPE
~Curve Information Section
#MNEM       .UNIT                                      API CODE :CURVE DESCRIPTION
#------------------------------------------------------------------------------
DEPT        .FT                                                 :DEPTH     
ASFL        .OHMM                                               :          
CILD        .MMHO                                               :          
GR          .GAPI                                               :          
GR_NORM     .GAPI                                               :GammaRay Normalized
ILD         .OHMM                                               :          
SP          .MV                                                 :          
SP_NORM     .MV                                                 :SP Normalized
VSH_GR      .V/V                                                :Volume of Shale from GR
VSH_SP      .V/V                                                :Volume of Shale from SP
~A        DEPTH           ASFL           CILD             GR        GR_NORM            ILD             SP        SP_NORM         VSH_GR         VSH_SP
# ...
     11148.5000         0.4409       3018.566         67.673       86.02005         0.2953        24.4461      -3.062452              1      0.9799537
     11149.0000         0.4305       3063.336        68.1624       86.78751         0.2936        24.4027      -3.019053              1      0.9807726
     11149.5000         0.4202       3108.105         68.653       87.55692         0.2919        24.3593      -2.975653              1      0.9815915
     11150.0000         0.4123       3152.871        69.3657       88.69068         0.2902        24.5606      -3.176952              1      0.9777933
     11150.5000         0.4057       3204.898        70.1388       89.92353          0.289        24.8502      -3.466553              1      0.9723292
     11151.0000         0.4001       3268.707        70.9106       91.15426         0.2912        25.1404      -3.756752              1      0.9668537
     11151.5000         0.4026       3319.887        71.4705       92.03735         0.2933        25.4235      -4.039852              1      0.9615122
     11152.0000         0.4052       3354.168        71.4242       91.92599         0.2955        25.7025      -4.318851              1      0.9562481
     11152.5000         0.4077       3360.344        71.3778       91.81446         0.2976        25.9821      -4.598452              1      0.9509726
     11153.0000         0.4102       3366.516        71.3314        91.7029         0.2997        26.2598      -4.876152              1       0.945733
     11153.5000         0.4127       3372.676        71.2852       91.59171         0.3019        26.5222      -5.138552              1      0.9407821
     11154.0000         0.4153       3364.984        71.2388       91.48017          0.304        26.7847      -5.401052              1      0.9358292
     11154.5000         0.4178       3345.004        71.2074       91.39323         0.3062        27.0914      -5.707752              1      0.9300424
     11155.0000         0.4203        3325.07        71.1863       91.32319         0.3052        27.4785      -6.094852              1      0.9227386
     11155.5000         0.4228       3305.137        71.7251       92.17169         0.3041        27.4845      -6.100853              1      0.9226254
     11156.0000         0.4254       3280.301        72.3777       93.20686          0.303        26.9206      -5.536953              1       0.933265
     11156.5000         0.4279       3249.715        73.0289       94.23975         0.3019        26.3556      -4.971952              1      0.9439254
     11157.0000         0.4304       3219.133        73.6815       95.27492         0.3008        25.7917      -4.408052              1       0.954565
     11157.5000         0.4329       3195.145        74.3328       96.30795         0.2997        25.2267      -3.843052              1      0.9652255
     11158.0000         0.4354        3173.23        74.9854       97.34312         0.2986        24.7686      -3.384953              1      0.9738688
     11158.5000          0.438       3151.316        75.6366       98.37601         0.2975        24.4164      -3.032753              1      0.9805141
     11159.0000         0.4405       3100.281        76.2892       99.41119         0.2951        24.0647      -2.681051              1        0.98715
     11159.5000         0.4444       3042.598        77.8743       101.9761         0.2923        23.7125      -2.328852              1      0.9937953
     11160.0000         0.4492        3001.27        80.7681        106.688         0.2895         23.406      -2.022352              1      0.9995782
     11160.5000         0.4541       2997.359        82.7776       109.9492         0.2866        23.2792      -1.895552              1              1
     11161.0000          0.459       3035.246         83.761        111.527         0.2838        23.1525      -1.768852              1              1
     11161.5000         0.4575       3085.859        84.7894       113.1787          0.281        23.0254      -1.641752              1              1
     11162.0000          0.455       3136.473        85.8202       114.8343         0.2782        22.8986      -1.514952              1              1
     11162.5000         0.4513        3187.18        86.4277       115.7955         0.2754         22.794      -1.410353              1              1
     11163.0000         0.4452       3217.953         86.186       115.3635         0.2736        22.8512      -1.467552              1              1
     11163.5000         0.4391       3245.617        85.9443       114.9316         0.2757        22.9084      -1.524752              1              1
     11164.0000         0.4329        3273.23        85.4751       114.1265         0.2778        22.9655      -1.581852              1              1
     11164.5000         0.4299       3301.555         84.144       111.9074         0.2799        23.0226      -1.638952              1              1
     11165.0000         0.4287       3333.457        82.8107       109.6847          0.282        23.0797      -1.696053              1              1
     11165.5000         0.4275       3365.313        81.6534       107.7507          0.284        23.1369      -1.753252              1              1
     11166.0000         0.4263       3399.055        80.9324       106.5325         0.2861         23.194      -1.810352              1              1
     11166.5000         0.4251       3453.438        80.2113       105.3141         0.2882        23.2235      -1.839851              1              1
     11167.0000         0.4239       3513.664        79.4902       104.0957         0.2903        23.2495      -1.865852              1              1
     11167.5000         0.4185       3566.727         79.943       104.8031         0.2905        23.2755      -1.891851              1              1
     11168.0000         0.4118       3616.895        80.7467       106.0862         0.2903        23.3015      -1.917852              1              1
     11168.5000         0.4052       3634.352        81.5505       107.3694         0.2901        23.2489      -1.865252              1              1
     11169.0000         0.3986       3651.789        82.3354       108.6216           0.29        23.1402      -1.756552              1              1
     11169.5000         0.4032       3559.469        82.1628        108.303         0.2898        23.0314      -1.647753              1              1
     11170.0000         0.4092       3427.895        80.3093        105.227          0.336        22.9228      -1.539152              1              1
     11170.5000         0.4153       3296.324        77.9121       101.2589         0.4749        22.8141      -1.430452              1              1
     11171.0000         0.4421        3164.75        71.5668       90.81403         0.7669        23.4087      -2.025053              1      0.9995273
     11171.5000         0.4751       2891.609        60.6066       72.79838         0.8818        24.3118      -2.928152       0.846774      0.9824877
     11172.0000         0.5081       2424.504        54.9066       63.41206         0.9423        25.7468      -4.363152      0.6470652      0.9554122
     11172.5000          0.559       2224.691         47.008       50.41897         0.9832        27.8284      -6.444752      0.3706163      0.9161367
     11173.0000         0.6225       2011.686        39.6886       38.37604         1.0291         28.533      -7.149353      0.1143838      0.9028424
     11173.5000         0.7364       989.8203        38.4663       36.33543         1.0752        29.2088      -7.825151     0.07096668      0.8900915
     11174.0000         3.0514       946.4648        38.4876       36.33496         1.1212        29.1977      -7.814053     0.07095654      0.8903009
     11174.5000         4.0263       898.0205        40.2891       39.25492         1.0688        29.1866      -7.802952      0.1330834      0.8905103
