#------------------------------------------------------------------------------
# Created by    : vladimir.rabinovich
# Created on    : 09/19/2023 17:22:16
#------------------------------------------------------------------------------
~Version Information Section
VERS.           2.0     :   CWLS log ASCII Standard - VERSION 2.0
WRAP.           NO      :   One line per depth step
~Well Information Section
#MNEM       .UNIT                                         VALUE :DESCRIPTION
#------------------------------------------------------------------------------
STRT        .FT                                              10 :START DEPTH
STOP        .FT                                            7932 :STOP DEPTH
STEP        .FT                                             0.5 :STEP      
NULL        .                                           -999.25 :NULL      
COMP        .                                       ALLIED CORP :COMPANY   
WELL        .                               OCS G04069 ST00BP00 :WELL      
FLD         .                                           WILDCAT :FIELD     
LOC         .                                                   :LOCATION  
CNTY        .                             GALVESTON LARGE BLOCK :LOCATION  
STAT        .                                             TEXAS :STATE     
CTRY        .                                     UNITED STATES :COUNTRY   
SRVC        .                                                   :SERVICE COMPANY
DATE        .                             9/13/2023 11:18:53 AM :LOG DATE  
API         .                                    42706400790000 :API NUMBER
UWI         .                                    42706400790000 :UNIQUE WELL ID
XCOORD      .                                  993545.470392299 :SURFACE X 
YCOORD      .                                  10396443.6120929 :SURFACE Y 
LAT         .                                         28.633244 :LATITUDE  
LON         .                                        -95.016955 :LONGITUDE 
ELEV        .FT                                              82 :ELEVATION VALUE
ELEV_TYPE   .                                                KB :ELEVATION REFERENCE TYPE
~Curve Information Section
#MNEM       .UNIT                                      API CODE :CURVE DESCRIPTION
#------------------------------------------------------------------------------
DEPT        .FT                                                 :DEPTH     
CALI        .IN                                                 :          
CILD        .MMHO                                               :          
DPHI        .B                                                  :          
DRHO        .G/C3                                               :          
DT          .US/F                                               :          
GR          .GAPI                                               :          
GR_1        .GAPI                                               :          
GR_NORM     .GAPI                                               :GammaRay Normalized
ILD         .OHMM                                               :          
ILM         .OHMM                                               :          
NPHI        .%                                                  :          
SFL         .OHMM                                               :          
SP          .MV                                                 :          
SP_NORM     .MV                                                 :SP Normalized
VSH_GR      .V/V                                                :Volume of Shale from GR
VSH_SP      .V/V                                                :Volume of Shale from SP
~A        DEPTH           CALI           CILD           DPHI           DRHO             DT             GR           GR_1        GR_NORM            ILD            ILM           NPHI            SFL             SP        SP_NORM         VSH_GR         VSH_SP
# ...
       842.0000        -999.25       1142.506        -999.25        -999.25        -999.25        71.0979        -999.25       84.11899         0.8792        -999.25        -999.25         1.1859       -122.162      0.1680984              1              1
       842.5000        -999.25       1144.277        -999.25        -999.25        -999.25        70.7866        -999.25       83.71781          0.891        -999.25        -999.25         1.2038      -122.9026     -0.5725021              1      0.9918214
       843.0000        -999.25       1146.658        -999.25        -999.25        -999.25        70.0509        -999.25       82.78614         0.8839        -999.25        -999.25         1.2161      -124.0115      -1.681396              1        0.97598
       843.5000        -999.25       1153.844        -999.25        -999.25        -999.25        69.2994        -999.25       81.83471         0.8758        -999.25        -999.25         1.2162       -124.366      -2.035896              1      0.9709158
       844.0000        -999.25       1161.025        -999.25        -999.25        -999.25        69.6997        -999.25       82.32304         0.8636        -999.25        -999.25          1.204      -123.6627      -1.332596              1      0.9809629
       844.5000        -999.25       1167.732        -999.25        -999.25        -999.25        73.2014        -999.25       86.68811         0.8433        -999.25        -999.25         1.1887      -122.1111      0.2190018              1              1
       845.0000        -999.25       1170.346        -999.25        -999.25        -999.25         75.896        -999.25       90.04431         0.8293        -999.25        -999.25         1.1674       -121.646      0.6840973              1              1
       845.5000        -999.25       1172.957        -999.25        -999.25        -999.25        76.4426        -999.25        90.7155         0.8189        -999.25        -999.25         1.1464       -121.804      0.5261002              1              1
       846.0000        -999.25        1175.57        -999.25        -999.25        -999.25        74.8984        -999.25        88.7732         0.8087        -999.25        -999.25         1.1404      -122.1638      0.1662979              1              1
       846.5000        -999.25       1170.396        -999.25        -999.25        -999.25         72.389        -999.25        85.6244         0.8019        -999.25        -999.25         1.1403      -121.9508       0.379303              1              1
       847.0000        -999.25       1160.771        -999.25        -999.25        -999.25        68.5983        -999.25       80.87398         0.8019        -999.25        -999.25         1.1402      -120.8958       1.434303              1              1
       847.5000        -999.25       1151.146        -999.25        -999.25        -999.25        65.6731        -999.25       77.20543         0.8033        -999.25        -999.25         1.1452      -120.5293       1.800804       0.940541              1
       848.0000        -999.25       1140.045        -999.25        -999.25        -999.25        64.5488        -999.25       75.78799         0.8123        -999.25        -999.25         1.1528      -120.9082       1.421898      0.9103829              1
       848.5000        -999.25       1118.859        -999.25        -999.25        -999.25        64.3412        -999.25       75.51645         0.8214        -999.25        -999.25         1.1605      -121.8815      0.4486008      0.9046053              1
       849.0000        -999.25       1097.672        -999.25        -999.25        -999.25        66.9836        -999.25       78.80739         0.8393        -999.25        -999.25         1.1719      -122.2258      0.1043015      0.9746253              1
       849.5000        -999.25       1058.184        -999.25        -999.25        -999.25         69.432        -999.25       81.85584         0.8696        -999.25        -999.25          1.185      -121.8688      0.4613037              1              1
       850.0000        -999.25       1014.861        -999.25        -999.25        -999.25        70.8027        -999.25       83.55717         0.9038        -999.25        -999.25         1.1982      -122.2748     0.05529785              1              1
       850.5000        -999.25       978.9102        -999.25        -999.25        -999.25        71.6583        -999.25       84.61462         0.9496        -999.25        -999.25         1.2135      -123.1516     -0.8215027              1      0.9882643
       851.0000        -999.25       950.0117        -999.25        -999.25        -999.25        71.7573        -999.25       84.72632         0.9921        -999.25        -999.25         1.2295      -123.7129      -1.382797              1      0.9802458
       851.5000        -999.25       937.4678        -999.25        -999.25        -999.25        71.5845        -999.25       84.49828         1.0224        -999.25        -999.25         1.2458      -123.5497      -1.219597              1      0.9825772
       852.0000        -999.25       954.6816        -999.25        -999.25        -999.25        70.6395        -999.25       83.30497         1.0521        -999.25        -999.25         1.2746      -122.4331     -0.1029968              1      0.9985286
       852.5000        -999.25       981.5605        -999.25        -999.25        -999.25         68.338        -999.25       80.41603         1.0507        -999.25        -999.25         1.3049      -121.7389      0.5912018              1              1
       853.0000        -999.25       1017.562        -999.25        -999.25        -999.25        65.0883        -999.25       76.34187         1.0175        -999.25        -999.25         1.2925       -121.448       0.882103      0.9221674              1
       853.5000        -999.25       1053.582        -999.25        -999.25        -999.25        56.8382        -999.25       66.01718         0.9535        -999.25        -999.25         1.2357      -121.6713      0.6587982      0.7024933              1
       854.0000        -999.25       1089.875        -999.25        -999.25        -999.25        49.5455        -999.25       56.88926         0.8786        -999.25        -999.25         1.1494      -122.5419     -0.2117996      0.5082821      0.9969743
       854.5000        -999.25       1126.166        -999.25        -999.25        -999.25         42.787        -999.25       48.42908         0.8147        -999.25        -999.25         1.0652      -122.9104     -0.5802994      0.3282784        0.99171
       855.0000        -999.25       1159.846        -999.25        -999.25        -999.25        39.0592        -999.25       43.75728         0.7859        -999.25        -999.25         1.0012      -122.8013      -0.471199      0.2288783      0.9932686
       855.5000        -999.25        1191.77        -999.25        -999.25        -999.25        35.3654        -999.25       39.12798         0.7582        -999.25        -999.25         0.9733      -121.8422      0.4878998      0.1303825              1
       856.0000        -999.25       1213.291        -999.25        -999.25        -999.25        32.3013        -999.25        35.2858         0.7518        -999.25        -999.25         0.9615      -122.4084    -0.07830048     0.04863415      0.9988814
       856.5000        -999.25       1235.764        -999.25        -999.25        -999.25        31.0285        -999.25       33.68275         0.7513        -999.25        -999.25         0.9658      -123.8138      -1.483696     0.01452661      0.9788043
       857.0000        -999.25       1149.039        -999.25        -999.25        -999.25        30.3646        -999.25       32.84082         0.7671        -999.25        -999.25           0.97      -125.9276      -3.597496              0      0.9486072
       857.5000        -999.25       1040.063        -999.25        -999.25        -999.25        29.4901        -999.25       31.73565         0.7958        -999.25        -999.25         0.9942      -125.2927      -2.962601              0      0.9576771
