#------------------------------------------------------------------------------
# Created by    : vladimir.rabinovich
# Created on    : 09/19/2023 17:22:45
#------------------------------------------------------------------------------
~Version Information Section
VERS.           2.0     :   CWLS log ASCII Standard - VERSION 2.0
WRAP.           NO      :   One line per depth step
~Well Information Section
#MNEM       .UNIT                                         VALUE :DESCRIPTION
#------------------------------------------------------------------------------
STRT        .FT                                             270 :START DEPTH
STOP        .FT                                            9392 :STOP DEPTH
STEP        .FT                                             0.5 :STEP      
NULL        .                                           -999.25 :NULL      
COMP        .                                     TALOS ERT LLC :COMPANY   
WELL        .                               OCS G12363 ST00BP00 :WELL      
FLD         .                                 BRAZOS BLOCK 0453 :FIELD     
LOC         .                                                   :LOCATION  
CNTY        .                                BRAZOS LARGE BLOCK :LOCATION  
STAT        .                                             TEXAS :STATE     
CTRY        .                                     UNITED STATES :COUNTRY   
SRVC        .                                                   :SERVICE COMPANY
DATE        .                             9/13/2023 11:19:08 AM :LOG DATE  
API         .                                    42704401340000 :API NUMBER
UWI         .                                    42704401340000 :UNIQUE WELL ID
XCOORD      .                                  788791.944469438 :SURFACE X 
YCOORD      .                                  10354739.7167093 :SURFACE Y 
LAT         .                                         28.507622 :LATITUDE  
LON         .                                        -95.652007 :LONGITUDE 
ELEV        .FT                                             100 :ELEVATION VALUE
ELEV_TYPE   .                                                KB :ELEVATION REFERENCE TYPE
~Curve Information Section
#MNEM       .UNIT                                      API CODE :CURVE DESCRIPTION
#------------------------------------------------------------------------------
DEPT        .FT                                                 :DEPTH     
DPHI        .%                                                  :          
DT          .US/F                                               :          
GR          .GAPI                                               :          
GR_NORM     .GAPI                                               :GammaRay Normalized
ILD         .OHMM                                               :          
ILM         .OHMM                                               :          
LL          .OHMM                                               :          
NPHI        .%                                                  :          
SP          .MV                                                 :          
SP_NORM     .MV                                                 :SP Normalized
VSH_GR      .V/V                                                :Volume of Shale from GR
VSH_SP      .V/V                                                :Volume of Shale from SP
~A        DEPTH           DPHI             DT             GR        GR_NORM            ILD            ILM             LL           NPHI             SP        SP_NORM         VSH_GR         VSH_SP
# ...
      7547.5000        21.4924       113.0295        69.6212       74.65976         1.0299         0.9241         0.9099        43.0208       -36.0499        -7.1345      0.8863779      0.9043786
      7548.0000        20.9992       113.8125        69.2849       74.24014         0.9933         0.9142          0.904        48.9378       -36.2427        -7.3257      0.8774497      0.8974964
      7548.5000        21.2397       114.1372        69.7588       74.83932          0.964         0.9034         0.8921        51.3682       -35.9864        -7.0678      0.8901982      0.9066464
      7549.0000        21.4083       113.2932        69.3861       74.37394         0.9483         0.8932         0.8778         51.089       -35.8983         -6.978      0.8802966      0.9097928
      7549.5000        21.5305       112.5784         68.871       73.72947         0.9529         0.8853         0.8681        48.4752        -36.029        -7.1071      0.8665845       0.905125
      7550.0000        21.5121       114.2003        68.4017        73.1426         0.9378         0.8845         0.8575        46.6865       -36.1762        -7.2527      0.8540979      0.8998678
      7550.5000        21.6153       115.9185        68.0653       72.72284         0.9176         0.8809         0.8463         47.902       -36.2425        -7.3174      0.8451668         0.8975
      7551.0000        22.1142       117.7426        67.8948       72.51171         0.9032         0.8624         0.8423        46.4979       -36.2418        -7.3151      0.8406747      0.8975286
      7551.5000        22.4265       119.4163        68.0363       72.69292         0.8974         0.8492         0.8414        44.8506       -36.1515        -7.2232      0.8445302        0.90075
      7552.0000        22.4015       119.9203        71.2258       76.70692         0.8967         0.8479         0.8399        43.0693       -36.0248        -7.0949      0.9299344       0.905275
      7552.5000        22.1024       118.2897        74.3666       80.65968         0.9003         0.8449         0.8357        42.0196       -36.0237        -7.0922              1      0.9053143
      7553.0000        21.5197       116.0048        73.7429       79.87866         0.9076         0.8454         0.8332        41.5809       -36.1215        -7.1884      0.9974183       0.901825
      7553.5000        20.9473       113.7665        72.4943       78.31183         0.9226         0.8557         0.8535        41.4177       -36.1876        -7.2529      0.9640815      0.8994607
      7554.0000        20.3955       111.5283        71.0828       76.54017         0.9599         0.8795         0.8902        41.5204       -36.1937        -7.2574      0.9263866      0.8992464
      7554.5000        20.0556       110.7223        69.1924       74.16628         1.0003         0.9144         0.9212        41.7223       -36.0771        -7.1392      0.8758783      0.9034107
      7555.0000        20.1844       111.6688        67.1268        71.5721         1.0725         0.9413         0.9404         41.361       -35.9037        -6.9641      0.8206829         0.9096
      7555.5000         20.394        112.163        65.2786        69.2513         1.1785         0.9716         0.9626        40.8925       -35.7443        -6.8031      0.7713042      0.9152929
      7556.0000         19.812       108.0577        63.5141       67.03573         1.3296         1.0257         1.0217         41.081       -35.9778         -7.035      0.7241644      0.9069571
      7556.5000        18.3121        99.0458        61.7274       64.79224         1.4351         1.1203         1.1392        41.2171       -36.4911        -7.5467      0.6764307      0.8886214
      7557.0000        16.0815        91.9861         59.768        62.3316         1.4024         1.2578         1.2788        39.0161       -36.8665        -7.9205      0.6240767      0.8752143
      7557.5000        13.9126        85.2815        56.4637       58.17978         1.4385         1.3889         1.4033        35.9662       -37.0784        -8.1308      0.5357399      0.8676464
      7558.0000         13.839        84.1525        53.5591       54.53056         1.5357         1.3911         1.4883        34.2895       -37.3147        -8.3655       0.458097      0.8592072
      7558.5000        16.1698        91.3995        52.8781       53.67748         1.5865         1.3788         1.3775        36.1901       -37.5803        -8.6295      0.4399464      0.8497214
      7559.0000        17.9349        97.0541        55.5358       57.02276         1.5757         1.3468         1.2894        37.6517       -37.7275        -8.7751      0.5111225      0.8444643
      7559.5000        18.4742         100.51        58.7167       61.02594         1.5044         1.3109         1.2384        37.6326       -37.6694        -8.7154      0.5962967      0.8465393
      7560.0000        17.7169       102.6002        59.3362       61.80822         1.4376          1.286         1.2171        36.8134       -37.6264        -8.6708      0.6129409       0.848075
      7560.5000        16.6796       102.8369        58.6773       60.98293         1.3824          1.275         1.1893        36.0421       -37.6177        -8.6604      0.5953816      0.8483893
      7561.0000         16.603       104.2013        60.6219        63.4315         1.3469         1.2672         1.1574        36.5666       -37.5676        -8.6087      0.6474788       0.850175
      7561.5000        17.5622       105.0997        62.4011       65.67208         1.3157         1.2628         1.1271        37.1824       -37.4932        -8.5327      0.6951507      0.8528357
      7562.0000        18.3727       103.8623        63.7523       67.37447         1.2816         1.2575         1.1393         36.252       -37.4799        -8.5178      0.7313716      0.8533071
      7562.5000        18.3195       100.7959        64.0808       67.79081         1.2447         1.2386         1.1647        35.0114       -37.4926        -8.5289        0.74023      0.8528536
      7563.0000        17.8326        99.5215        63.5591       67.13806         1.2064         1.2049         1.1796        37.0358       -37.4897        -8.5244      0.7263417      0.8529571
      7563.5000        17.3861        104.449        63.1655       66.64638         1.1672         1.1741         1.1657        39.8883       -37.4947        -8.5278      0.7158804      0.8527786
      7564.0000         17.571       112.9384         62.907       66.32458         1.1398         1.1449         1.1272        41.4339       -37.5599        -8.5914      0.7090335      0.8504536
      7564.5000        19.0945       118.8887        63.2723        66.7872         1.1229         1.1224         1.0919        42.0203        -37.599        -8.6289      0.7188766      0.8490571
      7565.0000        20.5163        122.813        64.5283       68.36987         1.1053         1.1077         1.0743        40.5661        -37.572        -8.6003      0.7525503      0.8500214
      7565.5000        22.0928       121.2402        66.1656       70.43201         1.0767         1.0853         1.0738        38.8452       -37.5685        -8.5952      0.7964257      0.8501428
      7566.0000        23.7843       115.9899        63.7386       67.38337         1.0484         1.0504         1.0766        37.4248       -38.0007        -9.0258      0.7315611      0.8347071
      7566.5000        24.9379       113.1921        62.0482       65.26099         1.0238         1.0237         1.0803        36.0251       -38.8385         -9.862       0.686404      0.8047857
      7567.0000        25.5509       112.3689        61.0488       64.00753         1.0005         0.9968         1.0827        35.6951        -39.532       -10.5538      0.6597347      0.7800179
      7567.5000        25.3442       113.3475        60.4935        63.3125         0.9799         0.9711         1.0841        36.2579       -40.0508        -11.071      0.6449468      0.7614893
