#------------------------------------------------------------------------------
# Created by    : vladimir.rabinovich
# Created on    : 09/19/2023 17:22:45
#------------------------------------------------------------------------------
~Version Information Section
VERS.           2.0     :   CWLS log ASCII Standard - VERSION 2.0
WRAP.           NO      :   One line per depth step
~Well Information Section
#MNEM       .UNIT                                         VALUE :DESCRIPTION
#------------------------------------------------------------------------------
STRT        .FT                                             270 :START DEPTH
STOP        .FT                                            9392 :STOP DEPTH
STEP        .FT                                             0.5 :STEP      
NULL        .                                           -999.25 :NULL      
COMP        .                                     TALOS ERT LLC :COMPANY   
WELL        .                               OCS G12363 ST00BP00 :WELL      
FLD         .                                 BRAZOS BLOCK 0453 :FIELD     
LOC         .                                                   :LOCATION  
CNTY        .                                BRAZOS LARGE BLOCK :LOCATION  
STAT        .                                             TEXAS :STATE     
CTRY        .                                     UNITED STATES :COUNTRY   
SRVC        .                                                   :SERVICE COMPANY
DATE        .                             9/13/2023 11:19:08 AM :LOG DATE  
API         .                                    42704401340000 :API NUMBER
UWI         .                                    42704401340000 :UNIQUE WELL ID
XCOORD      .                                  788791.944469438 :SURFACE X 
YCOORD      .                                  10354739.7167093 :SURFACE Y 
LAT         .                                         28.507622 :LATITUDE  
LON         .                                        -95.652007 :LONGITUDE 
ELEV        .FT                                             100 :ELEVATION VALUE
ELEV_TYPE   .                                                KB :ELEVATION REFERENCE TYPE
~Curve Information Section
#MNEM       .UNIT                                      API CODE :CURVE DESCRIPTION
#------------------------------------------------------------------------------
DEPT        .FT                                                 :DEPTH     
DPHI        .%                                                  :          
DT          .US/F                                               :          
GR          .GAPI                                               :          
GR_NORM     .GAPI                                               :GammaRay Normalized
ILD         .OHMM                                               :          
ILM         .OHMM                                               :          
LL          .OHMM                                               :          
NPHI        .%                                                  :          
SP          .MV                                                 :          
SP_NORM     .MV                                                 :SP Normalized
VSH_GR      .V/V                                                :Volume of Shale from GR
VSH_SP      .V/V                                                :Volume of Shale from SP
~A        DEPTH           DPHI             DT             GR        GR_NORM            ILD            ILM             LL           NPHI             SP        SP_NORM         VSH_GR         VSH_SP
# ...
      5149.0000        26.5176          112.7        40.3563       38.17058         0.4385         0.4836         0.5771        43.8838       -67.1755       -28.9673      0.1100123       0.272303
      5149.5000        26.6703       114.8077        40.2892         38.084         0.4667         0.5174         0.5886        42.4174       -65.6239       -27.4047      0.1081701      0.3212697
      5150.0000        26.1907       116.5074        41.0245       39.00642         0.4914         0.5433         0.5912        39.9673       -63.1375       -24.9072      0.1277962      0.3985636
      5150.5000        25.6349       116.3571        45.4285       44.54216         0.5212         0.5689         0.6213        37.8737       -60.7614         -22.52       0.245578      0.4725152
      5151.0000        25.5709       114.7584        48.5206        48.4282         0.5498         0.5937         0.6678        37.4964       -59.8002       -21.5478      0.3282596      0.5035909
      5151.5000        26.2621       112.8022        46.9611       46.46495         0.5827         0.6151         0.6835        37.0474       -59.7549       -21.4914      0.2864884      0.5069091
      5152.0000        26.5443       110.6761         46.082        45.3573         0.6125          0.633         0.6707        36.8478       -59.8492       -21.5747      0.2629212          0.506
      5152.5000        26.5485       108.2775        47.1818       46.73807         0.6363           0.65         0.6606        37.6941       -59.8213       -21.5357      0.2922993      0.5087939
      5153.0000        26.5579       106.4453        49.7344       49.94571         0.6572         0.6762         0.6602        39.2974       -58.8279       -20.5312      0.3605469      0.5408455
      5153.5000        26.6221       107.0557        52.0934       52.90989         0.6698         0.7067         0.6743        39.8658       -56.8356       -18.5279      0.4236147      0.6031666
      5154.0000        26.1657       107.4911        53.8945       55.17254         0.6787         0.7331         0.6936        39.4108       -53.4099       -15.0911      0.4717561      0.7089242
      5154.5000        24.8524        107.634        56.4214       58.34786          0.702         0.7538         0.7058        38.6555       -50.1461       -11.8162      0.5393162      0.8097727
      5155.0000        23.3565         107.37        59.1285       61.74978         0.7353         0.7685         0.7312        39.9954       -47.1153        -8.7744      0.6116974      0.9035636
      5155.5000        22.4775       107.3081         60.514       63.48981         0.7786         0.7811         0.7705        41.6075       -44.4536        -6.1016      0.6487194      0.9861697
      5156.0000        22.5254       111.5562        60.8469       63.90622          0.825          0.789         0.7781        44.1812       -43.1061        -4.7431      0.6575792              1
      5156.5000        23.0473       118.5868        61.1062       64.23007         0.8635         0.7903         0.7691        45.7021       -42.1363        -3.7622      0.6644696              1
      5157.0000        24.4961       125.9576        62.4438       65.90987         0.8708          0.786          0.735        46.8137       -41.6277        -3.2425      0.7002101              1
      5157.5000        25.7623       133.3335        64.1578       68.06298         0.8564         0.7876         0.7084         48.222       -41.4214        -3.0252      0.7460209              1
      5158.0000        26.6714       138.3032        65.3545       69.56561         0.8437         0.7903         0.7034        48.8779       -41.5425        -3.1352      0.7779918              1
      5158.5000        26.1429       136.7649        67.1985       71.88219          0.839         0.8125         0.7097        49.6281       -41.7568        -3.3385      0.8272806              1
      5159.0000         25.392        131.948        67.5321       72.29948         0.8416          0.841         0.7261        48.0991       -41.8965        -3.4671      0.8361591              1
      5159.5000        24.5299        126.712        67.6335       72.42477         0.8702         0.8781         0.7531        47.3526       -41.7455         -3.305       0.838825              1
      5160.0000        24.0775       116.2748        66.1956       70.61445         0.9092         0.9199          0.782        46.6194       -41.5875         -3.136      0.8003074              1
      5160.5000        23.9918        111.851        64.1584       68.05048         0.9424         0.9643           0.81        45.2928       -41.4279        -2.9653       0.745755              1
      5161.0000        23.5251       109.2474        63.7172       67.49348         0.9689         1.0018         0.8331        46.8049       -41.3625        -2.8888      0.7339038              1
      5161.5000        22.7293       109.6132        65.0872       69.21402         0.9898         1.0073         0.8536        48.9987       -41.2952        -2.8105       0.770511              1
      5162.0000        22.1278       112.2106        66.3077       70.74657         0.9981         0.9864         0.8678        49.6575       -41.2249        -2.7291      0.8031185              1
      5162.5000        21.9398       114.8757        66.0631       70.43678         1.0103         0.9624         0.8739        47.7943       -41.2612        -2.7544      0.7965271              1
      5163.0000        22.3067       117.7897        66.0043       70.36063         1.0275         0.9389         0.8672        46.3212       -41.3139         -2.796      0.7949069              1
      5163.5000        22.7238       119.2959        66.9557       71.55479         1.0232         0.9308         0.8573        45.6322       -41.4581        -2.9291      0.8203148              1
      5164.0000        22.9262       117.6234        68.8033       73.87591         1.0047         0.9275         0.8459        44.9652       -41.5909        -3.0509      0.8697002              1
      5164.5000        22.7558       116.0569        67.2107       71.87103          0.996         0.9263         0.8462        44.0421       -41.6898        -3.1387      0.8270431              1
      5165.0000        22.4758       114.3733        64.1676       68.04218         0.9884         0.9294         0.8483        42.8443       -41.8395        -3.2773      0.7455782              1
      5165.5000        22.2779        114.203        63.3782       67.04732         0.9846         0.9325         0.8595        41.7319       -42.1142         -3.541       0.724411              1
      5166.0000        22.1442       114.5352        63.4976       67.19525         0.9889         0.9358         0.8694        41.7665       -42.5813         -3.997      0.7275586              1
      5166.5000        21.9384       114.7892        64.1469       68.00951         0.9933         0.9392         0.8737         42.142       -43.1784        -4.5831      0.7448833              1
      5167.0000        21.7156       114.6805        65.7665       70.04393         1.0005         0.9401         0.8705        42.1056       -43.7534         -5.147      0.7881687              1
      5167.5000        21.2956       113.2993         66.369       70.79936         1.0116         0.9365         0.8656        41.3617       -44.3346        -5.7171      0.8042418              1
      5168.0000        20.7983       109.4026        65.7174       69.97777         1.0183         0.9318         0.8608        39.9173       -45.0359        -6.4074       0.786761      0.9974424
      5168.5000         20.193       106.2565          62.64       66.10578         1.0055         0.9223         0.8677        38.8333       -46.1357        -7.4961      0.7043783      0.9633394
      5169.0000        19.9322       106.6895        61.1608       64.24351         0.9777         0.9092         0.8824        39.2062       -47.4133        -8.7626      0.6647555      0.9238515
