#------------------------------------------------------------------------------
# Created by    : vladimir.rabinovich
# Created on    : 09/19/2023 17:19:40
#------------------------------------------------------------------------------
~Version Information Section
VERS.           2.0     :   CWLS log ASCII Standard - VERSION 2.0
WRAP.           NO      :   One line per depth step
~Well Information Section
#MNEM       .UNIT                                         VALUE :DESCRIPTION
#------------------------------------------------------------------------------
STRT        .FT                                            4790 :START DEPTH
STOP        .FT                                           12963 :STOP DEPTH
STEP        .FT                                             0.5 :STEP      
NULL        .                                           -999.25 :NULL      
COMP        .                         ATLANTIC RICHFIELD CO THE :COMPANY   
WELL        .                               OCS G06150 ST00BP00 :WELL      
FLD         .                                           WILDCAT :FIELD     
LOC         .                                                   :LOCATION  
CNTY        .                           HIGH ISLAND LARGE BLOCK :LOCATION  
STAT        .                                             TEXAS :STATE     
CTRY        .                                     UNITED STATES :COUNTRY   
SRVC        .                                                   :SERVICE COMPANY
DATE        .                             9/13/2023 11:19:59 AM :LOG DATE  
API         .                                    42708402440000 :API NUMBER
UWI         .                                    42708402440000 :UNIQUE WELL ID
XCOORD      .                                  1291497.32246636 :SURFACE X 
YCOORD      .                                   10652058.279547 :SURFACE Y 
LAT         .                                         29.347015 :LATITUDE  
LON         .                                        -94.095521 :LONGITUDE 
ELEV        .FT                                             105 :ELEVATION VALUE
ELEV_TYPE   .                                                KB :ELEVATION REFERENCE TYPE
~Curve Information Section
#MNEM       .UNIT                                      API CODE :CURVE DESCRIPTION
#------------------------------------------------------------------------------
DEPT        .FT                                                 :DEPTH     
ALL         .OHMM                                               :          
CILD        .MMHO                                               :          
GR          .GAPI                                               :          
GR_NORM     .GAPI                                               :GammaRay Normalized
ILD         .OHMM                                               :          
SP          .MV                                                 :          
SP_NORM     .MV                                                 :SP Normalized
VSH_GR      .V/V                                                :Volume of Shale from GR
VSH_SP      .V/V                                                :Volume of Shale from SP
~A        DEPTH            ALL           CILD             GR        GR_NORM            ILD             SP        SP_NORM         VSH_GR         VSH_SP
# ...
     12395.5000         0.4985       1883.697        48.8055       60.64973         0.4697       -56.2498      -11.42159      0.6284031      0.8242832
     12396.0000         0.4844        2042.26        49.9722       62.10811         0.4508        -56.247      -11.42474      0.6615479      0.8242347
     12396.5000         0.4703       2201.223         51.139       63.56661         0.4319       -56.2443        -11.428      0.6946957      0.8241847
     12397.0000         0.4563       2358.988        52.3033       65.02198         0.4168        -56.311      -11.50065      0.7277723      0.8230669
     12397.5000         0.4422       2693.246          53.47       66.48036         0.4179       -56.9497       -12.1453      0.7609173      0.8131493
     12398.0000         0.4364       2856.988        54.4207       67.66873          0.419       -57.5895      -12.79105      0.7879257      0.8032146
     12398.5000         0.4333       3004.594        55.2153       68.66199         0.4201       -58.2282       -13.4357      0.8104997      0.7932969
     12399.0000         0.4303       3116.348        56.0112       69.65686         0.4313       -58.9037      -14.11716      0.8331105       0.782813
     12399.5000           0.43       3169.781        56.8058       70.65011         0.4489       -59.5903      -14.80971      0.8556843      0.7721583
     12400.0000         0.4467       3045.828        57.6016       71.64486         0.4664       -60.2756      -15.50096      0.8782923      0.7615237
     12400.5000         0.4633       2904.797        58.7905       73.13099          0.484       -61.1549      -16.38621      0.9120679      0.7479045
     12401.0000           0.48       2763.363        59.7337       74.30998         0.5016       -62.1006      -17.33786      0.9388632      0.7332637
     12401.5000         0.4966         2331.5         57.076       70.98785         0.5191       -63.4099      -18.65311      0.8633603       0.713029
     12402.0000         0.5133       2082.898        54.4526        67.7086         0.5367       -64.7424      -19.99157      0.7888319      0.6924375
     12402.5000         0.5452       1888.479        51.8342       64.43561         0.5542       -65.7581      -21.01322      0.7144457      0.6767197
     12403.0000         0.5867       1744.656        49.2648       61.22386         0.5718       -68.9156      -24.17667      0.6414514      0.6280512
     12403.5000         0.6281       1615.773         46.779       58.11661         0.5761       -69.6501      -24.91712       0.570832      0.6166597
     12404.0000         0.6392       1546.053        44.3128       55.03386         0.5589       -69.1208      -24.39377      0.5007696      0.6247113
     12404.5000         0.6111       1524.539        41.9547       52.08624         0.5413       -68.3164      -23.59532      0.4337781      0.6369951
     12405.0000         0.5832         1583.9         39.356       48.83786         0.5237        -67.512      -22.79688      0.3599513      0.6492788
     12405.5000         0.5598       1643.264        42.6867       53.00123         0.5061       -66.7075      -21.99832      0.4545735      0.6615643
     12406.0000         0.5396       1702.625        46.0175       57.16473         0.4885       -65.9017      -21.19848      0.5491985      0.6738696
     12406.5000         0.5195       1761.986        49.2059       61.15023         0.4709       -65.0973      -20.40002       0.639778      0.6861535
     12407.0000         0.4993       1821.348        52.3942        65.1356         0.4533        -63.798      -19.10668      0.7303547      0.7060511
     12407.5000         0.4791       1962.182         54.207       67.40161         0.4357       -62.4961      -17.81073      0.7818548      0.7259887
     12408.0000          0.459        2124.73        55.9903       69.63074         0.4181        -61.123      -16.44358      0.8325167      0.7470218
     12408.5000         0.4406       2452.613        57.7736       71.85986         0.4005       -59.6639      -14.99043      0.8831785      0.7693779
     12409.0000         0.4286       3163.359        59.2793       73.74199         0.3943       -58.4849      -13.81739      0.9259543      0.7874248
     12409.5000         0.4166       3367.141        60.7752       75.61186         0.3997       -57.3329      -12.67134      0.9684514      0.8050563
     12410.0000         0.4046       3279.691        62.2736       77.48486          0.405       -56.3577      -11.70209              1      0.8199678
     12410.5000         0.3926       3192.242        64.5039       80.27274         0.4104       -56.2779      -11.62824              1       0.821104
     12411.0000         0.3878       3104.793        64.7692       80.60436         0.4157       -56.9816      -12.33789              1      0.8101863
     12411.5000         0.3916       3011.766        63.0842       78.49812         0.4211       -57.6902      -13.05244              1      0.7991931
     12412.0000         0.3954       2907.586        61.3991       76.39174         0.4265       -58.4358        -13.804      0.9861759      0.7876308
     12412.5000         0.3993       2803.203        59.8492       74.45436         0.4318       -59.1813      -14.55545      0.9421446        0.77607
     12413.0000         0.4031       2698.824        58.8765       73.23849         0.4372        -59.928       -15.3081      0.9145111      0.7644907
     12413.5000         0.4069       2603.406        57.9062        72.0256         0.4425       -60.6735      -16.05955      0.8869455        0.75293
     12414.0000         0.4107       2531.297        56.9335       70.80972         0.4479       -61.2913       -16.6833      0.8593119      0.7433338
     12414.5000         0.4145       2459.184        55.9608       69.59386         0.4533       -61.7518      -17.14976      0.8316786      0.7361576
     12415.0000         0.4199       2387.074        54.9905       68.38098         0.4586       -62.2136      -17.61751      0.8041132      0.7289614
     12415.5000         0.4259       2337.574        54.0178       67.16511          0.464       -62.6754      -18.08526      0.7764797      0.7217653
     12416.0000         0.4318        2301.32        53.1176       66.03986         0.4684       -63.1642      -18.58001      0.7509058      0.7141537
     12416.5000         0.4377       2265.164        52.3401       65.06799         0.4723       -63.2698      -18.69156      0.7288179      0.7124376
     12417.0000         0.4436        2228.91        51.5627       64.09623         0.4762       -62.5685      -17.99621      0.7067325      0.7231352
     12417.5000         0.4496       2192.656        52.0258       64.67511         0.4801       -61.8636      -17.29727      0.7198889      0.7338882
     12418.0000         0.4555       2171.191        52.7073       65.52698          0.484       -61.1562      -16.59582      0.7392495      0.7446797
     12418.5000         0.4614        2151.77         53.389        66.3791         0.4878       -60.4475      -15.89307       0.758616      0.7554913
     12419.0000         0.4673       2132.297        53.8889       67.00398         0.4917       -59.7401      -15.19162      0.7728178      0.7662828
     12419.5000         0.4733       2112.828        54.1548       67.33636         0.4956       -59.1659      -14.62337      0.7803717      0.7750251
     12420.0000         0.4792       2093.355        54.4207       67.66873         0.4995       -58.8116      -14.27502      0.7879257      0.7803842
     12420.5000         0.4856       2073.934        54.6866       68.00111         0.5033       -58.4573      -13.92667      0.7954797      0.7857435
     12421.0000         0.4928       2055.707        54.9525       68.33348         0.5072       -58.3441      -13.81943      0.8030336      0.7873935
     12421.5000         0.4999       2037.529        55.1619       68.59524         0.5111       -58.4368      -13.91808      0.8089827      0.7858757
