#------------------------------------------------------------------------------
# Created by    : vladimir.rabinovich
# Created on    : 09/19/2023 17:21:25
#------------------------------------------------------------------------------
~Version Information Section
VERS.           2.0     :   CWLS log ASCII Standard - VERSION 2.0
WRAP.           NO      :   One line per depth step
~Well Information Section
#MNEM       .UNIT                                         VALUE :DESCRIPTION
#------------------------------------------------------------------------------
STRT        .FT                                            3400 :START DEPTH
STOP        .FT                                            8653 :STOP DEPTH
STEP        .FT                                             0.5 :STEP      
NULL        .                                           -999.25 :NULL      
COMP        .                          KING RANCH OIL & GAS INC :COMPANY   
WELL        .                               OCS G13784 ST00BP00 :WELL      
FLD         .                                           WILDCAT :FIELD     
LOC         .                                                   :LOCATION  
CNTY        .                             GALVESTON LARGE BLOCK :LOCATION  
STAT        .                                             TEXAS :STATE     
CTRY        .                                     UNITED STATES :COUNTRY   
SRVC        .                                                   :SERVICE COMPANY
DATE        .                             9/13/2023 11:19:54 AM :LOG DATE  
API         .                                    42706403430000 :API NUMBER
UWI         .                                    42706403430000 :UNIQUE WELL ID
XCOORD      .                                   967589.17441186 :SURFACE X 
YCOORD      .                                  10424680.8833423 :SURFACE Y 
LAT         .                                         28.709654 :LATITUDE  
LON         .                                        -95.099391 :LONGITUDE 
ELEV        .FT                                             106 :ELEVATION VALUE
ELEV_TYPE   .                                                KB :ELEVATION REFERENCE TYPE
~Curve Information Section
#MNEM       .UNIT                                      API CODE :CURVE DESCRIPTION
#------------------------------------------------------------------------------
DEPT        .FT                                                 :DEPTH     
CALI        .IN                                                 :          
DPHI        .%                                                  :          
DRHO        .G/C3                                               :          
DTLN        .US/F                                               :          
GR          .GAPI                                               :          
GR_1        .GAPI                                               :          
GR_NORM     .GAPI                                               :GammaRay Normalized
ILD         .OHMM                                               :          
ILM         .OHMM                                               :          
NPHI        .%                                                  :          
SFL         .OHMM                                               :          
SP          .MV                                                 :          
SP_NORM     .MV                                                 :SP Normalized
VSH_GR      .V/V                                                :Volume of Shale from GR
VSH_SP      .V/V                                                :Volume of Shale from SP
~A        DEPTH           CALI           DPHI           DRHO           DTLN             GR           GR_1        GR_NORM            ILD            ILM           NPHI            SFL             SP        SP_NORM         VSH_GR         VSH_SP
# ...
      7922.0000         8.7142        20.0121         -0.002       115.7363        68.2174         56.311       67.75346         0.5856         0.5962        37.3816         0.6528       -42.9199     -0.2969475      0.7394354       0.994601
      7922.5000          8.784        19.8545         0.0003       116.2451        64.0668        55.7402       66.99715         0.5795         0.5906        37.1516          0.623       -42.6553    -0.03234863      0.7233437      0.9994118
      7923.0000          8.831        19.6846         0.0018       117.1569        60.0298        56.1052       67.48078         0.5739         0.5887        36.3276         0.6069       -42.1617      0.4612503      0.7336336       1.008386
      7923.5000         8.8496        19.4044         0.0021       117.8683        56.2247        56.9683       68.62438         0.5691         0.5874        35.7889         0.5995       -41.7188      0.9041519      0.7579656       1.016439
      7924.0000         8.8461        19.1569         0.0017       117.7933        55.3389        58.1439       70.18206         0.5652         0.5866        35.4422         0.6007        -41.351        1.27195      0.7911077       1.023126
      7924.5000         8.8391        19.1823          0.001       117.6682        57.2735        59.3046       71.71998         0.5614         0.5862        35.3891          0.607       -41.3326       1.290352      0.8238294       1.023461
      7925.0000         8.8295        19.7472        -0.0003       117.5588        59.2648        57.8611       69.80734           0.56         0.5827        35.7777         0.6115       -41.7244      0.8985519      0.7831349       1.016337
      7925.5000         8.8074        20.2528        -0.0017       117.5294        61.1403        55.4629       66.62973         0.5588         0.5794        36.5104         0.6095       -42.1404      0.4825516      0.7155262       1.008774
      7926.0000         8.7759        20.4799        -0.0038       117.6243        62.8787        55.3016       66.41602          0.558         0.5772        37.3015         0.6029        -42.351      0.2719498       0.710979       1.004945
      7926.5000         8.7256        20.5746        -0.0061       117.8123        63.7593        57.7123       69.61018         0.5589         0.5765        37.0932         0.5964       -42.4865      0.1364517      0.7789401       1.002481
      7927.0000         8.6727        20.8858        -0.0086       117.8771         63.656        59.6245       72.14385         0.5599         0.5765        36.0773         0.6038       -42.7466     -0.1236496      0.8328479      0.9977518
      7927.5000         8.6294         21.342        -0.0092       117.5593        63.2914        57.3502       69.13041         0.5606         0.5771        35.5496         0.6089       -43.2314      -0.608448      0.7687321      0.9889373
      7928.0000         8.6353        21.7631        -0.0067       117.5371        63.0645        54.9916       66.00526         0.5605         0.5794        35.4803         0.6067       -43.3696     -0.7466469      0.7022397      0.9864246
      7928.5000         8.6862        21.7496        -0.0029        117.515        63.4154        56.0754        67.4413         0.5604         0.5826        36.7921         0.6076       -42.8089     -0.1859474      0.7327936      0.9966192
      7929.0000         8.6892        21.0289         0.0004       117.4592        64.3938        60.8025        73.7047         0.5612          0.588        38.6229         0.6221       -42.2666      0.3563499      0.8660575       1.006479
      7929.5000         8.6653        20.1719         0.0036       117.1005        65.5092        63.7886       77.66129         0.5631         0.5924        39.9503         0.6412        -42.208      0.4149513      0.9502403       1.007545
      7930.0000         8.6483        19.5854         0.0047       116.3206         65.192        65.4663       79.88424         0.5651         0.5962        38.7548         0.6524       -42.6547    -0.03174973       0.997537      0.9994227
      7930.5000         8.6476        19.5384         0.0039       116.2761        63.7646        64.2809       78.31358         0.5664          0.598        36.7711         0.6449       -42.8299     -0.2069473      0.9641187      0.9962373
      7931.0000         8.6626        19.8678         0.0012       116.6506        62.7319        63.0544       76.68846         0.5669         0.5974        36.1579          0.633       -42.7977     -0.1747475      0.9295417      0.9968228
      7931.5000         8.6848         20.233        -0.0019       117.0862        63.7337        61.1497       74.16475         0.5685         0.5958        36.3661         0.6226       -42.8198     -0.1968498      0.8758457      0.9964209
      7932.0000         8.7199        20.5184        -0.0048        117.481        64.2599        57.4767       69.29801         0.5698         0.5929        36.4946         0.6146       -42.9404     -0.3174477      0.7722981      0.9942282
      7932.5000         8.7584        20.6389        -0.0055       117.3016        63.2809        55.6402       66.86465         0.5712         0.5891        35.9628         0.6076       -42.9986     -0.3756485      0.7205245        0.99317
      7933.0000          8.782        20.5343        -0.0048        117.311        62.1853        56.2242       67.63846         0.5741         0.5865        36.6002         0.5987       -42.5325     0.09045029      0.7369885       1.001644
      7933.5000         8.7881        20.3534        -0.0041       117.4794        61.2649        59.0863       71.43074         0.5769         0.5864        37.7794          0.589       -42.0729      0.5500526      0.8176754       1.010001
      7934.0000         8.7424        20.1745        -0.0047       117.3239        61.1131        61.7276       74.93046         0.5788         0.5894        38.6963          0.595       -42.1784      0.4445534      0.8921374       1.008083
      7934.5000         8.6892        19.9934        -0.0053         116.67        59.5684        62.5001       75.95402         0.5805          0.594        37.1696         0.6293       -42.6893    -0.06634903      0.9139153      0.9987937
      7935.0000         8.6398         19.855        -0.0065       115.8628        58.2902        60.6686       73.52728         0.5819         0.5998        34.9582         0.6646       -42.6964    -0.07344818      0.8622825      0.9986646
      7935.5000         8.6159        19.7765        -0.0071       115.1219        57.4647         56.884       68.51269         0.5807         0.6041        34.4248         0.6671        -42.791     -0.1680489      0.7555891      0.9969445
      7936.0000         8.5946        19.8805        -0.0068        114.483        58.2864        55.1826       66.25833          0.579         0.6041        35.7762         0.6446       -42.9872     -0.3642502      0.7076241      0.9933773
      7936.5000         8.5729        20.3203        -0.0046       114.7345        58.7094        54.4113       65.23636         0.5783         0.5961        37.1321         0.6291       -43.3061     -0.6831474      0.6858799      0.9875792
      7937.0000         8.5513        20.6514        -0.0023       115.3666        58.9694         57.127       68.83466         0.5778         0.5866        37.1097         0.6155        -43.626      -1.003048      0.7624397      0.9817628
      7937.5000         8.5006        20.6987        -0.0015       115.4442        59.1686        58.1662        70.2116          0.577         0.5803        36.5643         0.6043       -43.7833      -1.160347      0.7917362      0.9789028
      7938.0000         8.4337        20.7274        -0.0017       115.0787        59.6023         56.202       67.60904          0.575         0.5764        36.0264         0.6012       -44.2092       -1.58625      0.7363625      0.9711591
      7938.5000         8.3806        21.0229        -0.0029       114.5049        60.0644        54.2675       65.04583          0.573         0.5741        35.7305          0.604       -44.7534      -2.130447      0.6818262      0.9612646
