#------------------------------------------------------------------------------
# Created by    : vladimir.rabinovich
# Created on    : 09/19/2023 17:19:46
#------------------------------------------------------------------------------
~Version Information Section
VERS.           2.0     :   CWLS log ASCII Standard - VERSION 2.0
WRAP.           NO      :   One line per depth step
~Well Information Section
#MNEM       .UNIT                                         VALUE :DESCRIPTION
#------------------------------------------------------------------------------
STRT        .FT                                             290 :START DEPTH
STOP        .FT                                         11377.5 :STOP DEPTH
STEP        .FT                                             0.5 :STEP      
NULL        .                                           -999.25 :NULL      
COMP        .                         SONAT EXPLORATION GOM INC :COMPANY   
WELL        .                               OCS G04571 ST00BP00 :WELL      
FLD         .                                           WILDCAT :FIELD     
LOC         .                                                   :LOCATION  
CNTY        .                           HIGH ISLAND LARGE BLOCK :LOCATION  
STAT        .                                             TEXAS :STATE     
CTRY        .                                     UNITED STATES :COUNTRY   
SRVC        .                                                   :SERVICE COMPANY
DATE        .                             9/13/2023 11:19:19 AM :LOG DATE  
API         .                                    42708401190000 :API NUMBER
UWI         .                                    42708401190000 :UNIQUE WELL ID
XCOORD      .                                  1324427.25220013 :SURFACE X 
YCOORD      .                                  10679041.7751219 :SURFACE Y 
LAT         .                                         29.422046 :LATITUDE  
LON         .                                        -93.992863 :LONGITUDE 
ELEV        .FT                                             116 :ELEVATION VALUE
ELEV_TYPE   .                                                KB :ELEVATION REFERENCE TYPE
~Curve Information Section
#MNEM       .UNIT                                      API CODE :CURVE DESCRIPTION
#------------------------------------------------------------------------------
DEPT        .FT                                                 :DEPTH     
ASFL        .OHMM                                               :          
CALI        .IN                                                 :          
CILD        .MMHO                                               :          
GR          .GAPI                                               :          
GR_NORM     .GAPI                                               :GammaRay Normalized
ILD         .OHMM                                               :          
RHOB        .G/C3                                               :          
SP          .MV                                                 :          
SP_NORM     .GAPI                                               :SP Normalized
VSH_GR      .V/V                                                :Volume of Shale from GR
VSH_SP      .V/V                                                :Volume of Shale from SP
~A        DEPTH           ASFL           CALI           CILD             GR        GR_NORM            ILD           RHOB             SP        SP_NORM         VSH_GR         VSH_SP
# ...
      9155.0000         0.6803         17.587       1680.416        68.7124       80.66566         0.5978         2.3265       -45.3954     0.03046621              1              1
      9155.5000         0.6751        17.5545       1705.486        67.1289       78.37294         0.5984          2.329       -45.3965     0.02664235      0.9653817              1
      9156.0000         0.6698        17.4959       1730.555        65.5977       76.15591          0.599         2.3247       -45.3978     0.02263336      0.9182109              1
      9156.5000         0.6645        17.4401       1755.674        66.4329       77.36519         0.5996         2.3134       -45.4167    0.002196757      0.9439402              1
      9157.0000         0.6592        17.3494       1780.742        67.6659       79.15044         0.6045         2.3066       -45.4681    -0.04857788      0.9819242       0.999306
      9157.5000          0.654        17.2307       1810.396        69.3761       81.62662         0.6101          2.302       -45.5196    -0.09944153              1      0.9985794
      9158.0000         0.6445        17.0875       1841.047        71.4469       84.62492         0.6157         2.3005       -45.5978     -0.1752279              1      0.9974967
      9158.5000          0.635        16.9578       1871.697        74.5293       89.08791         0.6213         2.3034       -45.7843     -0.3520935              1      0.9949701
      9159.0000         0.6254        16.8624       1889.115        76.4689       91.89625         0.6273         2.3049       -45.9712     -0.5293294              1      0.9924381
      9159.5000         0.6158        16.8138       1906.533        76.9554       92.60063         0.6362          2.296       -46.2244     -0.7684448              1      0.9890222
      9160.0000         0.6079         16.794       1807.105        74.3602       88.84306         0.6451         2.2751       -46.4899      -1.019042              1      0.9854422
      9160.5000         0.6029        16.7945       1573.164        68.1755       79.88829         0.6743         2.2651       -46.8228      -1.332548      0.9976232      0.9809636
      9161.0000         0.6225         16.798       1495.516        65.7643       76.39713          0.704         2.2632       -47.1637      -1.653521      0.9233432      0.9763783
      9161.5000         0.8079          16.82       1365.139        63.5543       73.19729         0.7448         2.2723       -47.5709      -2.036372      0.8552614      0.9709089
      9162.0000         0.8985        16.8625       1220.557        61.6254       70.40445         0.8303         2.3339       -48.0289      -2.466638      0.7958394      0.9647623
      9162.5000         0.9466        16.9101       1181.809        60.5825       68.89444         0.9159         2.3864       -48.7695      -3.160663      0.7637115      0.9548477
      9163.0000         0.9826         16.956       1163.219        60.0667       68.14763          0.964         2.3992       -49.4036      -3.755283      0.7478219      0.9463531
      9163.5000         1.0029        16.9429       1144.629        61.7894       70.64191         0.9535         2.3936        -49.962      -4.279258      0.8008916      0.9388677
      9164.0000         1.0157        16.8893       1133.141        63.5419       73.17933         0.9276         2.3812       -50.3687      -4.661639      0.8548793      0.9334052
      9164.5000         1.0045        16.7573       1161.598        68.0065       79.64359         0.9016         2.3749       -50.7275      -4.999321      0.9924169      0.9285811
      9165.0000         0.9692         16.569       1199.076        70.8353        83.7394         0.8756         2.3636       -50.7101      -4.985877              1      0.9287732
      9165.5000         0.8893        16.3647       1236.555        72.1205       85.60022         0.8614         2.3412       -50.1913      -4.504463              1      0.9356505
      9166.0000         0.8459        16.2153         1284.6         71.345       84.47739         0.8488         2.3162        -49.672      -4.022583              1      0.9425345
      9166.5000         0.8096        16.3581       1334.738        68.3943       80.20508         0.8363         2.3107       -49.8455      -4.187311              1      0.9401813
      9167.0000         0.7733        16.5752       1384.975        65.9855       76.71741         0.8237         2.3211       -50.7083       -4.99539      0.9301576      0.9286373
      9167.5000          0.772        16.8089       1435.012        66.8431       77.95912         0.8111         2.3439       -51.3417      -5.589362      0.9565771      0.9201519
      9168.0000         0.7701        16.9078       1455.223        69.9155       82.40762         0.7986         2.3655       -51.9429       -6.15328              1       0.912096
      9168.5000         0.7632        16.8471       1466.859        72.9384       86.78445          0.786         2.3591       -50.4789      -4.789678              1       0.931576
      9169.0000         0.7562        16.6322       1478.496        74.6561       89.27151          0.774          2.337       -49.1154      -3.519874              1      0.9497161
      9169.5000         0.7458        16.4253       1495.516        76.3514       91.72612         0.7669         2.2964       -48.2278      -2.694242              1      0.9615108
      9170.0000         0.7229        16.2511       1524.174        75.7051       90.79034         0.7598         2.2892       -47.6149      -2.125001              1      0.9696428
      9170.5000            0.7        16.1844        1552.83        74.2733       88.71725         0.7527          2.317       -47.1376      -1.682321              1      0.9759669
      9171.0000         0.6866        16.0695       1574.959        72.9154       86.75114         0.7456         2.3278       -46.6833      -1.261106              1      0.9819842
      9171.5000         0.6858        15.9117       1581.824        72.4418       86.06543         0.7385         2.3275       -46.3508     -0.9535705              1      0.9863775
      9172.0000         0.6872        15.8276       1588.291        71.9683       85.37986         0.7313         2.3275       -46.2447      -0.857344              1      0.9877522
      9172.5000         0.6885        15.7494       1592.926          71.83       85.17961         0.7243          2.332       -46.1385     -0.7610214              1      0.9891283
      9173.0000         0.6899        15.6889       1597.561        71.8253       85.17281         0.7171         2.3321       -46.1047     -0.7322677              1       0.989539
      9173.5000         0.6914        15.4986       1602.189        71.9801       85.39695         0.7101         2.3156       -46.0953     -0.7262934              1      0.9896244
      9174.0000         0.6929        15.3748       1607.367        72.1348       85.62094         0.7032         2.3028       -46.0859     -0.7203191              1      0.9897097
      9174.5000         0.6945        15.3271       1613.746        72.2893       85.84464         0.6978         2.3093       -46.0766     -0.7144374              1      0.9897938
      9175.0000         0.6893        15.3653       1620.137         72.444       86.06861         0.6924         2.3204         -46.15     -0.7857447              1      0.9887751
      9175.5000          0.684        15.4514       1626.529        72.7867        86.5648          0.687         2.3197       -46.2244     -0.8579814              1      0.9877431
      9176.0000         0.6786        15.5581       1631.611        73.2224       87.19566         0.6816         2.3095       -46.2988     -0.9302216              1      0.9867111
      9176.5000         0.6733        15.6703       1632.652        73.6816       87.86053         0.6762         2.2861       -46.3731      -1.002362              1      0.9856805
      9177.0000         0.6788        15.8008       1633.693        74.8425       89.54138         0.6708         2.2875       -46.4326      -1.060692              1      0.9848472
