#------------------------------------------------------------------------------
# Created by    : vladimir.rabinovich
# Created on    : 09/19/2023 17:21:03
#------------------------------------------------------------------------------
~Version Information Section
VERS.           2.0     :   CWLS log ASCII Standard - VERSION 2.0
WRAP.           NO      :   One line per depth step
~Well Information Section
#MNEM       .UNIT                                         VALUE :DESCRIPTION
#------------------------------------------------------------------------------
STRT        .FT                                          2542.5 :START DEPTH
STOP        .FT                                            8214 :STOP DEPTH
STEP        .FT                                             0.5 :STEP      
NULL        .                                           -999.25 :NULL      
COMP        .                          SEAGULL ENERGY E & P INC :COMPANY   
WELL        .                               OCS G12505 ST00BP00 :WELL      
FLD         .                              GALVESTON BLOCK 0357 :FIELD     
LOC         .                                                   :LOCATION  
CNTY        .                             GALVESTON LARGE BLOCK :LOCATION  
STAT        .                                             TEXAS :STATE     
CTRY        .                                     UNITED STATES :COUNTRY   
SRVC        .                                                   :SERVICE COMPANY
DATE        .                             9/13/2023 11:19:54 AM :LOG DATE  
API         .                                    42706403610000 :API NUMBER
UWI         .                                    42706403610000 :UNIQUE WELL ID
XCOORD      .                                  1003713.76055251 :SURFACE X 
YCOORD      .                                  10412171.7759297 :SURFACE Y 
LAT         .                                          28.67696 :LATITUDE  
LON         .                                        -94.986081 :LONGITUDE 
ELEV        .FT                                              96 :ELEVATION VALUE
ELEV_TYPE   .                                                KB :ELEVATION REFERENCE TYPE
~Curve Information Section
#MNEM       .UNIT                                      API CODE :CURVE DESCRIPTION
#------------------------------------------------------------------------------
DEPT        .FT                                                 :DEPTH     
AT10        .OHMM                                               :          
AT20        .OHMM                                               :          
AT30        .OHMM                                               :          
AT60        .OHMM                                               :          
AT90        .OHMM                                               :          
DCAL        .IN                                                 :          
DPSS        .V/V                                                :          
DTLF        .US/FT                                              :          
DTLN        .US/FT                                              :          
GR          .GAPI                                               :          
GR_NORM     .GAPI                                               :GammaRay Normalized
NPSS        .V/V                                                :Neutron Porosity Sandstone
SP          .MV                                                 :          
SP_NORM     .MV                                                 :SP Normalized
TENS        .LB                                                 :          
VSH_GR      .V/V                                                :Volume of Shale from GR
VSH_SP      .V/V                                                :Volume of Shale from SP
~A        DEPTH           AT10           AT20           AT30           AT60           AT90           DCAL           DPSS           DTLF           DTLN             GR        GR_NORM           NPSS             SP        SP_NORM           TENS         VSH_GR         VSH_SP
# ...
      4207.5000         0.9426         0.9936         1.0025         1.0117         1.0305         1.1327         0.2568       125.8824       126.4706        93.6346       76.00039         0.4179        -9.7468      -6.141595       2491.797      0.9149019      0.9122629
      4208.0000         0.9932         1.0206         1.0301         1.0396          1.059         1.1729         0.2544       122.1569       122.7451         91.438       73.36485         0.4119       -10.1532      -6.545506       2486.995      0.8588266      0.9064928
      4208.5000         0.9927         1.0202         1.0296         1.0392         1.0585         1.2131         0.2532       120.3922       120.9804        89.4436       70.97195         0.4277       -10.7532      -7.143018       2482.993      0.8079139      0.8979569
      4209.0000         0.9836         1.0197         1.0292         1.0387         1.0581         1.2532          0.252       120.3922       120.9804        88.8446       70.25352         0.4177       -10.9589       -7.34623       2478.992      0.7926282      0.8950539
      4209.5000         0.9746         0.9919         1.0006         1.0099         1.0287         1.2932          0.252       121.9608        122.549        90.2138       71.89695         0.3997       -10.7715      -7.156341        2474.99      0.8275947      0.8977665
      4210.0000         0.9488         0.9742         0.9828         0.9914         1.0095         1.3331         0.2532       124.1176       124.7059        91.6034       73.56486         0.3984       -10.3883      -6.770653       2470.988      0.8630821      0.9032764
      4210.5000         0.9159         0.9487          0.957         0.9655         0.9826         1.2549         0.2544       125.8824       126.4706           91.6       73.56115          0.408           -9.8      -6.179865       2469.388      0.8630032      0.9117162
      4211.0000         0.8759         0.9322         0.9487          0.957          0.974         1.0588         0.2568       126.0784       126.6667           90.8       72.60154           0.42           -9.4      -5.777377       2469.388      0.8425859       0.917466
      4211.5000          0.868         0.9322          0.974         0.9826         0.9826         0.8235         0.2544       125.8824       126.4706        89.6068       71.17007          0.425             -9      -5.374889       2469.388      0.8121291      0.9232159
      4212.0000         0.8838         0.9404         0.9655          0.974          0.974         0.7843         0.2544       125.4902       126.0784        86.0645       66.91969          0.414           -8.4        -4.7724       2469.388      0.7216956      0.9318228
      4212.5000         0.8838         0.9404         0.9487          0.957          0.957         0.7843         0.2532       125.2941       125.8824        82.7122       62.89731         0.4044           -8.2      -4.569912       2469.388      0.6361129      0.9347155
      4213.0000         0.8759          0.924         0.9322         0.9404         0.9322         0.8235          0.252       125.4902       126.0784        80.9306       60.75978         0.3984           -8.2      -4.567424       2469.388      0.5906336      0.9347511
      4213.5000         0.8524            0.9         0.9079         0.9159         0.9159         0.8627          0.252       126.0784       126.6667        82.3031       62.40715          0.408           -8.2      -4.564936       2469.388      0.6256841      0.9347866
      4214.0000         0.8371         0.8838         0.8919            0.9         0.8919         0.8235         0.2544       127.0588       127.6471        84.6661       65.24313          0.425           -8.2      -4.562448       2469.388      0.6860241      0.9348222
      4214.5000         0.8146         0.8601          0.868         0.8759         0.8759         0.8235         0.2592       128.0392       128.6275        86.8361       67.84752         0.4387             -8       -4.35996       2469.388      0.7414366      0.9377149
      4215.0000         0.7929         0.8295         0.8371         0.8447         0.8601         0.8627          0.264       129.0196       129.6078        88.6144       69.98186         0.4487           -7.8      -4.157472       2469.388       0.786848      0.9406075
      4215.5000         0.7929         0.8295         0.8371         0.8447         0.8601         0.9412         0.2664            130          130.6           90.2       71.88496         0.4575           -7.8      -4.154984       2469.388      0.8273395      0.9406431
      4216.0000            0.8         0.8295         0.8371         0.8447         0.8601         1.0196         0.2688            131          131.6         89.405       70.93134         0.4688           -7.6      -3.952495       2469.388      0.8070497      0.9435358
      4216.5000            0.8         0.8447         0.8524         0.8601         0.8759          1.098         0.2688          132.2          132.8        88.2132       69.50156         0.4788           -7.4      -3.750007       2469.388       0.776629      0.9464285
      4217.0000            0.8         0.8447         0.8524         0.8601         0.8759         1.1765         0.2688          133.2          133.8        86.6216       67.59201         0.4712           -7.2      -3.547519       2469.388      0.7360002      0.9493212
      4217.5000         0.8073         0.8371         0.8601         0.8524          0.868         1.2157         0.2712          133.2          133.8        85.0269       65.67876         0.4612           -7.2      -3.545031       2469.388      0.6952928      0.9493567
      4218.0000         0.8295         0.8447         0.8838         0.8601         0.8601         1.2941         0.2712          132.2          132.8        85.4202        66.1511           0.45           -7.2      -3.542542       2469.388      0.7053425      0.9493923
      4218.5000          0.868         0.8759            0.9         0.8838         0.8601         1.3333         0.2688       129.8039          130.4        87.6081       68.77696         0.4463           -7.2      -3.540054       2469.388       0.761212      0.9494278
      4219.0000         0.9079            0.9          0.924         0.9079            0.9         1.4118         0.2628       126.2745       126.8627           90.8       72.60763         0.4487           -7.2      -3.537566       2469.388      0.8427155      0.9494634
      4219.5000         0.9487         0.9159         0.9487         0.9404         0.9487         1.5294         0.2568       123.5294       124.1176           90.8         72.608         0.4387           -7.8      -4.135078       2469.388      0.8427234      0.9409274
      4220.0000         0.9913         0.9404         0.9404         0.9487          0.957         1.6471         0.2544       122.1569       122.7451        86.8013       67.80994         0.4056           -8.6       -4.93259       2469.388      0.7406371      0.9295344
      4220.5000         0.9913         0.9404          0.924         0.9322         0.9159         1.5686         0.2556       122.3529       122.9412           83.8       64.20876         0.3852          -11.4      -7.730102       2469.388      0.6640162        0.88957
      4221.0000          0.974         0.9322         0.8838         0.8919         0.8838         1.2549         0.2652       123.1373       123.7255           80.8       60.60915         0.4152          -14.8      -11.12761       2469.388      0.5874287      0.8410341
      4221.5000          0.957            0.9         0.8447         0.8524         0.8447          0.902         0.2771       123.5294       124.1176        77.8431       57.06125         0.4475          -18.6      -14.92513       2469.388      0.5119415      0.7867839
      4222.0000          0.957         0.8919            0.8         0.8073         0.8073         0.7843         0.2914       122.9412       123.5294        74.7059       53.29699         0.4325       -22.3529      -18.67554       2469.388      0.4318509      0.7332066
