#------------------------------------------------------------------------------
# Created by    : vladimir.rabinovich
# Created on    : 09/19/2023 17:21:54
#------------------------------------------------------------------------------
~Version Information Section
VERS.           2.0     :   CWLS log ASCII Standard - VERSION 2.0
WRAP.           NO      :   One line per depth step
~Well Information Section
#MNEM       .UNIT                                         VALUE :DESCRIPTION
#------------------------------------------------------------------------------
STRT        .FT                                             404 :START DEPTH
STOP        .FT                                            9564 :STOP DEPTH
STEP        .FT                                             0.5 :STEP      
NULL        .                                           -999.25 :NULL      
COMP        .                               AMOCO PRODUCTION CO :COMPANY   
WELL        .                               OCS G03108 ST00BP01 :WELL      
FLD         .                                           WILDCAT :FIELD     
LOC         .                                                   :LOCATION  
CNTY        .                      MATAGORDA ISLAND LARGE BLOCK :LOCATION  
STAT        .                                             TEXAS :STATE     
CTRY        .                                     UNITED STATES :COUNTRY   
SRVC        .                                                   :SERVICE COMPANY
DATE        .                             9/13/2023 11:12:09 AM :LOG DATE  
API         .                                    42703400030000 :API NUMBER
UWI         .                                    42703400030000 :UNIQUE WELL ID
XCOORD      .                                  482242.907024332 :SURFACE X 
YCOORD      .                                  10146341.7942038 :SURFACE Y 
LAT         .                                         27.913374 :LATITUDE  
LON         .                                         -96.58609 :LONGITUDE 
ELEV        .FT                                              95 :ELEVATION VALUE
ELEV_TYPE   .                                                KB :ELEVATION REFERENCE TYPE
~Curve Information Section
#MNEM       .UNIT                                      API CODE :CURVE DESCRIPTION
#------------------------------------------------------------------------------
DEPT        .FT                                                 :DEPTH     
CALI        .IN                                                 :          
CILD        .MMHO                                               :          
GR          .GAPI                                               :          
GR_NORM     .GAPI                                               :GammaRay Normalized
ILD         .OHMM                                               :          
RHOB        .G/C3                                               :          
SFL         .OHMM                                               :          
SP          .MV                                                 :          
SP_NORM     .MV                                                 :SP Normalized
VSH_GR      .V/V                                                :Volume of Shale from GR
VSH_SP      .V/V                                                :Volume of Shale from SP
~A        DEPTH           CALI           CILD             GR        GR_NORM            ILD           RHOB            SFL             SP        SP_NORM         VSH_GR         VSH_SP
# ...
      1596.5000        -999.25        -999.25        25.6826       37.42338         0.4133        -999.25         0.7187       -70.0044       -21.1231      0.0941145      0.2644961
      1597.0000        -999.25        -999.25        26.3845       38.21627           0.41        -999.25         0.7122       -70.2565       -21.3768      0.1109846      0.2547385
      1597.5000        -999.25        -999.25         26.918       38.81847          0.419        -999.25          0.676       -70.3999       -21.5218      0.1237972      0.2491616
      1598.0000        -999.25        -999.25        26.9343       38.83545          0.432        -999.25         0.6436       -70.0133       -21.1369      0.1241584      0.2639654
      1598.5000        -999.25        -999.25        26.1176       37.90969         0.4505        -999.25         0.6358        -69.062       -20.1872      0.1044614      0.3004923
      1599.0000        -999.25        -999.25        25.6526       37.38196         0.4708        -999.25         0.6352       -67.8295       -18.9564     0.09323323      0.3478308
      1599.5000        -999.25        -999.25        27.9716       40.00487         0.4907        -999.25         0.6255       -66.2595        -17.388      0.1490397      0.4081538
      1600.0000        -999.25        -999.25        30.6258       43.00724         0.5023        -999.25         0.6638       -64.4624       -15.5925      0.2129201      0.4772115
      1600.5000        -999.25        -999.25        33.8968       46.70768         0.4934        -999.25         0.7139       -62.3412        -13.473      0.2916527      0.5587308
      1601.0000        -999.25        -999.25        38.1515       51.52127         0.4809        -999.25         0.7507       -60.3119       -11.4453      0.3940697      0.6367192
      1601.5000        -999.25        -999.25        42.5623       56.51166         0.4719        -999.25         0.7572       -58.4224        -9.5575       0.500248      0.7093269
      1602.0000        -999.25        -999.25        45.9718       60.36883         0.4693        -999.25         0.6189       -56.8094        -7.9461      0.5823156      0.7713038
      1602.5000        -999.25        -999.25        47.7534       62.38366         0.4544        -999.25         0.5158       -56.9542        -8.0926      0.6251842      0.7656692
      1603.0000        -999.25        -999.25        45.6921       60.04922         0.4362        -999.25          0.627       -62.2801       -13.4201      0.5755154      0.5607654
      1603.5000        -999.25        -999.25        42.4968       56.43153         0.4176        -999.25         0.8051       -66.1035       -17.2451      0.4985432        0.41365
      1604.0000        -999.25        -999.25         38.606       52.02671         0.4026        -999.25         0.8837         -67.89       -19.0333      0.4048235      0.3448731
      1604.5000        -999.25        -999.25        34.4573        47.3299         0.3903        -999.25         0.8311       -69.2493       -20.3942      0.3048916      0.2925308
      1605.0000        -999.25        -999.25        31.8587        44.3875         0.3803        -999.25         0.7893       -70.3104        -21.457      0.2422873      0.2516538
      1605.5000        -999.25        -999.25        30.9468         43.354          0.372        -999.25         0.8077       -71.4082       -22.5564       0.220298      0.2093692
      1606.0000        -999.25        -999.25        30.7159        43.0911         0.3651        -999.25         0.8365       -72.5115       -23.6613      0.2147043      0.1668731
      1606.5000        -999.25        -999.25         30.393       42.72419         0.3584        -999.25         0.8691       -73.3651       -24.5166      0.2068977      0.1339769
      1607.0000        -999.25        -999.25        29.6149       41.84212         0.3532        -999.25          0.893        -73.714       -24.8671      0.1881302      0.1204962
      1607.5000        -999.25        -999.25        28.3739       40.43617         0.3513        -999.25         0.8976       -73.5792        -24.734      0.1582164      0.1256154
      1608.0000        -999.25        -999.25        27.3705         39.299         0.3525        -999.25         0.8771       -73.2576        -24.414      0.1340214      0.1379231
      1608.5000        -999.25        -999.25        26.9862       38.86261         0.3574        -999.25         0.8522       -72.9402       -24.0982      0.1247364      0.1500692
      1609.0000        -999.25        -999.25         27.476       39.41546         0.3672        -999.25         0.8564       -72.5209       -23.6806      0.1364991      0.1661308
      1609.5000        -999.25        -999.25        29.0609       41.20756         0.3792        -999.25         0.9124       -71.7581       -22.9194       0.174629      0.1954077
      1610.0000        -999.25        -999.25        32.1795       44.73552          0.392        -999.25         0.9511        -70.292        -21.455      0.2496918      0.2517308
      1610.5000        -999.25        -999.25        35.7707       48.79832         0.4048        -999.25         0.9003       -67.8969       -19.0615      0.3361346      0.3437884
      1611.0000        -999.25        -999.25        39.1203        52.5876         0.4174        -999.25         0.8108       -64.7557       -15.9219      0.4167574      0.4645423
      1611.5000        -999.25        -999.25        44.1441       58.27173         0.4313        -999.25         0.7928       -60.9792       -12.1471      0.5376964      0.6097269
      1612.0000        -999.25        -999.25        49.1678       63.95576         0.4481        -999.25         0.8113       -57.5129        -8.6824      0.6586331      0.7429847
      1612.5000        -999.25        -999.25        53.6885        69.0705         0.4686        -999.25         0.6673        -55.668        -6.8392      0.7674575      0.8138769
      1613.0000        -999.25        -999.25        58.6724       74.70937         0.4915        -999.25         0.5649       -54.7357        -5.9085      0.8874335      0.8496731
      1613.5000        -999.25        -999.25         63.645       80.33556         0.5106        -999.25         0.5539       -54.1465        -5.3209              1      0.8722731
      1614.0000        -999.25        -999.25        66.1846       83.20824         0.5248        -999.25         0.5673       -53.8947        -5.0708              1      0.8818923
      1614.5000        -999.25        -999.25        66.4573       83.51528         0.5367        -999.25         0.5787       -53.6818        -4.8595              1      0.8900192
      1615.0000        -999.25        -999.25        66.1448       83.16013         0.5477        -999.25         0.5874        -53.448        -4.6274              1      0.8989462
      1615.5000        -999.25        -999.25        65.8643       82.84122         0.5564        -999.25         0.5943       -53.2209        -4.4019              1      0.9076192
      1616.0000        -999.25        -999.25        65.5322       82.46378         0.5596        -999.25          0.593       -53.1333         -4.316              1      0.9109231
      1616.5000        -999.25        -999.25        63.1936       79.81564         0.5613        -999.25         0.5831       -54.0693        -5.2536      0.9960774      0.8748615
      1617.0000        -999.25        -999.25        60.5931       76.87109         0.5614        -999.25         0.5757       -55.0004        -6.1863      0.9334275      0.8389885
      1617.5000        -999.25        -999.25        58.7903       74.82933         0.5588        -999.25         0.6152       -55.9863        -7.1739      0.8899857      0.8010038
      1618.0000        -999.25        -999.25        57.1361       72.95564         0.5511        -999.25         0.6172       -56.9655        -8.1547      0.8501199      0.7632807
      1618.5000        -999.25        -999.25         55.344       70.92599         0.5347        -999.25         0.6486       -57.7374        -8.9283      0.8069359      0.7335269
