#------------------------------------------------------------------------------
# Created by    : vladimir.rabinovich
# Created on    : 09/19/2023 17:20:45
#------------------------------------------------------------------------------
~Version Information Section
VERS.           2.0     :   CWLS log ASCII Standard - VERSION 2.0
WRAP.           NO      :   One line per depth step
~Well Information Section
#MNEM       .UNIT                                         VALUE :DESCRIPTION
#------------------------------------------------------------------------------
STRT        .FT                                            2010 :START DEPTH
STOP        .FT                                            7000 :STOP DEPTH
STEP        .FT                                             0.5 :STEP      
NULL        .                                           -999.25 :NULL      
COMP        .                                    TEXAS GULF INC :COMPANY   
WELL        .                                ST OF TEX TR 693-L :WELL      
FLD         .                                           WILDCAT :FIELD     
LOC         .                                                   :LOCATION  
CNTY        .                      MATAGORDA ISLAND LARGE BLOCK :LOCATION  
STAT        .                                             TEXAS :STATE     
CTRY        .                                     UNITED STATES :COUNTRY   
SRVC        .                                                   :SERVICE COMPANY
DATE        .                             9/13/2023 11:12:01 AM :LOG DATE  
API         .                                    42703300330000 :API NUMBER
UWI         .                                    42703300330000 :UNIQUE WELL ID
XCOORD      .                                  377893.250269135 :SURFACE X 
YCOORD      .                                  10151490.3803449 :SURFACE Y 
LAT         .                                        27.9187241 :LATITUDE  
LON         .                                       -96.9091122 :LONGITUDE 
ELEV        .FT                                              70 :ELEVATION VALUE
ELEV_TYPE   .                                                KB :ELEVATION REFERENCE TYPE
~Curve Information Section
#MNEM       .UNIT                                      API CODE :CURVE DESCRIPTION
#------------------------------------------------------------------------------
DEPT        .FT                                                 :DEPTH     
ASN         .OHMM                                               :          
CILD        .MMHO                                               :          
ILD         .OHMM                                               :          
SP          .MV                                                 :          
SP_NORM     .MV                                                 :SP Normalized
VSH_SP      .V/V                                                :Volume of Shale from SP
~A        DEPTH            ASN           CILD            ILD             SP        SP_NORM         VSH_SP
# ...
      6608.0000         1.0161       1798.789          0.599        -44.881        -3.7719      0.9757274
      6608.5000         0.9979        1832.93         0.5825       -45.1708        -4.0673      0.9716808
      6609.0000         0.9797       1886.387         0.5752       -45.6251        -4.5273      0.9653795
      6609.5000         0.9615       1939.844         0.5686        -46.303        -5.2109      0.9560151
      6610.0000         0.9433        1970.09         0.5619       -46.9802        -5.8937      0.9466617
      6610.5000         0.9331       1986.861         0.5553       -47.2028         -6.122      0.9435343
      6611.0000         0.9467        1967.67         0.5486       -46.6842        -5.6091      0.9505603
      6611.5000         0.9602       1944.609          0.542       -45.7016        -4.6321      0.9639438
      6612.0000         0.9738       1906.053         0.5354       -44.7178         -3.654      0.9773425
      6612.5000         0.9874        1867.02         0.5348       -43.8505        -2.7923      0.9891466
      6613.0000          1.001       1828.039         0.5432       -43.6317        -2.5792      0.9920657
      6613.5000         1.0044       1789.006         0.5515        -43.536        -2.4892      0.9932986
      6614.0000         0.9942        1803.58         0.5599       -43.5477        -2.5065      0.9930617
      6614.5000         0.9845       1821.924         0.5683       -43.5594        -2.5239      0.9928233
      6615.0000         0.9749       1840.242         0.5766       -43.5712        -2.5414      0.9925836
      6615.5000         0.9652       1858.584          0.585       -43.4982         -2.474      0.9935068
      6616.0000         0.9556       1876.902          0.586       -43.0119        -1.9934              1
      6616.5000         0.9459       1893.361         0.5811        -42.525        -1.5121              1
      6617.0000         0.9363       1908.447         0.5761       -42.7846        -1.7774              1
      6617.5000         0.9303       1923.533         0.5712       -43.1348        -2.1333       0.998174
      6618.0000         0.9284       1938.621         0.5663       -43.4849         -2.489      0.9933014
      6618.5000         0.9319       1953.707         0.5614       -43.8353        -2.8451      0.9884233
      6619.0000         0.9483       1968.793         0.5564       -44.1854        -3.2009      0.9835493
      6619.5000         0.9625       1983.879         0.5515       -44.5355        -3.5566      0.9786767
      6620.0000         0.9521       1998.965         0.5466       -44.7526        -3.7794      0.9756247
      6620.5000         0.9419       2012.205         0.5417       -44.1226         -3.155      0.9841781
      6621.0000         0.9486       2024.482         0.5388       -43.4703        -2.5084      0.9930356
      6621.5000         0.9522       2036.748         0.5428       -42.7526        -1.7964              1
      6622.0000         0.9502       2049.027         0.5467       -42.0356         -1.085              1
      6622.5000         0.9483       2011.768         0.5507       -41.2402        -0.2953              1
      6623.0000         0.9687       1938.895         0.5546       -41.5859        -0.6466              1
      6623.5000          0.995       1862.328         0.5586       -42.2327        -1.2991              1
      6624.0000         1.0273       1785.063         0.5625       -43.1021        -2.1742      0.9976137
      6624.5000         1.0627       1717.881         0.5665       -44.9553         -4.033      0.9721507
      6625.0000          1.098       1675.105         0.5878       -46.8085        -5.8919      0.9466863
      6625.5000         1.1313       1634.625         0.6131       -49.4628        -8.5519      0.9102479
      6626.0000         1.1634       1699.113         0.6385       -53.0598       -12.1545      0.8608972
      6626.5000         1.1521       1773.283         0.6227       -56.2936        -15.394      0.8165206
      6627.0000         1.0993       1847.354          0.591       -58.2513       -17.3573       0.789626
      6627.5000         1.0269       1941.689         0.5593       -59.6108       -18.7225      0.7709247
      6628.0000         0.9838       2040.418         0.5276        -60.913       -20.0304      0.7530082
      6628.5000         1.0126       2123.371         0.4986       -62.1617       -21.2847       0.735826
      6629.0000         1.0418       2195.844         0.4761        -64.592       -23.7207      0.7024562
      6629.5000         1.0714       2264.926         0.4595       -67.8657       -27.0001      0.6575329
      6630.0000         1.1007        2296.52         0.4744       -70.9702       -30.1102      0.6149288
      6630.5000         1.0812       2328.113         0.4892       -73.6543          -32.8      0.5780822
      6631.0000         1.0588       2356.117         0.5041       -70.8955       -30.0468      0.6157973
      6631.5000         1.0348       2352.672         0.5189       -66.5424       -25.6994      0.6753507
      6632.0000         1.0109       2165.199         0.5338       -62.1891       -21.3518      0.7349069
      6632.5000         0.9869        2004.58         0.5487       -56.3085       -15.4768      0.8153863
      6633.0000          0.963       2003.881         0.5635       -50.7364        -9.9104      0.8916383
      6633.5000         0.9771       2056.887         0.5784       -49.5144        -8.6941         0.9083
      6634.0000         1.0441       1966.146         0.5932       -48.9963        -8.1816      0.9153206
      6634.5000         1.1345       1867.619         0.6081       -48.4789        -7.6699      0.9223301
      6635.0000         1.1627       1747.729          0.624       -47.9771        -7.1737      0.9291274
      6635.5000         1.1622       1639.916         0.6449       -47.4988        -6.7011      0.9356014
      6636.0000         1.1647       1545.281         0.6658         -47.02         -6.228      0.9420822
      6636.5000         1.1724       1474.404         0.6867       -46.5417        -5.7553      0.9485576
      6637.0000         1.1801       1419.602         0.7076       -46.2958        -5.5151       0.951848
      6637.5000         1.1879       1381.217         0.7285         -46.15         -5.375      0.9537671
      6638.0000         1.1959       1361.104         0.7494       -46.1282        -5.3588       0.953989
      6638.5000         1.2041       1340.988         0.7703       -46.4183        -5.6546       0.949937
      6639.0000         1.2123       1324.816         0.7912       -46.7081          -5.95      0.9458904
      6639.5000         1.2297       1310.254          0.803       -46.8405        -6.0881      0.9439986
      6640.0000         1.2591       1295.705         0.8083       -46.7108        -5.9641      0.9456972
      6640.5000         1.2877       1326.363         0.8136       -46.5812        -5.8401      0.9473959
      6641.0000         1.2418       1357.285         0.8022       -46.3042        -5.5688      0.9511123
      6641.5000          1.196       1388.205         0.7859       -45.7687        -5.0389      0.9583712
      6642.0000           1.15       1418.479         0.7696       -45.2333        -4.5092      0.9656274
      6642.5000         1.1309       1442.686         0.7533       -44.6979        -3.9795      0.9728836
      6643.0000         1.1154       1466.918          0.737       -44.1624        -3.4496      0.9801425
      6643.5000         1.1386       1491.125         0.7207       -43.3397        -2.6326      0.9913343
      6644.0000         1.1675       1515.334         0.7044       -43.2526        -2.5512      0.9924493
      6644.5000         1.1964       1537.994          0.696       -43.8882        -3.1924      0.9836658
      6645.0000         1.2238       1531.506         0.7036       -44.5237        -3.8336      0.9748822
      6645.5000         1.2511       1490.627         0.7111       -45.0443        -4.3598       0.967674
