#------------------------------------------------------------------------------
# Created by    : vladimir.rabinovich
# Created on    : 09/19/2023 17:21:33
#------------------------------------------------------------------------------
~Version Information Section
VERS.           2.0     :   CWLS log ASCII Standard - VERSION 2.0
WRAP.           NO      :   One line per depth step
~Well Information Section
#MNEM       .UNIT                                         VALUE :DESCRIPTION
#------------------------------------------------------------------------------
STRT        .FT                                            3683 :START DEPTH
STOP        .FT                                            9328 :STOP DEPTH
STEP        .FT                                             0.5 :STEP      
NULL        .                                           -999.25 :NULL      
COMP        .                                SHELL OFFSHORE INC :COMPANY   
WELL        .                               OCS G11316 ST00BP00 :WELL      
FLD         .                                           WILDCAT :FIELD     
LOC         .                                                   :LOCATION  
CNTY        .                             GALVESTON LARGE BLOCK :LOCATION  
STAT        .                                             TEXAS :STATE     
CTRY        .                                     UNITED STATES :COUNTRY   
SRVC        .                                                   :SERVICE COMPANY
DATE        .                             9/13/2023 11:19:34 AM :LOG DATE  
API         .                                    42706402670000 :API NUMBER
UWI         .                                    42706402670000 :UNIQUE WELL ID
XCOORD      .                                  1097534.45360284 :SURFACE X 
YCOORD      .                                  10461685.9172371 :SURFACE Y 
LAT         .                                         28.817107 :LATITUDE  
LON         .                                        -94.695737 :LONGITUDE 
ELEV        .FT                                              91 :ELEVATION VALUE
ELEV_TYPE   .                                                KB :ELEVATION REFERENCE TYPE
~Curve Information Section
#MNEM       .UNIT                                      API CODE :CURVE DESCRIPTION
#------------------------------------------------------------------------------
DEPT        .FT                                                 :DEPTH     
CALI        .IN                                                 :          
CALI_1      .IN                                                 :          
CILD        .MMHO                                               :          
DRHO        .G/C3                                               :          
DT          .US/F                                               :          
GR          .GAPI                                               :          
GR_1        .GAPI                                               :          
GR_NORM     .GAPI                                               :GammaRay Normalized
ILD         .OHMM                                               :          
ILM         .OHMM                                               :          
NPHI        .%                                                  :          
RHOB        .G/C3                                               :          
SFL         .OHMM                                               :          
SP          .MV                                                 :          
SP_NORM     .MV                                                 :SP Normalized
VSH_GR      .V/V                                                :Volume of Shale from GR
VSH_SP      .V/V                                                :Volume of Shale from SP
~A        DEPTH           CALI         CALI_1           CILD           DRHO             DT             GR           GR_1        GR_NORM            ILD            ILM           NPHI           RHOB            SFL             SP        SP_NORM         VSH_GR         VSH_SP
# ...
      7523.0000        14.4025        14.5215       1582.656          0.056        103.875        59.6063        59.3405       67.57935         0.6452         0.5607         34.528         2.2806         0.7447       -32.2448      -3.644956      0.7357308      0.9392508
      7523.5000        14.2117        14.2443       1529.813         0.0579       103.2367        59.6888        58.9341       66.94434         0.6667         0.5704        34.3473         2.3006         0.7831       -32.1914      -3.555886      0.7222201      0.9407352
      7524.0000        14.1501        14.1464       1449.668         0.0475       102.2866        61.4458        60.2718       69.03451          0.703         0.6195        33.5775          2.323         0.8069       -32.1979      -3.563848      0.7666916      0.9406025
      7524.5000        14.1547        14.1508       1389.141         0.0355       101.5959        62.7805        61.9269       71.62059         0.7396         0.6744        32.7676         2.3421          0.796       -32.3008      -3.727964      0.8217147      0.9378673
      7525.0000        14.1451        14.1662       1344.879         0.0244       100.9429        64.1349        63.4869       74.05809         0.7651         0.7116        32.0469         2.3552         0.7797        -32.471       -4.00109      0.8735764      0.9333152
      7525.5000        14.1283        14.1833       1317.092         0.0118       101.1788        65.2898        64.8567       76.19841         0.7595          0.715        31.6334         2.3661         0.7696       -32.5366      -4.104779      0.9191151       0.931587
      7526.0000        14.0881         14.116       1336.943         0.0016       102.0555        65.3379         65.394       77.03793         0.7461         0.7081        31.8185          2.374         0.7726       -32.5421      -4.111122      0.9369773      0.9314813
      7526.5000        14.0247        14.0437       1359.691        -0.0015       102.4943        64.8225        65.3385       76.95122          0.736         0.6982        32.1539         2.3842         0.7867        -32.611      -4.220163      0.9351323       0.929664
      7527.0000        13.9611        13.9757       1378.791         0.0072       102.4983        64.4292        64.9982       76.41951          0.727         0.6874        32.6805         2.3929         0.8057       -32.9866      -4.826004      0.9238194      0.9195666
      7527.5000        13.8983        13.9053       1391.557         0.0176       102.1924        63.9557        64.5461       75.71309         0.7146         0.6785        33.6816          2.396          0.828       -33.5302      -5.703982      0.9087891      0.9049336
      7528.0000        13.8393        13.8354        1407.92         0.0233       101.6281        63.4654         64.073       74.97387         0.6938         0.6852        35.5574           2.39         0.8223       -33.8704       -6.25248       0.893061       0.895792
      7528.5000        13.7802        13.7724       1459.082         0.0246       100.8535        63.0785        63.5463       74.15091         0.6798         0.6895        37.4763         2.3793         0.8018       -33.6232      -5.849489      0.8755513      0.9025085
      7529.0000        13.7129        13.7119           1503         0.0231       101.7432        62.2326        63.0392       73.35857          0.678         0.6128        39.8979         2.3729         0.8194       -32.8044      -4.520604      0.8586929      0.9246566
      7529.5000        13.6434        13.6331       1436.559         0.0196       103.6211         60.201        62.3012       72.20544         0.6928         0.6321        41.5609         2.3798         0.8834       -32.0483      -3.293277      0.8341582       0.945112
      7530.0000         13.568        13.5677         1343.5         0.0149       101.8665        59.8858         59.669       68.09262         0.7136         0.6792        42.4735         2.3948         0.8798       -31.8274      -2.932885      0.7466515      0.9511186
      7530.5000        13.5023        13.5152        1359.74         0.0107        99.0126        63.3604        60.4719       69.34716         0.7285          0.709        42.6683         2.4082         0.8593       -31.9982      -3.206985      0.7733439      0.9465503
      7531.0000        13.4911        13.4934       1375.611         0.0066        97.0853        67.1035        65.1136       76.59982         0.7326         0.7273        41.3631         2.4173         0.8513       -32.0427      -3.276504      0.9276556      0.9453916
      7531.5000         13.507        13.5159       1396.141          0.006        95.4983        70.4082        68.9872       82.65231         0.7042         0.7228        40.0228         2.4216         0.8515       -31.8972      -3.038247              1      0.9493626
      7532.0000        13.5407         13.551        1464.16         0.0104        94.2672        72.7354         71.754       86.97544         0.6635         0.6946        38.4163         2.4145         0.8504       -31.7587      -2.811332              1      0.9531445
      7532.5000        13.5661        13.5817       1592.707         0.0169        93.3948         71.701        72.7107       88.47029         0.6161         0.6397        36.8366         2.4077         0.8416       -31.8834      -3.010759              1      0.9498207
      7533.0000        13.5834         13.599       1717.902         0.0252        93.5538         70.676        71.9196       87.23419         0.5778          0.582        36.8537          2.405         0.8213       -32.0334      -3.251169              1      0.9458138
      7533.5000        13.5891        13.6048       1802.162         0.0342        94.4644        71.1298        70.9197       85.67184         0.5642          0.542        37.7782          2.404         0.8245       -32.1505      -3.438284              1      0.9426953
      7534.0000        13.5901        13.6143       1617.154          0.037        95.8346        70.9303        71.8275       87.09029         0.6225         0.5974        38.7808            2.4          0.858       -32.1653      -3.459685              1      0.9423386
      7534.5000        13.6006        13.6254       1465.441           0.03        97.2283        68.8987        70.6967       85.32341         0.7086         0.6668         39.709           2.39         0.8909       -32.1802      -3.481251              1      0.9419792
      7535.0000        13.6109        13.6375       1406.098         0.0185        98.6996        67.6884        68.7185       82.23247         0.7102         0.7102        40.3583         2.3767         0.8934       -32.1959      -3.504117              1      0.9415981
      7535.5000        13.6008        13.6368       1440.205         0.0109       100.0686        68.2892        68.3032       81.58356         0.6794           0.67        40.7227         2.3625         0.8235       -32.2184      -3.537994              1      0.9410334
      7536.0000        13.5969        13.6311       1516.209         0.0133       101.0322        69.4884         68.897       82.51138         0.6479         0.6252        41.3564         2.3495         0.7824        -32.258      -3.599573              1      0.9400072
      7536.5000        13.5491        13.5988       1598.621         0.0222       102.0377        70.4082        69.9049       84.08622         0.6216         0.5816        41.9462         2.3431           0.76        -32.258      -3.597005              1      0.9400499
      7537.0000        13.4947         13.546       1640.518         0.0313        103.005        69.0551        70.4731       84.97403         0.6084         0.5547        42.3813         2.3433         0.7498       -32.2069      -3.511668              1      0.9414722
      7537.5000        13.4285        13.4643       1626.814         0.0367       103.6792        67.5812        69.1725       82.94185         0.6081          0.546        42.7249         2.3476         0.7521       -32.0801      -3.303705              1      0.9449382
