#------------------------------------------------------------------------------
# Created by    : vladimir.rabinovich
# Created on    : 09/19/2023 17:19:44
#------------------------------------------------------------------------------
~Version Information Section
VERS.           2.0     :   CWLS log ASCII Standard - VERSION 2.0
WRAP.           NO      :   One line per depth step
~Well Information Section
#MNEM       .UNIT                                         VALUE :DESCRIPTION
#------------------------------------------------------------------------------
STRT        .FT                                             490 :START DEPTH
STOP        .FT                                           13420 :STOP DEPTH
STEP        .FT                                             0.5 :STEP      
NULL        .                                           -999.25 :NULL      
COMP        .                                 MESA PETROLEUM CO :COMPANY   
WELL        .                                     ST TR 00012-L :WELL      
FLD         .                                           WILDCAT :FIELD     
LOC         .                                                   :LOCATION  
CNTY        .                           HIGH ISLAND LARGE BLOCK :LOCATION  
STAT        .                                             TEXAS :STATE     
CTRY        .                                     UNITED STATES :COUNTRY   
SRVC        .                                                   :SERVICE COMPANY
DATE        .                             9/13/2023 11:19:15 AM :LOG DATE  
API         .                                    42708302120000 :API NUMBER
UWI         .                                    42708302120000 :UNIQUE WELL ID
XCOORD      .                                  1361115.25412243 :SURFACE X 
YCOORD      .                                  10723579.9964947 :SURFACE Y 
LAT         .                                        29.5453665 :LATITUDE  
LON         .                                       -93.8786547 :LONGITUDE 
ELEV        .FT                                              80 :ELEVATION VALUE
ELEV_TYPE   .                                                KB :ELEVATION REFERENCE TYPE
~Curve Information Section
#MNEM       .UNIT                                      API CODE :CURVE DESCRIPTION
#------------------------------------------------------------------------------
DEPT        .FT                                                 :DEPTH     
ASFL        .OHMM                                               :          
CILD        .MMHO                                               :          
GR          .GAPI                                               :          
GR_NORM     .GAPI                                               :GammaRay Normalized
ILD         .OHMM                                               :          
SP          .MV                                                 :          
SP_NORM     .MV                                                 :SP Normalized
VSH_GR      .V/V                                                :Volume of Shale from GR
~A        DEPTH           ASFL           CILD             GR        GR_NORM            ILD             SP        SP_NORM         VSH_GR
# ...
      3941.5000         0.8734       2303.004        36.9053       49.79354         0.4864      -176.8821      -39.46617      0.3573095
      3942.0000         0.8745       2165.465        36.1705       48.66043         0.4633       -194.084      -56.66707      0.3332007
      3942.5000         0.8726       2463.266        35.4462       47.54351          0.438      -200.6726      -63.25467      0.3094364
      3943.0000         0.8645       2761.262        35.6172        47.8072         0.4239      -204.3894      -66.97046      0.3150468
      3943.5000          0.846       3059.258        35.9918       48.38486         0.4186        -205.75      -68.33006      0.3273375
      3944.0000         0.8148       3184.441        36.4171        49.0407         0.4191       -206.168      -68.74706      0.3412915
      3944.5000         0.7907       3446.816             37       49.93958         0.4195      -203.7993      -66.37735      0.3604165
      3945.0000         0.7786       3585.453        37.5828       50.83831           0.42      -194.9668      -57.54385      0.3795384
      3945.5000         0.7736       3638.793        38.1901       51.77481         0.4205      -183.4019      -45.97795       0.399464
      3946.0000         0.7742       3602.402        38.8768       52.83374          0.421      -172.5149      -35.08994      0.4219946
      3946.5000         0.7795        3574.68         39.587       53.92892         0.4214      -162.8364      -25.41045      0.4452963
      3947.0000          0.787       3537.602        40.2429       54.94037         0.4273      -163.2839      -25.85695      0.4668164
      3947.5000         0.8058       3287.508         40.735       55.69923         0.4338      -165.8054      -28.37744      0.4829623
      3948.0000         0.8255       2958.164        40.7404       55.70755         0.4402       -168.291      -30.86205      0.4831394
      3948.5000         0.8319       2898.359        40.7397       55.70647         0.4586      -171.9404      -34.51044      0.4831165
      3949.0000         0.8355       2883.371        40.6655       55.59206         0.4844      -174.9119      -37.48093      0.4806821
      3949.5000         0.8114       2864.438        40.5914       55.47778         0.5103      -184.9011      -47.46913      0.4782506
      3950.0000         0.7967       2838.086        40.5173       55.36351         0.5363      -190.1682      -52.73523      0.4758193
      3950.5000         0.7924       2797.996        40.4444       55.25111         0.5706      -171.0725      -33.63852      0.4734279
      3951.0000         0.8094       2741.375        40.3714       55.13853         0.6243      -155.8926      -18.45763      0.4710325
      3951.5000         0.8545       2661.047        40.2984       55.02596         0.6629      -159.8528      -22.41682      0.4686374
      3952.0000         0.9316       2533.504        40.2255       54.91354         0.6659       -163.697      -26.26003      0.4662455
      3952.5000         0.9814       2215.574        40.1525       54.80097          0.655      -167.8557      -30.41772      0.4638505
      3953.0000         0.9944       2136.715        40.0795       54.68839         0.6442       -171.324      -33.88503      0.4614552
      3953.5000         1.0038       1754.229        40.0743       54.68038         0.6252      -175.8118      -38.37181      0.4612846
      3954.0000         1.0057       1953.285        40.1266       54.76102          0.617      -177.6992      -40.25821      0.4630005
      3954.5000         1.0058       2124.961        40.1796       54.84276          0.609      -177.4531      -40.01111      0.4647395
      3955.0000         1.0055       2182.902        40.2727       54.98632         0.6011       -176.572      -39.12901      0.4677941
      3955.5000         1.0019       2229.809        40.3658       55.12989         0.5928       -174.876      -37.43201      0.4708488
      3956.0000         0.9944       2237.473        40.5875       55.47177         0.5833      -165.6882      -28.24321      0.4781227
      3956.5000         0.9746       2233.855        41.0813       56.23324         0.5832      -162.2742       -24.8282      0.4943243
      3957.0000          0.959       2230.102        41.7107       57.20383         0.5882      -159.1523      -21.70529      0.5149751
      3957.5000         0.9452       2208.668        42.3975       58.26292         0.5961      -156.7593      -19.31129       0.537509
      3958.0000         0.9302       2155.031        43.5657       60.06437         0.6078      -153.6633      -16.21429      0.5758376
      3958.5000          0.923       2079.504        45.5057         63.056         0.6258      -153.0508      -15.60078      0.6394894
      3959.0000         0.9133       2018.428        46.6677       64.84789         0.6438      -154.6165       -17.1655      0.6776146
      3959.5000         0.9139       1974.787        49.0991       68.59727         0.6865      -155.9751      -18.52309      0.7573888
      3960.0000         0.9145       1927.203        49.1841       68.72836         0.6711      -157.6853      -20.23228      0.7601778
      3960.5000         0.9155       1866.688        47.5222        66.1656         0.6535      -160.1648      -22.71078       0.705651
      3961.0000         0.9164       1818.785        45.8392       63.57026         0.6259      -162.8672      -25.41219      0.6504311
      3961.5000         0.9172       1873.691        43.9146       60.60241         0.5973      -166.3552      -28.89917      0.5872854
      3962.0000          0.918       1948.826         41.715       57.21047         0.5643      -169.8174      -32.36038      0.5151165
      3962.5000         0.9188       2018.525         40.471       55.29212         0.5394      -175.4714      -38.01338      0.4743004
      3963.0000         0.9214       2118.152        39.8387       54.31707          0.526      -177.9546      -40.49557      0.4535546
      3963.5000         0.9261        2248.73        39.5229       53.83008         0.5201        -181.54      -44.07996      0.4431931
      3964.0000         0.9663       2522.434        39.2071       53.34309         0.5205      -183.1829      -45.72188      0.4328318
      3964.5000         1.0651       2571.977        38.7221       52.59519          0.523      -184.2759      -46.81386       0.416919
      3965.0000         1.1066       2602.418        37.9866       51.46099         0.5269      -185.6074      -48.14436       0.392787
      3965.5000         1.1433       2591.422        37.1051       50.10165         0.5377      -187.3245      -49.86046       0.363865
      3966.0000         1.1904       2554.664        37.3458       50.47283         0.5676      -188.0061      -50.54106      0.3717624
      3966.5000         1.2332        2453.91        37.7656       51.12018         0.5941      -188.6167      -51.15065      0.3855358
      3967.0000         1.2582       2389.109         38.191       51.77619         0.6154      -189.1553      -51.68826      0.3994934
      3967.5000          1.279       2352.324        38.6176       52.43405         0.6366      -189.4827      -52.01465      0.4134904
      3968.0000         1.3082       2057.121        39.0439       53.09143         0.6568      -189.2527      -51.78365      0.4274772
      3968.5000         1.3295       1961.807        39.4175       53.66754         0.6752      -189.0225      -51.55246      0.4397349
      3969.0000         1.3502       1888.631        39.7795       54.22577         0.6964      -188.6973      -51.22624      0.4516121
      3969.5000         1.3852       1859.805        39.9824       54.53866         0.7154       -187.749      -50.27693      0.4582694
      3970.0000          1.414       1790.596        39.7933       54.24706         0.7324      -186.1216      -48.64854      0.4520651
      3970.5000         1.4486        1761.33        39.6042       53.95545         0.7491      -181.9519      -44.47784      0.4458606
