#------------------------------------------------------------------------------
# Created by    : vladimir.rabinovich
# Created on    : 09/19/2023 17:20:30
#------------------------------------------------------------------------------
~Version Information Section
VERS.           2.0     :   CWLS log ASCII Standard - VERSION 2.0
WRAP.           NO      :   One line per depth step
~Well Information Section
#MNEM       .UNIT                                         VALUE :DESCRIPTION
#------------------------------------------------------------------------------
STRT        .FT                                             609 :START DEPTH
STOP        .FT                                           12866 :STOP DEPTH
STEP        .FT                                             0.5 :STEP      
NULL        .                                           -999.25 :NULL      
COMP        .                                        SUN OIL CO :COMPANY   
WELL        .                               OCS G01769 ST00BP00 :WELL      
FLD         .                                           WILDCAT :FIELD     
LOC         .                                                   :LOCATION  
CNTY        .                             GALVESTON LARGE BLOCK :LOCATION  
STAT        .                                             TEXAS :STATE     
CTRY        .                                     UNITED STATES :COUNTRY   
SRVC        .                                                   :SERVICE COMPANY
DATE        .                             9/13/2023 11:19:24 AM :LOG DATE  
API         .                                    42706001410000 :API NUMBER
UWI         .                                    42706001410000 :UNIQUE WELL ID
XCOORD      .                                  1110717.91749569 :SURFACE X 
YCOORD      .                                  10538856.4752018 :SURFACE Y 
LAT         .                                         29.029845 :LATITUDE  
LON         .                                        -94.657945 :LONGITUDE 
ELEV        .FT                                              65 :ELEVATION VALUE
ELEV_TYPE   .                                                KB :ELEVATION REFERENCE TYPE
~Curve Information Section
#MNEM       .UNIT                                      API CODE :CURVE DESCRIPTION
#------------------------------------------------------------------------------
DEPT        .FT                                                 :DEPTH     
ASN         .OHMM                                               :          
CALI        .IN                                                 :          
CILD        .MMHO                                               :          
DT          .US/F                                               :          
ILD         .OHMM                                               :          
SP          .MV                                                 :          
SP_NORM     .MV                                                 :SP Normalized
VSH_SP      .V/V                                                :Volume of Shale from SP
~A        DEPTH            ASN           CALI           CILD             DT            ILD             SP        SP_NORM         VSH_SP
# ...
     12025.5000         0.9036         8.8275       1461.838        93.9421         0.6655       -56.8885      -10.22183      0.7904129
     12026.0000         1.0099         8.7539       1444.668        94.4419         0.6895       -58.7134      -12.04673      0.7489378
     12026.5000         1.0777          8.819       1427.496        94.4983         0.7136       -60.9761      -14.30943      0.6975129
     12027.0000         1.1316          8.972       1405.029        96.0638         0.7441       -63.0125      -16.34583      0.6512311
     12027.5000          1.176         8.9581        1379.52        96.6368         0.7771       -66.2172      -19.55053       0.578397
     12028.0000         1.2196         9.0634       1339.781        94.9801         0.8101       -66.9144      -20.24773      0.5625516
     12028.5000         1.2632         9.7083       1300.045        93.1547         0.8231       -67.6129      -20.94623      0.5466766
     12029.0000         1.2603        10.4952       1260.309        91.1953         0.8181       -66.0967      -19.43003      0.5811356
     12029.5000         1.2122        11.0556       1220.572        91.0316         0.7978       -64.3062      -17.63953      0.6218289
     12030.0000         1.1459         11.231       1206.051        94.6427         0.7764       -62.7888      -16.12213      0.6563152
     12030.5000         1.0795        11.2099       1381.088       100.7142         0.7551       -61.3524      -14.68573      0.6889606
     12031.0000         1.0131        11.2072       1540.428       103.1001         0.7337        -59.894      -13.22733       0.722106
     12031.5000         0.9467        12.1606       1647.178       105.6943         0.7123       -58.0839      -11.41723      0.7632447
     12032.0000         0.8804        13.4185       1698.295       108.9657          0.687       -56.6599      -9.993233      0.7956083
     12032.5000          0.814        13.7583        1749.02       108.5962         0.6617       -55.5039      -8.837231      0.8218811
     12033.0000         0.7425        13.4061        1795.43       112.5594         0.6363       -54.3922      -7.725533       0.847147
     12033.5000         0.7154        13.4429       1834.969       115.2083          0.611       -53.6483      -6.981632      0.8640538
     12034.0000         0.6985        13.6423       1912.873       115.6746         0.5856       -52.9043      -6.237633      0.8809629
     12034.5000         0.6873        13.7211       1987.539       115.1934         0.5675       -52.1714       -5.50473      0.8976198
     12035.0000         0.6789        13.4285       2225.289       113.3333         0.5494       -51.6438      -4.977131      0.9096107
     12035.5000         0.6785        13.1398       2265.125       111.6641         0.5349       -51.1163      -4.449631      0.9215993
     12036.0000         0.6781         12.714       2302.605        112.113         0.5227       -50.5887      -3.922031      0.9335902
     12036.5000         0.6777        11.8784       2288.918       112.8695         0.5109       -50.0599       -3.39323      0.9456084
     12037.0000         0.6773        11.3766       2263.555       113.5787         0.5145       -49.6031      -2.936432      0.9559902
     12037.5000         0.6769        10.9846       2236.965       113.2229         0.5181       -49.1948      -2.528133      0.9652697
     12038.0000         0.6766        10.7804        2208.66       111.8724         0.5217       -48.7872      -2.120533      0.9745333
     12038.5000         0.6763        10.6363       2180.402       111.0229         0.5253       -48.3796      -1.712933       0.983797
     12039.0000         0.6761        10.5319       2152.145       109.9056         0.5289       -47.9713       -1.30463      0.9930766
     12039.5000         0.6758        10.5767       2105.883       109.5498         0.5325       -47.5637     -0.8970337              1
     12040.0000         0.6756        10.7233       2067.105       109.8412         0.5348       -47.3372     -0.6705322              1
     12040.5000         0.6753        10.8609       2051.898       110.8208         0.5365       -47.2754     -0.6087303              1
     12041.0000         0.6751        10.9791       2042.736       111.9294         0.5381       -47.2136     -0.5469322              1
     12041.5000          0.675        11.0293       2045.041       112.7145         0.5398       -47.1519     -0.4852333              1
     12042.0000         0.6757         11.071       2047.348       112.9767         0.5414         -47.09     -0.4233322              1
     12042.5000         0.6765        11.0912        2043.68       112.7876         0.5431       -47.0283     -0.3616333              1
     12043.0000         0.6773        10.9781       2049.848        111.953         0.5447       -46.9664     -0.2997322              1
     12043.5000         0.6781        10.8492       2057.344         111.54         0.5443       -46.9047     -0.2380333              1
     12044.0000         0.6788        10.7937       2069.215       111.1917         0.5437       -46.8429     -0.1762314              1
     12044.5000         0.6796        10.8554       2081.109       110.6975          0.543       -46.7811     -0.1144333              1
     12045.0000         0.6801        10.7933       2086.102       110.9064         0.5423       -46.7194    -0.05273056              1
     12045.5000         0.6789         10.683       2079.195       110.7024         0.5417       -46.6577    0.008968353              1
     12046.0000         0.6777         10.533       2070.242       110.2733          0.541       -46.5958     0.07086945              1
     12046.5000         0.6765        10.3981       2048.145       110.2581         0.5405       -46.5341      0.1325684              1
     12047.0000         0.6753        10.3263       2027.219       110.0657         0.5417       -46.4723      0.1943665              1
     12047.5000         0.6741        10.4088       2009.469       110.0198         0.5429       -46.4581      0.2085686              1
     12048.0000         0.6736        10.4545       1991.719       109.9354         0.5441       -46.4866       0.180069              1
     12048.5000         0.6765        10.5382       1975.568       110.3958         0.5453       -46.5152      0.1514664              1
     12049.0000         0.6793        10.7118       1962.201       110.4537         0.5464       -46.5438      0.1228676              1
     12049.5000         0.6813        10.9384       1964.936       111.3467         0.5476       -46.5724      0.0942688              1
     12050.0000          0.679        11.0964       1979.861         111.55         0.5482        -46.601      0.0656662              1
     12050.5000          0.675        11.1985           1995       111.6121         0.5488       -46.6296     0.03706741              1
     12051.0000         0.6705        10.2766       2036.371       112.3958         0.5494       -46.6853    -0.01863098              1
     12051.5000          0.666         9.5234       2053.883       106.3292         0.5499        -46.792     -0.1253319              1
     12052.0000         0.6738          9.597        2050.77       101.4384         0.5505       -46.8987     -0.2320328              1
     12052.5000          0.686         10.368       2036.592        92.7578         0.5511       -47.1603     -0.4936333              1
     12053.0000         0.7043        11.7591       2024.088        88.3481         0.5468       -47.6952      -1.028534      0.9993515
     12053.5000         0.7226        12.7836       2027.123        93.2142         0.5424       -48.2302      -1.563534      0.9871924
     12054.0000         0.7409        12.6991       2030.164       106.9047         0.5379       -48.8007      -2.134033      0.9742265
     12054.5000         0.7532        12.7662       2037.891       114.4642         0.5335       -49.4193      -2.752632      0.9601675
