#------------------------------------------------------------------------------
# Created by    : vladimir.rabinovich
# Created on    : 09/19/2023 17:20:33
#------------------------------------------------------------------------------
~Version Information Section
VERS.           2.0     :   CWLS log ASCII Standard - VERSION 2.0
WRAP.           NO      :   One line per depth step
~Well Information Section
#MNEM       .UNIT                                         VALUE :DESCRIPTION
#------------------------------------------------------------------------------
STRT        .FT                                             510 :START DEPTH
STOP        .FT                                            9509 :STOP DEPTH
STEP        .FT                                             0.5 :STEP      
NULL        .                                           -999.25 :NULL      
COMP        .                       BLUE DOLPHIN EXPLORATION CO :COMPANY   
WELL        .                                OCS 00714 ST00BP00 :WELL      
FLD         .                              GALVESTON BLOCK 0288 :FIELD     
LOC         .                                                   :LOCATION  
CNTY        .                             GALVESTON LARGE BLOCK :LOCATION  
STAT        .                                             TEXAS :STATE     
CTRY        .                                     UNITED STATES :COUNTRY   
SRVC        .                                                   :SERVICE COMPANY
DATE        .                             9/13/2023 11:19:25 AM :LOG DATE  
API         .                                    42706000660000 :API NUMBER
UWI         .                                    42706000660000 :UNIQUE WELL ID
XCOORD      .                                  1093932.46617998 :SURFACE X 
YCOORD      .                                  10479390.8980397 :SURFACE Y 
LAT         .                                         28.865655 :LATITUDE  
LON         .                                       -94.7077791 :LONGITUDE 
ELEV        .FT                                              83 :ELEVATION VALUE
ELEV_TYPE   .                                                KB :ELEVATION REFERENCE TYPE
~Curve Information Section
#MNEM       .UNIT                                      API CODE :CURVE DESCRIPTION
#------------------------------------------------------------------------------
DEPT        .FT                                                 :DEPTH     
ASN         .OHMM                                               :          
CALI        .IN                                                 :          
DT          .US/F                                               :          
IL          .OHMM                                               :          
SP          .MV                                                 :          
SP_NORM     .MV                                                 :SP Normalized
VSH_SP      .V/V                                                :Volume of Shale from SP
~A        DEPTH            ASN           CALI             DT             IL             SP        SP_NORM         VSH_SP
# ...
      5903.5000          0.977        -999.25        -999.25         0.9094       -48.8921    -0.05489349              1
      5904.0000          0.972        -999.25        -999.25         0.9086       -48.3839      0.4533081              1
      5904.5000         0.9726        -999.25        -999.25          0.904       -48.0488      0.7884064              1
      5905.0000         0.9775        -999.25        -999.25         0.8962       -47.9888      0.8484077              1
      5905.5000         0.9833        -999.25        -999.25         0.8897       -48.1317      0.7055092              1
      5906.0000         0.9892        -999.25        -999.25         0.8848       -48.3579      0.4793091              1
      5906.5000         0.9899        -999.25        -999.25         0.8796       -48.5842       0.253006              1
      5907.0000         0.9718        -999.25        -999.25         0.8737       -48.3292       0.508007              1
      5907.5000         0.9479        -999.25        -999.25         0.8662       -47.9927      0.8445091              1
      5908.0000         0.9324        -999.25        -999.25         0.8517       -47.7933       1.043907              1
      5908.5000         0.9226        -999.25        -999.25         0.8372       -48.3275      0.5097084              1
      5909.0000         0.9124        -999.25        -999.25         0.8262       -48.8413    -0.00409317              1
      5909.5000         0.9071        -999.25        -999.25         0.8178       -49.2886     -0.4513931              1
      5910.0000         0.9047        -999.25        -999.25         0.8096       -49.7145     -0.8772926              1
      5910.5000         0.9051        -999.25        -999.25         0.8026        -50.036      -1.198792              1
      5911.0000         0.9106        -999.25        -999.25         0.7955       -49.9867       -1.14949              1
      5911.5000         0.9158        -999.25        -999.25         0.7874       -49.6062     -0.7689934              1
      5912.0000          0.914        -999.25        -999.25         0.7792        -48.786      0.0512085              1
      5912.5000         0.9073        -999.25        -999.25         0.7878       -47.9151      0.9221077              1
      5913.0000         0.9101        -999.25        -999.25         0.8004       -47.4262       1.411007              1
      5913.5000          0.924        -999.25        -999.25         0.8276       -48.0048      0.8324089              1
      5914.0000         0.9476        -999.25        -999.25         0.8608       -48.8943    -0.05709076              1
      5914.5000         0.9758        -999.25        -999.25         0.8918        -49.653     -0.8157921              1
      5915.0000         1.0025        -999.25        -999.25         0.9217       -50.1263      -1.289093              1
      5915.5000         1.0372        -999.25        -999.25         0.9325       -50.3754      -1.538193              1
      5916.0000         1.0593        -999.25        -999.25         0.9407       -50.4517      -1.614491              1
      5916.5000         1.0591        -999.25        -999.25         0.9413       -50.3618      -1.524593              1
      5917.0000          1.032        -999.25        -999.25          0.942        -50.139      -1.301792              1
      5917.5000         0.9992        -999.25        -999.25         0.9366          -49.8     -0.9627914              1
      5918.0000         0.9748        -999.25        -999.25         0.9308       -49.7241     -0.8868904              1
      5918.5000         0.9637        -999.25        -999.25          0.915       -49.9221      -1.084892              1
      5919.0000         0.9688        -999.25        -999.25         0.8966       -50.3852      -1.547993              1
      5919.5000         0.9844        -999.25        -999.25         0.8895       -50.8692      -2.031994      0.9988574
      5920.0000         1.0027        -999.25        -999.25         0.8858       -51.5049      -2.667694      0.9761538
      5920.5000         1.0118        -999.25        -999.25         0.8916       -51.7054      -2.868191      0.9689932
      5921.0000         1.0104        -999.25        -999.25         0.8978       -51.3622      -2.524994      0.9812502
      5921.5000         1.0048        -999.25        -999.25         0.9062         -50.96      -2.122791      0.9956146
      5922.0000         0.9991        -999.25        -999.25         0.9127       -50.7402      -1.902992              1
      5922.5000         0.9941        -999.25        -999.25         0.9152       -50.7199       -1.88269              1
      5923.0000         0.9891        -999.25        -999.25          0.914       -50.8619      -2.024693      0.9991181
      5923.5000         0.9833        -999.25        -999.25         0.9071       -51.0715      -2.234291      0.9916325
      5924.0000         0.9767        -999.25        -999.25         0.9002       -51.0945      -2.257294      0.9908109
      5924.5000         0.9766        -999.25        -999.25         0.8929       -51.2496      -2.412392      0.9852718
      5925.0000         0.9851        -999.25        -999.25          0.887       -51.4272      -2.589993      0.9789289
      5925.5000         0.9916        -999.25        -999.25         0.8876       -51.0068      -2.169594      0.9939431
      5926.0000         0.9835        -999.25        -999.25         0.8901       -50.4111      -1.573891              1
      5926.5000         0.9796        -999.25        -999.25         0.8943       -49.9182      -1.080994              1
      5927.0000         0.9832        -999.25        -999.25         0.9014       -49.7864      -0.949192              1
      5927.5000         0.9915        -999.25        -999.25         0.9115       -50.2092      -1.371994              1
      5928.0000         1.0024        -999.25        -999.25         0.9196        -50.603      -1.765793              1
      5928.5000         1.0133        -999.25        -999.25         0.9263       -50.8458      -2.008591      0.9996932
      5929.0000           1.02        -999.25        -999.25         0.9331       -51.1109      -2.273693      0.9902253
      5929.5000         1.0266        -999.25        -999.25         0.9402       -51.3213      -2.484093       0.982711
      5930.0000         1.0348        -999.25        -999.25         0.9492       -51.2646      -2.427391       0.984736
      5930.5000          1.048        -999.25        -999.25         0.9594       -51.5038      -2.666592      0.9761931
      5931.0000         1.0591        -999.25        -999.25         0.9713       -51.5569      -2.719692      0.9742967
      5931.5000         1.0666        -999.25        -999.25         0.9862       -51.4197      -2.582493      0.9791967
      5932.0000         1.0654        -999.25        -999.25         1.0041       -51.5785      -2.741291      0.9735253
      5932.5000         1.0685        -999.25        -999.25         1.0196        -52.201      -3.363792      0.9512931
      5933.0000         1.0881        -999.25        -999.25         1.0337       -52.1023      -3.265091      0.9548182
      5933.5000         1.0951        -999.25        -999.25         1.0424       -51.6132      -2.775993      0.9722859
      5934.0000         1.0923        -999.25        -999.25         1.0454       -50.9752      -2.137993      0.9950717
      5934.5000         1.0877        -999.25        -999.25         1.0549       -50.6173       -1.78009              1
      5935.0000         1.0909        -999.25        -999.25         1.0645       -50.9645      -2.127293      0.9954538
      5935.5000          1.112        -999.25        -999.25         1.0653       -51.9889      -3.151691      0.9588681
      5936.0000         1.1399        -999.25        -999.25          1.065       -53.0392      -4.201992      0.9213575
      5936.5000          1.154        -999.25        -999.25         1.0569       -53.8143      -4.977093      0.8936753
