#------------------------------------------------------------------------------
# Created by    : vladimir.rabinovich
# Created on    : 09/19/2023 17:19:47
#------------------------------------------------------------------------------
~Version Information Section
VERS.           2.0     :   CWLS log ASCII Standard - VERSION 2.0
WRAP.           NO      :   One line per depth step
~Well Information Section
#MNEM       .UNIT                                         VALUE :DESCRIPTION
#------------------------------------------------------------------------------
STRT        .FT                                             380 :START DEPTH
STOP        .FT                                            8002 :STOP DEPTH
STEP        .FT                                             0.5 :STEP      
NULL        .                                           -999.25 :NULL      
COMP        .                               AMOCO PRODUCTION CO :COMPANY   
WELL        .                               OCS G07253 ST00BP00 :WELL      
FLD         .                                           WILDCAT :FIELD     
LOC         .                                                   :LOCATION  
CNTY        .                             GALVESTON LARGE BLOCK :LOCATION  
STAT        .                                             TEXAS :STATE     
CTRY        .                                     UNITED STATES :COUNTRY   
SRVC        .                                                   :SERVICE COMPANY
DATE        .                             9/13/2023 11:19:27 AM :LOG DATE  
API         .                                    42706401230000 :API NUMBER
UWI         .                                    42706401230000 :UNIQUE WELL ID
XCOORD      .                                  925879.569593371 :SURFACE X 
YCOORD      .                                  10358786.1357032 :SURFACE Y 
LAT         .                                         28.526408 :LATITUDE  
LON         .                                        -95.225632 :LONGITUDE 
ELEV        .FT                                             100 :ELEVATION VALUE
ELEV_TYPE   .                                                KB :ELEVATION REFERENCE TYPE
~Curve Information Section
#MNEM       .UNIT                                      API CODE :CURVE DESCRIPTION
#------------------------------------------------------------------------------
DEPT        .FT                                                 :DEPTH     
ASFL        .OHMM                                               :          
CILD        .MMHO                                               :          
GR          .GAPI                                               :          
GR_NORM     .GAPI                                               :GammaRay Normalized
ILD         .OHMM                                               :          
SP          .MV                                                 :          
SP_NORM     .MV                                                 :SP Normalized
VSH_GR      .V/V                                                :Volume of Shale from GR
VSH_SP      .V/V                                                :Volume of Shale from SP
~A        DEPTH           ASFL           CILD             GR        GR_NORM            ILD             SP        SP_NORM         VSH_GR         VSH_SP
# ...
      3454.0000         0.7996       1231.273        74.4077        76.3728         0.7799       -58.1232      -6.247543      0.9228256      0.8964014
      3454.5000         0.8123       1217.254        72.8719       74.83945         0.7875       -57.1714       -5.29887      0.8902012      0.9195397
      3455.0000         0.8249       1203.166        72.7841        74.7541         0.7951       -56.0764      -4.206997      0.8883851      0.9461708
      3455.5000         0.8366       1189.078        73.4678       75.44024         0.8028       -55.0278      -3.161526      0.9029838      0.9716701
      3456.0000         0.8453       1178.539        75.2155       77.19038         0.8104       -55.1508      -3.287647       0.940221       0.968594
      3456.5000          0.854       1170.871        76.9619       78.93923         0.8181       -55.2737      -3.413673      0.9774305      0.9655201
      3457.0000         0.8585       1163.203        78.7095       80.68928         0.8257       -55.4158      -3.558899              1      0.9619781
      3457.5000         0.8583       1155.535        80.6978       82.68002         0.8333       -55.5812      -3.727425              1      0.9578677
      3458.0000         0.8581       1152.123        80.6285       82.61317          0.841       -55.7466      -3.895954              1      0.9537572
      3458.5000          0.858       1173.447        80.1172       82.10432         0.8484        -55.912      -4.064476              1      0.9496469
      3459.0000         0.8544       1194.787        79.6058       81.59535         0.8514       -56.0775      -4.233105              1      0.9455341
      3459.5000         0.8436       1216.111        79.0944        81.0864         0.8544       -55.8872      -4.045929              1      0.9500993
      3460.0000         0.8323       1231.629        79.5521       81.54655         0.8574       -55.6528      -3.814659              1        0.95574
      3460.5000         0.8206       1245.555        80.4042       82.40109         0.8605       -55.4183      -3.583282              1      0.9613833
      3461.0000          0.809        1259.48        81.2556       83.25494         0.8635       -55.3367      -3.504807              1      0.9632974
      3461.5000         0.7996       1273.244        82.4342       84.43598         0.8587       -55.4221      -3.593334              1      0.9611382
      3462.0000          0.794       1277.506        83.6708       85.67503         0.8464       -55.5074      -3.681759              1      0.9589815
      3462.5000         0.7883       1281.768        83.3987       85.40537         0.8341       -55.5927      -3.770187              1      0.9568247
      3463.0000         0.7855       1286.027        82.7156       84.72472         0.8219        -55.678      -3.858612              1       0.954668
      3463.5000         0.7865       1290.287        82.0328       84.04436         0.8096       -55.7634       -3.94714              1      0.9525088
      3464.0000         0.7876       1294.547        82.1306       84.14462         0.7973       -55.7708      -3.957664              1      0.9522521
      3464.5000         0.7891       1301.107        83.1466       85.16306          0.785       -55.7701      -3.960091              1      0.9521929
      3465.0000         0.7921       1308.115        82.9098        84.9287          0.776       -56.2493      -4.442413              1       0.940429
      3465.5000         0.7951       1315.125         81.882       83.90336         0.7721       -56.7741      -4.970341              1      0.9275526
      3466.0000         0.7981       1322.131        80.8535        82.8773         0.7682       -57.2986      -5.497967              1      0.9146838
      3466.5000         0.7973       1329.139        79.8252       81.85145         0.7642       -57.9019      -6.104393              1      0.8998929
      3467.0000         0.7926       1337.613        78.6852       80.71389         0.7603       -58.5635      -6.769119              1        0.88368
      3467.5000         0.7879       1346.316        80.3275       82.35863         0.7564       -59.2248      -7.433544              1      0.8674746
      3468.0000         0.7832       1333.383         84.137       86.17058         0.7524       -59.3043      -7.516171              1      0.8654593
      3468.5000         0.7899       1310.037        87.9489       89.98492         0.7485       -58.6408      -6.855797              1      0.8815659
      3469.0000         0.7973       1286.701        87.5525       89.59097         0.7481       -57.9777       -6.19582              1      0.8976629
      3469.5000         0.8085       1264.914        85.1765       87.21741         0.7516       -57.4106      -5.631847              1      0.9114184
      3470.0000         0.8225        1247.92        82.7994       84.84276         0.7551       -57.2567      -5.481071              1      0.9150958
      3470.5000         0.8365       1230.924        80.4222       82.46801         0.7586       -57.1029      -5.330402              1      0.9187707
      3471.0000         0.8353       1222.301        78.0452       80.09345         0.7621       -56.6622      -4.892826              1      0.9294432
      3471.5000         0.8215       1241.855        76.4458        78.4965         0.7656       -56.0187      -4.252453      0.9680106      0.9450621
      3472.0000         0.8073       1261.396        75.3033       77.35645         0.7691       -55.3752      -3.612076      0.9437541      0.9606811
      3472.5000         0.7931        1281.76        74.1584       76.21399         0.7715       -54.7317      -2.971706      0.9194466      0.9762998
      3473.0000         0.7789       1303.111         73.474       75.53204         0.7721       -54.2134      -2.456532      0.9049369      0.9888651
      3473.5000         0.7647       1324.461        75.4298       77.49028         0.7726       -54.6273      -2.873554      0.9466017      0.9786938
      3474.0000         0.7584       1345.824        76.5486       78.61153         0.7731       -55.0408       -3.29018       0.970458      0.9685322
      3474.5000         0.7561       1345.139        77.5602       79.62557         0.7736       -55.4547      -3.707207      0.9920334      0.9583608
      3475.0000         0.7539        1322.84        76.3312       78.39902         0.7741       -55.8685      -4.124134      0.9659365      0.9481919
      3475.5000         0.7573       1300.553         74.657       76.72726         0.7747       -55.4129      -3.671658      0.9303672      0.9592279
      3476.0000         0.7662       1278.254        73.0042       75.07691         0.7752       -54.9386      -3.200485      0.8952534      0.9707199
      3476.5000         0.7752       1255.955        71.3699       73.44506         0.7757       -54.4643      -2.729309      0.8605332      0.9822119
      3477.0000         0.7842       1236.838        70.0081        72.0857         0.7762        -55.248       -3.51614      0.8316107       0.963021
      3477.5000         0.7932       1226.643        68.9796       71.05965         0.7774       -56.1007      -4.371964      0.8097797      0.9421473
      3478.0000         0.8022       1216.449        69.8236       71.90609         0.7803       -56.7264      -5.000786      0.8277891      0.9268101
      3478.5000         0.8111       1206.254        70.8768       72.96174         0.7832       -57.1855      -5.463017      0.8502498      0.9155362
      3479.0000         0.8212       1196.064        71.9302       74.01758         0.7861       -57.0817      -5.362339      0.8727144      0.9179918
      3479.5000         0.8314       1197.645        72.9829       75.07273          0.789        -56.978      -5.261768      0.8951645      0.9204447
      3480.0000         0.8204       1201.287        76.3461       78.43837         0.7919       -56.8743       -5.16119      0.9667738      0.9228978
