#------------------------------------------------------------------------------
# Created by    : vladimir.rabinovich
# Created on    : 09/19/2023 17:20:25
#------------------------------------------------------------------------------
~Version Information Section
VERS.           2.0     :   CWLS log ASCII Standard - VERSION 2.0
WRAP.           NO      :   One line per depth step
~Well Information Section
#MNEM       .UNIT                                         VALUE :DESCRIPTION
#------------------------------------------------------------------------------
STRT        .FT                                             293 :START DEPTH
STOP        .FT                                            8505 :STOP DEPTH
STEP        .FT                                             0.5 :STEP      
NULL        .                                           -999.25 :NULL      
COMP        .                                        TEXACO USA :COMPANY   
WELL        .                                     ST TR 00058-L :WELL      
FLD         .                                           WILDCAT :FIELD     
LOC         .                                                   :LOCATION  
CNTY        .                           HIGH ISLAND LARGE BLOCK :LOCATION  
STAT        .                                             TEXAS :STATE     
CTRY        .                                     UNITED STATES :COUNTRY   
SRVC        .                                                   :SERVICE COMPANY
DATE        .                             9/13/2023 11:19:15 AM :LOG DATE  
API         .                                    42708000230000 :API NUMBER
UWI         .                                    42708000230000 :UNIQUE WELL ID
XCOORD      .                                  1179226.38702832 :SURFACE X 
YCOORD      .                                  10699123.4735792 :SURFACE Y 
LAT         .                                        29.4730929 :LATITUDE  
LON         .                                        -94.449778 :LONGITUDE 
ELEV        .FT                                              80 :ELEVATION VALUE
ELEV_TYPE   .                                                KB :ELEVATION REFERENCE TYPE
~Curve Information Section
#MNEM       .UNIT                                      API CODE :CURVE DESCRIPTION
#------------------------------------------------------------------------------
DEPT        .FT                                                 :DEPTH     
ASN         .OHMM                                               :          
CILD        .MMHO                                               :          
ILD         .OHMM                                               :          
LAT         .OHMM                                               :          
LN          .OHMM                                               :          
SP          .MV                                                 :          
SP_NORM     .MV                                                 :SP Normalized
VSH_SP      .V/V                                                :Volume of Shale from SP
~A        DEPTH            ASN           CILD            ILD            LAT             LN             SP        SP_NORM         VSH_SP
       293.0000         1.1393        -999.25        -999.25         0.0058              0       -30.8354      0.4899025              1
       293.5000         1.2494        -999.25        -999.25         0.0055              0       -31.9014     -0.5760975              1
       294.0000         1.3214        -999.25        -999.25         0.0051              0       -33.9783      -2.652996              1
       294.5000         1.3685        -999.25        -999.25         0.0047         0.0811       -37.2414       -2.83905              1
       295.0000         1.4117        -999.25        -999.25         0.0044         0.1733       -40.9979      -1.553799              1
       295.5000         1.4721        -999.25        -999.25          0.004         0.2654       -45.5947      -1.108856              1
       296.0000         1.5647        -999.25        -999.25         0.0032         0.3576       -50.2446     -0.7170067              1
       296.5000         1.7143        -999.25        -999.25         0.0015         0.5988       -53.7276      0.8417397              1
       297.0000         1.7814        -999.25        -999.25              0         0.8483       -55.3654     0.05628967              1
       297.5000         1.8479        -999.25        -999.25              0         1.1314       -56.9086      -1.486912              1
       298.0000         1.8737        -999.25        -999.25              0         1.2759       -57.8678      -2.446114              1
       298.5000         1.8859        -999.25        -999.25              0         1.3963       -58.8271      -3.405411      0.9729726
       299.0000         1.8885        -999.25        -999.25              0         1.4877       -59.7863      -4.364613      0.9090258
       299.5000         1.8911        -999.25        -999.25              0         1.5542       -59.9316      -4.509911      0.8993393
       300.0000         1.8937        -999.25        -999.25              0         1.6207       -59.9753      -4.553612      0.8964259
       300.5000         1.8962        -999.25        -999.25              0         1.6773        -60.019      -4.597313      0.8935125
       301.0000         1.8984        -999.25        -999.25              0         1.7188       -60.0452      -4.623512      0.8917658
       301.5000         1.9005        -999.25        -999.25              0         1.7602       -60.0688      -4.647114      0.8901924
       302.0000         1.9026        -999.25        -999.25              0         1.8015       -60.0925      -4.670811      0.8886126
       302.5000         1.9062        -999.25        -999.25              0         1.8336       -60.1161      -4.694412      0.8870392
       303.0000         1.9156        -999.25        -999.25              0         1.8657       -60.1398      -4.718113      0.8854591
       303.5000         1.9316        -999.25        -999.25              0         1.8978       -60.1891       -4.76741      0.8821726
       304.0000          1.958        -999.25        -999.25              0         1.9299       -60.2519      -4.830212      0.8779859
       304.5000          2.017        -999.25        -999.25              0         1.9709       -60.3147      -4.893013      0.8737991
       305.0000         2.1061        -999.25        -999.25              0         2.0229       -60.3775      -4.955811      0.8696126
       305.5000         2.1952        -999.25        -999.25              0         2.0748       -60.4403      -5.018612      0.8654259
       306.0000         2.2217        -999.25        -999.25              0         2.1264       -60.5031      -5.081413      0.8612391
       306.5000         2.2252        -999.25        -999.25              0         2.1743        -60.448      -5.026314      0.8649124
       307.0000         2.2287        -999.25        -999.25              0         2.2222       -59.9799      -4.558212      0.8961192
       307.5000         2.2322        -999.25        -999.25         0.0004         2.2718       -59.5117      -4.090012      0.9273326
       308.0000         2.2363        -999.25        -999.25         0.0027         2.3248       -59.0435      -3.621811      0.9585459
       308.5000         2.2408        -999.25        -999.25         0.0049         2.3778       -58.5754      -3.153713      0.9897525
       309.0000         2.2453        -999.25        -999.25         0.0077         2.4274       -57.5845      -2.162811              1
       309.5000         2.2545        -999.25        -999.25         0.0138         2.4768       -56.2859      -0.864212              1
       310.0000         2.2746        -999.25        -999.25         0.0199         2.4678       -55.6998     -0.2781105              1
       310.5000         2.2947        -999.25        -999.25          0.026         2.4574       -55.4933    -0.07161331              1
       311.0000         2.3147        -999.25        -999.25         0.0335         2.4521       -55.2869      0.1347885              1
       311.5000         2.3387        -999.25        -999.25         0.0424         2.4561       -55.2044       0.217289              1
       312.0000         2.3966        -999.25        -999.25         0.0573         2.4495       -55.1441      0.2775879              1
       312.5000         2.4545        -999.25        -999.25         0.1649         2.4338       -55.0839      0.3377876              1
       313.0000         2.4311        -999.25        -999.25         0.2725         2.4182       -55.0236      0.3980865              1
       313.5000         2.4021        -999.25        -999.25         0.4281         2.3975       -54.9633      0.4583893              1
       314.0000          2.373        -999.25        -999.25         0.6018         2.3763       -55.1105      0.3111877              1
       314.5000         2.3439        -999.25        -999.25         0.8709          2.355       -55.2996      0.1220894              1
       315.0000         2.3116        -999.25        -999.25         1.2119         2.3383       -55.6959     -0.2742119              1
       315.5000         2.2777        -999.25        -999.25         1.5975         2.3238       -56.2203     -0.7986107              1
       316.0000         2.2438        -999.25        -999.25         1.7381         2.3093       -56.6125      -1.190811              1
       316.5000         2.2459        -999.25        -999.25         1.8308         2.3148       -56.4513      -1.029613              1
       317.0000         2.2563        -999.25        -999.25         1.9206         2.3243         -56.29     -0.8683128              1
       317.5000         2.2667        -999.25        -999.25         1.9596         2.3337       -56.1287     -0.7070122              1
       318.0000         2.2831        -999.25        -999.25         1.9851         2.3734       -55.9882     -0.5665131              1
       318.5000         2.3084        -999.25        -999.25         1.9713         2.4192       -55.8622     -0.4405136              1
       319.0000         2.3337        -999.25        -999.25         1.9575         2.4651       -55.7364     -0.3147125              1
       319.5000          2.359        -999.25        -999.25         1.9437         2.5109       -55.6105     -0.1888123              1
       320.0000         2.3843        -999.25        -999.25         1.9299         2.5457       -55.4846    -0.06291199              1
       320.5000         2.3984        -999.25        -999.25         1.9179         2.5788       -55.3588      0.0628891              1
       321.0000          2.397        -999.25        -999.25         1.9094         2.6119       -55.0742      0.3474884              1
       321.5000         2.3955        -999.25        -999.25         1.9009          2.628       -54.7424       0.679287              1
       322.0000         2.3941        -999.25        -999.25         1.8924         2.6266       -54.4106       1.011089              1
