#------------------------------------------------------------------------------
# Created by    : vladimir.rabinovich
# Created on    : 09/19/2023 17:22:30
#------------------------------------------------------------------------------
~Version Information Section
VERS.           2.0     :   CWLS log ASCII Standard - VERSION 2.0
WRAP.           NO      :   One line per depth step
~Well Information Section
#MNEM       .UNIT                                         VALUE :DESCRIPTION
#------------------------------------------------------------------------------
STRT        .FT                                            1687 :START DEPTH
STOP        .FT                                            6155 :STOP DEPTH
STEP        .FT                                             0.5 :STEP      
NULL        .                                           -999.25 :NULL      
COMP        .                       AMERICAN COASTAL ENERGY INC :COMPANY   
WELL        .                                ST TR 00596-L NE/4 :WELL      
FLD         .                        SHERMAN OFFSHORE SOUTHWEST :FIELD     
LOC         .                                                   :LOCATION  
CNTY        .                      MATAGORDA ISLAND LARGE BLOCK :LOCATION  
STAT        .                                             TEXAS :STATE     
CTRY        .                                     UNITED STATES :COUNTRY   
SRVC        .                                                   :SERVICE COMPANY
DATE        .                             9/13/2023 11:12:01 AM :LOG DATE  
API         .                                    42703302820000 :API NUMBER
UWI         .                                    42703302820000 :UNIQUE WELL ID
XCOORD      .                                  484247.709270029 :SURFACE X 
YCOORD      .                                   10242127.767654 :SURFACE Y 
LAT         .                                        28.1765839 :LATITUDE  
LON         .                                       -96.5886238 :LONGITUDE 
ELEV        .FT                                              79 :ELEVATION VALUE
ELEV_TYPE   .                                                KB :ELEVATION REFERENCE TYPE
~Curve Information Section
#MNEM       .UNIT                                      API CODE :CURVE DESCRIPTION
#------------------------------------------------------------------------------
DEPT        .FT                                                 :DEPTH     
CILD        .MMHO                                               :          
DT          .US/F                                               :          
ILD         .OHMM                                               :          
SN          .OHMM                                               :          
SP          .MV                                                 :          
SP_NORM     .MV                                                 :SP Normalized
VSH_SP      .V/V                                                :Volume of Shale from SP
~A        DEPTH           CILD             DT            ILD             SN             SP        SP_NORM         VSH_SP
# ...
      2859.5000       938.4281        94.0148         1.1381         2.1634       -64.4583       -32.8526      0.4259115
      2860.0000       1105.638        93.6155         0.9918         2.0476       -68.2384       -36.6434      0.3530116
      2860.5000       1209.124        93.3148         0.8408         1.9379       -72.4164        -40.832      0.2724615
      2861.0000       1336.511        94.0102         0.7636         1.7359       -74.4055       -42.8318      0.2340039
      2861.5000       1455.934        96.1995         0.6966         1.5621        -75.599        -44.036      0.2108462
      2862.0000       1519.614       100.8777         0.6654         1.4449       -75.1005       -43.5482      0.2202269
      2862.5000       1563.356       103.9629         0.6533         1.3929       -72.0149       -40.4732      0.2793615
      2863.0000       1519.468         106.75         0.6654         1.3738       -66.6404       -35.1094      0.3825115
      2863.5000       1431.774       107.7438         0.7128         1.4122       -59.6742       -28.1539      0.5162712
      2864.0000       1280.348        106.946         0.8294         1.5268        -53.106       -21.5963      0.6423789
      2864.5000       1184.684       103.9569         0.8844         1.6431       -47.7317       -16.2327       0.745525
      2865.0000       1073.085        99.6734         0.9874         1.7929       -49.3229       -17.8346      0.7147192
      2865.5000       977.4171        95.6885         1.0529         2.0108       -51.2125       -19.7349       0.678175
      2866.0000       905.6471        94.9895         1.1744          2.184       -52.8035       -21.3365       0.647375
      2866.5000       853.7736        94.1912         1.2152         2.2553       -53.5985       -22.1422      0.6318808
      2867.0000       853.7308        93.8914         1.2296         2.2762       -54.3936        -22.948      0.6163846
      2867.5000       857.6431        95.1838         1.2184         2.2658       -55.1886       -23.7537      0.6008904
      2868.0000       885.4566         96.178         1.2017         2.2349       -55.3866       -23.9623      0.5968789
      2868.5000       913.2704        96.7739         1.1532         2.2145       -55.8831       -24.4695       0.587125
      2869.0000        945.059        97.3606         1.1065         2.1843       -56.9767       -25.5738      0.5658885
      2869.5000       984.8248        97.7665         1.0815          2.125       -59.3638       -27.9716      0.5197769
      2870.0000       1040.526        97.5657         1.0283          2.002       -63.1439       -31.7623      0.4468789
      2870.5000       1080.294        97.1658         0.9822         1.9123       -66.3269        -34.956      0.3854615
      2871.0000        1128.03        97.5625         0.9339         1.8434        -68.515       -37.1548      0.3431769
      2871.5000       1207.636         98.756         0.8404         1.7689       -70.2055       -38.8559      0.3104635
      2872.0000       1335.051       100.3479         0.7563         1.6741       -72.6921       -41.3532      0.2624385
      2872.5000         1454.5       101.7411         0.6936         1.5772       -75.4772        -44.149      0.2086731
      2873.0000       1613.791       102.3371          0.627         1.4589       -79.3568       -48.0393      0.1338596
      2873.5000       1749.181       103.1323         0.5565         1.3371       -82.8383       -51.5314     0.06670387
      2874.0000       1944.331       104.2259         0.5148         1.2311       -84.8274       -53.5312     0.02824615
      2874.5000       2043.873       105.2208         0.4827         1.1651       -85.7219       -54.4364     0.01083844
      2875.0000       2223.089       106.5141         0.4569         1.1283       -85.9199       -54.6451    0.006825007
      2875.5000       2314.673       107.5082         0.4344          1.118       -86.1179       -54.8537    0.002813486
      2876.0000       2354.485       107.7059         0.4284         1.1078       -85.4204       -54.1669     0.01602114
      2876.5000       2258.781       107.7047         0.4424         1.0927       -83.5289       -52.2861     0.05219042
      2877.0000       2099.355       108.8877         0.4828         1.0827       -80.8413       -49.6092      0.1036692
      2877.5000       1979.769       109.4942         0.5195         1.0978       -77.6563       -46.4348      0.1647154
      2878.0000        1724.69       110.0904         0.6017         1.1599       -73.4762       -42.2654      0.2448962
      2878.5000       1581.204       110.0889         0.6626         1.2715       -70.4901         -39.29      0.3021154
      2879.0000       1437.731       109.3905         0.7263         1.4002       -69.1961       -38.0067      0.3267943
      2879.5000       1364.521       106.2015         0.7675         1.4863       -69.9911       -38.8123      0.3113019
      2880.0000       1337.982       102.1155         0.7776         1.5278       -73.6712       -42.5031       0.240325
      2880.5000       1345.885       100.9186         0.7574         1.3938       -76.7547       -45.5973      0.1808211
      2881.0000         1429.5       101.4155         0.7164         1.2952       -79.0423       -47.8955       0.136625
      2881.5000       1517.095       103.9038         0.6506         1.2314       -79.8373       -48.7012      0.1211308
      2882.0000       1748.119       105.8946         0.5828         1.1816       -80.7319       -49.6065      0.1037212
      2882.5000       1915.415       107.0885         0.5099          1.139       -81.0732       -49.9585     0.09695192
      2883.0000       2026.926       107.8839         0.4893         1.1081       -80.7304       -49.6263      0.1033404
      2883.5000       2086.653       108.6793          0.487         1.0633       -78.2413       -47.1479      0.1510019
      2884.0000       2026.807       111.1679         0.5006         1.0063       -74.1607        -43.078      0.2292693
      2884.5000       1939.082       112.3237          0.522         1.0063       -68.1896       -37.1176      0.3438923
      2885.0000       1851.355       114.4528          0.539          1.011       -61.7209       -30.6595      0.4680865
      2885.5000       1787.536       116.8423         0.5618         1.0156       -58.4362       -27.3855      0.5310481
      2886.0000       1747.624       117.0404         0.5828         1.0297       -59.2314       -28.1914        0.51555
      2886.5000       1731.622       116.2417         0.5882         1.0732       -60.5239       -29.4946      0.4904885
      2887.0000        1731.56       114.6463         0.5828         1.0831       -63.4085       -32.3898      0.4348115
      2887.5000       1739.467       112.2538         0.5722         1.0782       -70.1736       -39.1656      0.3045077
      2888.0000       1755.346       109.4625         0.5592         1.1083       -75.6453        -44.648       0.199077
      2888.5000       1795.135       103.7824         0.5516         1.1498       -76.9379       -45.9512      0.1740154
      2889.0000       1854.834       102.8846         0.5516         1.1765       -75.6438       -44.6678      0.1986961
      2889.5000       1818.922       103.2816         0.5749         1.1983       -73.1552       -42.1899      0.2463481
      2890.0000       1731.185         105.97         0.6244         1.2662        -68.278       -37.3234      0.3399346
      2890.5000       1480.045       108.4593         0.7199         1.3196       -58.5255       -27.5815      0.5272788
      2891.0000       1268.762       108.7567         0.8571         1.4202       -53.4503        -22.517      0.6246731
      2891.5000       1133.193       107.9581         0.9353         1.5426       -50.2652       -19.3426      0.6857193
      2892.0000       1053.416       105.3661         1.0205         1.7144       -49.6672       -18.7553      0.6970134
      2892.5000       981.6092       102.3755         1.1024         1.7705       -48.0741       -17.1728      0.7274461
