#------------------------------------------------------------------------------
# Created by    : vladimir.rabinovich
# Created on    : 09/19/2023 17:20:04
#------------------------------------------------------------------------------
~Version Information Section
VERS.           2.0     :   CWLS log ASCII Standard - VERSION 2.0
WRAP.           NO      :   One line per depth step
~Well Information Section
#MNEM       .UNIT                                         VALUE :DESCRIPTION
#------------------------------------------------------------------------------
STRT        .FT                                             627 :START DEPTH
STOP        .FT                                            8077 :STOP DEPTH
STEP        .FT                                             0.5 :STEP      
NULL        .                                           -999.25 :NULL      
COMP        .                                    MOBIL OIL CORP :COMPANY   
WELL        .                               OCS G02338 ST00BP00 :WELL      
FLD         .                                           WILDCAT :FIELD     
LOC         .                                                   :LOCATION  
CNTY        .                             GALVESTON LARGE BLOCK :LOCATION  
STAT        .                                             TEXAS :STATE     
CTRY        .                                     UNITED STATES :COUNTRY   
SRVC        .                                                   :SERVICE COMPANY
DATE        .                             9/13/2023 11:18:53 AM :LOG DATE  
API         .                                    42706400220000 :API NUMBER
UWI         .                                    42706400220000 :UNIQUE WELL ID
XCOORD      .                                  948421.875172236 :SURFACE X 
YCOORD      .                                   10402667.405867 :SURFACE Y 
LAT         .                                         28.648189 :LATITUDE  
LON         .                                        -95.157922 :LONGITUDE 
ELEV        .FT                                              76 :ELEVATION VALUE
ELEV_TYPE   .                                                KB :ELEVATION REFERENCE TYPE
~Curve Information Section
#MNEM       .UNIT                                      API CODE :CURVE DESCRIPTION
#------------------------------------------------------------------------------
DEPT        .FT                                                 :DEPTH     
ASFL        .OHMM                                               :          
CALI        .IN                                                 :          
CILD        .MMHO                                               :          
DT          .US/F                                               :          
DT_1        .US/F                                               :          
GR          .GAPI                                               :          
GR_NORM     .GAPI                                               :GammaRay Normalized
ILD         .OHMM                                               :          
SFL         .OHMM                                               :          
SP          .MV                                                 :          
SP_NORM     .MV                                                 :SP Normalized
VSH_GR      .V/V                                                :Volume of Shale from GR
VSH_SP      .V/V                                                :Volume of Shale from SP
~A        DEPTH           ASFL           CALI           CILD             DT           DT_1             GR        GR_NORM            ILD            SFL             SP        SP_NORM         VSH_GR         VSH_SP
# ...
      6080.0000         0.6118        10.2593       2713.363       113.6273        -999.25        79.9336       56.99473         0.3427         0.6675       -82.8591      -27.13297      0.5105261      0.6692029
      6080.5000         0.6095         10.305       2686.902       114.9067        -999.25        75.0072       51.08755         0.3041         0.6538       -85.5952      -29.87187      0.3848414      0.6345333
      6081.0000         0.6171        10.3326       2818.402       118.0635        -999.25        70.0234       45.11125          0.268         0.6096       -95.5197      -39.79916      0.2576862      0.5088713
      6081.5000         0.6372        10.3447       3061.996       122.5532        -999.25        63.7614       37.59604         0.2417         0.6587      -108.5034      -52.78566     0.09778798      0.3444853
      6082.0000         0.6573        10.3546       3177.641        121.746        -999.25        58.7465        31.5823         0.2267         0.8039      -120.9844      -65.26945              0      0.1864626
      6082.5000         0.6774        10.3451        3511.07        114.087        -999.25        54.1553       26.07869         0.2214         0.8036      -129.7957      -74.08356              0     0.07489168
      6083.0000         0.7083        10.1852       3678.734       103.2638        -999.25        52.5646        24.1876         0.2304         0.8355      -131.9197      -76.21034              0     0.04797035
      6083.5000         0.7401         9.9547           3850        92.2064        -999.25        51.5204       22.95447         0.2484         1.0346      -132.3906      -76.68404              0     0.04197422
      6084.0000          0.784         9.7482       4230.297        90.4951        -999.25        51.5183       22.97601         0.2817         1.5075      -132.7617      -77.05795              0      0.0372412
      6084.5000         0.8441         9.7993       4221.438        88.4293        -999.25        52.2559       23.88813         0.3264          1.488      -134.8459      -79.14494              0      0.0108235
      6085.0000         0.9248         9.8528         4114.5        75.6975        -999.25        53.2684        25.1312         0.4034         1.1539        -134.74      -79.04184              0     0.01212861
      6085.5000         0.9993         9.8518       3556.688        80.3767        -999.25        54.8663       27.07909         0.4793         0.7487      -131.9214      -76.22603              0     0.04777179
      6086.0000         1.0183         9.8957       2801.695        81.7782        -999.25         57.193       29.90445         0.5314         0.8123      -129.6458      -73.95322              0     0.07654147
      6086.5000         1.0326         9.9908       2525.488        84.1189        -999.25        60.2426       33.60014         0.5685         1.1661      -128.8792      -73.18942     0.01276885     0.08620984
      6087.0000         1.0451        10.0835       2141.742        79.5245        -999.25        64.1157        38.2873         0.5911          1.958      -128.3013      -72.61432      0.1124958     0.09348963
      6087.5000         1.0575         10.139       1881.844        75.1837        -999.25        70.1432       45.56831         0.6069          1.914      -126.7366      -71.05241      0.2674109      0.1132606
      6088.0000         1.0796        10.1358       1725.982        74.9907        -999.25         76.094       52.75698         0.6098         1.2005      -120.4889      -64.80751      0.4203612        0.19231
      6088.5000         1.1101        10.0487       1664.309         75.036        -999.25        81.6619       59.48463          0.579         1.0731      -111.8068      -56.12821      0.5635028      0.3021746
      6089.0000         1.1639        10.0165       1631.371        86.8098        -999.25        89.0298       68.37945         0.5232           0.87       -101.552      -45.87621      0.7527542      0.4319468
      6089.5000         1.0958        10.0766       1602.436        96.9403        -999.25        92.1632       72.17604         0.4673         0.7011       -82.5216       -26.8486      0.8335328      0.6728026
      6090.0000          0.858        10.1201       1662.959       108.7651        -999.25         91.998        72.0012         0.4207         0.6506       -72.3171       -16.6469      0.8298127       0.801938
      6090.5000         0.7811        10.1228       1820.619         111.75        -999.25          88.35       67.63317         0.3855         0.6787       -71.6223      -15.95489       0.736876      0.8106976
      6091.0000         0.7315        10.0817       2058.512       114.7435        -999.25        84.0939       62.53301         0.3544         0.6545       -76.5469      -20.88229      0.6283619      0.7483255
      6091.5000         0.7103        10.0413       2538.797       115.5313        -999.25        80.0916       57.73842         0.3259         0.6334       -89.9039      -34.24208      0.5263493      0.5792141
      6092.0000         0.7024        10.0373       2647.535       115.7415        -999.25        75.3806       52.09057         0.2946         0.6748      -103.5052      -47.84618      0.4061823      0.4070103
      6092.5000         0.6945        10.0333       2802.195         115.23        -999.25        70.4807       46.21529         0.2645         0.7273       -117.839      -62.18277      0.2811763      0.2255345
      6093.0000         0.6874        10.0295       2931.246       113.8429        -999.25         68.264       43.57051         0.2411          0.698      -119.6401      -63.98667      0.2249045      0.2027004
      6093.5000         0.6843        10.0127       3369.016       111.8795        -999.25        66.8636       41.90853         0.2208         0.6191      -117.0635      -61.41287      0.1895431      0.2352801
      6094.0000         0.6812        10.0353       3806.383       112.8737        -999.25        66.0319       40.93125         0.2039         0.6074      -114.7155      -59.06767        0.16875      0.2649663
      6094.5000         0.6782        10.1702       4289.867       114.4707        -999.25         66.282       41.25642            0.2         0.7036      -119.6128      -63.96776      0.1756686      0.2029397
      6095.0000         0.6751        10.3043        4445.93       115.4729        -999.25        68.6925       44.18266         0.2027         0.7908      -125.9539      -70.31166      0.2379288      0.1226372
      6095.5000         0.6857        10.3707       4530.914       114.6925        -999.25        71.6704       47.79204         0.2166         0.7614      -129.0879      -73.44846      0.3147242     0.08293094
      6096.0000         0.6968         9.9287       4258.156       108.9396        -999.25        77.5255       54.86547         0.2352         0.7045      -128.6343      -72.99764      0.4652229     0.08863743
      6096.5000         0.7079         9.6962       4124.906       105.6259        -999.25        81.6858       59.89843         0.2583         0.6549      -124.7115      -69.07764       0.572307      0.1382577
      6097.0000         0.6991         9.6418       3944.234       104.0911        -999.25        84.4075       63.19934         0.2842         0.6075      -116.6111      -60.98004      0.6425393       0.240759
      6097.5000         0.6801         9.6623       3716.348       103.2762        -999.25        87.3518       66.76826         0.3233         0.5504      -104.0223      -48.39404      0.7184736      0.4000755
      6098.0000         0.6539         9.7384       3457.648       105.2147        -999.25        90.2937        70.3343         0.3601         0.5377       -88.5396      -32.91413      0.7943467      0.5960237
      6098.5000         0.6221         9.8407       3328.398       107.5568        -999.25        89.0131       68.81654         0.4004         0.6286        -75.563      -19.94033      0.7620541       0.760249
