#------------------------------------------------------------------------------
# Created by    : vladimir.rabinovich
# Created on    : 09/19/2023 17:20:39
#------------------------------------------------------------------------------
~Version Information Section
VERS.           2.0     :   CWLS log ASCII Standard - VERSION 2.0
WRAP.           NO      :   One line per depth step
~Well Information Section
#MNEM       .UNIT                                         VALUE :DESCRIPTION
#------------------------------------------------------------------------------
STRT        .FT                                             502 :START DEPTH
STOP        .FT                                           11475 :STOP DEPTH
STEP        .FT                                             0.5 :STEP      
NULL        .                                           -999.25 :NULL      
COMP        .                                      SHELL OIL CO :COMPANY   
WELL        .                                OCS 00730 ST00BP00 :WELL      
FLD         .                                           WILDCAT :FIELD     
LOC         .                                                   :LOCATION  
CNTY        .                             GALVESTON LARGE BLOCK :LOCATION  
STAT        .                                             TEXAS :STATE     
CTRY        .                                     UNITED STATES :COUNTRY   
SRVC        .                                                   :SERVICE COMPANY
DATE        .                             9/13/2023 11:19:42 AM :LOG DATE  
API         .                                    42706000250000 :API NUMBER
UWI         .                                    42706000250000 :UNIQUE WELL ID
XCOORD      .                                  958538.282477158 :SURFACE X 
YCOORD      .                                   10357465.718335 :SURFACE Y 
LAT         .                                         28.524406 :LATITUDE  
LON         .                                        -95.123893 :LONGITUDE 
ELEV        .FT                                              80 :ELEVATION VALUE
ELEV_TYPE   .                                                KB :ELEVATION REFERENCE TYPE
~Curve Information Section
#MNEM       .UNIT                                      API CODE :CURVE DESCRIPTION
#------------------------------------------------------------------------------
DEPT        .FT                                                 :DEPTH     
ASN         .OHMM                                               :          
CILD        .MMHO                                               :          
ILD         .OHMM                                               :          
LAT         .OHMM                                               :          
LN          .OHMM                                               :          
SP          .MV                                                 :          
SP_NORM     .MV                                                 :SP Normalized
VSH_SP      .V/V                                                :Volume of Shale from SP
~A        DEPTH            ASN           CILD            ILD            LAT             LN             SP        SP_NORM         VSH_SP
# ...
      6343.0000         0.6325        -999.25        -999.25         0.7594         0.4158       -37.9596       1.064793              1
      6343.5000         0.6353        -999.25        -999.25         0.7552         0.4227       -37.7825        1.24189              1
      6344.0000         0.6381        -999.25        -999.25          0.751         0.4297       -37.7108       1.313591              1
      6344.5000         0.6409        -999.25        -999.25         0.7468         0.4366       -37.6392       1.385193              1
      6345.0000         0.6438        -999.25        -999.25         0.7425         0.4436       -37.5674       1.456989              1
      6345.5000         0.6466        -999.25        -999.25         0.7383         0.4506       -37.4958       1.528591              1
      6346.0000         0.6494        -999.25        -999.25         0.7341         0.4575       -37.4241       1.600292              1
      6346.5000         0.6554        -999.25        -999.25         0.7299         0.4645       -37.4379       1.586491              1
      6347.0000         0.6749        -999.25        -999.25         0.7255         0.4715       -37.6997       1.324692              1
      6347.5000         0.6945        -999.25        -999.25         0.7211         0.4784       -37.9615       1.062893              1
      6348.0000         0.7096        -999.25        -999.25         0.7167          0.484       -38.2236      0.8007927              1
      6348.5000         0.7231        -999.25        -999.25         0.7123         0.4821       -38.4854        0.53899              1
      6349.0000         0.7366        -999.25        -999.25          0.708         0.4802       -38.7471      0.2772903              1
      6349.5000         0.7405        -999.25        -999.25         0.7036         0.4783       -39.0092     0.01519012              1
      6350.0000         0.7398        -999.25        -999.25         0.6992         0.4764        -39.271     -0.2466087              1
      6350.5000         0.7365        -999.25        -999.25         0.6948         0.4745       -39.0161    0.008289337              1
      6351.0000         0.7321        -999.25        -999.25         0.6904         0.4726       -38.7425      0.2818909              1
      6351.5000         0.7278        -999.25        -999.25          0.686         0.4707       -38.4691      0.5552902              1
      6352.0000         0.7234        -999.25        -999.25         0.6817         0.4688       -38.4445      0.5798912              1
      6352.5000          0.719        -999.25        -999.25         0.6773         0.4669       -38.8705      0.1538925              1
      6353.0000         0.7147        -999.25        -999.25         0.6786          0.465       -39.3047     -0.2803078              1
      6353.5000         0.7156        -999.25        -999.25         0.6811         0.4631       -39.7703     -0.7459106              1
      6354.0000         0.7168        -999.25        -999.25         0.6835         0.4612       -40.2354       -1.21101      0.9934059
      6354.5000         0.7179        -999.25        -999.25          0.686         0.4593        -40.701      -1.676609       0.978856
      6355.0000          0.719        -999.25        -999.25         0.6884         0.4574       -40.9432      -1.918808      0.9712873
      6355.5000         0.7201        -999.25        -999.25         0.6909         0.4555       -40.9436      -1.919209      0.9712747
      6356.0000         0.7205        -999.25        -999.25         0.6933         0.4533       -40.9439       -1.91951      0.9712653
      6356.5000         0.7198        -999.25        -999.25         0.6958         0.4505       -40.9443       -1.91991      0.9712528
      6357.0000         0.7191        -999.25        -999.25         0.6982         0.4477       -40.6867      -1.662308      0.9793029
      6357.5000         0.7184        -999.25        -999.25         0.7006         0.4448       -40.4017      -1.377308      0.9882091
      6358.0000         0.7169        -999.25        -999.25         0.7031          0.442       -40.1165       -1.09211      0.9971216
      6358.5000         0.7127        -999.25        -999.25         0.7055         0.4392       -39.8313     -0.8069077              1
      6359.0000         0.7085        -999.25        -999.25          0.708         0.4363        -39.546     -0.5216103              1
      6359.5000         0.7042        -999.25        -999.25         0.7104         0.4335       -39.2611     -0.2367096              1
      6360.0000            0.7        -999.25        -999.25         0.7129         0.4307       -38.9758     0.04859161              1
      6360.5000         0.6958        -999.25        -999.25         0.7146         0.4278       -38.7667      0.2576904              1
      6361.0000          0.692        -999.25        -999.25         0.7146          0.425       -38.6392      0.3851929              1
      6361.5000         0.6892        -999.25        -999.25         0.7145         0.4222       -38.5117      0.5126915              1
      6362.0000         0.6865        -999.25        -999.25         0.7144         0.4193       -38.3843      0.6400909              1
      6362.5000         0.6837        -999.25        -999.25         0.7144         0.4165       -38.5496      0.4747925              1
      6363.0000         0.6809        -999.25        -999.25         0.7143         0.4137       -38.7502      0.2741928              1
      6363.5000         0.6781        -999.25        -999.25         0.7143         0.4108       -38.9507     0.07369232              1
      6364.0000         0.6757        -999.25        -999.25         0.7142         0.4101       -39.1516     -0.1272087              1
      6364.5000          0.674        -999.25        -999.25         0.7141          0.411       -39.3521     -0.3277092              1
      6365.0000         0.6722        -999.25        -999.25         0.7141         0.4118       -39.5527     -0.5283089              1
      6365.5000         0.6705        -999.25        -999.25          0.714         0.4126       -39.7535     -0.7291107              1
      6366.0000         0.6687        -999.25        -999.25         0.7139         0.4134        -39.954     -0.9296074              1
      6366.5000         0.6669        -999.25        -999.25         0.7139         0.4143       -40.1546      -1.130207       0.995931
      6367.0000         0.6655        -999.25        -999.25         0.7138         0.4151       -40.3463      -1.321907      0.9899404
      6367.5000         0.6651        -999.25        -999.25         0.7138         0.4159       -40.0826      -1.058208       0.998181
      6368.0000         0.6647        -999.25        -999.25         0.7104         0.4167       -39.8186     -0.7942085              1
      6368.5000         0.6643        -999.25        -999.25         0.7069         0.4176       -39.5546     -0.5302086              1
      6369.0000         0.6639        -999.25        -999.25         0.7034         0.4184       -39.2906     -0.2662086              1
      6369.5000         0.6634        -999.25        -999.25         0.6999         0.4192       -39.0266    -0.00220871              1
      6370.0000          0.663        -999.25        -999.25         0.6963           0.42       -38.7629      0.2614899              1
      6370.5000         0.6626        -999.25        -999.25         0.6928         0.4209       -38.4989      0.5254898              1
      6371.0000         0.6622        -999.25        -999.25         0.6893         0.4217       -38.2349      0.7894897              1
      6371.5000         0.6619        -999.25        -999.25         0.6858         0.4229       -38.0807      0.9436913              1
      6372.0000         0.6627        -999.25        -999.25         0.6822         0.4245       -37.9993       1.025093              1
