#------------------------------------------------------------------------------
# Created by    : vladimir.rabinovich
# Created on    : 09/19/2023 17:20:25
#------------------------------------------------------------------------------
~Version Information Section
VERS.           2.0     :   CWLS log ASCII Standard - VERSION 2.0
WRAP.           NO      :   One line per depth step
~Well Information Section
#MNEM       .UNIT                                         VALUE :DESCRIPTION
#------------------------------------------------------------------------------
STRT        .FT                                            2998 :START DEPTH
STOP        .FT                                           12526 :STOP DEPTH
STEP        .FT                                             0.5 :STEP      
NULL        .                                           -999.25 :NULL      
COMP        .                                 CALIFORNIA CO THE :COMPANY   
WELL        .                               OCS G01117 ST00BP00 :WELL      
FLD         .                                       HIGH ISLAND :FIELD     
LOC         .                                                   :LOCATION  
CNTY        .                           HIGH ISLAND LARGE BLOCK :LOCATION  
STAT        .                                             TEXAS :STATE     
CTRY        .                                     UNITED STATES :COUNTRY   
SRVC        .                                                   :SERVICE COMPANY
DATE        .                             9/13/2023 11:19:15 AM :LOG DATE  
API         .                                    42708000660000 :API NUMBER
UWI         .                                    42708000660000 :UNIQUE WELL ID
XCOORD      .                                  1214371.69372255 :SURFACE X 
YCOORD      .                                  10618355.5582238 :SURFACE Y 
LAT         .                                         29.252113 :LATITUDE  
LON         .                                        -94.336419 :LONGITUDE 
ELEV        .FT                                              77 :ELEVATION VALUE
ELEV_TYPE   .                                                KB :ELEVATION REFERENCE TYPE
~Curve Information Section
#MNEM       .UNIT                                      API CODE :CURVE DESCRIPTION
#------------------------------------------------------------------------------
DEPT        .FT                                                 :DEPTH     
ASN         .OHMM                                               :          
CILD        .OHMM                                               :          
ILD         .OHMM                                               :          
SP          .MV                                                 :          
SP_NORM     .MV                                                 :SP Normalized
VSH_SP      .V/V                                                :Volume of Shale from SP
~A        DEPTH            ASN           CILD            ILD             SP        SP_NORM         VSH_SP
# ...
      4252.0000         0.4191       3131.891         0.3357      -122.4056      -67.86015              0
      4252.5000          0.407       3024.523         0.3347      -121.9852      -67.43974              0
      4253.0000         0.4014       2914.523         0.3337      -120.1801      -65.63464     0.02068722
      4253.5000         0.4034       2804.527         0.3327      -118.3761      -63.83064     0.04802056
      4254.0000          0.465        2726.02         0.3317      -116.5723      -62.02685     0.07535079
      4254.5000         0.5267       2655.641         0.3307      -114.7671      -60.22164      0.1027024
      4255.0000         0.5861       2585.211          0.333      -112.9631      -58.41764      0.1300357
      4255.5000         0.6406       2420.215          0.337      -111.3804      -56.83495       0.154016
      4256.0000         0.6952       2235.555          0.341      -110.3239      -55.77844      0.1700236
      4256.5000         0.7497        2083.02          0.345      -109.2672      -54.72174      0.1860342
      4257.0000         0.7863       2030.162         0.3489      -108.2106      -53.66515      0.2020433
      4257.5000         0.8171       2004.918         0.3529      -107.1539      -52.60844      0.2180539
      4258.0000         0.8478       2003.057         0.3725      -106.1318      -51.58634      0.2335403
      4258.5000         0.8786       2001.193         0.4053       -105.684      -51.13854      0.2403251
      4259.0000         0.9261       1999.332         0.4382      -105.2361      -50.69064      0.2471115
      4259.5000          0.976       1997.469          0.471      -104.7882      -50.24274      0.2538978
      4260.0000         1.1711       1883.967         0.5039      -107.5908      -53.04534      0.2114342
      4260.5000         1.5714       1624.254         0.5367      -110.8882      -56.34274      0.1614736
      4261.0000         1.7414       1562.539         0.5696      -113.0198      -58.47434      0.1291766
      4261.5000         1.8689        1507.93         0.6024      -114.8842      -60.33875      0.1009281
      4262.0000         1.9757       1471.316         0.6302      -116.7496      -62.20415     0.07266443
      4262.5000         2.0275       1449.354         0.6501      -118.6139      -64.06844     0.04441753
      4263.0000         2.0116       1427.391           0.67      -120.4795      -65.93404     0.01615085
      4263.5000         1.9095       1405.428         0.6899      -122.2025      -67.65704              0
      4264.0000         1.7206       1440.445         0.7098      -122.0493      -67.50385              0
      4264.5000         1.5213       1474.006         0.7298       -121.896      -67.35055              0
      4265.0000         1.4755       1507.588         0.7473      -121.7428      -67.19734              0
      4265.5000         1.4766       1541.172         0.7238      -121.5895      -67.04404              0
      4266.0000         1.5042       1588.725         0.7004      -121.4363      -66.89085    0.001653845
      4266.5000         1.5076       1699.988          0.677      -121.2831      -66.73764    0.003975146
      4267.0000         1.3645       1922.125         0.6536      -121.1298      -66.58434    0.006297834
      4267.5000         1.2316       1999.992          0.598      -121.0563      -66.51084    0.007411494
      4268.0000          1.145       2000.438         0.5311      -121.0116      -66.46614    0.008088777
      4268.5000         1.0227       2000.883         0.4641      -120.9669      -66.42145    0.008765943
      4269.0000         0.9368       2001.328         0.4021      -120.9222      -66.37675    0.009443225
      4269.5000         0.8568       2001.773         0.3562      -120.8774      -66.33195     0.01012201
      4270.0000         0.7701       2002.219         0.3103      -120.8328      -66.28735     0.01079779
      4270.5000         0.6667       2002.664         0.2643      -120.7881      -66.24265     0.01147507
      4271.0000         0.6627       2002.404          0.231      -120.9403      -66.39484    0.009169029
      4271.5000         0.6588       2001.982         0.2232      -121.8152      -67.26974              0
      4272.0000         0.6548       2001.563         0.2274      -122.6901      -68.14465              0
      4272.5000         0.6443       2001.143         0.2527      -122.2748      -67.72935              0
      4273.0000         0.6331       1999.688          0.278      -121.3802      -66.83475    0.002503829
      4273.5000         0.6218       1997.957         0.3033      -119.7094      -65.16394     0.02781908
      4274.0000         0.6107       2000.359         0.3285      -118.0398      -63.49435     0.05311596
      4274.5000         0.6074       2002.762         0.3538      -116.3701      -61.82465     0.07841446
      4275.0000          0.604       2005.162         0.3791      -114.6993      -60.15385      0.1037296
      4275.5000         0.6007       2007.564         0.4044      -113.0297      -58.48425      0.1290266
      4276.0000         0.6016       2009.967         0.4297      -110.1316      -55.58614      0.1729372
      4276.5000         0.6136       2012.367         0.4329      -107.2113      -52.66585      0.2171841
      4277.0000         0.6256        2014.77         0.4235      -104.2983      -49.75285      0.2613205
      4277.5000         0.6376       2017.172         0.4141      -101.5137      -46.96825      0.3035114
      4278.0000         0.6567       2019.572         0.4047       -98.7313      -44.18584       0.345669
      4278.5000         0.6837       2021.975         0.3953       -99.8625      -45.31705      0.3285296
      4279.0000         0.7108       2024.377          0.369      -103.9115      -49.36604      0.2671812
      4279.5000         0.7378       2026.777         0.3358      -107.9358      -53.39034      0.2062069
      4280.0000         0.6842       2144.246         0.3026      -111.9626      -57.41714      0.1451948
      4280.5000         0.6251       2717.406         0.2695      -115.9869      -61.44144     0.08422054
      4281.0000         0.5675       2915.496         0.2367      -117.4644      -62.91895     0.06183416
      4281.5000         0.5386       2967.867          0.234      -118.1796      -63.63415     0.05099776
      4282.0000         0.5097       3020.238         0.2312      -118.8949      -64.34944     0.04015998
      4282.5000         0.4872       3069.301         0.2284      -119.6102      -65.06474     0.02932207
      4283.0000         0.4944       3117.438         0.2256      -120.3248      -65.77934     0.01849481
      4283.5000         0.5016       3166.012         0.2228       -120.655      -66.10954     0.01349177
      4284.0000         0.5088       3204.801          0.232      -120.5953      -66.04984     0.01439632
      4284.5000          0.516       2818.641         0.2464      -120.5356      -65.99014     0.01530087
      4285.0000         0.5232       2631.063         0.2609      -120.4761      -65.93064     0.01620241
      4285.5000         0.5304       2469.957         0.2753      -120.4164      -65.87094     0.01710695
      4286.0000         0.5329       2315.281         0.2898      -120.3567      -65.81124      0.0180115
      4286.5000         0.5325       2207.422         0.3042      -117.7145      -63.16904     0.05804478
      4287.0000         0.5321       2099.273         0.3187      -114.9543      -60.40884       0.099866
      4287.5000         0.5317       1989.182         0.3284      -110.8043      -56.25884      0.1627448
      4288.0000         0.5275       1982.145         0.3347      -105.9692      -51.42374      0.2360039
      4288.5000         0.5226       1986.557         0.3409      -101.9967      -47.45124      0.2961933
      4289.0000         0.5178       1990.967         0.3472       -98.0784      -43.53294      0.3555615
      4289.5000         0.5129       1992.799         0.3535       -95.2111      -40.66564      0.3990054
