#------------------------------------------------------------------------------
# Created by    : vladimir.rabinovich
# Created on    : 09/19/2023 17:20:10
#------------------------------------------------------------------------------
~Version Information Section
VERS.           2.0     :   CWLS log ASCII Standard - VERSION 2.0
WRAP.           NO      :   One line per depth step
~Well Information Section
#MNEM       .UNIT                                         VALUE :DESCRIPTION
#------------------------------------------------------------------------------
STRT        .FT                                            1664 :START DEPTH
STOP        .FT                                            5300 :STOP DEPTH
STEP        .FT                                             0.5 :STEP      
NULL        .                                           -999.25 :NULL      
COMP        .                       CORPUS CHRISTI OIL & GAS CO :COMPANY   
WELL        .                                ST TR 00597-L NE/4 :WELL      
FLD         .                                           WILDCAT :FIELD     
LOC         .                                                   :LOCATION  
CNTY        .                      MATAGORDA ISLAND LARGE BLOCK :LOCATION  
STAT        .                                             TEXAS :STATE     
CTRY        .                                     UNITED STATES :COUNTRY   
SRVC        .                                                   :SERVICE COMPANY
DATE        .                             9/13/2023 11:12:01 AM :LOG DATE  
API         .                                    42703301570000 :API NUMBER
UWI         .                                    42703301570000 :UNIQUE WELL ID
XCOORD      .                                   499677.54355151 :SURFACE X 
YCOORD      .                                  10240770.6634848 :SURFACE Y 
LAT         .                                        28.1741034 :LATITUDE  
LON         .                                       -96.5406837 :LONGITUDE 
ELEV        .FT                                              79 :ELEVATION VALUE
ELEV_TYPE   .                                                KB :ELEVATION REFERENCE TYPE
~Curve Information Section
#MNEM       .UNIT                                      API CODE :CURVE DESCRIPTION
#------------------------------------------------------------------------------
DEPT        .FT                                                 :DEPTH     
ASFL        .OHMM                                               :          
CILD        .MMHO                                               :          
ILD         .OHMM                                               :          
SP          .MV                                                 :          
SP_NORM     .MV                                                 :SP Normalized
VSH_SP      .V/V                                                :Volume of Shale from SP
~A        DEPTH           ASFL           CILD            ILD             SP        SP_NORM         VSH_SP
# ...
      4552.0000         0.5694       4040.387         0.2475       -87.5176      -34.39491      0.1475025
      4552.5000         0.5525       4056.375         0.2465        -86.321      -34.39491      0.1475025
      4553.0000         0.5356       4064.378          0.246       -85.1243      -34.39491      0.1475025
      4553.5000         0.5187       3788.706         0.2639       -83.9277      -31.84713      0.2145491
      4554.0000         0.5032       3560.937         0.2808        -82.731      -29.29936      0.2815957
      4554.5000         0.7793       3333.168            0.3       -81.8077      -26.75159      0.3486423
      4555.0000         0.9726       3105.399          0.322       -81.8083      -23.47589      0.4348451
      4555.5000         1.1659        2877.63         0.3475        -81.809      -20.20018      0.5210479
      4556.0000         1.3592       2649.861         0.3774       -82.9334      -16.92447      0.6072507
      4556.5000         1.5436       2347.967         0.4259       -84.0577      -13.64877      0.6934534
      4557.0000         1.2238       2339.983         0.4274       -85.1821      -10.37307      0.7796562
      4557.5000         0.9039       2340.003         0.4273       -86.3065      -7.097359       0.865859
      4558.0000         0.5711       2340.023         0.4273       -87.4309      -3.821656      0.9520617
      4558.5000         0.5397       2348.027         0.4259       -89.0197       -7.00637      0.8682534
      4559.0000         0.5151       2669.438         0.3746       -85.8855      -10.19108      0.7844452
      4559.5000         0.5151       2990.851         0.3344       -82.7513       -13.3758      0.7006369
      4560.0000         0.5191       3312.263         0.3019       -78.5131      -16.56051      0.6168287
      4560.5000         0.5356       3633.675         0.2752       -80.3269      -19.74522      0.5330205
      4561.0000         0.5521       4048.745          0.247       -82.1408      -22.92994      0.4492122
      4561.5000         0.5686       4048.745          0.247       -83.9546      -26.11465       0.365404
      4562.0000         0.5852       3937.009          0.254       -85.7685      -29.29936      0.2815957
      4562.5000         0.6017       3905.073         0.2561       -87.5823      -33.12102      0.1810259
      4563.0000         0.6182       3849.206         0.2598       -89.3962      -36.94267     0.08045598
      4563.5000         0.6551       3202.525         0.3123       -91.7276      -31.61552      0.2206443
      4564.0000         0.6791       2986.979         0.3348       -88.9051      -26.28836      0.3608326
      4564.5000         0.7518        2701.46         0.3702       -86.0825       -20.9612       0.501021
      4565.0000         0.8245       2415.941         0.4139       -83.2599      -15.63405      0.6412093
      4565.5000         0.8972       2130.423         0.4694       -80.4374      -10.30689      0.7813976
      4566.0000         0.9752       1844.904          0.542       -77.6148      -4.979733       0.921586
      4566.5000         1.0232       1559.385         0.6413       -74.3194      0.3474236              1
      4567.0000         1.4715       1273.867          0.785       -80.8169        5.67458              1
      4567.5000         1.9636       1046.998         0.9551       -88.4301       11.00174              1
      4568.0000         2.1489        1031.05         0.9699       -88.4306        16.3289              1
      4568.5000         2.1688       1015.101         0.9912       -88.4307       21.65605              1
      4569.0000         1.8693       1015.121         0.9313       -86.7374       15.28662              1
      4569.5000         1.6897       1015.141         0.8115       -85.0442       8.917197              1
      4570.0000         1.4901       1957.059         0.7715       -83.3509       3.821656              1
      4570.5000         1.4301       2196.545         0.7315       -81.5297      -1.273885              1
      4571.0000         1.3103       2436.032         0.4105       -81.5303      -6.369426      0.8850151
      4571.5000         0.6869       2675.518         0.3738       -81.8305      -11.46497      0.7509219
      4572.0000         0.6568       2915.004         0.3431       -83.0298      -19.10828      0.5497821
      4572.5000         0.6267       3154.491          0.317       -84.2291      -20.80679      0.5050844
      4573.0000         0.5967       3393.977         0.2946       -85.4284      -22.50531      0.4603866
      4573.5000         0.5548       3633.463         0.2752       -85.4358      -24.20382      0.4156889
      4574.0000         0.5548        3872.95         0.2582        -84.536      -25.05308      0.3933401
      4574.5000         0.5988        4097.18         0.2441       -83.9363      -25.90233      0.3709912
      4575.0000         0.6708        3691.58         0.2709       -83.3367      -26.75159      0.3486423
      4575.5000          0.751       3285.979         0.3043        -82.737      -26.75159      0.3486423
      4576.0000         0.9106       2880.379         0.3472       -82.1374      -29.29936      0.2815957
      4576.5000         1.3297       2474.778         0.4041       -81.8379      -19.10828      0.5497821
      4577.0000         1.5492       2069.178         0.4833       -81.2383      -8.917198      0.8179685
      4577.5000         3.0738       1663.577         0.6011       -80.6387       1.273884              1
      4578.0000         3.7151       1257.977         0.7949       -80.8649       11.46497              1
      4578.5000         7.0581       852.3761         1.1732       -81.6913       11.46497              1
      4579.0000         7.0979       552.4464         1.8101       -82.5178       11.46497              1
      4579.5000         3.0691       544.4822         1.8366       -83.3442       8.917197              1
      4580.0000         2.4471       544.5019         1.8365       -84.1707      0.4246283              1
      4580.5000         0.7828       1155.814         0.8652       -83.0438      -8.067941      0.8403174
      4581.0000         0.7708       1767.125         0.5659       -82.4442      -16.56051      0.6168287
      4581.5000          0.722       2378.437         0.4204       -81.5445      -19.95754      0.5274332
      4582.0000         0.6732       2989.749         0.3345       -80.6449      -23.35456      0.4380378
      4582.5000         0.6147       3601.061         0.2777       -80.3455      -26.75159      0.3486423
      4583.0000          0.633       4212.373         0.2374       -81.2464      -28.02548       0.315119
      4583.5000         0.6514       4935.869         0.2026       -82.8643      -29.29936      0.2815957
      4584.0000         0.6697       4943.853         0.2023       -84.4822      -30.57325      0.2480724
      4584.5000         0.6881        4959.84         0.2016       -86.1001      -31.84713      0.2145491
      4585.0000         0.7107        4959.86         0.2016       -87.7179      -31.84713      0.2145491
      4585.5000         0.7067       4951.896         0.2019       -89.3358      -31.84713      0.2145491
      4586.0000         0.6506        4840.14         0.2066       -90.9537      -31.84713      0.2145491
      4586.5000         0.6506       4752.336         0.2104       -92.5715      -31.84713      0.2145491
      4587.0000         0.6506       4323.618         0.2313       -94.1894      -31.84713      0.2145491
      4587.5000         0.6869         3894.9         0.2567       -95.8073      -31.84713      0.2145491
      4588.0000         0.7233       3466.182         0.2885       -96.8571      -23.18471      0.4425075
      4588.5000         0.7666       3037.463         0.3292       -86.6721      -14.52229      0.6704659
      4589.0000         0.7786       2608.745         0.3833       -76.4871      -5.859871      0.8984244
      4589.5000         1.1086       2180.027         0.4587        -71.053       2.802547              1
