#------------------------------------------------------------------------------
# Created by    : vladimir.rabinovich
# Created on    : 09/19/2023 17:20:37
#------------------------------------------------------------------------------
~Version Information Section
VERS.           2.0     :   CWLS log ASCII Standard - VERSION 2.0
WRAP.           NO      :   One line per depth step
~Well Information Section
#MNEM       .UNIT                                         VALUE :DESCRIPTION
#------------------------------------------------------------------------------
STRT        .FT                                             254 :START DEPTH
STOP        .FT                                            9030 :STOP DEPTH
STEP        .FT                                             0.5 :STEP      
NULL        .                                           -999.25 :NULL      
COMP        .                                    MOBIL OIL CORP :COMPANY   
WELL        .                                OCS 00724 ST00BP00 :WELL      
FLD         .                                           WILDCAT :FIELD     
LOC         .                                                   :LOCATION  
CNTY        .                             GALVESTON LARGE BLOCK :LOCATION  
STAT        .                                             TEXAS :STATE     
CTRY        .                                     UNITED STATES :COUNTRY   
SRVC        .                                                   :SERVICE COMPANY
DATE        .                             9/13/2023 11:19:25 AM :LOG DATE  
API         .                                    42706000340000 :API NUMBER
UWI         .                                    42706000340000 :UNIQUE WELL ID
XCOORD      .                                  1011870.95166473 :SURFACE X 
YCOORD      .                                   10400634.765487 :SURFACE Y 
LAT         .                                         28.645607 :LATITUDE  
LON         .                                        -94.960058 :LONGITUDE 
ELEV        .FT                                              34 :ELEVATION VALUE
ELEV_TYPE   .                                                KB :ELEVATION REFERENCE TYPE
~Curve Information Section
#MNEM       .UNIT                                      API CODE :CURVE DESCRIPTION
#------------------------------------------------------------------------------
DEPT        .FT                                                 :DEPTH     
ASN         .OHMM                                               :          
CALI        .IN                                                 :          
CILD        .MMHO                                               :          
DT          .US/F                                               :          
ILD         .OHMM                                               :          
SP          .MV                                                 :          
SP_NORM     .MV                                                 :SP Normalized
VSH_SP      .V/V                                                :Volume of Shale from SP
~A        DEPTH            ASN           CALI           CILD             DT            ILD             SP        SP_NORM         VSH_SP
# ...
      7275.0000         0.6029         9.2505       2364.621       115.0692         0.5361       -64.3107      -18.66054      0.4805723
      7275.5000          0.608         9.2539       2361.906       113.1663         0.5337       -63.8736      -18.22665      0.4933338
      7276.0000         0.6192         9.2583       2329.754       110.7257         0.5313       -64.2279      -18.58415      0.4828191
      7276.5000         0.6331         9.3021       2268.082       108.1748         0.5289       -64.5823      -18.94176      0.4723012
      7277.0000          0.647         9.3459        2206.41       106.7754         0.5266        -64.936      -19.29866       0.461804
      7277.5000         0.6499         9.3896       2144.828       104.7405         0.5242       -64.9918      -19.35767      0.4600685
      7278.0000         0.6482         9.5218       2083.156       103.9971         0.5303       -64.9017      -19.27078       0.462624
      7278.5000         0.6539         9.6684       2021.572       105.7207         0.5627       -64.4275      -18.79978       0.476477
      7279.0000         0.6602         9.8327       1953.586       106.6683         0.5952       -63.5975      -17.97299      0.5007944
      7279.5000         0.6666          9.989       1913.648       107.1427         0.6273       -62.2697       -16.6484      0.5397531
      7280.0000         0.6809        10.1361       1824.217       107.2709         0.6414       -60.8036       -15.1855      0.5827793
      7280.5000         0.7032         10.177       1763.813       107.1653         0.6555       -59.2705      -13.65561      0.6277762
      7281.0000         0.7232         10.149       1708.117       106.9779         0.6662       -56.3008      -10.68912       0.715026
      7281.5000           0.74        10.0989       1676.012       105.7545         0.6649       -55.0581      -9.449623      0.7514817
      7282.0000         0.7476        10.0489       1658.059       104.5298         0.6636       -54.3024      -8.697124       0.773614
      7282.5000         0.7422         9.9988       1674.902       104.0214         0.6604       -53.8902      -8.288136      0.7856431
      7283.0000         0.7316         9.9623       1695.527       104.2213         0.6512       -53.4871      -7.888237      0.7974048
      7283.5000         0.7132        10.1266       1711.943       112.2356          0.642       -52.8459      -7.250248      0.8161692
      7284.0000          0.695        10.2759       1725.098        119.444         0.6327       -52.1735      -6.581051      0.8358514
      7284.5000         0.6797          10.35       1733.137       119.4828         0.6235        -51.187      -5.597759      0.8647718
      7285.0000         0.6644        10.4079       1737.277       119.0682         0.6169       -49.6143      -4.028263      0.9109334
      7285.5000         0.6479        10.3325       1746.752       115.9178         0.6108       -47.7184      -2.135571      0.9666009
      7286.0000         0.6482        10.2532       1756.229       112.6165         0.6046        -46.737      -1.157375      0.9953713
      7286.5000         0.6598        10.1877        1768.59       114.0632         0.5984       -46.4654     -0.8889809              1
      7287.0000         0.6697        10.2337       1782.332       115.5099            0.6       -46.9127      -1.339489       0.990015
      7287.5000         0.6766        10.3244       1796.234       113.9258         0.6052       -47.3607      -1.790691      0.9767444
      7288.0000         0.6835        10.3986       1804.078       111.1923         0.6104       -47.3558      -1.789001      0.9767941
      7288.5000         0.6763        10.4003       1796.799       110.3077         0.6156       -47.1993      -1.635704      0.9813028
      7289.0000         0.6651        10.3696       1816.248       108.7526         0.6208       -47.0428      -1.482414      0.9858114
      7289.5000         0.6556        10.2618       1869.453       124.3794         0.6092       -47.1956      -1.638416       0.981223
      7290.0000         0.6461        10.1375       1909.799       124.4315         0.5957       -47.4516      -1.897625      0.9735993
      7290.5000         0.6366        10.0034       1964.951       119.6271         0.5822       -47.7076       -2.15683      0.9659756
      7291.0000         0.6271         9.8609        2015.26       114.8226         0.5705       -47.6325      -2.084934      0.9680902
      7291.5000         0.6174         9.7181       1992.527       110.8108          0.559       -47.3544      -1.810043      0.9761752
      7292.0000         0.6078         9.6101       1966.129       111.6227         0.5475       -46.9899      -1.448746      0.9868016
      7292.5000         0.5988         9.5062       1910.162       119.0142         0.5608          -46.5     -0.9620552              1
      7293.0000         0.5914         9.4146       1862.436       126.3932         0.5823       -46.0101     -0.4753609              1
      7293.5000         0.5977         9.3138       1809.275       126.5819         0.6038       -45.7048     -0.1732674              1
      7294.0000         0.6447         9.1986       1755.525       122.1149         0.6253       -45.4052       0.123127              1
      7294.5000          0.701         9.1144       1709.475       117.3285         0.6475       -45.1059        0.41922              1
      7295.0000          0.732         9.0535       1655.229       113.5876         0.6699       -46.2171     -0.6951828              1
      7295.5000         0.7578         9.0313       1590.023       109.7072         0.6924       -47.3096       -1.79089      0.9767385
      7296.0000         0.7887         9.0156       1514.404       105.8267         0.7148       -47.9491      -2.433598      0.9578354
      7296.5000         0.7964         9.0142       1436.066       101.9462         0.7262       -49.2673      -3.755001      0.9189706
      7297.0000         0.8042         9.0161       1458.799        98.0657         0.7334       -49.9159      -4.406811      0.8997997
      7297.5000         0.8021         9.0696       1518.887        97.6273         0.7059       -50.5429      -5.037014      0.8812643
      7298.0000         0.7935          9.179       1555.699       104.6278         0.6802       -51.1881      -5.685421      0.8621935
      7298.5000          0.785         9.1935       1586.627       102.9421         0.6596       -52.0487      -6.549225      0.8367875
      7299.0000         0.7765         9.1629       1617.102        99.7648         0.6391       -53.6237      -8.127434      0.7903696
      7299.5000          0.768         9.0598       1647.258        96.5918         0.6215       -55.0411      -9.548038      0.7485871
      7300.0000         0.7575         8.9566       1690.865        98.0566         0.6088       -56.3077      -10.81784      0.7112399
      7300.5000         0.7452         8.9323       1741.533       110.5624         0.5962        -56.929      -11.44235       0.692872
      7301.0000         0.7329         8.9517       1822.496       109.5223         0.5835       -57.2165      -11.73306      0.6843219
      7301.5000         0.7205         8.9913       1925.557       108.0441         0.5709       -57.4687      -11.98846      0.6768098
      7302.0000         0.7082         9.0674       1992.211       106.7855         0.5606       -57.9053      -12.42827      0.6638744
      7302.5000          0.697         9.1942         2027.5       107.2125         0.5613       -59.4713      -13.99747      0.6177213
      7303.0000         0.6861         9.4161       2069.297       108.1613          0.562       -60.3987      -14.92808      0.5903506
      7303.5000         0.6752         9.4412       2114.602        110.203         0.5627       -61.1823      -15.71489      0.5672091
      7304.0000         0.6634         9.4379       2127.348       111.4401         0.5634       -62.0667      -16.60249      0.5411031
