#------------------------------------------------------------------------------
# Created by    : vladimir.rabinovich
# Created on    : 09/19/2023 17:20:24
#------------------------------------------------------------------------------
~Version Information Section
VERS.           2.0     :   CWLS log ASCII Standard - VERSION 2.0
WRAP.           NO      :   One line per depth step
~Well Information Section
#MNEM       .UNIT                                         VALUE :DESCRIPTION
#------------------------------------------------------------------------------
STRT        .FT                                            2124 :START DEPTH
STOP        .FT                                            8264 :STOP DEPTH
STEP        .FT                                             0.5 :STEP      
NULL        .                                           -999.25 :NULL      
COMP        .                               SUPERIOR OIL CO THE :COMPANY   
WELL        .                                     ST TR 00009-L :WELL      
FLD         .                                           WILDCAT :FIELD     
LOC         .                                                   :LOCATION  
CNTY        .                           HIGH ISLAND LARGE BLOCK :LOCATION  
STAT        .                                             TEXAS :STATE     
CTRY        .                                     UNITED STATES :COUNTRY   
SRVC        .                                                   :SERVICE COMPANY
DATE        .                             9/13/2023 11:19:15 AM :LOG DATE  
API         .                                    42708300270000 :API NUMBER
UWI         .                                    42708300270000 :UNIQUE WELL ID
XCOORD      .                                  1318170.30554107 :SURFACE X 
YCOORD      .                                  10738395.6931535 :SURFACE Y 
LAT         .                                        29.5851559 :LATITUDE  
LON         .                                       -94.0141459 :LONGITUDE 
ELEV        .FT                                              72 :ELEVATION VALUE
ELEV_TYPE   .                                                KB :ELEVATION REFERENCE TYPE
~Curve Information Section
#MNEM       .UNIT                                      API CODE :CURVE DESCRIPTION
#------------------------------------------------------------------------------
DEPT        .FT                                                 :DEPTH     
ASN         .OHMM                                               :          
CILD        .MMHO                                               :          
ILD         .OHMM                                               :          
SN          .OHMM                                               :          
SP          .MV                                                 :          
SP_NORM     .MV                                                 :SP Normalized
VSH_SP      .V/V                                                :Volume of Shale from SP
~A        DEPTH            ASN           CILD            ILD             SN             SP        SP_NORM         VSH_SP
# ...
      7015.0000         0.8787       1702.256         0.7058         0.8785       -49.7962      -7.371956      0.9172474
      7015.5000         0.9036       1948.781          0.604         0.9257       -56.5334      -14.10916      0.8297512
      7016.0000         0.9392       2204.371         0.5126         0.9322       -68.7611      -26.33686      0.6709499
      7016.5000         0.8879        2706.59         0.4395         0.8926        -87.545      -45.12075      0.4270032
      7017.0000         0.8497        3176.52         0.3904         0.8469      -100.5067      -58.08245      0.2586694
      7017.5000          0.785       3767.223         0.3514         0.7971      -114.0718      -71.64755     0.08249932
      7018.0000          0.711       4382.734         0.3273         0.7543      -119.9216      -77.49736    0.006527789
      7018.5000         0.6727       4865.625         0.3097         0.7115      -121.9479      -79.52365              0
      7019.0000          0.641       5193.656         0.2979         0.6689      -122.7448      -80.32056              0
      7019.5000         0.6088       5279.055          0.292         0.6304      -123.0306      -80.60635              0
      7020.0000         0.5925       5287.078         0.2889         0.6029      -122.6675      -80.24326              0
      7020.5000         0.5885       5209.203         0.2893         0.5853      -122.0044      -79.58015              0
      7021.0000         0.5933       5057.539         0.2916         0.5901      -121.4662      -79.04196              0
      7021.5000         0.5985       4951.914         0.2942         0.5989      -121.1017      -78.67746              0
      7022.0000         0.6097       4882.664         0.2983         0.6067      -120.8051      -78.38086              0
      7022.5000         0.6219       4833.016         0.3024         0.6171       -120.559      -78.13475              0
      7023.0000         0.6182       4806.555         0.3079         0.6296      -120.7701      -78.34586              0
      7023.5000         0.6171       4783.336         0.3126          0.644      -121.4237      -78.99945              0
      7024.0000         0.6273       4765.578         0.3115         0.6559      -122.4331      -80.00885              0
      7024.5000         0.6112       4752.836         0.3105         0.6622      -123.2281      -80.80386              0
      7025.0000         0.5986       4743.547         0.3094         0.6549      -123.6202      -81.19595              0
      7025.5000         0.5955       4733.406         0.3099         0.6323      -123.3412      -80.91696              0
      7026.0000         0.5954       4718.422         0.3112         0.6157      -123.1382      -80.71396              0
      7026.5000         0.5995        4701.18         0.3101         0.6084      -123.1288      -80.70456              0
      7027.0000         0.6078       4684.391         0.3103         0.6096      -122.3477      -79.92346              0
      7027.5000         0.6304       4665.805         0.3112         0.6312      -121.7036      -79.27936              0
      7028.0000         0.6558       4640.695         0.3121         0.6637      -121.6497      -79.22545              0
      7028.5000         0.6807       4592.195         0.3129         0.6953      -121.5413      -79.11705              0
      7029.0000         0.7056       4500.914         0.3095         0.7169      -121.2185      -78.79425              0
      7029.5000          0.703       4391.508         0.3026         0.7018      -121.1189      -78.69466              0
      7030.0000         0.6353       4302.617         0.3002         0.6444      -120.7386      -78.31436              0
      7030.5000         0.5665       4250.906         0.3022         0.5773      -119.9821      -77.55786     0.00574206
      7031.0000         0.5131       4225.375         0.3043         0.5267      -119.2115      -76.78726     0.01574984
      7031.5000         0.4721       4229.602         0.3244         0.4807      -118.4159      -75.99165     0.02608242
      7032.0000          0.442       4261.266         0.3452         0.4457      -117.5706      -75.14636     0.03706023
      7032.5000         0.4321       4309.594         0.3547         0.4382      -117.4668      -75.04256     0.03840835
      7033.0000         0.4543       4373.766         0.3547         0.4602      -119.0758      -76.65155     0.01751233
      7033.5000         0.4856       4440.578         0.3384         0.4994      -120.1216      -77.69736    0.003930426
      7034.0000         0.5176       4474.711         0.3281         0.5342      -120.8412      -78.41696              0
      7034.5000         0.5261       4486.313         0.3234         0.5246      -121.1372      -78.71295              0
      7035.0000          0.504       4481.969         0.3186         0.4812      -120.9065      -78.48225              0
      7035.5000         0.4746       4472.141         0.3136         0.4349      -120.0927      -77.66846    0.004305753
      7036.0000           0.46       4466.961         0.3105         0.4474      -119.0996      -76.67535      0.0172032
      7036.5000         0.4703       4467.578         0.3132         0.4748      -118.2361      -75.81186     0.02841741
      7037.0000         0.5053       4473.648         0.3154         0.5124      -118.1381      -75.71385     0.02969023
      7037.5000         0.5458       4489.734         0.3144         0.5555       -118.813      -76.38876     0.02092515
      7038.0000         0.5738       4521.445         0.3133         0.5856      -119.4088      -76.98456     0.01318756
      7038.5000         0.5787       4571.414         0.3143         0.5879       -119.938      -77.51376    0.006314761
      7039.0000         0.5836       4623.578         0.3167         0.5943      -120.3741      -77.94986   0.0006511738
      7039.5000         0.5943       4670.961         0.3192         0.6136      -120.8242      -78.39996              0
      7040.0000         0.5951        4709.18         0.3221         0.6241      -121.3055      -78.88126              0
      7040.5000         0.5966       4731.445         0.3233          0.629      -121.8083      -79.38405              0
      7041.0000         0.6053        4745.57         0.3203         0.6269      -121.1748      -78.75055              0
      7041.5000         0.6099       4737.828         0.3173         0.6163      -119.9355      -77.51126     0.00634726
      7042.0000         0.5999       4695.727         0.3144         0.6094      -118.6559      -76.23166     0.02296547
      7042.5000          0.592       4610.133         0.3116         0.5987      -117.5768      -75.15256     0.03697978
      7043.0000         0.5867       4441.531         0.3105         0.5915      -118.0444      -75.62016     0.03090698
      7043.5000         0.5824       4269.938         0.3094         0.5958      -118.3708      -75.94655      0.0266682
      7044.0000          0.587       4123.453         0.3114         0.6102      -117.9722      -75.54796      0.0318447
      7044.5000          0.605        -999.25         0.3144          0.629      -117.4829      -75.05865     0.03819929
      7045.0000         0.6253        -999.25         0.3299         0.6531      -118.0564      -75.63216     0.03075122
      7045.5000          0.646        -999.25         0.3484         0.6781      -119.7733      -77.34906    0.008453766
      7046.0000         0.6576        -999.25         0.3639         0.6916      -121.2139      -78.78966              0
      7046.5000         0.6384       4002.863         0.3554         0.6857       -120.569      -78.14476              0
      7047.0000         0.6088       4034.973         0.3418         0.6639      -119.6854      -77.26115    0.009595401
      7047.5000         0.5891       4101.883         0.3313         0.6325      -118.6283      -76.20406     0.02332395
      7048.0000         0.5776       4108.969         0.3325         0.6026      -118.3712      -75.94696     0.02666285
