#------------------------------------------------------------------------------
# Created by    : vladimir.rabinovich
# Created on    : 09/19/2023 17:19:36
#------------------------------------------------------------------------------
~Version Information Section
VERS.           2.0     :   CWLS log ASCII Standard - VERSION 2.0
WRAP.           NO      :   One line per depth step
~Well Information Section
#MNEM       .UNIT                                         VALUE :DESCRIPTION
#------------------------------------------------------------------------------
STRT        .FT                                            4496 :START DEPTH
STOP        .FT                                            7801 :STOP DEPTH
STEP        .FT                                             0.5 :STEP      
NULL        .                                           -999.25 :NULL      
COMP        .                             HELIS WM G CO LLC THE :COMPANY   
WELL        .                               OCS G12508 ST00BP00 :WELL      
FLD         .                              GALVESTON BLOCK 0395 :FIELD     
LOC         .                                                   :LOCATION  
CNTY        .                             GALVESTON LARGE BLOCK :LOCATION  
STAT        .                                             TEXAS :STATE     
CTRY        .                                     UNITED STATES :COUNTRY   
SRVC        .                                                   :SERVICE COMPANY
DATE        .                             9/13/2023 11:19:03 AM :LOG DATE  
API         .                                    42706404300000 :API NUMBER
UWI         .                                    42706404300000 :UNIQUE WELL ID
XCOORD      .                                  908236.382466376 :SURFACE X 
YCOORD      .                                  10386259.9403327 :SURFACE Y 
LAT         .                                         28.601028 :LATITUDE  
LON         .                                        -95.282181 :LONGITUDE 
ELEV        .FT                                             103 :ELEVATION VALUE
ELEV_TYPE   .                                                KB :ELEVATION REFERENCE TYPE
~Curve Information Section
#MNEM       .UNIT                                      API CODE :CURVE DESCRIPTION
#------------------------------------------------------------------------------
DEPT        .FT                                                 :DEPTH     
AHT10       .OHMM                                               :          
AHT20       .OHMM                                               :          
AHT30       .OHMM                                               :          
AHT60       .OHMM                                               :          
AHT90       .OHMM                                               :          
CPCHM       .MMHO                                               :          
DCAL        .IN                                                 :          
DPHZ        .FRAC                                               :          
GR          .GAPI                                               :          
GR_NORM     .GAPI                                               :GammaRay Normalized
GRAM        .GAPI                                               :          
HDRA        .G/CC                                               :          
NPOR        .FRAC                                               :          
RACHM       .OHMM                                               :          
ROPS        .F/HR                                               :          
RPCHM       .OHMM                                               :          
RWA         .OHMM                                               :          
SP          .MV                                                 :          
SP_NORM     .MV                                                 :SP Normalized
TENS        .LB/F                                               :          
VSH_GR      .V/V                                                :Volume of Shale from GR
VSH_SP      .V/V                                                :Volume of Shale from SP
~A        DEPTH          AHT10          AHT20          AHT30          AHT60          AHT90          CPCHM           DCAL           DPHZ             GR        GR_NORM           GRAM           HDRA           NPOR          RACHM           ROPS          RPCHM            RWA             SP        SP_NORM           TENS         VSH_GR         VSH_SP
# ...
      6260.0000         0.3731         0.2772         0.2541          0.233         0.2287       1196.067        -0.4471         0.3079        35.9167       34.98678         71.089        -0.0152         0.3223          0.719         25.175           0.79         0.0293         -73.25       -60.9412           2863     0.04227188      0.1294114
      6260.5000          0.383         0.2867         0.2631         0.2419         0.2377       1220.718         -0.399         0.3093        41.7831       43.39189         64.328        -0.0115         0.3516          0.682         25.175          0.761         0.0307         -73.25      -60.94716           2860       0.221104      0.1293263
      6261.0000         0.3964         0.2969         0.2734         0.2519         0.2445        1245.37         -0.399         0.3181        43.3432       45.62477         56.535        -0.0054         0.3532          0.665         25.175          0.746         0.0336       -73.3125      -61.04062           2857      0.2686122      0.1279912
      6261.5000         0.4055         0.3056         0.2818         0.2618         0.2545        1409.37         -0.423         0.3187        46.8096       50.58998         49.481          0.003         0.3508          0.583         33.204          0.647         0.0351        -73.375      -61.13407           2887      0.3742548      0.1266561
      6262.0000         0.3917         0.3018         0.2793         0.2622         0.2568       1722.927         -0.399         0.3114         41.376       42.79879         45.588         0.0124         0.3526          0.515         33.204          0.472         0.0337        -73.625      -61.49003           2863      0.2084849       0.121571
      6262.5000         0.3675         0.2893         0.2695         0.2581         0.2563       1994.533         -0.375         0.3045          42.45       44.33496         41.601         0.0216         0.3099          0.363         33.204          0.314         0.0321       -74.0625      -62.10849           2867      0.2411693      0.1127359
      6263.0000         0.3457         0.2821         0.2661         0.2573         0.2593       3142.848         -0.399         0.3034        36.1894       35.35844          41.59         0.0296         0.3494          0.318         33.204          0.301         0.0322       -75.4375      -64.03944           2841      0.0501795      0.0851508
      6263.5000         0.3269         0.2754         0.2584         0.2556         0.2596       3280.781         -0.423         0.3041        35.9788       35.05339         41.374          0.038         0.3451          0.307         43.342          0.294         0.0324        -73.375       -61.1579           2841     0.04368924      0.1263157
      6264.0000         0.3074         0.2668         0.2527         0.2543         0.2584       3448.306         -0.399         0.3037        34.7761       33.32636         42.062         0.0475         0.3238          0.296         43.342          0.266         0.0321        -70.875      -57.66386           2848    0.006943804      0.1762306
      6264.5000         0.2897         0.2582          0.247         0.2511          0.255       3633.135         -0.423         0.3003        35.6749       34.61141         48.204         0.0578         0.3311          0.325         43.342          0.313          0.031       -70.3125      -56.88232           2856     0.03428536      0.1873955
      6265.0000         0.2908         0.2645         0.2557         0.2651         0.2686       3700.367         -0.375         0.2881        36.5173       35.81562         52.706         0.0686         0.3524          0.337         43.342          0.336         0.0298       -64.9375      -49.36327           2839     0.05990682      0.2948105
      6265.5000         0.3636         0.3242         0.3155         0.3337          0.336       3006.166        -0.2547         0.2631        43.5137       45.84037         54.558         0.0885         0.3428          0.342         50.231          0.362         0.0307            -54      -34.05672           2850      0.2731994      0.5134754
      6266.0000         0.5477         0.4675         0.4635         0.5188         0.5218        2924.39         0.0458         0.2437        57.2773       65.56453         52.594         0.1048         0.3348          0.326         50.231          0.319         0.0405         -42.25      -17.61268           2833      0.6928623      0.7483902
      6266.5000         0.7845         0.6309         0.6173         0.7046         0.7187       2944.092         0.2502          0.244        65.4911       77.33418         52.033         0.1096         0.3553            0.3         50.231          0.285         0.0559       -37.6875      -11.23114           2825      0.9432803      0.8395551
      6267.0000         0.8281          0.686         0.6907         0.8107         0.8201       3232.244         0.3464         0.2669        72.2333       86.99458         52.094         0.0919         0.4291          0.285         50.231          0.261         0.0773        -34.375      -6.599596           2812              1      0.9057201
      6267.5000         0.8196          0.716         0.7474         0.8774         0.8924       3741.106         0.4185         0.2882        70.0532       83.86663         48.599         0.0697         0.4112          0.303         43.316          0.312         0.0992       -33.6875      -5.643053           2833              1       0.919385
      6268.0000         0.8416         0.7565          0.783         0.9325         0.9656       3465.181         0.5147         0.2864        67.1222       79.66244         44.254         0.0552           0.46            0.3         43.316          0.327         0.1059       -34.9375      -7.399011           2861      0.9928178      0.8942999
      6268.5000         0.8942         0.8346         0.8544         1.0108         1.0539       3298.668         1.0316         0.2658        61.5155       71.62315         37.849         0.0534         0.3836          0.264         43.316          0.248         0.0985        -38.875      -12.91747           2869      0.8217691      0.8154647
      6269.0000         0.8949          0.846         0.8754         1.0176         1.1015       4039.284        -0.1586          0.235        60.8321       70.64044          35.19          0.063         0.3076          0.255         43.316          0.242          0.079          -40.5      -15.19842           2871      0.8008605      0.7828797
      6269.5000         0.8496         0.8417         0.8436         0.9847         1.0097       4083.802        -0.2187         0.2227        63.1312       73.93253          34.72         0.0691         0.3467          0.251         57.251          0.235         0.0645       -37.3125      -10.74188           2857      0.8709048      0.8465446
      6270.0000         0.8742         0.8285         0.8352         0.9723         0.9645       4266.901         0.0338         0.2442         66.064       78.13293          34.16         0.0593         0.3866          0.247         57.251          0.237         0.0751       -38.0625      -11.79784           2833      0.9602752      0.8314595
      6270.5000         0.9163         0.8216          0.843         0.9387         0.9335       4220.361         0.2021         0.3007        64.2201       75.48686          33.57         0.0239         0.3881          0.241         57.251          0.235         0.1137        -39.125      -13.29129           2841      0.9039758      0.8101244
      6271.0000         0.8604         0.7224          0.727         0.7747         0.7636       4262.836         1.3322         0.3623        61.4594       71.52676          33.38        -0.0297         0.4277          0.236         57.251          0.234         0.1388       -39.5625      -13.90975           2831      0.8197184      0.8012893
      6271.5000         0.8504         0.6916         0.6569         0.6789         0.6637       4266.901         2.1737         0.3564        55.5781       63.09388         34.847        -0.0538         0.4881          0.245          58.36          0.237         0.1165            -42      -17.32821           2827      0.6402953      0.7524542
