#------------------------------------------------------------------------------
# Created by    : vladimir.rabinovich
# Created on    : 09/19/2023 17:19:49
#------------------------------------------------------------------------------
~Version Information Section
VERS.           2.0     :   CWLS log ASCII Standard - VERSION 2.0
WRAP.           NO      :   One line per depth step
~Well Information Section
#MNEM       .UNIT                                         VALUE :DESCRIPTION
#------------------------------------------------------------------------------
STRT        .FT                                             790 :START DEPTH
STOP        .FT                                           12500 :STOP DEPTH
STEP        .FT                                             0.5 :STEP      
NULL        .                                           -999.25 :NULL      
COMP        .                                 CHEVRON U S A INC :COMPANY   
WELL        .                               OCS G04596 ST00BP00 :WELL      
FLD         .                                           WILDCAT :FIELD     
LOC         .                                                   :LOCATION  
CNTY        .                        MUSTANG ISLAND LARGE BLOCK :LOCATION  
STAT        .                                             TEXAS :STATE     
CTRY        .                                     UNITED STATES :COUNTRY   
SRVC        .                                                   :SERVICE COMPANY
DATE        .                             9/13/2023 11:19:13 AM :LOG DATE  
API         .                                    42702401310000 :API NUMBER
UWI         .                                    42702401310000 :UNIQUE WELL ID
XCOORD      .                                  486632.184756912 :SURFACE X 
YCOORD      .                                  10088502.2555927 :SURFACE Y 
LAT         .                                          27.75488 :LATITUDE  
LON         .                                        -96.567316 :LONGITUDE 
ELEV        .FT                                              90 :ELEVATION VALUE
ELEV_TYPE   .                                                KB :ELEVATION REFERENCE TYPE
~Curve Information Section
#MNEM       .UNIT                                      API CODE :CURVE DESCRIPTION
#------------------------------------------------------------------------------
DEPT        .FT                                                 :DEPTH     
ASFL        .OHMM                                               :          
CILD        .MMHO                                               :          
GR          .GAPI                                               :          
GR_NORM     .GAPI                                               :GammaRay Normalized
ILD         .OHMM                                               :          
SP          .MV                                                 :          
SP_NORM     .MV                                                 :SP Normalized
VSH_GR      .V/V                                                :Volume of Shale from GR
VSH_SP      .V/V                                                :Volume of Shale from SP
~A        DEPTH           ASFL           CILD             GR        GR_NORM            ILD             SP        SP_NORM         VSH_GR         VSH_SP
# ...
      2539.0000         0.8644       1174.049        28.4449       36.32227         0.7557      -115.0742       -27.3549      0.0706865              0
      2539.5000         0.9126       1078.963        27.5977       35.16556         0.8327       -114.097       -26.3777     0.04607578     0.02393458
      2540.0000         1.0594       992.4443        26.7506         34.009         0.9098      -112.9819       -25.2626     0.02146806     0.06682293
      2540.5000         1.2109       942.5488        26.1428       33.17849         0.9868      -111.9683        -24.249    0.003797734      0.1058077
      2541.0000         1.5467       895.7236        25.6583         32.516         1.0494       -111.454       -23.7347              0      0.1255883
      2541.5000         1.7098        842.708         25.174       31.85377         1.1087      -110.9993         -23.28              0       0.143077
      2542.0000         1.8116       820.0322        25.4676        32.2515         1.1679       -110.957       -23.2377              0      0.1447038
      2542.5000          1.816       834.3018        25.9608       32.92118         1.2272      -110.9149       -23.1956              0       0.146323
      2543.0000         1.5879       852.0059        26.4542       33.59115         1.2512      -110.8727       -23.1534     0.01257771       0.147946
      2543.5000         1.3337       869.7051        26.5309       33.69333         1.2122      -110.6383        -22.919     0.01475176      0.1569616
      2544.0000         1.1427       887.4033         26.243       33.29871         1.1729      -110.3437       -22.6244     0.00635561      0.1682924
      2544.5000         1.1114        900.082        26.3265       33.41016         1.1337      -110.0492       -22.3299    0.008726729      0.1796191
      2545.0000         1.0951       904.1201        26.9936        34.3168         1.0944      -110.0624       -22.3431     0.02801709      0.1791115
      2545.5000          1.081       1122.049        27.8152       35.43397         1.0535      -110.1831       -22.4638     0.05178655      0.1744693
      2546.0000         1.0696       1329.951        27.5127       35.01945         1.0113      -110.3038       -22.5845     0.04296713      0.1698268
      2546.5000         1.0582       1466.539         26.726       33.94518         0.9692       -110.424       -22.7047     0.02011027      0.1652037
      2547.0000         1.0468       1549.021        26.1363       33.13935          0.927        -110.52       -22.8007    0.002964831      0.1615116
      2547.5000         0.9864       1614.789        25.6572       32.48421           0.85      -110.6162       -22.8969              0      0.1578114
      2548.0000         0.8946       1686.277        25.3714       32.09246           0.77      -110.7123        -22.993              0      0.1541152
      2548.5000         0.8577       1776.264        26.1222       33.11315         0.6816      -110.8085       -23.0892     0.00240748      0.1504153
      2549.0000         0.8273       2144.582        27.0141        34.3261         0.6119      -110.9045       -23.1852     0.02821488      0.1467229
      2549.5000         0.7983       2155.516        28.2611        36.0229         0.5861      -111.0007       -23.2814     0.06431701       0.143023
      2550.0000         0.7724       2164.574        29.0159       37.04904         0.5602      -111.0432       -23.3239     0.08614983      0.1413885
      2550.5000         0.7465       2144.969        29.3819       37.54542         0.5344      -110.8109       -23.0916     0.09671102      0.1503231
      2551.0000         0.7262       2118.066         29.618       37.86479         0.5122      -110.5787       -22.8594      0.1035061      0.1592539
      2551.5000         0.7164       2091.164        29.5935       37.82908         0.4918      -110.3466       -22.6273      0.1027464      0.1681806
      2552.0000         0.7132       2041.516        29.3825       37.53925         0.5028      -110.1144       -22.3951     0.09657969      0.1771114
      2552.5000          0.704       1988.723        28.8438       36.80289         0.5256      -110.0485       -22.3292     0.08091257      0.1796461
      2553.0000         0.6919       1882.047         28.305       36.06641         0.5483      -110.2965       -22.5772     0.06524269      0.1701076
      2553.5000         0.6797       1696.629        27.7343       35.28645         0.5711      -110.5769       -22.8576     0.04864794      0.1593232
      2554.0000          0.669       1598.225        26.9506       34.21627         0.5964      -110.8574       -23.1381     0.02587809      0.1485346
      2554.5000         0.7072       1530.648        27.3013       34.69181         0.6218      -111.1379       -23.4186     0.03599589      0.1377461
      2555.0000         0.7454       1481.125        27.9042       35.51096         0.6472      -111.4185       -23.6992     0.05342475      0.1269537
      2555.5000         0.7882       1435.686        28.5068       36.32972         0.6726      -111.2834       -23.5641     0.07084518      0.1321499
      2556.0000         0.8361       1407.309        29.1094       37.14849          0.698      -110.3708       -22.6515     0.08826568      0.1672501
      2556.5000         0.8841       1405.463         29.832       38.13076         0.7234      -109.4581       -21.7388      0.1091651      0.2023539
      2557.0000         0.9235       1419.014        30.8458        39.5098         0.7488      -108.7279       -21.0086      0.1385065      0.2304385
      2557.5000         0.9609       1432.559        31.7272       40.70844         0.7742      -108.0369       -20.3176      0.1640094      0.2570152
      2558.0000         0.9984       1486.596        31.9605       41.02401          0.774      -107.3462       -19.6269      0.1707235      0.2835808
      2558.5000         1.0373        1574.18        32.1938       41.33957         0.7688      -107.2483        -19.529      0.1774376      0.2873462
      2559.0000         0.9718       1705.246        32.2731       41.44529         0.7325      -107.7249       -20.0056      0.1796871      0.2690154
      2559.5000         0.9337       1793.918        32.0813       41.18162          0.664      -108.4857       -20.7664       0.174077      0.2397537
      2560.0000         0.9147       1836.695        31.8894        40.9178         0.6045      -109.2467       -21.5274      0.1684639      0.2104847
      2560.5000         0.9018        1787.68        31.6976       40.65413         0.5951      -109.9343        -22.215      0.1628538      0.1840383
      2561.0000         0.9005        1724.09        31.5058       40.39047         0.5858      -110.2587       -22.5394       0.157244      0.1715616
      2561.5000         0.9126       1617.785        31.3139       40.12666         0.6085      -110.5829       -22.8636      0.1516311      0.1590922
      2562.0000         0.9451       1499.373        30.5973        39.1479         0.6359      -110.8524       -23.1331      0.1308064      0.1487268
      2562.5000         0.9777       1436.305        29.8293       38.09912         0.6632      -111.0588       -23.3395      0.1084919      0.1407885
      2563.0000         1.0103       1375.637        28.5409       36.34124         0.6905      -111.2653        -23.546      0.0710903      0.1328463
      2563.5000         1.3731       1314.945        26.7487        33.8969         0.7224      -111.4717       -23.7524     0.01908298      0.1249076
      2564.0000         1.4559       1254.279        25.9265       32.77426         0.7643      -111.0548       -23.3355              0      0.1409422
      2564.5000         1.5534       1193.586        26.2784       33.25142         0.8062      -110.4523        -22.733    0.005349423      0.1641153
      2565.0000         1.6593       1114.025        27.6253       35.08435         0.8481      -109.7296       -22.0103     0.04434789      0.1919115
