#------------------------------------------------------------------------------
# Created by    : vladimir.rabinovich
# Created on    : 09/19/2023 17:20:03
#------------------------------------------------------------------------------
~Version Information Section
VERS.           2.0     :   CWLS log ASCII Standard - VERSION 2.0
WRAP.           NO      :   One line per depth step
~Well Information Section
#MNEM       .UNIT                                         VALUE :DESCRIPTION
#------------------------------------------------------------------------------
STRT        .FT                                            3149 :START DEPTH
STOP        .FT                                           10186 :STOP DEPTH
STEP        .FT                                             0.5 :STEP      
NULL        .                                           -999.25 :NULL      
COMP        .                                  SAMEDAN OIL CORP :COMPANY   
WELL        .                                     ST TR 00817-L :WELL      
FLD         .                                           WILDCAT :FIELD     
LOC         .                                                   :LOCATION  
CNTY        .                        MUSTANG ISLAND LARGE BLOCK :LOCATION  
STAT        .                                             TEXAS :STATE     
CTRY        .                                     UNITED STATES :COUNTRY   
SRVC        .                                                   :SERVICE COMPANY
DATE        .                             9/13/2023 11:18:55 AM :LOG DATE  
API         .                                    42702300080000 :API NUMBER
UWI         .                                    42702300080000 :UNIQUE WELL ID
XCOORD      .                                  304914.569303086 :SURFACE X 
YCOORD      .                                  10013906.4088957 :SURFACE Y 
LAT         .                                        27.5345201 :LATITUDE  
LON         .                                       -97.1203623 :LONGITUDE 
ELEV        .FT                                              65 :ELEVATION VALUE
ELEV_TYPE   .                                                KB :ELEVATION REFERENCE TYPE
~Curve Information Section
#MNEM       .UNIT                                      API CODE :CURVE DESCRIPTION
#------------------------------------------------------------------------------
DEPT        .FT                                                 :DEPTH     
ASFL        .OHMM                                               :          
CILD        .MMHO                                               :          
DT          .US/F                                               :          
GR          .GAPI                                               :          
ILD         .OHMM                                               :          
SP          .MV                                                 :          
SP_NORM     .MV                                                 :SP Normalized
VSH_SP      .V/V                                                :Volume of Shale from SP
~A        DEPTH           ASFL           CILD             DT             GR            ILD             SP        SP_NORM         VSH_SP
# ...
      6895.5000         0.8668       1759.127       109.3805        -999.25          0.365       -85.4027      -34.35572       0.549247
      6896.0000         0.8606        1723.42       111.0092        -999.25         0.3875       -63.1054      -12.06609      0.8504583
      6896.5000         0.8544       1702.119         112.05        -999.25          0.419       -57.8715      -6.839851      0.9210831
      6897.0000         0.8499       1680.793        112.621        -999.25         0.4555       -55.9592      -4.935223      0.9468213
      6897.5000         0.8491       1659.271       113.1925        -999.25          0.492       -54.7162      -3.699886       0.963515
      6898.0000         0.8483       1637.604        113.746        -999.25         0.5235       -54.0242      -3.015553      0.9727628
      6898.5000         0.8476       1616.473       114.2017        -999.25         0.5512       -53.7056       -2.70462      0.9769646
      6899.0000         0.8468       1600.307       114.5542        -999.25         0.5789       -53.5475      -2.554184      0.9789975
      6899.5000         0.8479       1584.117       114.7372        -999.25         0.5946       -53.3895      -2.403851       0.981029
      6900.0000         0.8501       1662.084       114.2954        -999.25          0.599       -53.1841       -2.20612      0.9837011
      6900.5000         0.8446       1690.014       114.1133        -999.25         0.6032       -52.9131      -1.942787      0.9872596
      6901.0000         0.8384       1715.766       115.1642        -999.25         0.6008       -52.6423      -1.679649      0.9908155
      6901.5000         0.8269        1741.52       116.4105        -999.25         0.5984       -52.3715      -1.416515      0.9943714
      6902.0000         0.8147       1767.271       117.7167        -999.25          0.596       -52.0829      -1.135586      0.9981678
      6902.5000         0.8025       1793.023       118.8361        -999.25          0.593       -51.7488     -0.8091469              1
      6903.0000         0.7877       1810.852       119.4979        -999.25         0.5894       -51.4146     -0.4826164              1
      6903.5000         0.7693        1792.34       119.7948        -999.25         0.5857       -51.0809     -0.1565819              1
      6904.0000         0.7532       1761.719       118.1737        -999.25          0.582       -50.6428      0.2738495              1
      6904.5000         0.7704       1731.051       115.3522        -999.25         0.5783       -51.0106     -0.1016159              1
      6905.0000         0.7875       1699.895         112.08        -999.25         0.5746       -51.6697      -0.768383              1
      6905.5000         0.8236       1671.182       109.1614        -999.25         0.5762       -52.4016       -1.50795      0.9931358
      6906.0000         0.8474       1652.938       106.3698        -999.25         0.5784       -53.5239      -2.637917       0.977866
      6906.5000         0.8611       1634.668        104.228        -999.25         0.5806       -54.6481      -3.769783      0.9625705
      6907.0000         0.8693       1639.584       103.6241        -999.25         0.5829       -55.8521      -4.981449      0.9461966
      6907.5000         0.8742       1645.949       104.4397        -999.25         0.5851       -57.3231      -6.460117      0.9262146
      6908.0000         0.8683       1655.445       105.1656        -999.25         0.5873       -58.8304      -7.975079      0.9057422
      6908.5000         0.8536       1666.291       105.7745        -999.25           0.59       -60.3613      -9.513649      0.8849507
      6909.0000         0.8431       1677.137       106.0176        -999.25         0.5936        -61.678      -10.83802      0.8670538
      6909.5000         0.8341       1687.984       105.9481        -999.25         0.5972       -62.8675      -12.03518      0.8508759
      6910.0000         0.8251       1698.818       105.8787        -999.25         0.6008       -62.1647      -11.34005      0.8602697
      6910.5000          0.817       1709.664        105.889        -999.25         0.6043        -61.006      -10.18901      0.8758242
      6911.0000         0.8119         1720.4       106.3429        -999.25         0.6079       -59.8437      -9.034382      0.8914273
      6911.5000         0.8068       1709.078       107.0502        -999.25         0.6115        -58.687      -7.885345      0.9069548
      6912.0000         0.8018       1697.754       108.2885        -999.25         0.6149       -57.5392      -6.745213       0.922362
      6912.5000         0.7967        1686.43         109.51        -999.25         0.6142       -56.3924      -5.606079      0.9377557
      6913.0000         0.7916       1686.492       110.6356        -999.25         0.6136       -55.6024       -4.82375      0.9483277
      6913.5000         0.7865       1701.557       111.6367        -999.25         0.6129       -54.7616      -3.990612      0.9595863
      6914.0000         0.7815       1734.279       112.6079        -999.25         0.6122       -53.8998      -3.136478      0.9711286
      6914.5000         0.7755       1767.002       113.3618        -999.25         0.6116       -53.3242      -2.568546      0.9788035
      6915.0000         0.7686       1798.063       113.6865        -999.25         0.6109        -52.886      -2.138016      0.9846214
      6915.5000         0.7617       1828.535       114.0109        -999.25         0.6103       -52.4561      -1.715778      0.9903273
      6916.0000         0.7548       1858.959       114.2838        -999.25         0.6096       -52.1179      -1.385246       0.994794
      6916.5000         0.7479       1881.336       115.8004        -999.25          0.604       -51.9206      -1.195614      0.9973566
      6917.0000         0.7417       1903.689       117.2784        -999.25         0.5975       -51.8317      -1.114376      0.9984544
      6917.5000         0.7359       1926.018       118.7427        -999.25         0.5909       -51.7429      -1.033245      0.9995508
      6918.0000          0.734       1944.727       119.4562        -999.25         0.5844        -51.654     -0.9520111              1
      6918.5000         0.7343       1951.551       119.5048        -999.25         0.5778        -51.565     -0.8706779              1
      6919.0000         0.7347        1920.93       119.3964        -999.25         0.5713       -51.4668     -0.7801437              1
      6919.5000           0.74       1889.529       119.0702        -999.25         0.5672       -51.2938     -0.6148109              1
      6920.0000         0.7453       1848.441       117.8586        -999.25         0.5643       -51.1211     -0.4497795              1
      6920.5000         0.7553       1807.404       116.4043        -999.25         0.5614       -51.0203     -0.3566437              1
      6921.0000         0.7725        1775.17       114.9089        -999.25         0.5585       -50.9322     -0.2762108              1
      6921.5000         0.7896       1743.867       113.2927        -999.25         0.5607       -50.9114     -0.2630768              1
      6922.0000         0.8053       1715.596       111.2881        -999.25         0.5704         -50.99     -0.3493462              1
      6922.5000          0.821       1695.602       109.1676        -999.25         0.5802       -51.0685     -0.4355087              1
      6923.0000         0.8345       1685.207       107.6896        -999.25           0.59        -51.178     -0.5526772              1
      6923.5000         0.8445       1674.826       107.6669        -999.25         0.5988       -51.2885      -0.670845              1
      6924.0000         0.8413         1667.6       108.5786        -999.25         0.6063       -51.3882     -0.7782097              1
      6924.5000         0.8325       1660.611         110.15        -999.25         0.6139       -51.4316     -0.8292732              1
