#------------------------------------------------------------------------------
# Created by    : vladimir.rabinovich
# Created on    : 09/19/2023 17:22:45
#------------------------------------------------------------------------------
~Version Information Section
VERS.           2.0     :   CWLS log ASCII Standard - VERSION 2.0
WRAP.           NO      :   One line per depth step
~Well Information Section
#MNEM       .UNIT                                         VALUE :DESCRIPTION
#------------------------------------------------------------------------------
STRT        .FT                                             270 :START DEPTH
STOP        .FT                                            9392 :STOP DEPTH
STEP        .FT                                             0.5 :STEP      
NULL        .                                           -999.25 :NULL      
COMP        .                                     TALOS ERT LLC :COMPANY   
WELL        .                               OCS G12363 ST00BP00 :WELL      
FLD         .                                 BRAZOS BLOCK 0453 :FIELD     
LOC         .                                                   :LOCATION  
CNTY        .                                BRAZOS LARGE BLOCK :LOCATION  
STAT        .                                             TEXAS :STATE     
CTRY        .                                     UNITED STATES :COUNTRY   
SRVC        .                                                   :SERVICE COMPANY
DATE        .                             9/13/2023 11:19:08 AM :LOG DATE  
API         .                                    42704401340000 :API NUMBER
UWI         .                                    42704401340000 :UNIQUE WELL ID
XCOORD      .                                  788791.944469438 :SURFACE X 
YCOORD      .                                  10354739.7167093 :SURFACE Y 
LAT         .                                         28.507622 :LATITUDE  
LON         .                                        -95.652007 :LONGITUDE 
ELEV        .FT                                             100 :ELEVATION VALUE
ELEV_TYPE   .                                                KB :ELEVATION REFERENCE TYPE
~Curve Information Section
#MNEM       .UNIT                                      API CODE :CURVE DESCRIPTION
#------------------------------------------------------------------------------
DEPT        .FT                                                 :DEPTH     
DPHI        .%                                                  :          
DT          .US/F                                               :          
GR          .GAPI                                               :          
GR_NORM     .GAPI                                               :GammaRay Normalized
ILD         .OHMM                                               :          
ILM         .OHMM                                               :          
LL          .OHMM                                               :          
NPHI        .%                                                  :          
SP          .MV                                                 :          
SP_NORM     .MV                                                 :SP Normalized
VSH_GR      .V/V                                                :Volume of Shale from GR
VSH_SP      .V/V                                                :Volume of Shale from SP
~A        DEPTH           DPHI             DT             GR        GR_NORM            ILD            ILM             LL           NPHI             SP        SP_NORM         VSH_GR         VSH_SP
# ...
      6953.0000        23.0622       113.7863        65.2019       68.57726          0.903         0.8778         0.9673        43.2924       -35.2359        -8.2328       0.756963      0.9532143
      6953.5000        23.2476         117.74        65.1943       68.56771         0.8824         0.8649         0.9709        43.6064       -34.9539        -7.9492      0.7567598        0.96325
      6954.0000        23.5152       120.9149        65.7271       69.23769         0.8717         0.8546         0.9742        42.0421        -34.512        -7.5057      0.7710148      0.9789965
      6954.5000        23.8196        122.066         66.296       69.95307         0.8786         0.8667          0.973        41.2895       -34.0276        -7.0197      0.7862356      0.9962607
      6955.0000        24.3512       119.7169        65.4729       68.91805         0.8869         0.9003         0.9705        42.9445       -33.8801        -6.8705      0.7642137              1
      6955.5000        24.0791       116.9119        65.0038       68.32816         0.8937         0.9248         0.9674        45.5157       -33.8423        -6.8311      0.7516629              1
      6956.0000        23.4835       114.6218         66.342       70.01093         0.9006           0.94         0.9677        47.9735          -33.8        -6.7872      0.7874665              1
      6956.5000        22.8886       115.2794        68.5688       72.81108         0.9115         0.9477         0.9691         49.501       -33.6803        -6.6659      0.8470443              1
      6957.0000        22.4212       115.9207        71.4913       76.48607         0.9247         0.9509         0.9769        47.4354       -33.4569        -6.4409      0.9252355              1
      6957.5000        22.3525       115.4452        70.1735       74.82896         0.9414         0.9538         0.9889        44.6223       -33.3142        -6.2966       0.889978              1
      6958.0000        22.3926       114.5381        68.8358       73.14683         0.9605         0.9563         1.0024        41.7266       -33.1979        -6.1787      0.8541878              1
      6958.5000        22.4255       114.1759        67.8805       71.94556         0.9752         0.9625         1.0192        39.2438       -33.1352        -6.1144      0.8286288              1
      6959.0000        22.3838        113.965        67.4536       71.40874         0.9836         0.9695         1.0456        39.3801       -33.1091        -6.0867      0.8172072              1
      6959.5000        22.2436       113.3801        67.2356       71.13461         0.9925         0.9807         1.0771        39.3013       -33.1381        -6.1141      0.8113747              1
      6960.0000        21.8355       112.5969        67.9674       72.05484          1.009         1.0006          1.095        39.0171       -33.1891        -6.1635       0.830954              1
      6960.5000        21.2697       111.1685        68.6974        72.9728         1.0407         1.0316         1.0929        39.8188       -33.2247        -6.1975      0.8504851              1
      6961.0000        20.5149       108.8021        67.3414       71.26765         1.0635         1.0631         1.0949        40.5294       -33.2217        -6.1928      0.8142052              1
      6961.5000        19.6251       106.8215         65.465       68.90811         1.0643         1.0718         1.1028        40.3923       -33.1334        -6.1029      0.7640024              1
      6962.0000        19.6671       108.0836        64.6198       67.84528         1.0377         1.0723         1.1179        39.4856       -33.0046        -5.9725       0.741389              1
      6962.5000        19.9597       109.0276          64.98       68.29824         1.0323         1.0814         1.1488        39.3094       -32.8439        -5.8102      0.7510264              1
      6963.0000        20.2421       109.4399        64.3369       67.48955         1.0357         1.0965         1.1471        40.5987       -32.6578        -5.6225      0.7338201              1
      6963.5000        20.1206         109.28        63.4103       66.32436          1.046          1.103         1.1249         41.787       -32.4973        -5.4604      0.7090288              1
      6964.0000        19.5919       109.3055        63.2057       66.06708         1.0547         1.0799         1.1067        42.9238       -32.4039        -5.3654      0.7035549              1
      6964.5000        18.9808       109.8053        63.3365       66.23154         1.0641         1.0715         1.1114        43.7841       -32.4086        -5.3685      0.7070541              1
      6965.0000        18.3217       110.7001        63.6987       66.68701         1.0744         1.0684         1.1124        44.6208       -32.5882        -5.5465       0.716745              1
      6965.5000        17.6863       111.5782        64.2548       67.38631         1.0809         1.0688         1.1101        45.0174       -32.7656        -5.7223      0.7316235              1
      6966.0000        17.1452       111.9702        65.3499       68.76338         1.0852         1.0713         1.1018         43.145       -32.8964        -5.8515       0.760923              1
      6966.5000        17.5779       112.3621        69.0049       73.35947         1.0827         1.0671         1.0895        40.9673       -32.9486        -5.9021      0.8587122              1
      6967.0000        18.0165       112.7532        72.3268        77.5367         1.0782         1.0626         1.0808        40.6724       -32.9698        -5.9216      0.9475893              1
      6967.5000        18.3656       112.8087        69.7765       74.32974         1.0705          1.056         1.0763        41.5541       -32.9766        -5.9268      0.8793562              1
      6968.0000        18.5641        111.839        67.1088       70.97517          1.064          1.049         1.0741         42.452       -32.9838        -5.9324      0.8079823              1
      6968.5000        18.9026       110.0125        65.7209        69.2299         1.0577         1.0414         1.0723        43.1066       -32.9867        -5.9337      0.7708489              1
      6969.0000        19.2992       109.9102        67.0438       70.89342         1.0527         1.0345         1.0685        42.4859       -32.9558        -5.9012      0.8062431              1
      6969.5000        19.7895       110.2377         67.543       71.52116         1.0488         1.0301         1.0575        40.9039       -32.9278        -5.8716      0.8195991              1
      6970.0000        20.1752       110.5652        66.9581       70.78565         1.0465         1.0256         1.0485        39.2231        -32.916        -5.8582      0.8039501              1
      6970.5000         19.931       110.6315        67.3978       71.33857          1.047         1.0308         1.0606        39.1155       -32.9184         -5.859      0.8157142              1
      6971.0000        19.4754       110.3624        68.2589       72.42139         1.0477         1.0368         1.0804        39.9308       -32.9688        -5.9078      0.8387529              1
      6971.5000        19.0565       110.0586        68.8499       73.16456         1.0499         1.0419          1.083        39.4959       -33.0414        -5.9788      0.8545651              1
      6972.0000        19.1235       110.3685        68.3728       72.56462         1.0522         1.0386         1.0727        38.7004       -33.1494        -6.0852      0.8418005              1
      6972.5000        19.3737       111.6997        67.8621       71.92242         1.0527         1.0357         1.0594        39.4561       -33.2365        -6.1707      0.8281365              1
      6973.0000        19.6129       112.3831        69.4017       73.85844         1.0514         1.0344         1.0457        39.7568        -33.265        -6.1975      0.8693286              1
