#------------------------------------------------------------------------------
# Created by    : vladimir.rabinovich
# Created on    : 09/19/2023 17:22:21
#------------------------------------------------------------------------------
~Version Information Section
VERS.           2.0     :   CWLS log ASCII Standard - VERSION 2.0
WRAP.           NO      :   One line per depth step
~Well Information Section
#MNEM       .UNIT                                         VALUE :DESCRIPTION
#------------------------------------------------------------------------------
STRT        .FT                                            2180 :START DEPTH
STOP        .FT                                            6738 :STOP DEPTH
STEP        .FT                                             0.5 :STEP      
NULL        .                                           -999.25 :NULL      
COMP        .                          SEAGULL ENERGY E & P INC :COMPANY   
WELL        .                               OCS G08131 ST00BP00 :WELL      
FLD         .                              GALVESTON BLOCK 0384 :FIELD     
LOC         .                                                   :LOCATION  
CNTY        .                             GALVESTON LARGE BLOCK :LOCATION  
STAT        .                                             TEXAS :STATE     
CTRY        .                                     UNITED STATES :COUNTRY   
SRVC        .                                                   :SERVICE COMPANY
DATE        .                             9/13/2023 11:19:36 AM :LOG DATE  
API         .                                    42706401890000 :API NUMBER
UWI         .                                    42706401890000 :UNIQUE WELL ID
XCOORD      .                                  986765.057424596 :SURFACE X 
YCOORD      .                                  10402321.6077632 :SURFACE Y 
LAT         .                                          28.64909 :LATITUDE  
LON         .                                        -95.038398 :LONGITUDE 
ELEV        .FT                                             100 :ELEVATION VALUE
ELEV_TYPE   .                                                KB :ELEVATION REFERENCE TYPE
~Curve Information Section
#MNEM       .UNIT                                      API CODE :CURVE DESCRIPTION
#------------------------------------------------------------------------------
DEPT        .FT                                                 :DEPTH     
CALN        .IN                                                 :          
DRHO        .G/CM3                                              :          
GR          .GAPI                                               :          
GR_NORM     .GAPI                                               :GammaRay Normalized
ILD         .OHMM                                               :          
ILM         .OHMM                                               :          
NPSS        .V/V                                                :Neutron Porosity Sandstone
RHOB        .G/CM3                                              :          
SFL         .OHMM                                               :          
SP          .MV                                                 :          
SP_NORM     .MV                                                 :SP Normalized
TENN        .LB                                                 :          
VSH_GR      .V/V                                                :Volume of Shale from GR
VSH_SP      .V/V                                                :Volume of Shale from SP
~A        DEPTH           CALN           DRHO             GR        GR_NORM            ILD            ILM           NPSS           RHOB            SFL             SP        SP_NORM           TENN         VSH_GR         VSH_SP
# ...
      6410.0000        10.9796        -0.0029             83         70.325         0.7775         0.8146         0.3318         2.2816         0.8221        -30.204      -16.61177       3020.889      0.7941489      0.7626891
      6410.5000          10.98        -0.0029           84.6         71.765         0.7774         0.8146         0.3372         2.2776         0.7924          -29.4      -15.80777       3020.408      0.8247872      0.7741747
      6411.0000          10.94         -0.002           83.8       71.04501         0.7849          0.822         0.3372         2.2704         0.7924          -28.8      -15.20777       2979.592      0.8094682      0.7827462
      6411.5000          10.88         -0.001           81.8         69.245         0.7924         0.8295         0.3282         2.2704         0.7924          -28.6      -15.00777       3020.408      0.7711703      0.7856033
      6412.0000          10.86          0.001        79.5918       67.25761            0.8         0.8295         0.3276         2.2827         0.8295          -28.6      -15.00777       3061.225      0.7288854      0.7856033
      6412.5000          10.88          0.004        76.3265       64.31885            0.8         0.8371         0.3474          2.302         0.8601          -27.8      -14.20777       3061.225      0.6663585      0.7970319
      6413.0000          10.86          0.005        74.6939       62.84951         0.8073         0.8371         0.3778          2.316         0.8919          -26.4      -12.80777       3061.225       0.635096      0.8170319
      6413.5000           10.8          0.004        76.1224       64.13516         0.8073         0.8371         0.4068          2.304         0.9087          -25.6      -12.00777       3061.225      0.6624503      0.8284605
      6414.0000          10.76          0.002        78.1633       65.97197            0.8         0.8295         0.4056         2.2684         0.8524          -25.8      -12.20777       3102.041      0.7015313      0.8256034
      6414.5000          10.74              0           80.8         68.345         0.7924         0.8295         0.3851          2.243         0.8146            -27      -13.40777       3061.225      0.7520213      0.8084605
      6415.0000          10.78         -0.002           81.6         69.065         0.7924         0.8295         0.3735          2.226            0.8          -28.4      -14.80777       3061.225      0.7673405      0.7884605
      6415.5000          10.92        -0.0029             81         68.525         0.7849         0.8295         0.3888          2.231         0.7849          -27.8      -14.20777       3061.225      0.7558511      0.7970319
      6416.0000          11.12        -0.0039             80         67.625         0.7774         0.8146          0.402           2.24         0.7774          -26.6      -13.00777       3102.041      0.7367021      0.8141748
      6416.5000          11.18        -0.0039           80.8         68.345         0.7701         0.8073         0.4152         2.2531         0.7342          -24.2      -10.60777       3142.857      0.7520213      0.8484605
      6417.0000          11.18        -0.0029           83.2         70.505         0.7701         0.8073         0.4353         2.2622            0.7          -22.8      -9.207766       3061.225      0.7979786      0.8684605
      6417.5000          11.02         -0.002           84.8         71.945         0.7774         0.8073         0.4488         2.2684            0.7            -22      -8.407766       3061.225       0.828617      0.8798891
      6418.0000          10.92         -0.001           83.8       71.04501         0.7849         0.8073         0.4396         2.2755         0.7342          -22.4      -8.807766       3142.857      0.8094682      0.8741748
      6418.5000          10.84              0           83.8       71.04501         0.7924         0.8146         0.4188         2.2827         0.7849          -23.2      -9.607767        3224.49      0.8094682      0.8627462
      6419.0000          10.84          0.001           85.2         72.305            0.8          0.822          0.399         2.2867         0.8371          -24.2      -10.60777       3265.306      0.8362766      0.8484605
      6419.5000          10.84          0.002           86.4         73.385         0.8146          0.822           0.39         2.2867         0.8919          -23.8      -10.20777        3224.49      0.8592554      0.8541748
      6420.0000          10.82          0.002           87.6         74.465            0.8          0.822         0.3948         2.2847         0.9352          -23.2      -9.607767       3183.674       0.882234      0.8627462
      6420.5000           10.8          0.005           88.8       75.54501         0.7924          0.822         0.4068         2.2837         0.8838          -21.8      -8.207766       3183.674      0.9052129      0.8827462
      6421.0000          10.76          0.008             90         76.625         0.7849         0.8146         0.4134         2.2857         0.8146            -21      -7.407766       3183.674      0.9281915      0.8941748
      6421.5000          10.66          0.009        90.9804       77.50736         0.7774         0.8073          0.411         2.2857         0.7555          -20.6      -7.007767       3142.857      0.9469652      0.8998891
      6422.0000          10.58          0.007        92.3529       78.74261         0.7701         0.8073         0.4044         2.2837         0.7849          -20.2      -6.607767       3142.857      0.9732469      0.9056033
      6422.5000          10.54          0.003        94.1176       80.33084         0.7627            0.8         0.4092         2.2755            0.8       -19.8039      -6.211666       3142.857              1      0.9112619
      6423.0000          10.52              0        92.9412       79.27208         0.7627         0.7924         0.4128         2.2633         0.7849            -20      -6.407766       3142.857      0.9845123      0.9084605
      6423.5000          10.54        -0.0029        90.7843       77.33087         0.7555         0.7849         0.4098          2.252         0.7342          -21.6      -8.007767       3102.041        0.94321      0.8856033
      6424.0000          10.56        -0.0069           88.2         75.005         0.7483         0.7774         0.4086           2.25         0.7203          -23.4      -9.807766       3102.041      0.8937234       0.859889
      6424.5000          10.76        -0.0029           86.2       73.20499         0.7412         0.7849         0.4188         2.2602         0.7483          -26.4      -12.80777       3183.674      0.8554254      0.8170319
      6425.0000          11.16          0.004           85.6         72.665         0.7342         0.7849         0.4249         2.2694            0.8          -26.6      -13.00777       3183.674      0.8439362      0.8141748
      6425.5000          10.92          0.003           88.6         75.365         0.7272         0.7849         0.4231         2.2684          0.822          -25.4      -11.80777       3142.857      0.9013829      0.8313176
      6426.0000          10.68          0.001        91.7647       78.21323         0.7203         0.7774         0.4176         2.2622         0.7342            -24      -10.40777       3102.041      0.9619837      0.8513176
      6426.5000          10.62         -0.001        92.9412       79.27208         0.7135         0.7483          0.411         2.2612         0.6937          -22.6      -9.007767       3102.041      0.9845123      0.8713176
      6427.0000           10.6         -0.001           89.6         76.265            0.7         0.7483          0.405         2.2653         0.7203          -21.2      -7.607767       3102.041      0.9205319      0.8913176
      6427.5000          10.58          0.004           86.4         73.385            0.7         0.7342         0.3966         2.2724         0.7412          -21.4      -7.807766       3102.041      0.8592554      0.8884605
