#------------------------------------------------------------------------------
# Created by    : vladimir.rabinovich
# Created on    : 09/19/2023 17:20:54
#------------------------------------------------------------------------------
~Version Information Section
VERS.           2.0     :   CWLS log ASCII Standard - VERSION 2.0
WRAP.           NO      :   One line per depth step
~Well Information Section
#MNEM       .UNIT                                         VALUE :DESCRIPTION
#------------------------------------------------------------------------------
STRT        .FT                                            1092 :START DEPTH
STOP        .FT                                            8058 :STOP DEPTH
STEP        .FT                                             0.5 :STEP      
NULL        .                                           -999.25 :NULL      
COMP        .                                    EXXON CO U S A :COMPANY   
WELL        .                               OCS G03029 ST00BP00 :WELL      
FLD         .                                           WILDCAT :FIELD     
LOC         .                                                   :LOCATION  
CNTY        .                        MUSTANG ISLAND LARGE BLOCK :LOCATION  
STAT        .                                             TEXAS :STATE     
CTRY        .                                     UNITED STATES :COUNTRY   
SRVC        .                                                   :SERVICE COMPANY
DATE        .                             9/13/2023 11:19:13 AM :LOG DATE  
API         .                                    42702400190000 :API NUMBER
UWI         .                                    42702400190000 :UNIQUE WELL ID
XCOORD      .                                  486295.566528254 :SURFACE X 
YCOORD      .                                  10047803.1546112 :SURFACE Y 
LAT         .                                         27.643077 :LATITUDE  
LON         .                                        -96.564717 :LONGITUDE 
ELEV        .FT                                              70 :ELEVATION VALUE
ELEV_TYPE   .                                                KB :ELEVATION REFERENCE TYPE
~Curve Information Section
#MNEM       .UNIT                                      API CODE :CURVE DESCRIPTION
#------------------------------------------------------------------------------
DEPT        .FT                                                 :DEPTH     
ASN         .OHMM                                               :          
CALI        .IN                                                 :          
CIL         .MMHO                                               :          
DRHO        .G/C3                                               :          
DT          .US/F                                               :          
GR          .GAPI                                               :          
GR_NORM     .GAPI                                               :GammaRay Normalized
ILD         .OHMM                                               :          
NPHI        .%                                                  :          
RHOB        .G/C3                                               :          
SN          .OHMM                                               :          
SP          .MV                                                 :          
SP_NORM     .MV                                                 :SP Normalized
VSH_GR      .V/V                                                :Volume of Shale from GR
VSH_SP      .V/V                                                :Volume of Shale from SP
~A        DEPTH            ASN           CALI            CIL           DRHO             DT             GR        GR_NORM            ILD           NPHI           RHOB             SN             SP        SP_NORM         VSH_GR         VSH_SP
# ...
      6226.0000         1.1681        12.9023       1106.773         0.0725       125.7922        84.7074       82.28204         0.8325        37.7516         2.3707         1.1472       -70.8373      -2.413338              1      0.9903875
      6226.5000         1.1674        12.9208       1101.645         0.0715       126.2246        85.6299       83.03253         0.8351        37.9468         2.3754         1.1441       -71.3096      -2.893967              1      0.9792101
      6227.0000         1.1663        12.9557       1093.518          0.061       126.6028        86.7192       83.91879         0.8365        38.2961         2.3642          1.144       -71.8828      -3.475487              1      0.9656864
      6227.5000         1.1637        13.0287       1092.604         0.0554       126.9352        87.2709       84.36744         0.8345         38.853         2.3619         1.1455       -72.0608      -3.661819              1      0.9613531
      6228.0000         1.1612        13.0886       1093.045         0.0542        127.113        86.0143       83.34422         0.8319        39.5495         2.3576         1.1447       -71.5997      -3.209045              1      0.9718826
      6228.5000         1.1606        13.1088       1100.119         0.0593       127.0261         84.181       81.85162         0.8283        38.9736         2.3545         1.1422       -71.0032      -2.620872              1      0.9855611
      6229.0000         1.1633        13.1434        1112.59         0.0601       126.3563        84.5367       82.14074         0.8229        39.9921         2.3576         1.1359       -70.7256      -2.351608              1      0.9918231
      6229.5000          1.166        13.1889       1126.971         0.0639       125.5286        84.7744       82.33382         0.8155        40.6191         2.3582         1.1245       -71.0649      -2.699234              1      0.9837387
      6230.0000         1.1613         13.192       1142.852         0.0696       125.7991        83.6045       81.38118         0.8065        40.2101         2.3548          1.112       -71.5454      -3.188065              1      0.9723706
      6230.5000         1.1548         13.128       1160.205         0.0732       126.6438        83.9865       81.69172         0.7963        40.0782         2.3543         1.0985       -71.8153      -3.466286              1      0.9659004
      6231.0000         1.1483        12.9856       1179.121         0.0704        127.777        84.1636       81.83547         0.7788        40.5166         2.3608         1.0855       -71.1361      -2.795418              1      0.9815019
      6231.5000         1.1376        12.8889       1200.762         0.0641       129.0176        85.8944       83.24387         0.7591        40.5582         2.3546         1.0728       -70.4866      -2.154251              1      0.9964128
      6232.0000         1.1266        12.9362       1224.713         0.0592       130.2571        87.3757        84.4492         0.7437        41.2421         2.3487         1.0613       -70.9608      -2.636772              1      0.9851913
      6232.5000         1.1146         13.006       1233.547         0.0543       131.3323        88.0596       85.00548         0.7305        42.0966         2.3396         1.0507       -71.6337      -3.318001              1      0.9693488
      6233.0000          1.104        13.0149       1243.742         0.0549        132.031        85.7971       83.16349         0.7226        42.5317         2.3351         1.0422       -72.0243      -3.716927              1      0.9600715
      6233.5000         1.0947        12.9233       1257.023         0.0539       132.3979        83.5808       81.35914         0.7159        42.8663         2.3368         1.0432       -72.0355      -3.736458              1      0.9596173
      6234.0000          1.085        12.7086       1269.631         0.0485       132.5654         83.068       80.94135         0.7127        42.7253         2.3419         1.0494       -71.8392      -3.548492              1      0.9639885
      6234.5000         1.0708        12.5062       1280.813         0.0451       132.6968        83.9203        81.6347         0.7094        41.8787         2.3469          1.054       -71.6019      -3.319511              1      0.9693137
      6235.0000         1.0612        12.4456        1292.82         0.0454       132.8682        84.3046        81.9471         0.7047        41.1215         2.3484         1.0428       -71.3707      -3.096642              1      0.9744967
      6235.5000         1.0586        12.7191       1313.836         0.0456       133.1313         80.521       78.86702         0.6989        40.4138         2.3467         1.0265       -71.1704      -2.904678       0.975894       0.978961
      6236.0000         1.0601        13.0603       1334.227          0.043       133.6111        78.3721       77.11751         0.6919        40.5201         2.3506         1.0127       -71.0283      -2.770897      0.9386704      0.9820722
      6236.5000         1.0615         13.258       1353.643         0.0401       134.7651        80.0018       78.44361         0.6796         41.684         2.3495         1.0064       -71.0399      -2.790833      0.9668853      0.9816086
      6237.0000          1.056        13.3687       1379.506         0.0379        135.719        81.9186       80.00342         0.6674        42.2662         2.3488         1.0011        -71.191      -2.950256              1       0.977901
      6237.5000         1.0487        13.3992       1409.418         0.0424       135.5332        83.7855        81.5226         0.6531        42.1584         2.3493         0.9962       -71.4365      -3.204086              1       0.971998
      6238.0000         1.0412        13.4122       1433.508         0.0434       135.2048        85.0496       82.55112         0.6415        42.2917         2.3539         0.9945       -71.4556      -3.231514              1      0.9713601
      6238.5000         1.0326        13.4338       1434.525         0.0409        134.998        85.1385        82.6231         0.6318        41.6495         2.3499          0.994       -70.5096      -2.293839              1      0.9931666
      6239.0000         1.0279        13.4717       1422.861         0.0386        135.156        84.1998       81.85865          0.637         41.181         2.3463         0.9957       -70.8179      -2.610474              1      0.9858029
      6239.5000         1.0251        13.4794       1401.896         0.0377       135.7363        82.0908       80.14161         0.6432        41.2174         2.3446         0.9985        -71.349      -3.149895              1      0.9732583
      6240.0000         1.0239        13.3766       1385.572         0.0371       135.6128        80.1516       78.56279         0.6513        40.6198         2.3429         1.0026       -71.2911      -3.100327      0.9694211       0.974411
      6240.5000         1.0229        13.2206       1384.867         0.0376        134.855         78.598       77.29784         0.6581        39.8311         2.3409         1.0087       -70.9384      -2.755959      0.9425071      0.9824196
      6241.0000         1.0248        13.1114       1390.107         0.0401       133.7966        77.3364       76.27056         0.6589        40.2996         2.3463         1.0184       -70.4454      -2.271278      0.9206502      0.9936912
      6241.5000         1.0267        13.2295       1383.979         0.0419       133.0979        77.4275       76.34431         0.6597        40.1798         2.3533          1.028       -70.1503      -1.984512      0.9222193              1
      6242.0000         1.0286         13.422       1365.188          0.042       133.4375        77.6284       76.50744         0.6612        40.9575         2.3549         1.0328       -70.9152      -2.757736      0.9256902      0.9823782
      6242.5000         1.0319        13.5302       1346.158         0.0409        134.144        75.8788       75.08294         0.6627        41.5433         2.3549         1.0377        -70.871       -2.72187      0.8953817      0.9832123
