#------------------------------------------------------------------------------
# Created by    : vladimir.rabinovich
# Created on    : 09/19/2023 17:22:30
#------------------------------------------------------------------------------
~Version Information Section
VERS.           2.0     :   CWLS log ASCII Standard - VERSION 2.0
WRAP.           NO      :   One line per depth step
~Well Information Section
#MNEM       .UNIT                                         VALUE :DESCRIPTION
#------------------------------------------------------------------------------
STRT        .FT                                            1687 :START DEPTH
STOP        .FT                                            6155 :STOP DEPTH
STEP        .FT                                             0.5 :STEP      
NULL        .                                           -999.25 :NULL      
COMP        .                       AMERICAN COASTAL ENERGY INC :COMPANY   
WELL        .                                ST TR 00596-L NE/4 :WELL      
FLD         .                        SHERMAN OFFSHORE SOUTHWEST :FIELD     
LOC         .                                                   :LOCATION  
CNTY        .                      MATAGORDA ISLAND LARGE BLOCK :LOCATION  
STAT        .                                             TEXAS :STATE     
CTRY        .                                     UNITED STATES :COUNTRY   
SRVC        .                                                   :SERVICE COMPANY
DATE        .                             9/13/2023 11:12:01 AM :LOG DATE  
API         .                                    42703302820000 :API NUMBER
UWI         .                                    42703302820000 :UNIQUE WELL ID
XCOORD      .                                  484247.709270029 :SURFACE X 
YCOORD      .                                   10242127.767654 :SURFACE Y 
LAT         .                                        28.1765839 :LATITUDE  
LON         .                                       -96.5886238 :LONGITUDE 
ELEV        .FT                                              79 :ELEVATION VALUE
ELEV_TYPE   .                                                KB :ELEVATION REFERENCE TYPE
~Curve Information Section
#MNEM       .UNIT                                      API CODE :CURVE DESCRIPTION
#------------------------------------------------------------------------------
DEPT        .FT                                                 :DEPTH     
CILD        .MMHO                                               :          
DT          .US/F                                               :          
ILD         .OHMM                                               :          
SN          .OHMM                                               :          
SP          .MV                                                 :          
SP_NORM     .MV                                                 :SP Normalized
VSH_SP      .V/V                                                :Volume of Shale from SP
~A        DEPTH           CILD             DT            ILD             SN             SP        SP_NORM         VSH_SP
# ...
      3161.0000       1125.252       120.0834          0.928         1.1942       -32.3483        -4.4179      0.9727327
      3161.5000       1177.028       121.2782         0.8987         1.1779       -32.2478        -4.3222      0.9745731
      3162.0000       1212.876        122.672         0.8577         1.1513       -32.3463        -4.4255      0.9725865
      3162.5000       1224.835       121.8758         0.8558         1.1408       -33.3413        -5.4253      0.9533596
      3163.0000       1212.904       119.8852         0.8538         1.1408       -35.1332         -7.222      0.9188077
      3163.5000       1181.065       115.7048         0.8538         1.1619       -37.9209       -10.0145      0.8651057
      3164.0000       1177.098       108.0412         0.8578          1.178       -40.4098       -12.5082        0.81715
      3164.5000       1189.057       108.6386         0.8737         1.1999       -39.7118        -11.815      0.8304808
      3165.0000       1189.071       110.5295         0.9029         1.2794       -36.5235        -8.6315      0.8917019
      3165.5000       1129.362       114.7103         0.9496         1.3706       -34.1322         -6.245      0.9375961
      3166.0000       1045.766       121.3801         1.0126         1.3896       -32.5375        -4.6551      0.9681712
      3166.5000       998.0037       120.6834         1.0699         1.3706       -32.0385        -4.1609       0.977675
      3167.0000       958.2031       115.7064         1.0898         1.3769       -32.6352        -4.7624      0.9661077
      3167.5000           1006       110.1326         1.0505         1.3644       -33.7297        -5.8617      0.9449673
      3168.0000       1057.769       106.2515         1.0173         1.2679       -34.3263        -6.4631      0.9334019
      3168.5000       1085.653       110.9294         0.9852         1.1728       -34.3253        -6.4669      0.9422184
      3169.0000       1097.612        116.645         0.9541         1.1568       -33.9259        -6.0723       0.948795
      3169.5000       1113.551       123.8692         0.9197         1.1568       -33.7257        -5.8769      0.9520516
      3170.0000       1177.266       132.6282         0.8907          1.105       -33.2267        -5.3827      0.9602883
      3170.5000       1233.018       133.4245         0.8164         1.0603       -33.6241        -5.7849       0.953585
      3171.0000       1332.563       134.0219         0.7762         1.0174       -33.8223        -5.9879      0.9502017
      3171.5000       1392.295       134.4201         0.7517         0.9944       -34.3193        -6.4897      0.9418383
      3172.0000       1392.308       134.0221         0.7483         0.9853       -34.9159        -7.0911       0.931815
      3172.5000       1376.396       133.6241         0.7552         0.9542       -34.3174        -6.4974        0.94171
      3173.0000       1332.616       133.6242         0.7799         0.9198       -33.7188        -5.9036      0.9516067
      3173.5000       1292.818       133.6244         0.8016         0.9199       -33.7178        -5.9075      0.9515417
      3174.0000       1276.907       133.6245         0.8202         0.9157       -34.0156        -6.2101      0.9464983
      3174.5000       1288.864       132.4303         0.8017         0.9157       -36.0066        -8.2059       0.913235
      3175.0000       1344.613       130.4399         0.7622         0.9115       -39.3921       -11.5962        0.85673
      3175.5000       1440.171       128.0514         0.7116         0.9115       -44.3712       -16.5801       0.773665
      3176.0000       1571.559        126.061         0.6374         0.9074       -48.9521       -21.1658      0.6972367
      3176.5000        1683.04       123.8716         0.5923         0.9032       -60.7038       -32.9223       0.501295
      3177.0000       1754.709       123.4736         0.5736         0.9074       -69.4678       -41.6911      0.3551483
      3177.5000       1806.471       120.0901          0.553         0.9116       -74.2476       -46.4757       0.275405
      3178.0000       1878.142       118.4979         0.5331         0.9116       -74.7446       -46.9775      0.2670417
      3178.5000       2013.505       116.9063         0.5022         0.9074       -74.0466       -46.2843       0.278595
      3179.0000       2152.848        117.205         0.4561         0.9074       -76.7347       -48.9772      0.2337133
      3179.5000       2328.017       118.1009         0.4162         0.8992       -79.8214       -52.0687      0.1821883
      3180.0000       2443.471        119.693         0.3832         0.8869        -82.908       -55.1601       0.130665
      3180.5000       2646.503       123.0769         0.3561         0.8628       -85.7955       -58.0524     0.08246002
      3181.0000       2968.959       124.4709          0.319         0.8511       -86.9897       -59.2514     0.06247667
      3181.5000       3255.584       125.1875          0.291         0.8395       -88.3831       -60.6496     0.03917332
      3182.0000       3430.744       125.2669         0.2792         0.8167       -88.9806       -61.2519     0.02913501
      3182.5000       3522.305       125.2671         0.2729          0.813       -88.8796       -61.1557     0.03073832
      3183.0000       3418.807       125.0682         0.2857         0.7982       -88.0818       -60.3627     0.04395498
      3183.5000       3243.657       125.0684         0.2978         0.7659       -85.8895       -58.1752     0.08041331
      3184.0000       3112.296       125.4666         0.3161         0.7183       -80.9079       -53.1984        0.16336
      3184.5000       2988.901        126.661         0.3294         0.6957       -73.5365       -45.8318      0.2861367
      3185.0000       3013.273       127.0592         0.3205         0.6893       -67.3598       -39.6599      0.3890017
      3185.5000       3112.309       129.0497         0.3118         0.6957       -68.9528       -41.2577      0.3623716
      3186.0000       3199.888        129.647         0.3062         0.7151       -73.0355       -45.3452      0.2942467
      3186.5000       3279.505       129.0501         0.2965         0.7418        -77.915       -50.2295      0.2128417
      3187.0000       3307.372       127.0599         0.2965         0.7696       -79.2088       -51.5281      0.1911983
      3187.5000       3183.993       123.4775         0.3104          0.791       -78.5106       -50.8347       0.202755
      3188.0000       3020.778       119.6962         0.3295         0.8168       -76.0196       -48.3485      0.2441917
      3188.5000        2714.28       113.7255         0.3816         0.8435        -69.146       -41.4797      0.3586717
      3189.0000       2391.863       112.7307         0.4521         0.8513       -61.2766       -33.6151      0.4897483
      3189.5000       2037.605       118.1691         0.5926         0.8953       -53.1082       -25.4515      0.6258084
      3190.0000       1794.801       124.4736         0.6344         1.0134       -45.8362       -18.1843      0.7469283
      3190.5000       1448.515       133.2313         0.7419         1.0905        -43.246       -15.5989      0.7900183
      3191.0000       1349.016       131.5397         0.7875         1.1261        -45.038       -17.3957      0.7600716
      3191.5000       1345.049       124.2751         0.8058         1.1735       -50.7138       -23.0763       0.665395
      3192.0000       1360.984       114.6233         0.7948         1.2343       -53.5021       -25.8694      0.6188433
      3192.5000       1345.075       112.9313         0.7798         1.2514       -53.0031       -25.3752        0.62708
      3193.0000       1293.344       112.9314         0.8201         1.1953       -48.1212       -20.4981       0.708365
      3193.5000       1225.691       112.1357         0.8866          1.179       -44.4347       -16.8164      0.7697266
      3194.0000       1185.899       111.7379         0.8988         1.1629       -45.3303       -17.7168        0.75472
