#------------------------------------------------------------------------------
# Created by    : vladimir.rabinovich
# Created on    : 09/19/2023 17:22:30
#------------------------------------------------------------------------------
~Version Information Section
VERS.           2.0     :   CWLS log ASCII Standard - VERSION 2.0
WRAP.           NO      :   One line per depth step
~Well Information Section
#MNEM       .UNIT                                         VALUE :DESCRIPTION
#------------------------------------------------------------------------------
STRT        .FT                                             456 :START DEPTH
STOP        .FT                                           11667 :STOP DEPTH
STEP        .FT                                             0.5 :STEP      
NULL        .                                           -999.25 :NULL      
COMP        .                              PATRICK PETROLEUM CO :COMPANY   
WELL        .                                     ST TR 00693-L :WELL      
FLD         .                                           WILDCAT :FIELD     
LOC         .                                                   :LOCATION  
CNTY        .                      MATAGORDA ISLAND LARGE BLOCK :LOCATION  
STAT        .                                             TEXAS :STATE     
CTRY        .                                     UNITED STATES :COUNTRY   
SRVC        .                                                   :SERVICE COMPANY
DATE        .                             9/13/2023 11:12:01 AM :LOG DATE  
API         .                                    42703302660000 :API NUMBER
UWI         .                                    42703302660000 :UNIQUE WELL ID
XCOORD      .                                  384413.417453263 :SURFACE X 
YCOORD      .                                  10143960.4717662 :SURFACE Y 
LAT         .                                        27.8986234 :LATITUDE  
LON         .                                       -96.8882217 :LONGITUDE 
ELEV        .FT                                              92 :ELEVATION VALUE
ELEV_TYPE   .                                                KB :ELEVATION REFERENCE TYPE
~Curve Information Section
#MNEM       .UNIT                                      API CODE :CURVE DESCRIPTION
#------------------------------------------------------------------------------
DEPT        .FT                                                 :DEPTH     
CILD        .MMHO                                               :          
DPHI        .%                                                  :          
DT          .US/F                                               :          
GR          .GAPI                                               :          
GR_NORM     .GAPI                                               :GammaRay Normalized
ILD         .OHMM                                               :          
SN          .OHMM                                               :          
SP          .MV                                                 :          
SP_NORM     .MV                                                 :SP Normalized
VSH_GR      .V/V                                                :Volume of Shale from GR
VSH_SP      .V/V                                                :Volume of Shale from SP
~A        DEPTH           CILD           DPHI             DT             GR        GR_NORM            ILD             SN             SP        SP_NORM         VSH_GR         VSH_SP
# ...
      8646.0000       1571.876        -999.25       134.6984         69.899       73.35943         0.5477         0.7196       -19.4059      -2.684727      0.8587112      0.9693686
      8646.5000         1573.6        -999.25          134.4          71.04       74.57031         0.5502         0.7196       -19.4851      -2.759584      0.8844748      0.9680076
      8647.0000         1583.6        -999.25         135.21          72.17        75.7695         0.5497         0.7196       -19.6238       -2.89394      0.9099894      0.9655647
      8647.5000         1595.6        -999.25         136.03           72.7       76.33039         0.5408         0.7163       -20.0505      -3.316296      0.9219232      0.9578856
      8648.0000       1601.951        -999.25       136.5273          72.48       76.09341         0.5314         0.7107          -20.6       -3.86145      0.9168811      0.9479736
      8648.5000       1608.224        -999.25         137.18           72.2        75.7926         0.5267         0.7097       -19.3501      -2.607204      0.9104809      0.9707781
      8649.0000       1610.049        -999.25         138.51          72.61       76.22583         0.5257          0.712       -18.8256      -2.078362      0.9196985      0.9803934
      8649.5000       1606.176        -999.25         139.74          73.63       77.30799         0.5296          0.713       -18.7148      -1.963217      0.9427232       0.982487
      8650.0000        1599.14        -999.25        140.099        74.3618       78.08357         0.5371         0.7142       -18.2778      -1.521872      0.9592249      0.9905114
      8650.5000         1589.2        -999.25         139.66        75.0575       78.82074         0.5467         0.7127          -17.7     -0.9397278      0.9749094              1
      8651.0000           1580        -999.25         139.24        76.0203       79.84205          0.553         0.6993          -17.2     -0.4353828      0.9966393              1
      8651.5000         1571.2        -999.25         139.46        76.4768       80.32475         0.5586         0.6906       -17.8545      -1.085539              1      0.9984447
      8652.0000       1561.455        -999.25       140.2786        74.7857       78.52277         0.5624           0.68       -19.8977      -3.124393      0.9685695      0.9613746
      8652.5000           1552        -999.25       141.7327        72.9293       76.54493         0.5586          0.665       -20.6931      -3.915449      0.9264879      0.9469919
      8653.0000           1544        -999.25       143.1287         71.798       75.33847         0.5497         0.6515       -19.7392      -2.957205      0.9008185      0.9644145
      8653.5000         1574.4        -999.25       144.5743        71.6162       75.14214         0.5354         0.6427          -19.3      -2.513659      0.8966412      0.9724789
      8654.0000       1631.636        -999.25       146.1656        73.3701       77.00505         0.5138         0.6273       -19.3455      -2.554817      0.9362777      0.9717306
      8654.5000         1700.4        -999.25       147.5446             77        80.8637         0.4941         0.6185          -18.9      -2.104971              1      0.9799096
      8655.0000         1762.4        -999.25       149.0495        79.7778       83.81586         0.4747         0.6122         -18.91      -2.110626              1      0.9798068
      8655.5000           1802        -999.25       150.3402        80.5455       84.62963         0.4471         0.6037         -19.38      -2.576281              1      0.9713404
      8656.0000       1862.182        -999.25       150.9727        80.9091        85.0135         0.4218         0.6008          -19.5      -2.691936              1      0.9692375
      8656.5000         1950.8        -999.25         150.88        80.1313       84.18311         0.4039         0.6028         -19.36      -2.547594              1      0.9718619
      8657.0000         2006.8        -999.25         150.23        79.5353       83.54613         0.3945         0.6028         -18.59      -1.773249              1      0.9859409
      8657.5000         2067.2        -999.25        149.901        79.2727       83.26382         0.3826         0.6031         -18.51      -1.688904              1      0.9874745
      8658.0000       2134.909        -999.25       150.1124        79.0909       83.06748         0.3742         0.6081       -19.5363      -2.710859              1      0.9688935
      8658.5000         2192.4        -999.25       150.3366        79.3131       83.30093         0.3679         0.6158       -20.9935      -4.163713              1      0.9424779
      8659.0000         2226.8        -999.25       149.8508        79.9995       84.02819         0.3673          0.629       -20.3978      -3.563671              1      0.9533878
      8659.5000           2244        -999.25       148.7374        80.4011       84.45249         0.3873         0.6364         -18.99      -2.151525              1      0.9790632
      8660.0000       2210.909        -999.25       147.2071        80.4001       84.44849         0.4045           0.64       -17.6727     -0.8298817              1              1
      8660.5000         2145.2        -999.25         144.99          80.31       84.34969         0.4226         0.6499         -17.69     -0.8428364              1              1
      8661.0000         2045.6        -999.25         142.96        79.8382       83.84484         0.4392         0.6693          -17.4     -0.5484924              1              1
      8661.5000           1972        -999.25         141.49        78.8485       82.78903         0.4499         0.6839            -18      -1.144148              1      0.9973791
      8662.0000       1906.909        -999.25       140.6636        77.0707       80.89481         0.4615         0.6985          -18.1      -1.239803              1      0.9956399
      8662.5000         1851.6        -999.25         140.15             76       79.75283         0.4743         0.7084         -18.16      -1.295458      0.9947411       0.994628
      8663.0000         1804.8        -999.25        139.802        75.8687       79.61021         0.4852          0.713         -18.88      -2.011112      0.9917067      0.9816161
      8663.5000         1764.8        -999.25       140.2902         76.202       79.96185         0.4939          0.713         -21.02       -4.14677      0.9991882       0.942786
      8664.0000         1734.8        -999.25         141.42        76.0909       79.84071         0.5035          0.713       -20.9545      -4.076925      0.9966108      0.9440559
      8664.5000         1701.6        -999.25            142        75.4242       79.12852         0.5128          0.713         -19.79      -2.908081      0.9814578      0.9653076
      8665.0000         1664.8        -999.25          141.1        74.7842       78.44473         0.5169          0.713         -19.64      -2.753735      0.9669092      0.9681139
      8665.5000         1637.2        -999.25       139.3432        74.3535       77.98359         0.5215          0.713         -19.76       -2.86939      0.9570976      0.9660111
      8666.0000       1613.455        -999.25       137.5247        74.2424       77.86246         0.5316          0.713         -20.55      -3.655046      0.9545205      0.9517264
      8666.5000         1595.2        -999.25       137.4257        74.4545       78.08516         0.5434         0.7107         -21.21      -4.310701      0.9592587      0.9398054
      8667.0000         1581.6        -999.25       138.5941        75.3535        79.0386          0.549         0.7042         -21.01      -4.106358      0.9795448      0.9435208
      8667.5000         1567.6        -999.25       140.0406        76.4949       80.24992          0.549          0.698       -20.1636      -3.255613              1      0.9589888
      8668.0000       1536.727        -999.25       140.2306        77.0606       80.84879          0.549         0.6984         -19.72      -2.807667              1      0.9671333
