#------------------------------------------------------------------------------
# Created by    : vladimir.rabinovich
# Created on    : 09/19/2023 17:21:46
#------------------------------------------------------------------------------
~Version Information Section
VERS.           2.0     :   CWLS log ASCII Standard - VERSION 2.0
WRAP.           NO      :   One line per depth step
~Well Information Section
#MNEM       .UNIT                                         VALUE :DESCRIPTION
#------------------------------------------------------------------------------
STRT        .FT                                            2869 :START DEPTH
STOP        .FT                                           10002 :STOP DEPTH
STEP        .FT                                             0.5 :STEP      
NULL        .                                           -999.25 :NULL      
COMP        .                          SEAGULL ENERGY E & P INC :COMPANY   
WELL        .                               OCS G06145 ST00BP00 :WELL      
FLD         .                                           WILDCAT :FIELD     
LOC         .                                                   :LOCATION  
CNTY        .                           HIGH ISLAND LARGE BLOCK :LOCATION  
STAT        .                                             TEXAS :STATE     
CTRY        .                                     UNITED STATES :COUNTRY   
SRVC        .                                                   :SERVICE COMPANY
DATE        .                             9/13/2023 11:19:59 AM :LOG DATE  
API         .                                    42708402850000 :API NUMBER
UWI         .                                    42708402850000 :UNIQUE WELL ID
XCOORD      .                                  1277324.30822617 :SURFACE X 
YCOORD      .                                   10672684.104362 :SURFACE Y 
LAT         .                                         29.403374 :LATITUDE  
LON         .                                        -94.140646 :LONGITUDE 
ELEV        .FT                                              88 :ELEVATION VALUE
ELEV_TYPE   .                                                KB :ELEVATION REFERENCE TYPE
~Curve Information Section
#MNEM       .UNIT                                      API CODE :CURVE DESCRIPTION
#------------------------------------------------------------------------------
DEPT        .FT                                                 :DEPTH     
CALI        .IN                                                 :          
DPHI        .%                                                  :          
DRHO        .G/C3                                               :          
GR          .GAPI                                               :          
GR_NORM     .GAPI                                               :GammaRay Normalized
ILD         .OHMM                                               :          
ILM         .OHMM                                               :          
NPHI        .%                                                  :          
SFL         .OHMM                                               :          
SP          .MV                                                 :          
SP_NORM     .MV                                                 :SP Normalized
VSH_GR      .V/V                                                :Volume of Shale from GR
VSH_SP      .V/V                                                :Volume of Shale from SP
~A        DEPTH           CALI           DPHI           DRHO             GR        GR_NORM            ILD            ILM           NPHI            SFL             SP        SP_NORM         VSH_GR         VSH_SP
# ...
      8588.0000        10.9218        18.3942         0.0871        88.9009       80.72304         0.4511         0.4823        39.0983         0.5762        -8.8351       2.531963              1              1
      8588.5000        10.7875        17.9632         0.0891        86.4727       77.96126         0.4499         0.4839         39.879         0.6003        -8.9106       2.463631      0.9566225              1
      8589.0000        10.6829        17.9104         0.0892        85.3983        76.7037          0.449         0.4855        40.6929         0.6109        -8.9183       2.451134      0.9298661              1
      8589.5000        10.5972        18.0705         0.0874        85.3776       76.61693         0.4504         0.4871        41.0724         0.6096        -8.8598       2.493155      0.9280198              1
      8590.0000        10.5528        18.5355         0.0818        86.3237       77.60437         0.4525         0.4888        40.5997         0.6034        -8.7148       2.606411      0.9490291              1
      8590.5000        10.5624         19.432         0.0734        87.4271       78.76659          0.455         0.4904        40.3042         0.5953        -8.5039       2.773938      0.9737573              1
      8591.0000        10.6129        20.4991         0.0682        88.1929       79.55371         0.4577          0.493         40.364         0.5914        -8.2958       2.939158      0.9905045              1
      8591.5000        10.6837        21.3709         0.0679        88.4498       79.77536         0.4609         0.4948        40.5143         0.5948        -8.1024       3.092273      0.9952204              1
      8592.0000        10.6736        21.8056         0.0707        89.2061       80.55192         0.4654         0.5002        40.5073          0.602          -8.01       3.162211              1              1
      8592.5000        10.5783        21.6144          0.075        91.2677       82.77882          0.472         0.5066        39.2794         0.6127        -8.0321       3.137856              1              1
      8593.0000         10.501        20.2587         0.0797        93.5341       85.23326          0.481         0.5138        38.4745         0.6254        -8.1069       3.070099              1              1
      8593.5000         10.443        19.1795         0.0838        95.3575       87.19547         0.4906         0.5219        38.5557         0.6362        -7.9727       3.174461              1              1
      8594.0000        10.4581        18.8539         0.0836        97.4117       89.41414         0.5012         0.5324        39.8325         0.6312        -7.7308       3.367517              1              1
      8594.5000        10.5365        18.5768         0.0803        99.5292       91.70315         0.5123         0.5442        40.6456         0.6156        -7.3772       3.652561              1              1
      8595.0000        10.6278         18.065         0.0776       101.0978       93.38226         0.5238         0.5573         38.624          0.628        -7.3255       3.688982              1              1
      8595.5000        10.6525        17.5562         0.0747       101.0159       93.22748         0.5362         0.5708        36.2102         0.6892        -7.7835        3.30565              1              1
      8596.0000        10.5585        17.0963         0.0714       100.2102       92.26848         0.5471         0.5839        34.4682         0.7589        -8.5203       2.692718              1              1
      8596.5000        10.4815        16.6935         0.0675        99.2501       91.13792         0.5569          0.593        33.7941         0.7837        -9.2274       2.104244              1              1
      8597.0000        10.5074        16.4279         0.0628        98.4119       90.14281         0.5657         0.5988        33.9344         0.7724        -9.8638       1.573994              1              1
      8597.5000        10.6206        16.4962         0.0577        98.3839       90.04792         0.5732         0.6005        33.5837         0.7348       -10.3978       1.128073              1              1
      8598.0000        10.6883        16.7044         0.0536        98.8705       90.52481         0.5779         0.6008        33.0674         0.6997       -10.8499      0.7496002              1              1
      8598.5000        10.5979        16.8729         0.0525        99.4659       91.12258         0.5783         0.5993        32.6593         0.6705       -11.2187      0.4397266              1              1
      8599.0000        10.5029        16.8044         0.0562        100.374       92.06781         0.5738         0.5968        32.2903          0.653       -11.4463      0.2461362              1              1
      8599.5000        10.4274        16.5383         0.0619        97.7393       89.07658         0.5649         0.5928        32.0358         0.6526       -11.6243     0.09339175              1              1
      8600.0000        10.4213        16.6574         0.0668        93.1917       83.95992         0.5529         0.5879        32.6796         0.6672       -11.6736      0.0466358              1              1
      8600.5000        10.4715        18.0447         0.0693        88.8375       79.05814         0.5419         0.5813        35.3024          0.691       -11.5037      0.1803976      0.9799605              1
      8601.0000        10.5901        19.4876         0.0709        83.9402       73.55292         0.5302         0.5713        38.6812         0.7029       -10.5448      0.9639245       0.862828              1
      8601.5000        10.7588         19.769         0.0763        80.1741       69.30459         0.5183         0.5582        40.1421         0.6708        -9.3601       1.933404       0.772438              1
      8602.0000        10.9144        19.0307         0.0839        80.7435       69.87347         0.5056         0.5442        40.5301         0.6253        -8.5452       2.598342      0.7845418              1
      8602.5000         11.031        18.2221         0.0866        83.6871       73.08037         0.4935         0.5324        39.9903         0.6083        -8.2245       2.856292      0.8527738              1
      8603.0000        10.9648        18.1277         0.0812        85.8418       75.41069          0.482          0.522        38.9667         0.6036        -8.6289       2.517102      0.9023551              1
      8603.5000        10.9119        18.1719         0.0739        87.7826       77.50336         0.4705         0.5167        37.9206         0.6013        -9.2131       2.029839      0.9468801              1
      8604.0000        10.9252        18.1161         0.0675        89.2767       79.09969         0.4638         0.5141        37.1526         0.6017        -9.4367       1.839543      0.9808446              1
      8604.5000         10.919        17.8335         0.0633        90.4471       80.33635         0.4594         0.5145        36.6942            0.6        -8.9607       2.225387              1              1
      8605.0000        10.8585        17.4454         0.0628        91.4705       81.40969         0.4608         0.5151        36.3657         0.5964         -8.253       2.802042              1              1
      8605.5000        10.8307        17.5457         0.0635        92.3785        82.3548         0.4642         0.5161        36.0693         0.5897        -7.8483       3.129169              1              1
      8606.0000        10.8097        18.1364         0.0601        93.2047       83.20903         0.4713         0.5178        35.7961          0.582        -7.6902       3.253214              1              1
      8606.5000        10.7725        18.0582         0.0569         93.601       83.58558         0.4808         0.5205        35.6426         0.5795        -7.6161       3.308081              1              1
