#------------------------------------------------------------------------------
# Created by    : vladimir.rabinovich
# Created on    : 09/19/2023 17:22:52
#------------------------------------------------------------------------------
~Version Information Section
VERS.           2.0     :   CWLS log ASCII Standard - VERSION 2.0
WRAP.           NO      :   One line per depth step
~Well Information Section
#MNEM       .UNIT                                         VALUE :DESCRIPTION
#------------------------------------------------------------------------------
STRT        .FT                                             873 :START DEPTH
STOP        .FT                                           11612 :STOP DEPTH
STEP        .FT                                             0.5 :STEP      
NULL        .                                           -999.25 :NULL      
COMP        .                                   MARATHON OIL CO :COMPANY   
WELL        .                               OCS G04137 ST00BP04 :WELL      
FLD         .                       MATAGORDA ISLAND BLOCK 0527 :FIELD     
LOC         .                                                   :LOCATION  
CNTY        .                      MATAGORDA ISLAND LARGE BLOCK :LOCATION  
STAT        .                                             TEXAS :STATE     
CTRY        .                                     UNITED STATES :COUNTRY   
SRVC        .                                                   :SERVICE COMPANY
DATE        .                             9/13/2023 11:19:05 AM :LOG DATE  
API         .                                    42703400590000 :API NUMBER
UWI         .                                    42703400590000 :UNIQUE WELL ID
XCOORD      .                                  609906.580547661 :SURFACE X 
YCOORD      .                                  10277311.7025511 :SURFACE Y 
LAT         .                                         28.282909 :LATITUDE  
LON         .                                        -96.202007 :LONGITUDE 
ELEV        .FT                                              95 :ELEVATION VALUE
ELEV_TYPE   .                                                KB :ELEVATION REFERENCE TYPE
~Curve Information Section
#MNEM       .UNIT                                      API CODE :CURVE DESCRIPTION
#------------------------------------------------------------------------------
DEPT        .FT                                                 :DEPTH     
GR          .GAPI                                               :          
GR_NORM     .GAPI                                               :GammaRay Normalized
ILD         .OHMM                                               :          
SP          .MV                                                 :          
SP_NORM     .MV                                                 :SP Normalized
VSH_GR      .V/V                                                :Volume of Shale from GR
VSH_SP      .V/V                                                :Volume of Shale from SP
~A        DEPTH             GR        GR_NORM            ILD             SP        SP_NORM         VSH_GR         VSH_SP
# ...
      5931.5000        61.3258       90.90016         0.8126       -65.5764      0.3674011              1              1
      5932.0000        61.1307       90.48265         0.8153       -65.6796      0.2523193              1              1
      5932.5000        61.1826       90.58411         0.8178       -65.7699      0.1501541              1              1
      5933.0000        60.8624       89.90372         0.8181       -65.8549     0.05327606              1              1
      5933.5000        60.0217       88.12966         0.8184       -65.9073    -0.01100922              1              1
      5934.0000        59.1927       86.38018         0.8146       -65.9567    -0.07228851              1              1
      5934.5000        58.3637       84.63071         0.8099       -65.9268    -0.05426788              1              1
      5935.0000        59.3819       86.76254         0.8054       -65.8577     0.01056671              1              1
      5935.5000        61.4897       91.18389         0.8021       -65.6998      0.1684647              1              1
      5936.0000        63.5582       95.52259         0.7987       -65.7197      0.1485596              1              1
      5936.5000        64.3792        97.2401         0.7932       -65.6143      0.2539597              1              1
      5937.0000        64.2633       96.98895         0.7867       -65.4071      0.4611664              1              1
      5937.5000        63.4183       95.20589         0.7794       -65.1189      0.7493668              1              1
      5938.0000        62.7379       93.76863         0.7781       -64.8076       1.060661              1              1
      5938.5000        62.0802        92.3791         0.7777       -65.3809      0.4873657              1              1
      5939.0000        61.5983       91.35895         0.7769       -65.3737      0.4945602              1              1
      5939.5000        61.2361       90.59029         0.7758       -65.0168      0.8514633              1              1
      5940.0000         61.059       90.21057          0.772       -64.6178       1.250465              1              1
      5940.5000        60.3915       88.80046         0.7663       -64.4559       1.412361              1              1
      5941.0000        59.3881       86.68454         0.7621       -64.4224       1.445862              1              1
      5941.5000        58.0235       83.80967         0.7596       -64.4559       1.412361              1              1
      5942.0000         56.993       81.63679           0.76       -64.5156       1.352661              1              1
      5942.5000        57.2913         82.256         0.7635       -64.5649        1.30336              1              1
      5943.0000        58.9899        85.8175         0.7681       -64.5065       1.361763              1              1
      5943.5000        59.9736       87.87683         0.7747       -64.4695       1.398766              1              1
      5944.0000         60.683       89.35986         0.7814        -64.444       1.424263              1              1
      5944.5000        60.9492       89.91161         0.7835       -64.4205       1.447762              1              1
      5945.0000        61.0431       90.10132         0.7851       -64.3993       1.468964              1              1
      5945.5000        61.4547       90.95858         0.7844       -64.3781       1.490166              1              1
      5946.0000        61.9354       91.96101         0.7832       -64.3671        1.50116              1              1
      5946.5000        62.6411       93.43629         0.7824       -64.3599       1.508362              1              1
      5947.0000        62.6226       93.38981         0.7807       -64.3528       1.515465              1              1
      5947.5000        60.5381       89.00225         0.7771       -64.3112        1.55706              1              1
      5948.0000        58.5449       84.80656         0.7795       -64.2651       1.603165              1              1
      5948.5000        57.5335       82.67386         0.7875       -64.2219       1.646362              1              1
      5949.0000        57.0966       81.74825         0.7967       -64.1794       1.688866              1              1
      5949.5000        56.7597       81.03278         0.8083       -64.1595       1.708763              1              1
      5950.0000        57.1853       81.91949         0.8186       -64.1525       1.715767              1              1
      5950.5000        58.5881       84.85943         0.8242       -64.1454       1.722862              1              1
      5951.0000        59.6198       87.01964         0.8183       -64.1782       1.690063              1              1
      5951.5000        60.5714       89.01154           0.81       -64.2472       1.621063              1              1
      5952.0000        60.7648       89.41034         0.8019       -64.3163       1.551964              1              1
      5952.5000        60.2029       88.22206         0.7946       -64.4338       1.434464              1              1
      5953.0000        58.5129        84.6635         0.7881        -64.635       1.233261              1              1
      5953.5000        56.5862       80.60752         0.7851       -64.9598      0.9084625              1              1
      5954.0000        55.0996       77.47631         0.7845       -65.0969      0.7713623      0.9463045              1
      5954.5000        53.9656       75.08598         0.8059        -65.183      0.6852646      0.8954465              1
      5955.0000        53.1162       73.29365         0.8289       -65.3704      0.4978638      0.8573117              1
      5955.5000        52.7301       72.47478         0.8538        -65.693      0.1752625      0.8398889              1
      5956.0000         52.663       72.32619         0.8795       -66.8529     -0.9846344      0.8367276              1
      5956.5000        52.8321        72.6739          0.892       -65.8903    -0.02203369      0.8441256              1
      5957.0000        53.3763        73.8098         0.9008       -65.2695      0.5987625      0.8682936              1
      5957.5000        54.0136        75.1413         0.8925       -65.2537       0.614563      0.8966233              1
      5958.0000        54.7156       76.60873         0.8843       -64.6859       1.182365      0.9278452              1
      5958.5000         55.369        77.9741         0.8762       -63.9654       1.902863      0.9568957              1
      5959.0000        56.0211       79.33666         0.8673       -63.4372       2.431065      0.9858865              1
      5959.5000        57.9742       83.43294         0.8573       -63.3267       2.541565              1              1
      5960.0000        60.1203       87.93474         0.8475       -63.4836       2.384663              1              1
      5960.5000        61.3357       90.48093         0.8459       -63.7966       2.071663              1              1
      5961.0000        59.2081       86.00282         0.8484       -64.2705       1.597763              1              1
      5961.5000        58.1234       83.71607         0.8497       -64.2187       1.649567              1              1
      5962.0000        57.3924       82.17252           0.85       -64.0303       1.837967              1              1
      5962.5000        56.6232        80.5487         0.8503         -63.99       1.878262              1              1
      5963.0000        55.5816       78.35251         0.8498        -64.064        1.80426       0.964947              1
      5963.5000        54.4808       76.03194         0.8488       -64.0347       1.833565      0.9155733              1
      5964.0000        53.8102       74.61527         0.8482       -63.8788       1.989464      0.8854313              1
      5964.5000         55.568       78.30117         0.8494       -63.8578       2.010464      0.9638547              1
