#------------------------------------------------------------------------------
# Created by    : vladimir.rabinovich
# Created on    : 09/19/2023 17:22:29
#------------------------------------------------------------------------------
~Version Information Section
VERS.           2.0     :   CWLS log ASCII Standard - VERSION 2.0
WRAP.           NO      :   One line per depth step
~Well Information Section
#MNEM       .UNIT                                         VALUE :DESCRIPTION
#------------------------------------------------------------------------------
STRT        .FT                                             272 :START DEPTH
STOP        .FT                                            9222 :STOP DEPTH
STEP        .FT                                             0.5 :STEP      
NULL        .                                           -999.25 :NULL      
COMP        .                   MCMORAN OFFSHORE EXPLORATION CO :COMPANY   
WELL        .                               OCS G03108 ST00BP00 :WELL      
FLD         .                       MATAGORDA ISLAND BLOCK 0700 :FIELD     
LOC         .                                                   :LOCATION  
CNTY        .                      MATAGORDA ISLAND LARGE BLOCK :LOCATION  
STAT        .                                             TEXAS :STATE     
CTRY        .                                     UNITED STATES :COUNTRY   
SRVC        .                                                   :SERVICE COMPANY
DATE        .                             9/13/2023 11:12:09 AM :LOG DATE  
API         .                                    42703400850000 :API NUMBER
UWI         .                                    42703400850000 :UNIQUE WELL ID
XCOORD      .                                  483045.974763742 :SURFACE X 
YCOORD      .                                  10146137.6323278 :SURFACE Y 
LAT         .                                         27.912878 :LATITUDE  
LON         .                                       -96.5835889 :LONGITUDE 
ELEV        .FT                                              85 :ELEVATION VALUE
ELEV_TYPE   .                                                KB :ELEVATION REFERENCE TYPE
~Curve Information Section
#MNEM       .UNIT                                      API CODE :CURVE DESCRIPTION
#------------------------------------------------------------------------------
DEPT        .FT                                                 :DEPTH     
CILD        .MMHO                                               :          
DT          .US/F                                               :          
GR          .GAPI                                               :          
GR_NORM     .GAPI                                               :GammaRay Normalized
ILD         .OHMM                                               :          
ILM         .OHMM                                               :          
SFL         .OHMM                                               :          
SP          .MV                                                 :          
SP_NORM     .MV                                                 :SP Normalized
VSH_GR      .V/V                                                :Volume of Shale from GR
VSH_SP      .V/V                                                :Volume of Shale from SP
~A        DEPTH           CILD             DT             GR        GR_NORM            ILD            ILM            SFL             SP        SP_NORM         VSH_GR         VSH_SP
# ...
      5649.5000       2080.887        94.1582        -999.25        -999.25         0.5229         0.5325         0.9668       -33.6555        -5.7257        -999.25      0.9357638
      5650.0000       1970.293       102.6434        -999.25        -999.25         0.5683         0.5647         1.0116       -31.0756        -3.1415        -999.25       0.980319
      5650.5000       1659.004       107.8118        -999.25        -999.25         0.6329         0.6614         0.9163       -30.4197        -2.4812        -999.25      0.9917035
      5651.0000        1367.32       109.7382        -999.25        -999.25         0.7047          0.735         0.8038       -30.7244        -2.7816        -999.25      0.9865242
      5651.5000        1254.35       108.6311        -999.25        -999.25         0.7507          0.775          0.741       -32.8571        -4.9099        -999.25      0.9498293
      5652.0000       1198.855       104.9553        -999.25        -999.25         0.7762         0.7852         0.7405       -35.7589        -7.8074        -999.25      0.8998724
      5652.5000       1237.023        103.467        -999.25        -999.25         0.7885         0.7806         0.7788        -38.461       -10.5051        -999.25      0.8533604
      5653.0000       1303.262        107.485        -999.25        -999.25         0.7724         0.7699         0.7499       -40.7191       -12.7589        -999.25      0.8145017
      5653.5000       1325.043       111.7747        -999.25        -999.25         0.7428         0.7431         0.6642       -45.9213       -17.9567        -999.25      0.7248845
      5654.0000       1358.063       113.6658        -999.25        -999.25         0.7067         0.7058         0.6342       -52.9575       -24.9886        -999.25      0.6036448
      5654.5000       1436.826       113.1904        -999.25        -999.25         0.6631         0.6635         0.6491       -63.6813        -35.708        -999.25      0.4188276
      5655.0000       1664.152       112.1422        -999.25        -999.25         0.6107         0.6142         0.7209       -71.3911       -43.4135        -999.25      0.2859741
      5655.5000       1934.846       111.3414        -999.25        -999.25         0.5574         0.5601         0.7723       -76.9751       -48.9931        -999.25      0.1897742
      5656.0000       2166.727       111.4962        -999.25        -999.25         0.5032         0.5008         0.7763       -82.2947       -54.3083        -999.25     0.09813276
      5656.5000       2461.383       113.2672        -999.25        -999.25          0.434         0.4291         0.6359       -85.1029       -57.1122        -999.25     0.04978963
      5657.0000       2795.641       115.0878        -999.25        -999.25         0.3538         0.3727         0.5687        -86.696       -58.7009        -999.25     0.02239826
      5657.5000       3190.492       116.3724        -999.25        -999.25         0.2939         0.3391         0.5354       -87.7314        -59.732        -999.25    0.004620716
      5658.0000        3742.57       117.1416        -999.25        -999.25         0.2558         0.3093         0.5284       -88.6047       -60.6009        -999.25              0
      5658.5000           4214       117.4592        -999.25        -999.25         0.2264         0.2878         0.5457        -89.168       -61.1599        -999.25              0
      5659.0000         4761.5       117.5681        -999.25        -999.25         0.2025         0.2667         0.5613       -88.9241       -60.9116        -999.25              0
      5659.5000           5309       117.5631        -999.25        -999.25         0.1865         0.2522         0.5649       -88.2048        -60.188        -999.25              0
      5660.0000       5608.906       117.4491        -999.25        -999.25         0.1787         0.2426         0.5375       -87.4121       -59.3909        -999.25     0.01050173
      5660.5000       5733.211       117.2156        -999.25        -999.25         0.1741         0.2391         0.4581       -86.7502       -58.7247        -999.25     0.02198792
      5661.0000       5660.984       117.1616        -999.25        -999.25         0.1785         0.2417         0.3804       -84.7148       -56.6849        -999.25     0.05715692
      5661.5000       5391.281       117.4402        -999.25        -999.25         0.1906         0.2487         0.3009       -81.1344       -53.1002        -999.25      0.1189621
      5662.0000       4994.047       117.7034        -999.25        -999.25         0.2072          0.266         0.2627       -76.6957       -48.6571        -999.25      0.1955672
      5662.5000       4382.563         117.55        -999.25        -999.25         0.2254         0.2858          0.286        -70.957       -42.9141        -999.25      0.2945845
      5663.0000       4016.938       116.2833        -999.25        -999.25         0.2544         0.3159         0.3412       -61.9647       -33.9174        -999.25         0.4497
      5663.5000       3489.105       114.7648        -999.25        -999.25         0.3039         0.3487          0.411        -55.213       -27.1614        -999.25      0.5661827
      5664.0000       2935.836       113.1497        -999.25        -999.25         0.3576         0.3981         0.5161       -52.2563       -24.2003        -999.25      0.6172362
      5664.5000       2186.926       111.2598        -999.25        -999.25         0.4384         0.4957         0.6048       -50.6358       -22.5755        -999.25        0.64525
      5665.0000       1774.648       108.5865        -999.25        -999.25         0.5267         0.5971         0.6439       -48.7757        -20.711        -999.25      0.6773965
      5665.5000       1556.033       104.5543        -999.25        -999.25         0.6691         0.6913         0.6984       -45.4198       -17.3507        -999.25      0.7353327
      5666.0000       1350.688        99.0197        -999.25        -999.25            0.8         0.7774         0.7655       -42.0714        -13.998        -999.25      0.7931379
      5666.5000       1189.498        94.9652        -999.25        -999.25         0.9274          0.856          0.877       -38.6806       -10.6028        -999.25      0.8516759
      5667.0000       1071.182        93.5933        -999.25        -999.25         1.0034         0.8954          0.949        -36.662        -8.5799        -999.25      0.8865535
      5667.5000       988.1621        94.8761        -999.25        -999.25         1.0543         0.9096         0.9755       -35.8817        -7.7952        -999.25      0.9000828
      5668.0000       927.9639        98.6582        -999.25        -999.25         1.0928         0.9144          0.969        -35.412        -7.3212        -999.25      0.9082552
      5668.5000       897.7354        102.584        -999.25        -999.25         1.1179         0.9126         0.9357        -34.686        -6.5908        -999.25      0.9208483
      5669.0000       895.8604       106.2053        -999.25        -999.25         1.1093         0.9069         0.8903       -33.8176        -5.7181        -999.25      0.9358948
      5669.5000        926.627       108.9182        -999.25        -999.25         1.0622         0.9007         0.8427       -32.7186        -4.6147        -999.25       0.954919
      5670.0000       986.3301       107.6484        -999.25        -999.25         0.9504         0.8932         0.8026       -34.5188        -6.4106        -999.25      0.9239551
      5670.5000       1100.785       101.6682        -999.25        -999.25         0.8412         0.8702         0.7794       -40.6467       -12.5341        -999.25      0.8183776
      5671.0000       1256.627        96.3761        -999.25        -999.25         0.7467          0.813         0.8518       -53.0123       -24.8954        -999.25      0.6052517
      5671.5000        1427.32        93.6768        -999.25        -999.25         0.6606         0.7331         1.2451       -57.3987       -29.2774        -999.25         0.5297
