#------------------------------------------------------------------------------
# Created by    : vladimir.rabinovich
# Created on    : 09/19/2023 17:20:04
#------------------------------------------------------------------------------
~Version Information Section
VERS.           2.0     :   CWLS log ASCII Standard - VERSION 2.0
WRAP.           NO      :   One line per depth step
~Well Information Section
#MNEM       .UNIT                                         VALUE :DESCRIPTION
#------------------------------------------------------------------------------
STRT        .FT                                             723 :START DEPTH
STOP        .FT                                            8219 :STOP DEPTH
STEP        .FT                                             0.5 :STEP      
NULL        .                                           -999.25 :NULL      
COMP        .                                    MOBIL OIL CORP :COMPANY   
WELL        .                               OCS G02338 ST00BP00 :WELL      
FLD         .                                           WILDCAT :FIELD     
LOC         .                                                   :LOCATION  
CNTY        .                             GALVESTON LARGE BLOCK :LOCATION  
STAT        .                                             TEXAS :STATE     
CTRY        .                                     UNITED STATES :COUNTRY   
SRVC        .                                                   :SERVICE COMPANY
DATE        .                             9/13/2023 11:18:53 AM :LOG DATE  
API         .                                    42706400200000 :API NUMBER
UWI         .                                    42706400200000 :UNIQUE WELL ID
XCOORD      .                                  941616.333010477 :SURFACE X 
YCOORD      .                                  10405518.1254327 :SURFACE Y 
LAT         .                                         28.655687 :LATITUDE  
LON         .                                        -95.179294 :LONGITUDE 
ELEV        .FT                                              84 :ELEVATION VALUE
ELEV_TYPE   .                                                KB :ELEVATION REFERENCE TYPE
~Curve Information Section
#MNEM       .UNIT                                      API CODE :CURVE DESCRIPTION
#------------------------------------------------------------------------------
DEPT        .FT                                                 :DEPTH     
ASFL        .OHMM                                               :          
CALI        .IN                                                 :          
CILD        .MMHO                                               :          
DPHI        .%                                                  :          
DT          .US/F                                               :          
GR          .GAPI                                               :          
GR_1        .GAPI                                               :          
GR_NORM     .GAPI                                               :GammaRay Normalized
ILD         .OHMM                                               :          
NPHI        .DEC                                                :          
SP          .MV                                                 :          
SP_NORM     .MV                                                 :SP Normalized
VSH_GR      .V/V                                                :Volume of Shale from GR
VSH_SP      .V/V                                                :Volume of Shale from SP
~A        DEPTH           ASFL           CALI           CILD           DPHI             DT             GR           GR_1        GR_NORM            ILD           NPHI             SP        SP_NORM         VSH_GR         VSH_SP
# ...
      2721.0000              1        11.8657       1219.564        -999.25       111.8933       100.9299        -999.25       87.00466         0.9207        -999.25        74.7567      -5.470474              1      0.9278956
      2721.5000         0.9983        11.8653       1221.781        -999.25       111.4917       101.0403        -999.25       87.11506         0.9182        -999.25        74.8646      -5.326965              1      0.9302102
      2722.0000         0.9966        11.8651       1223.996        -999.25       111.1447       101.1508        -999.25       87.22556         0.9224        -999.25        75.7164      -4.439552              1      0.9445233
      2722.5000         0.9948         11.865       1226.211        -999.25       110.8013       100.9821        -999.25       87.05686         0.9267        -999.25         76.609      -3.511345              1      0.9594944
      2723.0000         0.9929        11.8648       1232.428        -999.25       110.7726       100.7813        -999.25       86.85606         0.9309        -999.25        76.3339      -3.750832              1      0.9556317
      2723.5000         0.9906        11.8646       1241.498        -999.25       110.9353       100.5806        -999.25       86.65536         0.9348        -999.25        76.0135      -4.035629              1      0.9510382
      2724.0000         0.9884        11.8644       1250.568        -999.25       111.2518       100.3798        -999.25       86.45456         0.9374        -999.25        76.0574      -3.956108              1      0.9523208
      2724.5000         0.9861        11.8642       1259.637        -999.25       111.5681        100.179        -999.25       86.25376           0.94        -999.25        76.4764      -3.501503              1      0.9596532
      2725.0000         0.9839        11.8637       1268.709        -999.25       111.9281         99.923        -999.25       85.99776         0.9427        -999.25        76.6852      -3.257088              1      0.9635953
      2725.5000         0.9817        11.8629       1276.701        -999.25        112.495        99.6235        -999.25       85.69826         0.9428        -999.25         76.457      -3.449684              1       0.960489
      2726.0000         0.9796        11.8622       1283.852        -999.25       113.0619        99.3241        -999.25       85.39886         0.9398        -999.25        75.8619      -4.009171              1       0.951465
      2726.5000         0.9775        11.8614       1291.006        -999.25       113.6731        99.0247        -999.25       85.09946         0.9368        -999.25        76.0065      -3.828964              1      0.9543716
      2727.0000         0.9755        11.8607       1298.162        -999.25       114.4678        98.7252        -999.25       84.79996          0.932        -999.25        76.2114      -3.588448              1      0.9582508
      2727.5000         0.9735        11.8599       1305.313        -999.25       115.5779        98.4258        -999.25       84.50056          0.922        -999.25        76.3569      -3.407341              1      0.9611719
      2728.0000         0.9715        11.8591       1312.467        -999.25       120.9187        98.2163        -999.25       84.29106          0.912        -999.25         76.928      -2.800629              1      0.9709576
      2728.5000         0.9701        11.8582       1317.229        -999.25        123.021        98.0242        -999.25       84.09896         0.9021        -999.25        76.2142      -3.478821              1       0.960019
      2729.0000         0.9692        11.8565       1321.119        -999.25       123.4727        97.8322        -999.25       83.90696         0.8924        -999.25        74.9346      -4.722809              1      0.9399547
      2729.5000         0.9682        11.8549        1325.01        -999.25       123.9139          97.64        -999.25       83.71476          0.883        -999.25        75.5697      -4.052101              1      0.9507726
      2730.0000         0.9707        11.8532       1328.898        -999.25       124.6378         97.448        -999.25       83.52276         0.8736        -999.25        76.3314      -3.254791              1      0.9636324
      2730.5000         0.9737        11.8515        1332.33        -999.25       126.6495         97.601        -999.25       83.67576         0.8642        -999.25        77.0564      -2.494186              1      0.9759002
      2731.0000         0.9768        11.8564       1332.848        -999.25       129.8918        97.7952        -999.25       83.86996         0.8642        -999.25        76.2291      -3.285873              1      0.9631311
      2731.5000         0.9799        11.8625       1333.367        -999.25       132.1494        97.9562        -999.25       84.03096         0.8649        -999.25        76.4561      -3.023262              1      0.9673668
      2732.0000          0.983        11.8686       1333.885        -999.25       127.4633        98.1029        -999.25       84.17766         0.8657        -999.25        77.0154      -2.428352              1       0.976962
      2732.5000         0.9862        11.8747       1335.631        -999.25        124.777        98.2496        -999.25       84.32436         0.8748        -999.25        77.5039      -1.904243              1      0.9854154
      2733.0000         0.9893        11.8725       1341.498        -999.25       124.1161        98.3962        -999.25       84.47096         0.8867        -999.25        77.7931      -1.579437              1      0.9906542
      2733.5000         0.9906        11.8679       1347.365        -999.25        124.025        98.3779        -999.25       84.45266         0.8986        -999.25        78.0822      -1.254723              1      0.9958916
      2734.0000         0.9895        11.8633       1353.234        -999.25       126.7269        98.2072        -999.25       84.28196         0.8994        -999.25        78.0553      -1.246017              1       0.996032
      2734.5000         0.9885        11.8587       1359.844        -999.25       128.9636        98.0364        -999.25       84.11116         0.8914        -999.25        77.8007      -1.465004              1      0.9924999
      2735.0000         0.9874        11.8548        1368.68        -999.25       128.1802        97.8656        -999.25       83.94036         0.8835        -999.25        77.8687      -1.376587              1       0.993926
      2735.5000         0.9862        11.8513       1377.518        -999.25       126.2302        97.6949        -999.25       83.76966         0.8756        -999.25        77.9954      -1.249886              1      0.9959696
      2736.0000         0.9846        11.8479       1384.914        -999.25        124.615        97.5065        -999.25       83.58126         0.8677        -999.25        77.8796      -1.365685              1      0.9941019
      2736.5000         0.9831        11.8445       1377.006        -999.25       125.4159        97.2373        -999.25       83.31206         0.8626        -999.25        77.0548      -2.190483              1      0.9807987
      2737.0000         0.9815        11.8411       1369.094        -999.25       126.4518         96.968        -999.25       83.04276          0.868        -999.25         77.589      -1.656288              1      0.9894147
      2737.5000           0.98        11.8382       1353.848        -999.25       128.0125        96.6989        -999.25       82.77366         0.8749        -999.25        78.1011      -1.144188              1      0.9976744
      2738.0000         0.9809        11.8353       1337.037        -999.25       131.5181        96.4296        -999.25       82.50436         0.8868        -999.25        78.0017      -1.243584              1      0.9960712
      2738.5000          0.982        11.8323       1320.232        -999.25       130.4958        96.1603        -999.25       82.23506         0.8987        -999.25        77.6624      -1.582886              1      0.9905986
