#------------------------------------------------------------------------------
# Created by    : vladimir.rabinovich
# Created on    : 09/19/2023 17:22:21
#------------------------------------------------------------------------------
~Version Information Section
VERS.           2.0     :   CWLS log ASCII Standard - VERSION 2.0
WRAP.           NO      :   One line per depth step
~Well Information Section
#MNEM       .UNIT                                         VALUE :DESCRIPTION
#------------------------------------------------------------------------------
STRT        .FT                                            2180 :START DEPTH
STOP        .FT                                            6738 :STOP DEPTH
STEP        .FT                                             0.5 :STEP      
NULL        .                                           -999.25 :NULL      
COMP        .                          SEAGULL ENERGY E & P INC :COMPANY   
WELL        .                               OCS G08131 ST00BP00 :WELL      
FLD         .                              GALVESTON BLOCK 0384 :FIELD     
LOC         .                                                   :LOCATION  
CNTY        .                             GALVESTON LARGE BLOCK :LOCATION  
STAT        .                                             TEXAS :STATE     
CTRY        .                                     UNITED STATES :COUNTRY   
SRVC        .                                                   :SERVICE COMPANY
DATE        .                             9/13/2023 11:19:36 AM :LOG DATE  
API         .                                    42706401890000 :API NUMBER
UWI         .                                    42706401890000 :UNIQUE WELL ID
XCOORD      .                                  986765.057424596 :SURFACE X 
YCOORD      .                                  10402321.6077632 :SURFACE Y 
LAT         .                                          28.64909 :LATITUDE  
LON         .                                        -95.038398 :LONGITUDE 
ELEV        .FT                                             100 :ELEVATION VALUE
ELEV_TYPE   .                                                KB :ELEVATION REFERENCE TYPE
~Curve Information Section
#MNEM       .UNIT                                      API CODE :CURVE DESCRIPTION
#------------------------------------------------------------------------------
DEPT        .FT                                                 :DEPTH     
CALN        .IN                                                 :          
DRHO        .G/CM3                                              :          
GR          .GAPI                                               :          
GR_NORM     .GAPI                                               :GammaRay Normalized
ILD         .OHMM                                               :          
ILM         .OHMM                                               :          
NPSS        .V/V                                                :Neutron Porosity Sandstone
RHOB        .G/CM3                                              :          
SFL         .OHMM                                               :          
SP          .MV                                                 :          
SP_NORM     .MV                                                 :SP Normalized
TENN        .LB                                                 :          
VSH_GR      .V/V                                                :Volume of Shale from GR
VSH_SP      .V/V                                                :Volume of Shale from SP
~A        DEPTH           CALN           DRHO             GR        GR_NORM            ILD            ILM           NPSS           RHOB            SFL             SP        SP_NORM           TENN         VSH_GR         VSH_SP
# ...
      3422.0000          13.02          0.006             95       80.58862         1.0372         1.0184         0.4872         2.1216         1.0855        -4.7059      -2.105514       1764.706              1      0.9699212
      3422.5000           13.1          0.004           94.8        80.4078         1.0372         1.0184         0.5058         2.1245         1.0562        -4.3137      -1.714814       1764.706              1      0.9755027
      3423.0000          13.24          0.002           93.8       79.50698         1.0372         1.0184         0.5268         2.1196         1.0184        -4.1176      -1.520213       1764.706      0.9895102      0.9782827
      3423.5000          13.36         -0.001           93.2       78.96616         1.0277         1.0092         0.5388         2.1137          0.981        -3.9216      -1.325712       1764.706      0.9780033      0.9810613
      3424.0000          13.28         -0.003             94       79.68535         1.0277         1.0092         0.5418         2.1147         0.9624        -3.9216      -1.327212       1764.706      0.9933053      0.9810398
      3424.5000          13.22         -0.002             95       80.58453         1.0184              1         0.5406         2.1186         0.9624        -3.7255      -1.132611       1764.706              1      0.9838198
      3425.0000          13.24              0             96       81.48371         1.0184              1         0.5418         2.1225         0.9624        -3.7255       -1.13411       1764.706              1      0.9837984
      3425.5000          13.38          0.001           96.4        81.8429         1.0092         0.9905         0.5418         2.1235         0.9624        -3.5294     -0.9395099       1764.706              1      0.9865784
      3426.0000           13.5          0.002           95.4       80.94209         1.0092         0.9905         0.5316         2.1255          0.981        -3.3333     -0.7449093       1764.706              1      0.9893584
      3426.5000          13.48          0.002           94.2       79.86127         1.0184         0.9905         0.5142         2.1265         1.0092        -3.1373     -0.5504084       1764.706      0.9970483       0.992137
      3427.0000          13.46          0.001           93.2       78.96045         1.0277              1         0.4956         2.1255         1.0184        -3.3333     -0.7479079       1764.706      0.9778819      0.9893156
      3427.5000          13.52         -0.001           93.6       79.31963         1.0372              1         0.4848         2.1225         1.0092        -3.5294     -0.9455073       1764.706      0.9855241      0.9864928
      3428.0000          13.58         -0.002             95       80.57881         1.0467         1.0092         0.4848         2.1216         0.9905        -3.7255      -1.143107       1764.706              1      0.9836699
      3428.5000          13.58         -0.002           96.2         81.658         1.0562         1.0184         0.4956         2.1206          0.981        -3.9216      -1.340706       1764.706              1      0.9808471
      3429.0000           13.4         -0.004             96       81.47718         1.0659         1.0184         0.5106         2.1176         0.9905        -3.9216      -1.342206       1764.706              1      0.9808257
      3429.5000          13.24         -0.005           94.2       79.85636         1.0659         1.0277          0.528         2.1167              1        -3.7255      -1.147605       1764.706      0.9969438      0.9836056
      3430.0000          13.22         -0.006           91.6       77.51555         1.0757         1.0372         0.5424         2.1176              1        -3.5294     -0.9530041       1764.706      0.9471393      0.9863856
      3430.5000          13.28         -0.005           90.2       76.25473         1.0855         1.0467         0.5382         2.1225              1        -3.3333     -0.7584035       1764.706      0.9203134      0.9891657
      3431.0000          13.38         -0.002           90.6       76.61391         1.0955         1.0659         0.5172         2.1275         1.0562        -3.3333      -0.759903       1764.706      0.9279554      0.9891443
      3431.5000          13.44          0.002           90.8       76.79311         1.0955         1.0855          0.504         2.1324         1.0757        -3.5294     -0.9575024       1764.706      0.9317682      0.9863214
      3432.0000          13.56           0.01           89.8       75.89229         1.1055         1.0955         0.4956         2.1353         1.1055        -3.9216      -1.351202       1764.706      0.9126019      0.9806971
      3432.5000          13.86          0.009             87       73.37147         1.1157         1.1259          0.483         2.1333         1.1157        -4.1176      -1.548701       1764.706      0.8589674      0.9778757
      3433.0000          14.14          0.002           85.4       71.93065         1.1259         1.1362         0.4788         2.1304         1.1157        -4.5098        -1.9424       1764.706      0.8283117      0.9722514
      3433.5000          14.22          0.001           86.4       72.82983         1.1259         1.1362         0.4842         2.1304         1.1055         -4.902        -2.3361       1764.706      0.8474433      0.9666271
      3434.0000          14.22          0.001           88.6       74.80901         1.1259         1.1259          0.498         2.1314         1.0955         -4.902      -2.337599       1764.706      0.8895535      0.9666057
      3434.5000          14.22              0           91.4        77.3282         1.1259         1.1157          0.492         2.1304         1.0855         -4.902      -2.339098       1764.706      0.9431532      0.9665843
      3435.0000          14.24         -0.002           93.2       78.94738         1.1259         1.1157         0.4735         2.1275         1.0562         -4.902      -2.340598       1764.706      0.9776039      0.9665629
      3435.5000          14.18         -0.002             94       79.66656         1.1157         1.1055         0.4594         2.1284         1.0562         -5.098      -2.538097       1764.706      0.9929056      0.9637415
      3436.0000             14         -0.001             94       79.66575         1.1157         1.0955         0.4559         2.1343         1.0562         -5.098      -2.539597       1764.706      0.9928883        0.96372
      3436.5000          13.82          0.003           93.4       79.12493         1.1055         1.0855         0.4712         2.1422         1.0659         -5.098      -2.541096       1764.706      0.9813815      0.9636986
      3437.0000          13.46          0.009           93.6       79.30412         1.0659         1.0757         0.4968         2.1451         1.0659         -4.902      -2.346595       1764.706      0.9851941      0.9664772
      3437.5000          13.06           0.02           94.2        79.8433         1.0659         1.0562         0.5034          2.151         1.0467        -4.7059      -2.151995       1764.706       0.996666      0.9692572
      3438.0000          12.96          0.039           94.6       80.20248         1.0659         1.0372         0.4938         2.1673         1.0372        -4.7059      -2.153494       1764.706              1      0.9692358
      3438.5000          13.08          0.056             94       79.66167         1.0562         1.0372         0.4729         2.1806         1.0184        -4.5098      -1.958894       1764.706      0.9928014      0.9720158
      3439.0000          13.24          0.057             93       78.76085         1.0562         1.0372         0.4706         2.1837              1        -4.5098      -1.960393       1764.706      0.9736351      0.9719944
      3439.5000          13.42          0.046           92.8       78.58004         1.0467         1.0277         0.4836         2.1755              1        -4.3137      -1.765792       1764.706      0.9697881      0.9747744
