#------------------------------------------------------------------------------
# Created by    : vladimir.rabinovich
# Created on    : 09/19/2023 17:20:48
#------------------------------------------------------------------------------
~Version Information Section
VERS.           2.0     :   CWLS log ASCII Standard - VERSION 2.0
WRAP.           NO      :   One line per depth step
~Well Information Section
#MNEM       .UNIT                                         VALUE :DESCRIPTION
#------------------------------------------------------------------------------
STRT        .FT                                             495 :START DEPTH
STOP        .FT                                            6623 :STOP DEPTH
STEP        .FT                                             0.5 :STEP      
NULL        .                                           -999.25 :NULL      
COMP        .                                      SHELL OIL CO :COMPANY   
WELL        .                                     ST TR 00691-L :WELL      
FLD         .                                           WILDCAT :FIELD     
LOC         .                                                   :LOCATION  
CNTY        .                      MATAGORDA ISLAND LARGE BLOCK :LOCATION  
STAT        .                                             TEXAS :STATE     
CTRY        .                                     UNITED STATES :COUNTRY   
SRVC        .                                                   :SERVICE COMPANY
DATE        .                             9/13/2023 11:12:05 AM :LOG DATE  
API         .                                    42703000200000 :API NUMBER
UWI         .                                    42703000200000 :UNIQUE WELL ID
XCOORD      .                                  411465.852171861 :SURFACE X 
YCOORD      .                                  10158718.0598508 :SURFACE Y 
LAT         .                                        27.9414781 :LATITUDE  
LON         .                                       -96.8060481 :LONGITUDE 
ELEV        .FT                                              11 :ELEVATION VALUE
ELEV_TYPE   .                                                KB :ELEVATION REFERENCE TYPE
~Curve Information Section
#MNEM       .UNIT                                      API CODE :CURVE DESCRIPTION
#------------------------------------------------------------------------------
DEPT        .FT                                                 :DEPTH     
ASN         .OHMM                                               :          
CILD        .OHMM                                               :          
ILD         .OHMM                                               :          
SP          .MV                                                 :          
SP_NORM     .MV                                                 :SP Normalized
VSH_SP      .V/V                                                :Volume of Shale from SP
~A        DEPTH            ASN           CILD            ILD             SP        SP_NORM         VSH_SP
# ...
       913.0000         0.9418       1309.951         0.7037        -51.342         -6.059          0.549
       913.5000         0.9694       1234.586         0.7415       -51.1392        -5.8562      0.5715333
       914.0000         1.0028       1166.992         0.7844       -50.9363        -5.6533      0.5940778
       914.5000          1.041       1118.182         0.8276       -50.7811        -5.4981      0.6113222
       915.0000         1.0881       1078.857         0.8712       -50.6935        -5.4105      0.6210555
       915.5000         1.1385       1043.336         0.9148        -50.606         -5.323      0.6307778
       916.0000         1.1781       937.9805         0.9591       -50.8563        -5.5733      0.6029667
       916.5000         1.2008       901.1719         1.0042       -51.1818        -5.8988         0.5668
       917.0000         1.2149        879.376         1.0483       -51.3758        -6.0928      0.5452445
       917.5000         1.2254        867.499         1.0884       -51.5516        -6.2686      0.5257111
       918.0000         1.2318       874.5459          1.124       -51.7274        -6.4444      0.5061778
       918.5000         1.2318        895.335         1.1368       -51.7254        -6.4424         0.5064
       919.0000         1.2281       974.8291         1.1052       -51.7118        -6.4288      0.5079111
       919.5000         1.2156       1066.102         1.0661          -51.9         -6.617          0.487
       920.0000         1.1933       1157.375         1.0182       -52.3348        -7.0518      0.4386889
       920.5000          1.057       1248.648         0.9704       -53.1105        -7.8275         0.3525
       921.0000         1.0362       1339.934         0.9202       -52.9523        -7.6693      0.3700778
       921.5000         1.0154       1432.951         0.8681       -52.6729        -7.3899      0.4011222
       922.0000         0.9922       1525.135          0.816       -52.3679        -7.0849      0.4350111
       922.5000         0.9697        1568.08         0.7676       -51.9872        -6.7042      0.4773111
       923.0000         0.9473       1601.213         0.7192       -51.6121        -6.3291      0.5189888
       923.5000         0.9183       1633.523         0.6727       -51.8748        -6.5918         0.4898
       924.0000         0.9037       1657.277         0.6299       -52.1376        -6.8546         0.4606
       924.5000         0.8958        1600.66         0.5974       -52.4003        -7.1173      0.4314111
       925.0000         0.8893        1437.41          0.606       -52.7213        -7.4383      0.3957444
       925.5000         0.8967       1387.629         0.6147       -53.0676        -7.7846      0.3572667
       926.0000          0.921       1355.215         0.6498       -53.4139        -8.1309      0.3187889
       926.5000         0.9558       1324.594          0.685       -53.7601        -8.4771      0.2803222
       927.0000         0.9882       1286.309         0.7155       -54.1052        -8.8222      0.2419778
       927.5000         1.0089       1248.203         0.7424       -54.4499        -9.1669      0.2036778
       928.0000         1.0292       1223.891         0.7693       -54.7787        -9.4957      0.1671445
       928.5000         1.0339       1199.576         0.7892       -55.0723        -9.7893      0.1345222
       929.0000         1.0099       1183.725         0.8026       -55.1863        -9.9033      0.1218555
       929.5000         0.9845       1402.676         0.8006       -55.1589        -9.8759         0.1249
       930.0000         0.9591       1427.461         0.7844       -55.1315        -9.8485      0.1279444
       930.5000         0.9379       1454.705         0.7681       -54.8294        -9.5464      0.1615111
       931.0000          0.919       1482.811          0.746       -54.5202        -9.2372      0.1958667
       931.5000         0.9034       1508.635         0.7195       -54.2111        -8.9281      0.2302112
       932.0000         0.8896       1506.287          0.693       -53.9019        -8.6189      0.2645666
       932.5000          0.877       1455.295         0.6665       -53.6607        -8.3777      0.2913667
       933.0000         0.8729       1432.924         0.6417       -53.4471        -8.1641         0.3151
       933.5000         0.8789        1423.49         0.6383       -53.2335        -7.9505      0.3388333
       934.0000         0.8846       1412.576         0.6349       -53.0198        -7.7368      0.3625778
       934.5000         0.8896       1399.854         0.6315       -52.8062        -7.5232      0.3863111
       935.0000         0.8932       1383.207         0.6323       -52.6738        -7.3908      0.4010222
       935.5000         0.8968       1363.984         0.6424        -52.632         -7.349      0.4056667
       936.0000         0.9001        1348.52         0.6524       -52.5901        -7.3071      0.4103222
       936.5000          0.903       1334.469         0.6625       -52.5483        -7.2653      0.4149667
       937.0000          0.906       1320.545         0.6697       -52.5137        -7.2307      0.4188111
       937.5000         0.9089       1309.063          0.674       -52.5496        -7.2666      0.4148222
       938.0000         0.9082       1297.578         0.6784       -52.5853        -7.3023      0.4108556
       938.5000         0.9074       1289.725         0.6813       -52.6211        -7.3381      0.4068778
       939.0000         0.9066       1282.777          0.674       -52.5428        -7.2598      0.4155778
       939.5000         0.8914       1389.691         0.6666        -52.364         -7.081      0.4354445
       940.0000         0.8759       1554.699         0.6559       -52.1852        -6.9022      0.4553111
       940.5000         0.8604       1712.779         0.6392        -52.027         -6.744      0.4728889
       941.0000         0.8412       1749.348         0.6224       -51.8879        -6.6049      0.4883445
       941.5000         0.8208        1769.27         0.6057       -52.0998        -6.8168         0.4648
       942.0000          0.796       1786.652         0.5886       -52.9963        -7.7133      0.3651889
       942.5000         0.7713       1804.232         0.5715       -53.7322        -8.4492      0.2834223
       943.0000         0.7573       1825.025         0.5544       -54.0992        -8.8162      0.2426444
       943.5000         0.7536       1842.246         0.5393       -54.3925        -9.1095      0.2100556
       944.0000         0.7594       1856.535         0.5297       -54.5347        -9.2517      0.1942555
       944.5000         0.7679       1863.059           0.52       -54.5671        -9.2841      0.1906556
       945.0000         0.7763       1806.748         0.5104       -54.4257        -9.1427      0.2063666
       945.5000         0.7839       1769.607         0.5069       -54.3794        -9.0964      0.2115111
       946.0000         0.7892       1744.705          0.504       -54.3331        -9.0501      0.2166555
       946.5000         0.7946       1719.049         0.5011       -54.2868        -9.0038         0.2218
       947.0000         0.7989       1693.557          0.513       -54.3409        -9.0579      0.2157888
       947.5000         0.8028        1661.73         0.5258       -54.3978        -9.1148      0.2094666
       948.0000         0.8066        1615.24         0.5442       -54.4546        -9.1716      0.2031555
       948.5000         0.8107       1528.904         0.5673       -54.5114        -9.2284      0.1968444
       949.0000         0.8231       1484.674         0.5904        -54.202         -8.919      0.2312223
       949.5000         0.8356       1451.492         0.6089       -53.8006        -8.5176      0.2758222
       950.0000         0.8489       1430.059         0.6231       -53.4856        -8.2026      0.3108223
       950.5000         0.8626       1416.213         0.6373       -53.1706        -7.8876      0.3458222
