#------------------------------------------------------------------------------
# Created by    : vladimir.rabinovich
# Created on    : 09/19/2023 17:22:50
#------------------------------------------------------------------------------
~Version Information Section
VERS.           2.0     :   CWLS log ASCII Standard - VERSION 2.0
WRAP.           NO      :   One line per depth step
~Well Information Section
#MNEM       .UNIT                                         VALUE :DESCRIPTION
#------------------------------------------------------------------------------
STRT        .FT                                            2472 :START DEPTH
STOP        .FT                                            8382 :STOP DEPTH
STEP        .FT                                             0.5 :STEP      
NULL        .                                           -999.25 :NULL      
COMP        .                                 EPL OIL & GAS LLC :COMPANY   
WELL        .                               OCS G07215 ST00BP00 :WELL      
FLD         .                                 BRAZOS BLOCK 0376 :FIELD     
LOC         .                                                   :LOCATION  
CNTY        .                                BRAZOS LARGE BLOCK :LOCATION  
STAT        .                                             TEXAS :STATE     
CTRY        .                                     UNITED STATES :COUNTRY   
SRVC        .                                                   :SERVICE COMPANY
DATE        .                             9/13/2023 11:19:08 AM :LOG DATE  
API         .                                    42704402290000 :API NUMBER
UWI         .                                    42704402290000 :UNIQUE WELL ID
XCOORD      .                                  871225.230552878 :SURFACE X 
YCOORD      .                                  10399792.7272756 :SURFACE Y 
LAT         .                                         28.636239 :LATITUDE  
LON         .                                        -95.398308 :LONGITUDE 
ELEV        .FT                                              95 :ELEVATION VALUE
ELEV_TYPE   .                                                KB :ELEVATION REFERENCE TYPE
~Curve Information Section
#MNEM       .UNIT                                      API CODE :CURVE DESCRIPTION
#------------------------------------------------------------------------------
DEPT        .FT                                                 :DEPTH     
DT          .US/F                                               :          
GR          .GAPI                                               :          
GR_NORM     .GAPI                                               :GammaRay Normalized
ILD         .OHMM                                               :          
ILM         .OHMM                                               :          
SFL         .OHMM                                               :          
SP          .MV                                                 :          
SP_NORM     .MV                                                 :SP Normalized
VSH_GR      .V/V                                                :Volume of Shale from GR
VSH_SP      .V/V                                                :Volume of Shale from SP
~A        DEPTH             DT             GR        GR_NORM            ILD            ILM            SFL             SP        SP_NORM         VSH_GR         VSH_SP
# ...
      4456.5000       114.3989        28.7599        36.5737         0.3094         0.3721         0.6047       -96.5114      -45.60706     0.07603617    0.008731927
      4457.0000       128.6763        31.0082       39.58097         0.3098         0.3833         0.5574       -94.3521      -43.45821      0.1400207     0.05648431
      4457.5000       135.8931        32.7976       41.97435         0.3109         0.3944         0.5284       -92.4425      -41.55906      0.1909437     0.09868766
      4458.0000       127.7858        33.5765       43.01594          0.312         0.4041          0.534       -91.3616      -40.48861      0.2131051      0.1224753
      4458.5000       122.2115        32.3328        41.3518         0.3131         0.4058         0.5847       -92.5193      -41.65675      0.1776979     0.09651659
      4459.0000       119.0826        30.4305       38.80663         0.3143         0.4052         0.6242       -95.7212       -44.8691      0.1235452     0.02513114
      4459.5000       117.1885        28.6326       36.40111         0.3155         0.4024         0.6419       -97.0753      -46.23365     0.07236408              0
      4460.0000         117.04        27.4641       34.83757         0.3165         0.3967         0.6435       -97.6798      -46.84859     0.03909724              0
      4460.5000       117.7352        27.5195        34.9113         0.3175         0.3943         0.6543       -97.8777      -47.05694     0.04066597              0
      4461.0000       118.4597        28.5222       36.25227         0.3184         0.3964         0.6739       -98.0015      -47.19119     0.06919731              0
      4461.5000       115.9269        30.0438       38.28741         0.3199         0.4005         0.6987       -98.0804      -47.28053      0.1124982              0
      4462.0000       113.7809        30.9986       39.56431         0.3215         0.4057         0.7139       -98.1667      -47.37729      0.1396661              0
      4462.5000       112.8186        31.6663       40.45714         0.3231         0.4117         0.7259       -98.3385      -47.55953      0.1586625              0
      4463.0000       111.4852        32.0475       40.96671         0.3248         0.4138         0.7376       -98.5858      -47.81728      0.1695044              0
      4463.5000       109.3696        32.0398       40.95602         0.3265          0.413         0.7602       -99.0427      -48.28463      0.1692771              0
      4464.0000       107.4257        30.8797       39.40372         0.3283         0.4042         0.7389       -99.4556      -48.70797      0.1362495              0
      4464.5000       105.4451        29.1623       37.10589         0.3314         0.3999         0.6933       -99.5583      -48.82111     0.08735941              0
      4465.0000        97.4548        28.1186       35.70931         0.3349         0.3971         0.6571       -98.5723      -47.84557     0.05764486              0
      4465.5000        84.6178        28.4321       36.12831         0.3382         0.4051         0.6396       -96.8898      -46.17351     0.06655973              0
      4466.0000        83.5277         28.914       36.77259         0.3399         0.4176         0.6473       -95.4011      -44.69526      0.0802678     0.02899424
      4466.5000        91.6251        29.1777       37.12497         0.3416         0.4358         0.6907       -94.5306      -43.83521     0.08776531     0.04810647
      4467.0000       106.6227        29.0318       36.92941         0.3407         0.4459         0.7132       -94.2449      -43.55996     0.08360445     0.05422321
      4467.5000       112.8953        28.6116       36.36691         0.3368         0.4464         0.6901       -94.3297       -43.6552     0.07163636     0.05210673
      4468.0000       116.7662        27.8292       35.31987         0.3329         0.4369         0.6564       -94.7601      -44.09605     0.04935894     0.04231008
      4468.5000       118.8308         26.567       33.63098         0.3284         0.4245         0.6204       -95.1635      -44.50989     0.01342514     0.03311352
      4469.0000       118.7109        25.7719       32.56696         0.3232         0.4126         0.6276       -95.2882      -44.64504              0     0.03011017
      4469.5000       119.4069        25.6368       32.38585         0.3181         0.4025         0.6567       -94.9099      -44.27718              0     0.03828481
      4470.0000       122.1434        25.7647       32.55657         0.3164         0.3957         0.6524       -94.1581      -43.53583              0      0.0547593
      4470.5000       123.4926        26.0135       32.88902         0.3149         0.3966         0.6413       -93.2483      -42.63648              0     0.07474484
      4471.0000       123.9236        26.6138       33.69168         0.3213         0.4026         0.6317       -91.8528      -41.25143     0.01471661      0.1055239
      4471.5000       123.5996         29.555       37.62588         0.3279         0.4107         0.6311       -90.6698      -40.07888       0.098423      0.1315805
      4472.0000       121.6143        33.4918       42.89194         0.3391         0.4203         0.6404        -90.073      -39.49252      0.2104668      0.1446106
      4472.5000       117.5229        33.6957       43.16433         0.3513         0.4325          0.675       -89.7753      -39.20527      0.2162623       0.150994
      4473.0000       112.0923        32.2524       41.23318         0.3653         0.4474         0.7318       -89.7101      -39.15052       0.175174      0.1522107
      4473.5000        99.7905        30.2203       38.51435         0.3801         0.4661         0.9431       -89.9005      -39.35136      0.1173267      0.1477475
      4474.0000        84.1312        28.0634       35.62859         0.3874         0.4893         1.8482       -89.9647      -39.42601     0.05592744      0.1460887
      4474.5000        72.8027        27.0714       34.30116         0.3947         0.5144         2.2314       -90.2413      -39.71306     0.02768415      0.1397097
      4475.0000        74.5156        26.6252       33.70388         0.4015         0.5249         2.0705       -91.5177       -40.9999      0.0149761      0.1111132
      4475.5000        88.8806        26.3322       33.31154         0.4046         0.5194         1.5018       -93.3661      -42.85875    0.006628483     0.06980557
      4476.0000       105.6202         26.081       32.97512          0.403         0.5071         0.9378       -94.6018       -44.1049              0     0.04211333
      4476.5000       113.6349        26.0925       32.99012         0.3987          0.488         0.8416       -95.2501      -44.76365              0     0.02747455
      4477.0000       121.3867        26.1032       33.00405         0.3932         0.4648         0.8714       -95.4045       -44.9285  0.00008619593     0.02381117
      4477.5000        138.866        25.9844       32.84474         0.3918         0.4512         0.8694       -94.6968      -44.23124              0     0.03930571
      4478.0000       146.8904        25.9292       32.77051         0.3926         0.4407          0.633       -93.1115      -42.65639              0     0.07430242
      4478.5000        145.489        26.0261       32.89976         0.3997         0.4392         0.6166       -91.4926      -41.04794              0      0.1100459
      4479.0000       141.2456        26.9561       34.14348           0.41          0.468         0.6845       -90.2339      -39.79969     0.02432941      0.1377847
      4479.5000       132.3455        30.6215       39.04647         0.4214         0.5192         0.8901       -89.9868      -39.56303      0.1286484      0.1430438
      4480.0000       121.2456        33.7476       43.22802         0.4347         0.5617         1.1866       -89.8604      -39.44707      0.2176175      0.1456206
      4480.5000        123.703        34.4569       44.17651          0.448         0.5877         1.1969       -89.7948      -39.39193       0.237798      0.1468461
