#------------------------------------------------------------------------------
# Created by    : vladimir.rabinovich
# Created on    : 09/19/2023 17:21:25
#------------------------------------------------------------------------------
~Version Information Section
VERS.           2.0     :   CWLS log ASCII Standard - VERSION 2.0
WRAP.           NO      :   One line per depth step
~Well Information Section
#MNEM       .UNIT                                         VALUE :DESCRIPTION
#------------------------------------------------------------------------------
STRT        .FT                                            2957 :START DEPTH
STOP        .FT                                            7390 :STOP DEPTH
STEP        .FT                                             0.5 :STEP      
NULL        .                                           -999.25 :NULL      
COMP        .                              DEVON LOUISIANA CORP :COMPANY   
WELL        .                               OCS G09039 ST00BP00 :WELL      
FLD         .                              GALVESTON BLOCK 0273 :FIELD     
LOC         .                                                   :LOCATION  
CNTY        .                             GALVESTON LARGE BLOCK :LOCATION  
STAT        .                                             TEXAS :STATE     
CTRY        .                                     UNITED STATES :COUNTRY   
SRVC        .                                                   :SERVICE COMPANY
DATE        .                             9/13/2023 11:19:54 AM :LOG DATE  
API         .                                    42706403330000 :API NUMBER
UWI         .                                    42706403330000 :UNIQUE WELL ID
XCOORD      .                                  1020560.14583294 :SURFACE X 
YCOORD      .                                  10500181.0477632 :SURFACE Y 
LAT         .                                        28.9197225 :LATITUDE  
LON         .                                       -94.9380297 :LONGITUDE 
ELEV        .FT                                              98 :ELEVATION VALUE
ELEV_TYPE   .                                                KB :ELEVATION REFERENCE TYPE
~Curve Information Section
#MNEM       .UNIT                                      API CODE :CURVE DESCRIPTION
#------------------------------------------------------------------------------
DEPT        .FT                                                 :DEPTH     
CALI        .IN                                                 :          
DCAL        .IN                                                 :          
DPHI        .%                                                  :          
DRHO        .G/C3                                               :          
GR          .GAPI                                               :          
GR_NORM     .GAPI                                               :GammaRay Normalized
ILD         .OHMM                                               :          
ILM         .OHMM                                               :          
LL3         .OHMM                                               :          
NPHI        .%                                                  :          
SP          .MV                                                 :          
SP_NORM     .MV                                                 :SP Normalized
VSH_GR      .V/V                                                :Volume of Shale from GR
VSH_SP      .V/V                                                :Volume of Shale from SP
~A        DEPTH           CALI           DCAL           DPHI           DRHO             GR        GR_NORM            ILD            ILM            LL3           NPHI             SP        SP_NORM         VSH_GR         VSH_SP
# ...
      6773.0000         9.2299         -0.725        18.9416         0.0588        88.2692       81.72516         1.1219         1.1996         1.1536        43.3168        -16.905       0.481678              1              1
      6773.5000         9.2024        -0.7508        19.0297          0.058        88.4469       81.92892         1.1209         1.1876         1.1204        43.3613       -17.0032      0.3810749              1              1
      6774.0000         9.1611        -0.7778        19.0978          0.055        87.4103       80.74029         1.1185         1.1714         1.1179        42.9326       -17.2273      0.1545696              1              1
      6774.5000         9.1252         -0.796        19.1627         0.0489        86.5493       79.75301         1.1167         1.1589         1.0664        42.4874        -17.463    -0.08353424       0.994745      0.9988067
      6775.0000         9.1087        -0.8052        19.2381         0.0424        86.7224       79.95148         1.1162         1.1546         1.0764        42.1984       -17.5564     -0.1793385      0.9989678       0.997438
      6775.5000         9.1216        -0.7869        19.2646         0.0403        87.1161       80.40293         1.1164         1.1584         1.0854        41.8088       -17.5411     -0.1664429              1      0.9976223
      6776.0000         9.1472        -0.7557        19.1428         0.0441        86.4148       79.59878         1.1167         1.1668         1.0945        41.1732        -17.525     -0.1527462      0.9914634      0.9978179
      6776.5000         9.1811        -0.7202        18.6444         0.0533        84.6089       77.52801         1.1166          1.176         1.1588        40.3648       -17.5478     -0.1779518      0.9474044      0.9974578
      6777.0000         9.2179        -0.6909        17.9788         0.0646        83.5713       76.33823         1.1168         1.1838         1.1929        39.8531       -17.6753     -0.3078575      0.9220899       0.995602
      6777.5000         9.2479          -0.66        17.4807         0.0714        83.1766       75.88564         1.1184         1.1894         1.2608        39.8653       -17.8403     -0.4752598      0.9124603      0.9932106
      6778.0000         9.2827        -0.6416        17.3134         0.0685        84.7003       77.63282         1.1212         1.1919         1.2645        40.1963       -17.8757     -0.5130653      0.9496345      0.9926705
      6778.5000         9.2999        -0.6435        17.4104         0.0593        87.4473       80.78272         1.1239         1.1917          1.161        40.5309       -17.7656     -0.4053707              1       0.994209
      6779.0000         9.2954        -0.6513        17.6274         0.0512        89.3916       83.01218         1.1252         1.1899          1.156        40.7034       -17.5033     -0.1454735              1      0.9979218
      6779.5000         9.2862        -0.6567        17.7966         0.0497        90.6466       84.45123          1.125          1.188         1.1454        40.7835       -17.2155      0.1399212              1              1
      6780.0000         9.2739        -0.6661        17.7151         0.0539        90.8807       84.71968         1.1244          1.188         1.1664        40.9532       -16.9853      0.3677177              1              1
      6780.5000         9.2596        -0.6803        17.4375         0.0624        89.6213       83.27557         1.1249         1.1915         1.1725        41.0497       -16.8281      0.5225124              1              1
      6781.0000         9.2438        -0.6938        17.1234         0.0641        86.4591       79.64957         1.1279         1.1987         1.1437        40.7639       -16.7093      0.6389084      0.9925441              1
      6781.5000         9.2277        -0.7068        16.8003         0.0609        83.3267       76.05775         1.1345         1.2101         1.1753        39.9307       -16.6858      0.6600037      0.9161224              1
      6782.0000         9.2149        -0.7165        16.4413         0.0631        82.9258       75.59805          1.145         1.2259         1.1697         38.698       -16.7118      0.6315994      0.9063416              1
      6782.5000         9.2066        -0.7004        16.1149         0.0715        83.4558        76.2058         1.1596         1.2458         1.0545         37.342       -16.8037      0.5372944      0.9192722              1
      6783.0000         9.2181        -0.6647        15.8472         0.0805        83.5476       76.31106         1.1766          1.269         1.0911        36.3127       -17.0691      0.2694912      0.9215119              1
      6783.5000         9.2587        -0.6207        15.6708         0.0829        83.2241       75.94011         1.1956          1.294         1.2227        35.7145       -17.3919    -0.05571365      0.9136193      0.9992041
      6784.0000         9.3138         -0.593        15.7364         0.0774        82.6639       75.29775         1.2175         1.3186         1.2621        35.6824       -17.6533     -0.3195171      0.8999522      0.9954355
      6784.5000         9.3419        -0.5662        16.0776         0.0694         82.344       74.93092         1.2456         1.3407          1.312         36.019       -17.7791     -0.4477234      0.8921473      0.9936039
      6785.0000         9.3515        -0.5637        17.0969         0.0653        83.5465       76.30979         1.2806         1.3612         1.3124        36.5122       -17.6154     -0.2864285      0.9214849      0.9959081
      6785.5000         9.3488        -0.5805        17.6621         0.0652        84.8806       77.83957         1.3214         1.3842         1.2414        36.8312       -17.2437     0.08286858      0.9540334              1
      6786.0000         9.3363        -0.6059        17.9613         0.0657         85.723       78.80551         1.3635         1.4168         1.1821        36.8533       -17.0478      0.2763634      0.9745854              1
      6786.5000         9.3276        -0.6103        18.2176         0.0602        86.1122       79.25179         1.4021         1.4674         1.2483        36.3578       -17.1288      0.1929607      0.9840807              1
      6787.0000         9.3253        -0.6135         18.362         0.0531        86.1478       79.29262         1.4415         1.5403         1.3268        35.3693       -17.5016     -0.1822453      0.9849493      0.9973965
      6787.5000         9.3251        -0.6151        18.4812         0.0499        84.4631       77.36082         1.4954         1.6338         1.3963        33.8224       -18.3758      -1.058849      0.9438474      0.9848736
      6788.0000         9.3361         -0.596         18.557         0.0514         81.548       74.01818         1.5541         1.7407          1.435        31.7114       -19.8664      -2.551853      0.8727273       0.963545
      6788.5000         9.3511        -0.5759        18.5714         0.0538        79.2555       71.38944         1.6053         1.8469         1.5479        29.3898       -21.6005      -4.288359      0.8167967      0.9387378
      6789.0000         9.3691         -0.556        18.6049         0.0584        76.2118       67.89934         1.6337         1.9296         1.7718        27.7256       -23.2758      -5.966064      0.7425391      0.9147705
      6789.5000         9.3882        -0.5368        18.7173         0.0602        72.0516       63.12897         1.6353           1.97         1.8095        26.4959       -24.4052      -7.097866       0.641042      0.8986019
      6790.0000         9.4046         -0.521        18.9108         0.0588        69.6332       60.35588         1.6178         1.9624         1.8781        25.8558       -24.7975      -7.492573        0.58204      0.8929632
      6790.5000         9.4174        -0.5247        19.1409          0.053        68.5364       59.09821         1.5988         1.9007         1.8708        25.9305       -24.7037      -7.401175      0.5552811      0.8942689
