#------------------------------------------------------------------------------
# Created by    : vladimir.rabinovich
# Created on    : 09/19/2023 17:20:49
#------------------------------------------------------------------------------
~Version Information Section
VERS.           2.0     :   CWLS log ASCII Standard - VERSION 2.0
WRAP.           NO      :   One line per depth step
~Well Information Section
#MNEM       .UNIT                                         VALUE :DESCRIPTION
#------------------------------------------------------------------------------
STRT        .FT                                             507 :START DEPTH
STOP        .FT                                            6530 :STOP DEPTH
STEP        .FT                                             0.5 :STEP      
NULL        .                                           -999.25 :NULL      
COMP        .                                      SHELL OIL CO :COMPANY   
WELL        .                                ST TR 00692-L SE/4 :WELL      
FLD         .                                           WILDCAT :FIELD     
LOC         .                                                   :LOCATION  
CNTY        .                      MATAGORDA ISLAND LARGE BLOCK :LOCATION  
STAT        .                                             TEXAS :STATE     
CTRY        .                                     UNITED STATES :COUNTRY   
SRVC        .                                                   :SERVICE COMPANY
DATE        .                             9/13/2023 11:12:05 AM :LOG DATE  
API         .                                    42703000180000 :API NUMBER
UWI         .                                    42703000180000 :UNIQUE WELL ID
XCOORD      .                                  399042.886430441 :SURFACE X 
YCOORD      .                                  10159669.4462586 :SURFACE Y 
LAT         .                                        27.9430215 :LATITUDE  
LON         .                                       -96.8445442 :LONGITUDE 
ELEV        .FT                                              84 :ELEVATION VALUE
ELEV_TYPE   .                                                DF :ELEVATION REFERENCE TYPE
~Curve Information Section
#MNEM       .UNIT                                      API CODE :CURVE DESCRIPTION
#------------------------------------------------------------------------------
DEPT        .FT                                                 :DEPTH     
ASN         .OHMM                                               :          
CILD        .MMHO                                               :          
ILD         .OHMM                                               :          
SP          .MV                                                 :          
SP_NORM     .MV                                                 :SP Normalized
VSH_SP      .V/V                                                :Volume of Shale from SP
~A        DEPTH            ASN           CILD            ILD             SP        SP_NORM         VSH_SP
# ...
      6511.0000         1.0188       1393.932         0.7534       -41.8243         0.0354              1
      6511.5000         0.9872       1436.055         0.7395       -42.0481        -0.2061              1
      6512.0000         0.9556       1472.168         0.7469       -42.2619        -0.4375              1
      6512.5000         0.9367       1488.756          0.762       -42.4009        -0.5942              1
      6513.0000         0.9203       1506.059         0.7739         -42.54        -0.7509              1
      6513.5000         0.9038       1524.154         0.7857       -42.6789        -0.9075              1
      6514.0000         0.8874       1535.686         0.7975       -42.6322        -0.8784              1
      6514.5000         0.8704       1544.684         0.8093       -42.5799        -0.8438              1
      6515.0000         0.8644       1544.844         0.8173       -42.5276        -0.8091              1
      6515.5000         0.8644       1526.971         0.8253       -42.4753        -0.7745              1
      6516.0000         0.8678       1505.836         0.8333        -42.423        -0.7398              1
      6516.5000          0.876       1484.381         0.8409       -42.3707        -0.7052              1
      6517.0000         0.8869       1462.924          0.844       -42.3184        -0.6705              1
      6517.5000         0.8978       1436.152         0.8471       -42.2581        -0.6279              1
      6518.0000         0.9088       1408.666         0.8502       -42.1893        -0.5767              1
      6518.5000         0.9197       1381.943         0.8489       -42.1207        -0.5258              1
      6519.0000         0.9306       1356.359         0.8408       -42.0519        -0.4746              1
      6519.5000         0.9415       1335.102         0.8328       -41.9832        -0.4236              1
      6520.0000         0.9524       1318.613         0.8247       -42.0059        -0.4639              1
      6520.5000         0.9633         1302.1         0.8168       -42.0361        -0.5118              1
      6521.0000         0.9753       1285.613         0.8092       -42.0663        -0.5569              1
      6521.5000         0.9782       1270.102         0.8015       -42.0964         -0.587              1
      6522.0000         0.9479       1277.975         0.7938       -42.1266        -0.6172              1
      6522.5000         0.9285       1286.168         0.7868       -42.1568        -0.6474              1
      6523.0000         0.9304       1297.576         0.7811        -42.187        -0.6776              1
      6523.5000         0.9374       1310.158         0.7754       -42.2172        -0.7078              1
      6524.0000         0.9444       1322.754         0.7697       -42.2474         -0.738              1
      6524.5000         0.9514       1318.379          0.764       -42.2454         -0.736              1
      6525.0000         0.9585       1310.838         0.7583       -42.2153        -0.7059              1
      6525.5000         0.9655       1308.781         0.7555       -42.1852        -0.6758              1
      6526.0000         0.9696       1306.723         0.7535       -42.1552        -0.6458              1
      6526.5000         0.9579       1304.666         0.7515       -42.1252        -0.6158              1
      6527.0000         0.9461       1306.117         0.7494       -42.0951        -0.5857              1
      6527.5000         0.9343       1311.191         0.7474       -42.0654         -0.556              1
      6528.0000         0.9247       1315.584         0.7453       -42.0399        -0.5305              1
      6528.5000          0.919       1319.484         0.7437       -42.0142        -0.5048              1
      6529.0000         0.9226       1323.328         0.7421       -41.9886        -0.4792              1
      6529.5000         0.9303       1326.318         0.7406        -41.963        -0.4536              1
      6530.0000         0.9381       1329.313          0.739       -41.9374         -0.428              1
