#------------------------------------------------------------------------------
# Created by    : vladimir.rabinovich
# Created on    : 09/19/2023 17:20:32
#------------------------------------------------------------------------------
~Version Information Section
VERS.           2.0     :   CWLS log ASCII Standard - VERSION 2.0
WRAP.           NO      :   One line per depth step
~Well Information Section
#MNEM       .UNIT                                         VALUE :DESCRIPTION
#------------------------------------------------------------------------------
STRT        .FT                                             530 :START DEPTH
STOP        .FT                                           15895 :STOP DEPTH
STEP        .FT                                             0.5 :STEP      
NULL        .                                           -999.25 :NULL      
COMP        .                                      SHELL OIL CO :COMPANY   
WELL        .                                OCS 00708 ST00BP00 :WELL      
FLD         .                                FEDERAL BLOCK 0288 :FIELD     
LOC         .                                                   :LOCATION  
CNTY        .                             GALVESTON LARGE BLOCK :LOCATION  
STAT        .                                             TEXAS :STATE     
CTRY        .                                     UNITED STATES :COUNTRY   
SRVC        .                                                   :SERVICE COMPANY
DATE        .                             9/13/2023 11:19:24 AM :LOG DATE  
API         .                                    42706000930000 :API NUMBER
UWI         .                                    42706000930000 :UNIQUE WELL ID
XCOORD      .                                  1077631.85251343 :SURFACE X 
YCOORD      .                                  10490946.9562601 :SURFACE Y 
LAT         .                                         28.896779 :LATITUDE  
LON         .                                        -94.759235 :LONGITUDE 
ELEV        .FT                                              76 :ELEVATION VALUE
ELEV_TYPE   .                                                KB :ELEVATION REFERENCE TYPE
~Curve Information Section
#MNEM       .UNIT                                      API CODE :CURVE DESCRIPTION
#------------------------------------------------------------------------------
DEPT        .FT                                                 :DEPTH     
ASN         .OHMM                                               :          
CILD        .MMHO                                               :          
SP          .MV                                                 :          
SP_NORM     .MV                                                 :SP Normalized
VSH_SP      .V/V                                                :Volume of Shale from SP
~A        DEPTH            ASN           CILD             SP        SP_NORM         VSH_SP
# ...
     11750.0000         0.5028        2619.75       -40.7832     -0.7831993              1
     11750.5000         0.5055       2645.625       -40.8571     -0.8571014              1
     11751.0000         0.5081       2659.969       -40.9309     -0.9309006              1
     11751.5000         0.5108       2639.813       -40.9718     -0.9718018              1
     11752.0000         0.5128       2619.656       -40.9921     -0.9920998              1
     11752.5000         0.5148       2599.656       -41.0123      -1.012299      0.9996846
     11753.0000         0.5152        2579.75       -41.0325      -1.032501      0.9991666
     11753.5000         0.5156       2559.406       -41.0527        -1.0527      0.9986487
     11754.0000         0.5158       2537.125       -41.0729      -1.072899      0.9981308
     11754.5000          0.516       2516.125       -41.0931      -1.093102      0.9976128
     11755.0000         0.5161           2502       -41.1133        -1.1133      0.9970949
     11755.5000         0.5163           2489       -41.1335      -1.133499       0.996577
     11756.0000         0.5172       2489.938       -41.1537      -1.153702      0.9960589
     11756.5000         0.5182       2504.563       -41.1739      -1.173901       0.995541
     11757.0000         0.5191       2517.797       -41.1941      -1.194099      0.9950231
     11757.5000         0.5201       2523.953        -41.214      -1.214001      0.9945128
     11758.0000         0.5202       2530.094       -41.2333      -1.233299       0.994018
     11758.5000         0.5201       2534.891       -41.2526      -1.252602      0.9935231
     11759.0000          0.519       2538.641       -41.2719        -1.2719      0.9930282
     11759.5000         0.5168       2542.383       -41.2911        -1.2911      0.9925359
     11760.0000         0.5145       2549.125       -41.3104      -1.310398      0.9920411
     11760.5000         0.5119       2560.813       -41.3297        -1.3297      0.9915462
     11761.0000         0.5085         2572.5       -41.3799      -1.379902      0.9902589
     11761.5000          0.505       2597.938       -41.4323      -1.432301      0.9889154
     11762.0000         0.5016       2623.125       -41.4846        -1.4846      0.9875743
     11762.5000         0.4981       2640.969        -41.537      -1.536999      0.9862308
     11763.0000         0.4936       2658.531       -41.5894      -1.589401      0.9848871
     11763.5000         0.4891       2675.969       -41.5992      -1.599201      0.9846359
     11764.0000         0.4846       2690.656       -41.5699      -1.569901      0.9853871
     11764.5000         0.4818        2706.25       -41.5407      -1.540699      0.9861359
     11765.0000         0.4797         2736.5       -41.5115      -1.511501      0.9868846
     11765.5000         0.4775         2778.5       -41.4822      -1.482201      0.9876359
     11766.0000         0.4753       2821.625        -41.453      -1.452999      0.9883847
     11766.5000         0.4732       2855.938       -41.4238      -1.423801      0.9891333
     11767.0000         0.4712        2880.75       -41.3945      -1.394501      0.9898846
     11767.5000         0.4703       2904.063       -41.3578        -1.3578      0.9908257
     11768.0000         0.4693       2923.859       -41.3125        -1.3125      0.9919872
     11768.5000         0.4684       2934.875       -41.2672        -1.2672      0.9931487
     11769.0000         0.4675       2943.906        -41.222         -1.222      0.9943077
     11769.5000         0.4666       2934.719       -41.1768        -1.1768      0.9954666
     11770.0000         0.4657       2925.438       -41.1315        -1.1315      0.9966282
     11770.5000         0.4651       2915.828       -41.0862      -1.086201      0.9977897
     11771.0000         0.4646       2906.219       -41.0409      -1.040901      0.9989513
     11771.5000         0.4641       2896.625       -41.0082      -1.008202      0.9997897
     11772.0000         0.4636       2887.063       -40.9835     -0.9835014              1
     11772.5000         0.4631         2877.5       -40.9587     -0.9586983              1
     11773.0000         0.4632       2866.594       -40.9338     -0.9337997              1
     11773.5000         0.4633       2850.469       -40.9091     -0.9090996              1
     11774.0000         0.4634       2839.188       -40.8843     -0.8843002              1
     11774.5000         0.4635       2867.313       -40.8595     -0.8595009              1
     11775.0000         0.4636       2887.938       -40.8347     -0.8347015              1
     11775.5000         0.4638       2904.438       -40.8099     -0.8098984              1
     11776.0000         0.4641       2905.875       -40.7882     -0.7882004              1
     11776.5000         0.4644       2898.641       -40.7833     -0.7832985              1
     11777.0000         0.4647        2889.25       -40.7783     -0.7783012              1
     11777.5000         0.4651       2872.188       -40.7734     -0.7733994              1
     11778.0000         0.4664       2855.094       -40.7685     -0.7685013              1
     11778.5000         0.4681       2836.688       -40.7635     -0.7635002              1
     11779.0000         0.4698        2816.25       -40.7586     -0.7585983              1
     11779.5000         0.4716       2791.625       -40.7537     -0.7537003              1
     11780.0000         0.4727         2769.5       -40.7774      -0.777401              1
     11780.5000         0.4736         2770.5       -40.8035     -0.8035011              1
     11781.0000          0.472        2783.25       -40.8297     -0.8297005              1
     11781.5000           0.47       2803.781       -40.8559     -0.8558998              1
     11782.0000          0.468       2824.313        -40.882         -0.882              1
     11782.5000         0.4659       2845.469       -40.9082     -0.9081993              1
     11783.0000         0.4639       2867.813       -40.9344     -0.9343987              1
     11783.5000         0.4628       2894.938       -40.9695     -0.9695015              1
     11784.0000          0.464       2921.438       -41.0933        -1.0933      0.9976077
     11784.5000         0.4652           2874       -41.2173        -1.2173      0.9944282
     11785.0000         0.4664       2826.375       -41.2904      -1.290401      0.9925538
     11785.5000          0.468         2777.5       -41.3116        -1.3116      0.9920102
     11786.0000         0.4699           2726       -41.3328      -1.332802      0.9914666
     11786.5000         0.4719       2698.625       -41.3541      -1.354099      0.9909205
     11787.0000         0.4738       2684.609       -41.3753      -1.375301      0.9903769
     11787.5000         0.4725       2682.219       -41.3965        -1.3965      0.9898334
     11788.0000         0.4705       2697.719       -41.3896      -1.389599      0.9900103
     11788.5000         0.4684           2745       -41.3687      -1.368698      0.9905462
     11789.0000         0.4655       2795.625       -41.3478      -1.347801       0.991082
     11789.5000         0.4626         2897.5       -41.3269        -1.3269      0.9916179
     11790.0000         0.4623       2992.188        -41.306         -1.306      0.9921538
     11790.5000         0.4625           3019       -41.2851      -1.285099      0.9926898
     11791.0000         0.4627       3033.844       -41.2642      -1.264198      0.9932257
     11791.5000         0.4629       3044.078       -41.2469      -1.246899      0.9936693
     11792.0000         0.4631       3037.781       -41.2424      -1.242401      0.9937846
     11792.5000         0.4633       3006.125       -41.2379        -1.2379         0.9939
     11793.0000         0.4637       2957.375       -41.2333      -1.233299       0.994018
     11793.5000         0.4698        2907.25       -41.2289      -1.228901      0.9941307
