#------------------------------------------------------------------------------
# Created by    : vladimir.rabinovich
# Created on    : 09/19/2023 17:21:33
#------------------------------------------------------------------------------
~Version Information Section
VERS.           2.0     :   CWLS log ASCII Standard - VERSION 2.0
WRAP.           NO      :   One line per depth step
~Well Information Section
#MNEM       .UNIT                                         VALUE :DESCRIPTION
#------------------------------------------------------------------------------
STRT        .FT                                            3683 :START DEPTH
STOP        .FT                                            9328 :STOP DEPTH
STEP        .FT                                             0.5 :STEP      
NULL        .                                           -999.25 :NULL      
COMP        .                                SHELL OFFSHORE INC :COMPANY   
WELL        .                               OCS G11316 ST00BP00 :WELL      
FLD         .                                           WILDCAT :FIELD     
LOC         .                                                   :LOCATION  
CNTY        .                             GALVESTON LARGE BLOCK :LOCATION  
STAT        .                                             TEXAS :STATE     
CTRY        .                                     UNITED STATES :COUNTRY   
SRVC        .                                                   :SERVICE COMPANY
DATE        .                             9/13/2023 11:19:34 AM :LOG DATE  
API         .                                    42706402670000 :API NUMBER
UWI         .                                    42706402670000 :UNIQUE WELL ID
XCOORD      .                                  1097534.45360284 :SURFACE X 
YCOORD      .                                  10461685.9172371 :SURFACE Y 
LAT         .                                         28.817107 :LATITUDE  
LON         .                                        -94.695737 :LONGITUDE 
ELEV        .FT                                              91 :ELEVATION VALUE
ELEV_TYPE   .                                                KB :ELEVATION REFERENCE TYPE
~Curve Information Section
#MNEM       .UNIT                                      API CODE :CURVE DESCRIPTION
#------------------------------------------------------------------------------
DEPT        .FT                                                 :DEPTH     
CALI        .IN                                                 :          
CALI_1      .IN                                                 :          
CILD        .MMHO                                               :          
DRHO        .G/C3                                               :          
DT          .US/F                                               :          
GR          .GAPI                                               :          
GR_1        .GAPI                                               :          
GR_NORM     .GAPI                                               :GammaRay Normalized
ILD         .OHMM                                               :          
ILM         .OHMM                                               :          
NPHI        .%                                                  :          
RHOB        .G/C3                                               :          
SFL         .OHMM                                               :          
SP          .MV                                                 :          
SP_NORM     .MV                                                 :SP Normalized
VSH_GR      .V/V                                                :Volume of Shale from GR
VSH_SP      .V/V                                                :Volume of Shale from SP
~A        DEPTH           CALI         CALI_1           CILD           DRHO             DT             GR           GR_1        GR_NORM            ILD            ILM           NPHI           RHOB            SFL             SP        SP_NORM         VSH_GR         VSH_SP
# ...
      5393.0000        13.4963          13.53        1888.02        -0.0078       111.3259        50.1124        50.2068       51.61534         0.4769         0.4599        37.3926         2.2556         0.5041       -40.6497       -23.0577      0.3960711      0.6157049
      5393.5000        13.4906        13.5271       2255.207        -0.0163         111.91        49.9766        50.2897       51.74533         0.4457         0.4064        37.8772         2.2414         0.4415       -41.7192      -24.79012      0.3988368      0.5868313
      5394.0000        13.4896        13.5237        2388.41        -0.0223       112.9766        49.9811        50.5884       52.21251         0.4164         0.3733        38.0145          2.231         0.4048       -42.4691      -26.00483      0.4087767      0.5665861
      5394.5000         13.499        13.5159       2075.445        -0.0188        114.054        50.5714        51.1943       53.15968         0.4509         0.4036        37.7486         2.2357         0.4697       -42.8982      -26.69991      0.4289293      0.5550016
      5395.0000         13.519        13.5368       1808.648        -0.0098       113.0931        51.4068        50.7956       52.53716         0.5142         0.4728        37.4186         2.2458         0.5351       -43.2559      -27.27932      0.4156842      0.5453447
      5395.5000        13.5673        13.5937       1749.219        -0.0032       111.6025        50.5793        50.3637       51.86277         0.5476          0.512        37.0938         2.2542         0.5672       -43.4934      -27.66403      0.4013355      0.5389329
      5396.0000        13.6156        13.6618       1684.975        -0.0065       110.0713        50.0273        50.5123       52.09541         0.5658         0.5337        37.0414         2.2577         0.5934       -43.3582      -27.44503      0.4062852      0.5425829
      5396.5000        13.6865        13.7319       1528.395        -0.0106       109.1135        51.6835        51.1827       53.14336         0.6026         0.5674        37.7349         2.2511         0.6343       -41.8375      -24.98175      0.4285822      0.5836375
      5397.0000        13.7909        13.8417       1355.703        -0.0118       109.3253        53.8128        52.9377         55.886          0.665         0.6229        38.3295         2.2405          0.752       -40.3108      -22.50874      0.4869362      0.6248543
      5397.5000        13.9273        13.9731       1249.318        -0.0109       111.4097        55.6661        55.1725       59.37832          0.738         0.6829        38.8532         2.2296         0.8478       -38.9233      -20.26122      0.5612409      0.6623129
      5398.0000        14.1315        14.1407       1144.309        -0.0113       116.1592        56.9895        56.7964       61.91612         0.7962         0.7378        39.3371         2.2191         0.8896       -37.6245      -18.15738      0.6152366       0.697377
      5398.5000        14.3333        14.3675       1067.736        -0.0114       118.4529         57.446         57.553       63.09875         0.8376         0.7935        39.7336         2.2076         0.9159       -36.3627      -16.11348       0.640399      0.7314421
      5399.0000        14.4919        14.5049       1119.652        -0.0105       119.4374        57.5853        57.9055          63.65         0.8766          0.816        40.1205         2.1976         0.9371       -35.1859      -14.20725      0.6521276      0.7632124
      5399.5000        14.5997        14.6119        1264.15        -0.0063       119.2059        58.1417        58.3269       64.30889         0.8222         0.7776         40.798         2.1855         0.9305       -33.9844      -12.26102      0.6661466      0.7956496
      5400.0000        14.6963        14.7156       1406.686        -0.0008       119.6035        59.8533         59.072       65.47355         0.7224         0.6114        43.1708         2.1669         0.8396       -32.7115      -10.19913      0.6909266      0.8300145
      5400.5000        14.7762           14.8       1517.688          0.001       120.8706        62.8624        61.5283       69.31198         0.6629         0.5358        44.7616         2.1592         0.7548       -31.6321      -8.450683      0.7725953      0.8591553
      5401.0000        14.6884        14.7238       1603.639         0.0002       122.3785        65.8813        65.4489       75.43837          0.627         0.5194        45.8118         2.1598          0.696        -30.679      -6.906821       0.902944      0.8848863
      5401.5000        14.5958         14.627       1649.416        -0.0007       124.1958        67.9022        68.1067       79.59163         0.6056         0.5209        46.2599         2.1738         0.6855       -29.9094      -5.660196      0.9913113      0.9056634
      5402.0000        14.4817        14.5125       1575.152         0.0018       126.0155        68.3286        68.7324       80.56973         0.6122         0.5549        46.5868         2.1894         0.7048       -29.2299      -4.559517              1      0.9240081
      5402.5000        14.3663        14.3753       1436.939         0.0033       126.5552        67.4734        68.0238       79.46301         0.6748          0.633        46.8817         2.1982         0.7333       -28.7413      -3.768067      0.9885746      0.9371989
      5403.0000        14.2734        14.2667       1317.393        -0.0042       125.7086        66.3607        66.0078       76.31346         0.7297         0.7043        47.1867         2.1955         0.7561       -28.3611      -3.152203       0.921563      0.9474633
      5403.5000        14.2914        14.2837       1358.551        -0.0128       124.6876        64.4248        63.9264       73.06172         0.7152         0.6811        47.4827         2.1848         0.7658       -28.0404      -2.632723      0.8523771      0.9561213
      5404.0000        14.3448         14.355       1583.305        -0.0163       123.7808         62.842        62.6933       71.13545          0.652         0.6066        47.8582         2.1741          0.778       -27.6376      -1.980254      0.8113926      0.9669958
      5404.5000        14.3981        14.4143       1722.795        -0.0144        123.371        61.9548        61.9729       70.01028          0.589         0.5036         48.225         2.1673         0.7959       -27.4768      -1.719786      0.7874529      0.9713369
      5405.0000        14.4324        14.4061       1606.291        -0.0122       124.0497        61.1644        61.3582       69.05028         0.6205         0.5222        48.5478         2.1639         0.7864       -27.4706      -1.709742      0.7670272      0.9715043
      5405.5000        14.3989        14.3246       1518.791        -0.0105       125.0148        60.1514        60.1876       67.22166         0.6351          0.542         48.868         2.1618         0.7301       -27.5485      -1.835927      0.7281205      0.9694012
      5406.0000        14.2897        14.2211       1642.342        -0.0123       125.3401        59.1564        58.5489       64.66165         0.6153         0.5049        49.1467         2.1613         0.6963       -27.5622      -1.858119      0.6736522      0.9690313
      5406.5000        14.0896        14.0194       1512.383        -0.0072       124.4856        58.0923        57.0833       62.37209          0.625          0.556        49.4137         2.1647         0.6787       -27.4716      -1.711361      0.6249381      0.9714773
      5407.0000          13.92        13.8728       1273.777         0.0002       123.0145        57.7757        59.4481       66.06757          0.776         0.6582        49.7015         2.1708         0.8342       -27.4097      -1.611094      0.7035652      0.9731484
      5407.5000        13.7938        13.7783       1216.803          0.005       121.1592        59.3345        60.8567       68.26895         0.8025         0.7132        49.9066         2.1786         0.8943       -27.5546      -1.845807      0.7504032      0.9692366
