#------------------------------------------------------------------------------
# Created by    : vladimir.rabinovich
# Created on    : 09/19/2023 17:20:10
#------------------------------------------------------------------------------
~Version Information Section
VERS.           2.0     :   CWLS log ASCII Standard - VERSION 2.0
WRAP.           NO      :   One line per depth step
~Well Information Section
#MNEM       .UNIT                                         VALUE :DESCRIPTION
#------------------------------------------------------------------------------
STRT        .FT                                            1664 :START DEPTH
STOP        .FT                                            5300 :STOP DEPTH
STEP        .FT                                             0.5 :STEP      
NULL        .                                           -999.25 :NULL      
COMP        .                       CORPUS CHRISTI OIL & GAS CO :COMPANY   
WELL        .                                ST TR 00597-L NE/4 :WELL      
FLD         .                                           WILDCAT :FIELD     
LOC         .                                                   :LOCATION  
CNTY        .                      MATAGORDA ISLAND LARGE BLOCK :LOCATION  
STAT        .                                             TEXAS :STATE     
CTRY        .                                     UNITED STATES :COUNTRY   
SRVC        .                                                   :SERVICE COMPANY
DATE        .                             9/13/2023 11:12:01 AM :LOG DATE  
API         .                                    42703301570000 :API NUMBER
UWI         .                                    42703301570000 :UNIQUE WELL ID
XCOORD      .                                   499677.54355151 :SURFACE X 
YCOORD      .                                  10240770.6634848 :SURFACE Y 
LAT         .                                        28.1741034 :LATITUDE  
LON         .                                       -96.5406837 :LONGITUDE 
ELEV        .FT                                              79 :ELEVATION VALUE
ELEV_TYPE   .                                                KB :ELEVATION REFERENCE TYPE
~Curve Information Section
#MNEM       .UNIT                                      API CODE :CURVE DESCRIPTION
#------------------------------------------------------------------------------
DEPT        .FT                                                 :DEPTH     
ASFL        .OHMM                                               :          
CILD        .MMHO                                               :          
ILD         .OHMM                                               :          
SP          .MV                                                 :          
SP_NORM     .MV                                                 :SP Normalized
VSH_SP      .V/V                                                :Volume of Shale from SP
~A        DEPTH           ASFL           CILD            ILD             SP        SP_NORM         VSH_SP
# ...
      2386.0000         0.8105       1894.103         0.6184       -107.746      -28.97056      0.1827104
      2386.5000          0.744       2013.779         0.5586      -108.3491      -29.56883      0.1645808
      2387.0000          0.712       2285.051         0.5187      -108.9342      -30.14911      0.1469967
      2387.5000          0.704        2293.03         0.4788      -108.9334      -30.14349      0.1471669
      2388.0000          0.696       2492.503         0.4588      -109.2315      -30.43677      0.1382798
      2388.5000          0.684       2540.366         0.4389      -109.8283      -31.02875       0.120341
      2389.0000          0.672       2556.312         0.4189      -110.1264      -31.32203      0.1114537
      2389.5000           0.66       2540.339         0.4189      -112.4861       -33.6769     0.04009385
      2390.0000          0.652       2516.387         0.4189      -112.4853      -33.67128     0.04026425
      2390.5000          0.664       2476.476         0.4389      -112.4846      -33.66576     0.04043163
      2391.0000          0.676       2436.564         0.4389      -112.1851      -33.36143     0.04965349
      2391.5000          0.676       2412.612         0.4389      -111.5867      -32.75822     0.06793282
      2392.0000          0.696       2396.639         0.4588      -110.6896      -31.85629     0.09526385
      2392.5000          0.752       2372.686         0.4588        -110.39      -31.55187      0.1044887
      2393.0000          0.748       2348.733         0.4588      -110.6881      -31.84515      0.0956014
      2393.5000          0.724       2316.786         0.4588      -111.8826      -33.03483     0.05955066
      2394.0000          0.716       2324.766         0.4588      -112.7782      -33.92561      0.0325574
      2394.5000          0.704       2324.752         0.4389      -113.3751      -34.51768     0.01461561
      2395.0000            0.7       2500.292         0.4389      -113.3743      -34.51206       0.014786
      2395.5000          0.688       2596.036         0.4389      -113.3736      -34.50654     0.01495338
      2396.0000          0.684       2659.861         0.4189      -113.3729      -34.50102     0.01512054
      2396.5000           0.68       2699.747         0.4189      -112.4757        -33.599     0.04245457
      2397.0000          0.668       2731.653          0.399      -111.5786      -32.69707     0.06978561
      2397.5000          0.664         2747.6          0.399       -109.785      -30.89866      0.1242831
      2398.0000           0.66       2755.567          0.399      -108.8879      -29.99673      0.1516141
      2398.5000          0.656       2755.554         0.3629       -109.186      -30.29001       0.142727
      2399.0000          0.656       2747.561          0.364      -110.0816      -31.18079      0.1157338
      2399.5000          0.648       2643.809         0.3782      -110.9773      -32.07167     0.08873726
      2400.0000          0.644       2611.876         0.3829      -111.2754      -32.36494     0.07985017
      2400.5000          0.636       2548.022         0.3925      -111.2746      -32.35933     0.08002032
      2401.0000          0.628       2484.169         0.4025      -110.9751      -32.05501     0.08924218
      2401.5000           0.62       2452.235         0.4078      -111.2731      -32.34819     0.08035787
      2402.0000          0.612       2404.327         0.4159      -111.2724      -32.34267     0.08052526
      2402.5000          0.604       2411.457         0.4147      -110.9729      -32.03835     0.08974711
      2403.0000          0.596       2436.234         0.4105      -110.3745      -31.43512      0.1080267
      2403.5000          0.592        2452.18         0.4078      -110.3738       -31.4296      0.1081938
      2404.0000          0.592       2460.147         0.4065      -110.0742      -31.12518      0.1174187
      2404.5000          0.592       2476.094         0.4039      -109.4759      -30.52206      0.1356952
      2405.0000          0.592        2492.04         0.4013      -109.1764      -30.21774      0.1449171
      2405.5000          0.604       2500.007            0.4       -110.072      -31.10851      0.1179239
      2406.0000           0.68       2507.973         0.3987      -110.6689      -31.70059     0.09998206
      2406.5000          0.712       2444.118         0.4091      -110.9669      -31.99377     0.09109774
      2407.0000          0.732       2436.124         0.4105       -111.265      -32.28705     0.08221066
      2407.5000           0.72        2420.15         0.4132      -111.8619      -32.87913     0.06426886
      2408.0000          0.712       2396.195         0.4173      -111.2635       -32.2759     0.08254843
      2408.5000          0.676       2388.201         0.4187       -110.964      -31.97158     0.09177029
      2409.0000          0.676       2388.173         0.4187      -110.6645      -31.66726      0.1009921
      2409.5000          0.696       2380.179         0.4201      -111.2613      -32.25924     0.08305336
      2410.0000            0.7       2380.165         0.4201      -111.2606      -32.25372     0.08322074
      2410.5000          0.724       2372.171         0.4216      -111.5579       -32.5462      0.0743577
      2411.0000           0.74       2332.255         0.4288      -110.9596      -31.94308     0.09263403
      2411.5000           0.74       2292.339         0.4362      -109.4648      -30.44345      0.1380772
      2412.0000          0.748       2180.598         0.4586      -109.4641      -30.43793      0.1382444
      2412.5000           0.74       2068.857         0.4834      -105.8777      -26.84671      0.2470694
      2413.0000          0.736       2068.843         0.4834      -104.9806      -25.94479      0.2744004
      2413.5000          0.748       2004.984         0.4988      -104.9799      -25.93926      0.2745678
      2414.0000         0.7681       1821.417          0.549      -101.6923      -22.64684      0.3743381
      2414.5000         0.7881       1725.636         0.5795       -96.0458      -16.99552      0.5455903
      2415.0000         0.8041       1613.892         0.6196       -90.3992       -11.3441      0.7168455
      2415.5000         0.8161       1613.877         0.6196       -83.1638      -4.103882       0.936246
      2416.0000         0.8401       1007.319         0.8779       -84.6578      -5.593056      0.8911195
      2416.5000          0.876        927.496         0.9178       -85.2546      -6.185036      0.8731807
      2417.0000         0.9119       887.5754         0.9577       -85.5527       -6.47831      0.8642936
      2417.5000         0.9478       863.6158         1.0375       -84.3568      -5.277588      0.9006792
      2418.0000         0.9837       839.6562         1.0774       -82.5632      -3.479172      0.9551766
      2418.5000         1.0196       839.6384         1.1772       -82.5625      -3.473648       0.955344
      2419.0000         1.0555       799.7172         1.2171       -82.5617      -3.468025      0.9555144
      2419.5000         1.0961       807.6801          1.237       -82.8598      -3.761307      0.9466271
      2420.0000         1.0725        815.643          1.237       -83.4567      -4.353386      0.9286852
      2420.5000          1.049       879.4714         1.1971       -84.0535      -4.945358      0.9107467
      2421.0000         1.0254       911.3769         1.1772       -84.9492      -5.836243      0.8837502
      2421.5000         1.0018       943.2826         1.1572       -86.1436      -7.025818      0.8477025
      2422.0000         0.9782       983.1693         1.1173       -87.3381      -8.215492      0.8116518
      2422.5000         0.9547       1031.037         1.0575       -87.6362      -8.508774      0.8027644
      2423.0000         0.9241       1086.886         1.0176        -88.233      -9.100754      0.7848256
      2423.5000         0.9391       1142.735         0.9976       -88.8299      -9.692833      0.7668839
