#------------------------------------------------------------------------------
# Created by    : vladimir.rabinovich
# Created on    : 09/19/2023 17:22:15
#------------------------------------------------------------------------------
~Version Information Section
VERS.           2.0     :   CWLS log ASCII Standard - VERSION 2.0
WRAP.           NO      :   One line per depth step
~Well Information Section
#MNEM       .UNIT                                         VALUE :DESCRIPTION
#------------------------------------------------------------------------------
STRT        .FT                                              41 :START DEPTH
STOP        .FT                                            7991 :STOP DEPTH
STEP        .FT                                             0.5 :STEP      
NULL        .                                           -999.25 :NULL      
COMP        .                           ENERGY DEVELOPMENT CORP :COMPANY   
WELL        .                               OCS G11200 ST00BP00 :WELL      
FLD         .                                           WILDCAT :FIELD     
LOC         .                                                   :LOCATION  
CNTY        .                    NORTH PADRE ISLAND LARGE BLOCK :LOCATION  
STAT        .                                             TEXAS :STATE     
CTRY        .                                     UNITED STATES :COUNTRY   
SRVC        .                                                   :SERVICE COMPANY
DATE        .                             9/13/2023 11:18:55 AM :LOG DATE  
API         .                                    42701400410000 :API NUMBER
UWI         .                                    42701400410000 :UNIQUE WELL ID
XCOORD      .                                   309944.09600436 :SURFACE X 
YCOORD      .                                  9740515.29665267 :SURFACE Y 
LAT         .                                          26.78454 :LATITUDE  
LON         .                                        -97.077486 :LONGITUDE 
ELEV        .FT                                              91 :ELEVATION VALUE
ELEV_TYPE   .                                                KB :ELEVATION REFERENCE TYPE
~Curve Information Section
#MNEM       .UNIT                                      API CODE :CURVE DESCRIPTION
#------------------------------------------------------------------------------
DEPT        .FT                                                 :DEPTH     
CALI        .IN                                                 :          
DRHO        .G/C3                                               :          
DT          .US/F                                               :          
GR          .GAPI                                               :          
GR_NORM     .GAPI                                               :GammaRay Normalized
ILD         .OHMM                                               :          
ILM         .OHMM                                               :          
NPHI        .%                                                  :          
RFOC        .OHMM                                               :          
RHOB        .G/C3                                               :          
SP          .MV                                                 :          
SP_NORM     .MV                                                 :SP Normalized
VSH_GR      .V/V                                                :Volume of Shale from GR
VSH_SP      .V/V                                                :Volume of Shale from SP
~A        DEPTH           CALI           DRHO             DT             GR        GR_NORM            ILD            ILM           NPHI           RFOC           RHOB             SP        SP_NORM         VSH_GR         VSH_SP
# ...
      6305.0000         10.093         0.0801        84.6281        51.3329       41.90597         0.6256         0.8266        30.1519         1.2467         2.3582       -67.6083      -21.82516      0.1894888      0.5749967
      6305.5000        10.0593         0.0636        83.9347        45.8755       33.99042         0.5694         0.7309        30.6795         1.2455         2.3446       -72.8359      -27.05276     0.02107279      0.4683109
      6306.0000        10.0501          0.045        85.0476        44.7977       32.42331         0.5345          0.662        31.1581         1.1466         2.3163       -77.7212      -31.93806              0      0.3686109
      6306.5000        10.0525         0.0277        88.5704         44.146       31.47387          0.515         0.6201        31.0748         1.0588          2.282       -81.2361      -35.45296              0      0.2968783
      6307.0000        10.0549         0.0177        92.8976        43.5881       30.66039          0.502         0.6053        30.2229         1.0013          2.259       -84.9348      -39.15166              0      0.2213946
      6307.5000        10.0746         0.0192        94.9135        42.9949       29.79574         0.4919         0.6067        28.4129         0.9861         2.2453       -88.0898      -42.30666              0      0.1570069
      6308.0000        10.0982         0.0422        94.1289        41.9014       28.20589         0.4852         0.6341        26.8495         1.0249         2.2564       -89.2919      -43.50877              0      0.1324742
      6308.5000        10.1158         0.0664         91.912        40.7513       26.53399         0.4798         0.6421        26.8794         1.2005           2.28       -89.9019      -44.11877              0      0.1200252
      6309.0000        10.1308         0.0558        90.2114        40.6696       26.41078         0.4766          0.633        27.6902         1.4359         2.2928       -90.3589      -44.57577              0      0.1106986
      6309.5000        10.1375         0.0416        89.0613        40.6683       26.40412         0.4743          0.616        28.6191         1.5561         2.2772       -90.8501      -45.06696              0      0.1006742
      6310.0000        10.1442         0.0305        90.2523        40.9507       26.80869         0.4736         0.5962        29.3403         1.3291         2.2448       -91.7239      -45.94077              0     0.08284152
      6310.5000        10.1453         0.0271        91.5619         41.858       28.11909         0.4821         0.5821        29.8227          1.174         2.2215       -92.8087      -47.02557              0     0.06070273
      6311.0000        10.1416         0.0288         92.761        43.1412       29.97438         0.4981         0.5742         30.037         1.1197         2.2107       -93.8389      -48.05576              0      0.0396783
      6311.5000        10.1379         0.0378        93.8484        44.6195       32.11246         0.5156         0.5838        30.0645         1.0737         2.2029       -94.5537      -48.77057              0     0.02509043
      6312.0000        10.1278         0.0334         95.101         46.274       34.50597         0.5341          0.617        29.4225         1.0197         2.2008       -94.8965      -49.11337     0.03204183     0.01809459
      6312.5000        10.1162         0.0249        95.4795        47.4146       36.15455         0.5537         0.6878        29.0183          1.109          2.208       -94.6295      -48.84637     0.06711806     0.02354353
      6313.0000        10.1047         0.0154        93.4612        47.3352       36.03468         0.5718         0.7162        28.8067         1.2668         2.2229       -93.8966      -48.11346     0.06456765     0.03850073
      6313.5000        10.1043         0.0066        91.7233        46.5085       34.83155         0.5867         0.7218        28.3098         1.4648         2.2457       -93.8635      -48.08037     0.03896924     0.03917616
      6314.0000         10.105         0.0006        90.1742        47.5772       36.37591         0.5961         0.6899        29.8119         1.4842           2.26       -94.3024      -48.51926     0.07182791      0.0302191
      6314.5000        10.1056         0.0057        89.5283        50.2854        40.2968          0.597         0.6477        31.2018         1.3119         2.2395       -94.9261      -49.14297      0.1552511     0.01749047
      6315.0000        10.1039          0.012        90.6545         52.872       44.04143         0.5929         0.6139        31.8908         1.1523         2.2219       -95.5951      -49.81197       0.234924     0.00383743
      6315.5000        10.1022         0.0144        92.1218        55.6621       48.08104         0.5825         0.5909        31.5445         1.0895         2.2091       -95.6639      -49.88077      0.3208731     0.00243331
      6316.0000        10.1005         0.0123        93.4028         58.616       52.35809         0.5602         0.5701        31.2672         1.0857         2.2037       -95.5007      -49.71757      0.4118743     0.00576393
      6316.5000         10.097         0.0105        93.2061        59.6387       53.83577         0.5149         0.5505        31.1615         1.0987         2.2044       -95.2178      -49.43466      0.4433142     0.01153751
      6317.0000         10.093         0.0092        92.5028        58.9574       52.84342         0.4738         0.5371        31.1753         1.1192         2.2043       -94.9109      -49.12776      0.4222004     0.01780078
      6317.5000        10.0889         0.0096        91.4987        57.8862       51.28588          0.445         0.5266        30.7191         1.1235         2.2037       -94.5937      -48.81056      0.3890612     0.02427424
      6318.0000        10.0879         0.0102        90.9417        57.0684       50.09566         0.4289          0.518        30.0536         1.1104         2.2008       -94.1635      -48.38036      0.3637375     0.03305381
      6318.5000        10.0911         0.0107        91.0065        56.6519       49.48715         0.4189          0.508        30.1135         1.0666         2.1977       -93.8704      -48.08727      0.3507904     0.03903541
      6319.0000        10.0943         0.0086        91.7258        57.1304       50.17598          0.412         0.4958        30.9687         0.9839         2.1917       -93.7996      -48.01646      0.3654463     0.04048032
      6319.5000        10.0965         0.0056        92.8702        58.2164       51.74541         0.4052         0.4832        32.1987          0.923          2.185       -94.0016      -48.21847      0.3988385      0.0363578
      6320.0000         10.095          0.002        94.5361        59.9044       54.18747          0.391         0.4639        33.2338         0.8997         2.1777       -94.3738      -48.59067      0.4507972     0.02876188
      6320.5000        10.0935        -0.0014        96.1523        62.2526       57.58652          0.368         0.4417        33.5256         0.9454          2.172       -94.8901      -49.10696      0.5231174     0.01822522
      6321.0000        10.0919        -0.0019        97.3551         63.397       59.24061         0.3387         0.4177        33.5679         0.9641         2.1659        -95.451      -49.66786      0.5583109    0.006778328
      6321.5000        10.0919         0.0008        98.1328        63.9456       60.03106         0.3208         0.4025        33.5586         0.9251         2.1619       -96.0332      -50.25007      0.5751289              0
      6322.0000        10.0926         0.0059        98.4067        64.2272       60.43448         0.3185         0.3878        33.5209         0.8426         2.1624       -96.6476      -50.86446      0.5837124              0
      6322.5000        10.0933         0.0123        98.4564        62.9154       58.52818         0.3348         0.3913        33.3918         0.7328         2.1703       -97.1261      -51.34296      0.5431527              0
