#------------------------------------------------------------------------------
# Created by    : vladimir.rabinovich
# Created on    : 09/19/2023 17:22:44
#------------------------------------------------------------------------------
~Version Information Section
VERS.           2.0     :   CWLS log ASCII Standard - VERSION 2.0
WRAP.           NO      :   One line per depth step
~Well Information Section
#MNEM       .UNIT                                         VALUE :DESCRIPTION
#------------------------------------------------------------------------------
STRT        .FT                                            3420 :START DEPTH
STOP        .FT                                           11707 :STOP DEPTH
STEP        .FT                                             0.5 :STEP      
NULL        .                                           -999.25 :NULL      
COMP        .                        TRI-UNION DEVELOPMENT CORP :COMPANY   
WELL        .                               OCS G08154 ST00BP00 :WELL      
FLD         .                                           WILDCAT :FIELD     
LOC         .                                                   :LOCATION  
CNTY        .                           HIGH ISLAND LARGE BLOCK :LOCATION  
STAT        .                                             TEXAS :STATE     
CTRY        .                                     UNITED STATES :COUNTRY   
SRVC        .                                                   :SERVICE COMPANY
DATE        .                             9/13/2023 11:19:57 AM :LOG DATE  
API         .                                    42708403520000 :API NUMBER
UWI         .                                    42708403520000 :UNIQUE WELL ID
XCOORD      .                                  1180527.91159004 :SURFACE X 
YCOORD      .                                  10524923.1623167 :SURFACE Y 
LAT         .                                        28.9940426 :LATITUDE  
LON         .                                       -94.4389714 :LONGITUDE 
ELEV        .FT                                             100 :ELEVATION VALUE
ELEV_TYPE   .                                                KB :ELEVATION REFERENCE TYPE
~Curve Information Section
#MNEM       .UNIT                                      API CODE :CURVE DESCRIPTION
#------------------------------------------------------------------------------
DEPT        .FT                                                 :DEPTH     
DCAL        .IN                                                 :          
DPHI        .%                                                  :          
DRHO        .G/C3                                               :          
GR          .GAPI                                               :          
GR_NORM     .GAPI                                               :GammaRay Normalized
ILD         .OHMM                                               :          
ILM         .OHMM                                               :          
NPHI        .%                                                  :          
SFL         .OHMM                                               :          
SP          .MV                                                 :          
SP_NORM     .MV                                                 :SP Normalized
VSH_GR      .V/V                                                :Volume of Shale from GR
VSH_SP      .V/V                                                :Volume of Shale from SP
~A        DEPTH           DCAL           DPHI           DRHO             GR        GR_NORM            ILD            ILM           NPHI            SFL             SP        SP_NORM         VSH_GR         VSH_SP
# ...
      7315.0000         6.1158        24.9736         0.0014           72.1       73.00586         0.7423         0.6744        44.2731         0.6681        -37.898        -3.9357      0.8511885      0.9413424
      7315.5000         6.1859        24.2878          0.001        72.9001       73.91394         0.7498         0.6882        41.2874         0.7094       -37.8955        -3.9332      0.8705094      0.9414182
      7316.0000         6.1891        23.3175         0.0006         72.926        73.9435         0.7553         0.7269        39.7871           0.74       -37.8741        -3.9118      0.8711382      0.9420667
      7316.5000         6.1584         23.039         0.0003        72.5758       73.54626         0.7554         0.7508        37.6957         0.7583       -37.8235        -3.8612      0.8626863         0.9436
      7317.0000         6.2046        23.2519         0.0001        73.2384       74.29831         0.7545         0.7483        38.1766         0.7561       -37.7762        -3.8139      0.8786874      0.9450333
      7317.5000         6.2296        23.4695              0        76.6063       78.12019         0.7494          0.743        41.2293         0.7449       -37.7335        -3.7712      0.9600041      0.9463273
      7318.0000          6.223        23.6906        -0.0009        77.9976       79.69913         0.7444         0.7358        42.0168         0.7365       -37.6165        -3.6542      0.9935985      0.9498727
      7318.5000         6.2079        23.9517        -0.0025         77.736       79.40244         0.7358         0.7205        42.0067          0.687       -37.4334        -3.4711      0.9872859      0.9554212
      7319.0000         6.1082        24.2677        -0.0042        77.1107       78.69304         0.7244         0.6881         41.976         0.6386       -37.2286        -3.2663      0.9721923      0.9616272
      7319.5000         6.0376        24.8548        -0.0047        77.3081        78.9172         0.7106         0.6757        42.1799         0.6008       -37.2971        -3.3348      0.9769617      0.9595515
      7320.0000         5.9775        25.8311         -0.004         77.934        79.6276         0.6994         0.6648        42.6596         0.5871       -37.1752        -3.2129      0.9920766      0.9632455
      7320.5000         5.9372        26.3974        -0.0034         77.452       79.08081         0.6946         0.6698        42.8702         0.5864       -37.0807        -3.1184      0.9804428      0.9661091
      7321.0000         5.9108        26.4599         -0.003        76.6075       78.12267         0.6971         0.6678        41.1027         0.5903       -37.0436        -3.0813      0.9600567      0.9672334
      7321.5000         5.8879        26.2024        -0.0028        76.5598        78.0687         0.7015         0.6765        37.7236         0.6199       -37.1823          -3.22      0.9589084      0.9630303
      7322.0000          5.835        25.7557        -0.0026        76.3672       77.85031         0.7062         0.6832        36.2949           0.65       -37.4141        -3.4518       0.954262      0.9560061
      7322.5000          5.741        25.2149        -0.0024        74.5437       75.78124         0.6951         0.6879        36.0153         0.6785       -37.7056        -3.7433      0.9102392      0.9471727
      7323.0000         5.6387        24.6748        -0.0018        68.2314       68.61851         0.6802         0.6966         36.382         0.7115        -37.941        -3.9787      0.7578406      0.9400394
      7323.5000         5.5335         24.249        -0.0012        64.4176       64.29095         0.6623          0.683          37.07         0.7423        -38.163        -4.2007       0.665765      0.9333121
      7324.0000         5.4535        24.0641         0.0001        64.1859       64.02819         0.6455         0.6567        37.3769         0.7413       -38.5114        -4.5491      0.6601743      0.9227545
      7324.5000         5.3812        24.4163         0.0023        72.3217       73.26047         0.6275         0.6326        38.0901          0.688       -38.9686        -5.0063      0.8566057         0.9089
      7325.0000         5.3477        25.1148         0.0045        81.7378       83.94556         0.6102         0.5995        39.3312         0.5935       -39.3092        -5.3469              1      0.8985788
      7325.5000         5.2263        26.0396         0.0059         85.432       88.13772         0.5988         0.5868        40.5917         0.5242       -39.2264        -5.2641              1      0.9010879
      7326.0000         5.0887        26.8643         0.0073        83.4816       85.92465         0.5979         0.5937        41.4327         0.5052       -39.0607        -5.0984              1      0.9061091
      7326.5000          5.152        26.5722          0.006        79.5109       81.41905         0.6107         0.6043        41.9482         0.5247       -39.0643         -5.102              1          0.906
      7327.0000         5.2473         25.802         0.0048        76.3921       77.88015         0.6309         0.6361        42.2729          0.569       -39.0863         -5.124      0.9548968      0.9053333
      7327.5000         5.3447        24.9594         0.0038        72.9843        74.0133         0.6541           0.67        40.2535         0.6229       -39.1519        -5.1896      0.8726234      0.9033455
      7328.0000         5.4368        24.3424         0.0028        69.1581       69.67167         0.6862         0.6914        37.7773          0.677       -39.3322        -5.3699      0.7802483      0.8978818
      7328.5000         5.4005        23.5199         0.0016        64.6543       64.56114         0.7228         0.7252        36.5974         0.7216       -39.5851        -5.6228      0.6715137      0.8902182
      7329.0000         5.3827        23.2054        -0.0001        59.0793       58.23505         0.7646         0.7509        35.9068         0.7705       -39.6891        -5.7268       0.536916      0.8870667
      7329.5000         5.4048        23.5035        -0.0012        57.7641       56.74279         0.8012         0.7745        34.9346         0.8205       -40.2944        -6.3321      0.5051658      0.8687242
      7330.0000         5.4598         23.998        -0.0004        57.6333       56.59452         0.8184         0.7921        33.9565         0.8595       -40.6151        -6.6528      0.5020112       0.859006
      7330.5000         5.5211        24.1485         0.0003        60.4943       59.84121         0.8217         0.8011        33.8427          0.835       -41.0942        -7.1319      0.5710895      0.8444879
      7331.0000         5.4982         23.787         0.0011        64.3604       64.22843         0.8197         0.8011        35.2147         0.7969       -40.8867        -6.9244      0.6644347      0.8507758
      7331.5000          5.446         23.465         0.0018        66.5624       66.72732         0.8117         0.7982        36.3828         0.7593       -40.2539        -6.2916      0.7176025      0.8699515
      7332.0000         5.3727        23.1483         0.0018        68.0034       68.36266         0.8038         0.8028        37.3884         0.7362       -39.7557        -5.7934      0.7523969      0.8850485
      7332.5000         5.3327        22.6549         0.0014        69.1033       69.61092         0.8007         0.8053         37.451         0.7261       -39.3592        -5.3969      0.7789558      0.8970636
      7333.0000         5.3333        22.1312         0.0021        69.8779       70.49006         0.8083          0.804        37.2327          0.723       -39.2109        -5.2486      0.7976608      0.9015576
      7333.5000         5.3194        21.4104         0.0039         70.535       71.23587         0.8177         0.8082        36.9661         0.7387       -38.8907        -4.9284      0.8135291      0.9112606
