#------------------------------------------------------------------------------
# Created by    : vladimir.rabinovich
# Created on    : 09/19/2023 17:22:28
#------------------------------------------------------------------------------
~Version Information Section
VERS.           2.0     :   CWLS log ASCII Standard - VERSION 2.0
WRAP.           NO      :   One line per depth step
~Well Information Section
#MNEM       .UNIT                                         VALUE :DESCRIPTION
#------------------------------------------------------------------------------
STRT        .FT                                            2000 :START DEPTH
STOP        .FT                                            7372 :STOP DEPTH
STEP        .FT                                             0.5 :STEP      
NULL        .                                           -999.25 :NULL      
COMP        .                       CORPUS CHRISTI OIL & GAS CO :COMPANY   
WELL        .                                ST TR 00596-L SE/4 :WELL      
FLD         .                                           WILDCAT :FIELD     
LOC         .                                                   :LOCATION  
CNTY        .                      MATAGORDA ISLAND LARGE BLOCK :LOCATION  
STAT        .                                             TEXAS :STATE     
CTRY        .                                     UNITED STATES :COUNTRY   
SRVC        .                                                   :SERVICE COMPANY
DATE        .                             9/13/2023 11:19:13 AM :LOG DATE  
API         .                                    42703300520000 :API NUMBER
UWI         .                                    42703300520000 :UNIQUE WELL ID
XCOORD      .                                  480173.649028781 :SURFACE X 
YCOORD      .                                  10231220.1013933 :SURFACE Y 
LAT         .                                        28.1462983 :LATITUDE  
LON         .                                       -96.6002451 :LONGITUDE 
ELEV        .FT                                              82 :ELEVATION VALUE
ELEV_TYPE   .                                                GL :ELEVATION REFERENCE TYPE
~Curve Information Section
#MNEM       .UNIT                                      API CODE :CURVE DESCRIPTION
#------------------------------------------------------------------------------
DEPT        .FT                                                 :DEPTH     
CILD        .MMHO                                               :          
ILD         .OHMM                                               :          
SN          .OHMM                                               :          
SP          .MV                                                 :          
SP_NORM     .MV                                                 :SP Normalized
VSH_SP      .V/V                                                :Volume of Shale from SP
~A        DEPTH           CILD            ILD             SN             SP        SP_NORM         VSH_SP
# ...
      5192.0000       1968.167         0.3703         0.8808       -71.4254      -28.00092      0.4888684
      5192.5000       1959.284         0.4102         0.8808       -69.3639      -25.93434      0.5347924
      5193.0000        1920.25         0.4101         0.8808       -67.3024      -23.86776      0.5807164
      5193.5000       1880.316           0.43         0.8808        -65.261      -21.82128      0.6261938
      5194.0000       1852.363         0.4499         0.8682       -66.2623       -22.8175      0.6040556
      5194.5000       1840.386         0.4499         0.8557       -67.2635      -23.81361      0.5819197
      5195.0000       1904.293         0.4499         0.8431       -67.3659      -23.91093       0.579757
      5195.5000         1968.2         0.4298         0.8306       -68.4654      -25.00536      0.5554364
      5196.0000       2039.939         0.4098          0.818       -69.2665      -25.80138      0.5377471
      5196.5000        2123.66         0.3299         0.8054       -69.2668       -25.7966      0.5378534
      5197.0000       2207.381         0.3099         0.7929       -71.4693      -27.99401      0.4890219
      5197.5000       2291.102         0.2899         0.7769       -71.4697      -27.98934      0.4891258
      5198.0000       2374.823         0.2767         0.7729       -73.2718      -29.78635      0.4491922
      5198.5000       2458.543         0.2635         0.7729       -73.8727      -30.38218      0.4359517
      5199.0000        2551.17         0.2503         0.7689       -80.2971      -36.80149      0.2933002
      5199.5000       2614.719         0.2497         0.7569       -82.2818      -38.78111      0.2493086
      5200.0000       2678.269         0.2297         0.7434       -82.8027      -39.29693       0.237846
      5200.5000       2741.818         0.1897         0.7409       -83.3235      -39.81265      0.2263855
      5201.0000       2805.367         0.1696         0.7281       -83.8443      -40.32837      0.2149251
      5201.5000       2868.917         0.1496         0.7153       -84.3652      -40.84418      0.2034626
      5202.0000       2932.466         0.1496         0.7026        -84.886      -41.35991       0.192002
      5202.5000       2996.015         0.1695         0.6898       -85.4069      -41.87572      0.1805394
      5203.0000       3059.564         0.1695          0.677       -85.9277      -42.39145       0.169079
      5203.5000       3123.114         0.1694         0.6643       -86.4485      -42.90717      0.1576185
      5204.0000       3186.663         0.1694         0.6515       -87.0905      -43.54409      0.1434647
      5204.5000       3250.212         0.1693         0.6387       -87.2912       -43.7397      0.1391177
      5205.0000       3313.762         0.1693         0.6259       -89.2937      -45.73713     0.09473055
      5205.5000       3377.311         0.1692         0.6132       -89.3654      -45.80375      0.0932501
      5206.0000        3440.86         0.1692          0.601       -89.4372      -45.87046     0.09176746
      5206.5000       3525.762         0.1691          0.601       -90.2961      -46.72428     0.07279375
      5207.0000       3521.768         0.1691          0.601       -90.0963       -46.5194     0.07734663
      5207.5000       3517.778          0.169          0.602       -89.2959      -45.71392     0.09524621
      5208.0000       3500.366          0.169          0.603       -88.8959      -45.30884       0.104248
      5208.5000       3482.955         0.1889         0.6041       -88.6961      -45.10396      0.1088009
      5209.0000       3465.543         0.1888         0.6049       -88.4964      -44.89918      0.1133516
      5209.5000       3448.132         0.1888         0.6049       -87.6959       -44.0936      0.1312534
      5210.0000        3430.72         0.1887         0.6049       -88.0464      -44.43902      0.1235773
      5210.5000       3409.959         0.1887         0.6049       -88.2974      -44.68494      0.1181124
      5211.0000       3393.982         0.1886         0.6049       -88.8985      -45.28096      0.1048676
      5211.5000       3359.073         0.1886         0.6089       -89.2994      -45.67678     0.09607162
      5212.0000       3324.163         0.1885         0.6129        -90.301       -46.6733     0.07392672
      5212.5000       3289.253         0.1885         0.6129       -90.9021      -47.26931     0.06068192
      5213.0000       3254.344         0.2084         0.6169       -91.9037      -48.26583       0.038537
      5213.5000       3219.434         0.2084         0.6208       -91.9042      -48.26125     0.03863882
      5214.0000       3184.524         0.2083         0.6208       -91.7044      -48.05637      0.0431917
      5214.5000       3149.615         0.2083         0.6208       -91.5046      -47.85149     0.04774458
      5215.0000       3114.705         0.2082         0.6248       -91.3048      -47.64661     0.05229747
      5215.5000       3078.466         0.2082         0.6248       -91.1051      -47.44183     0.05684815
      5216.0000       3086.454         0.2081         0.6248       -90.9053      -47.23695      0.0614012
      5216.5000       3117.001         0.2081         0.6208       -91.7067      -48.03327     0.04370507
      5217.0000       3146.378          0.208         0.6208       -91.9073      -48.22879     0.03936013
      5217.5000       3131.248          0.208         0.6192       -93.3095      -49.62591    0.008313073
      5218.0000       3116.118         0.2079         0.6176       -93.1097      -49.42103     0.01286596
      5218.5000       3102.448         0.2079         0.6168       -92.9099      -49.21614     0.01741901
      5219.0000       3106.445         0.2078         0.6168       -92.7101      -49.01126     0.02197189
      5219.5000       3146.392         0.2078         0.6167       -92.3101      -48.60618     0.03097373
      5220.0000        3178.35         0.2277         0.6247       -92.9113       -49.2023     0.01772656
      5220.5000       3190.336         0.2277         0.6287       -93.7127      -49.99862  0.00003060235
      5221.0000       3166.372         0.2276         0.6287       -94.1137      -50.39455              0
      5221.5000       3117.841         0.2276         0.6327       -94.7149      -50.99066              0
      5222.0000       3069.309         0.2275         0.6439       -94.7153      -50.98598              0
      5222.5000       3020.778         0.2214         0.6526       -94.7158       -50.9814              0
      5223.0000       2972.246         0.2153         0.6566        -94.516      -50.77652              0
      5223.5000       2923.715         0.2092         0.6566        -94.116      -50.37144              0
      5224.0000       2875.183         0.2073         0.6526       -93.1152      -49.36555     0.01409878
      5224.5000       2826.652         0.2073         0.6486       -92.9154      -49.16068     0.01865158
      5225.0000        2778.12         0.2073         0.6446       -92.3151       -48.5553     0.03210441
      5225.5000       2798.903         0.2072         0.6446       -93.7174      -49.95252    0.001055145
      5226.0000        2758.96         0.2072         0.6406       -93.9181      -50.14814              0
      5226.5000       2836.007         0.2071         0.6406       -96.1213      -52.34626              0
      5227.0000       2873.109         0.2071         0.6406       -96.2878      -52.50768              0
      5227.5000       2910.211          0.207         0.6446       -96.4543      -52.66909              0
      5228.0000       3082.529          0.207         0.6486       -96.7235      -52.93322              0
      5228.5000       3090.519         0.2069         0.6526       -96.9243      -53.12894              0
      5229.0000        3150.44         0.2069         0.6525       -96.9247      -53.12425              0
      5229.5000       3178.405         0.2068         0.6525       -94.7224      -50.91687              0
