#------------------------------------------------------------------------------
# Created by    : vladimir.rabinovich
# Created on    : 09/19/2023 17:20:54
#------------------------------------------------------------------------------
~Version Information Section
VERS.           2.0     :   CWLS log ASCII Standard - VERSION 2.0
WRAP.           NO      :   One line per depth step
~Well Information Section
#MNEM       .UNIT                                         VALUE :DESCRIPTION
#------------------------------------------------------------------------------
STRT        .FT                                            1092 :START DEPTH
STOP        .FT                                            8058 :STOP DEPTH
STEP        .FT                                             0.5 :STEP      
NULL        .                                           -999.25 :NULL      
COMP        .                                    EXXON CO U S A :COMPANY   
WELL        .                               OCS G03029 ST00BP00 :WELL      
FLD         .                                           WILDCAT :FIELD     
LOC         .                                                   :LOCATION  
CNTY        .                        MUSTANG ISLAND LARGE BLOCK :LOCATION  
STAT        .                                             TEXAS :STATE     
CTRY        .                                     UNITED STATES :COUNTRY   
SRVC        .                                                   :SERVICE COMPANY
DATE        .                             9/13/2023 11:19:13 AM :LOG DATE  
API         .                                    42702400190000 :API NUMBER
UWI         .                                    42702400190000 :UNIQUE WELL ID
XCOORD      .                                  486295.566528254 :SURFACE X 
YCOORD      .                                  10047803.1546112 :SURFACE Y 
LAT         .                                         27.643077 :LATITUDE  
LON         .                                        -96.564717 :LONGITUDE 
ELEV        .FT                                              70 :ELEVATION VALUE
ELEV_TYPE   .                                                KB :ELEVATION REFERENCE TYPE
~Curve Information Section
#MNEM       .UNIT                                      API CODE :CURVE DESCRIPTION
#------------------------------------------------------------------------------
DEPT        .FT                                                 :DEPTH     
ASN         .OHMM                                               :          
CALI        .IN                                                 :          
CIL         .MMHO                                               :          
DRHO        .G/C3                                               :          
DT          .US/F                                               :          
GR          .GAPI                                               :          
GR_NORM     .GAPI                                               :GammaRay Normalized
ILD         .OHMM                                               :          
NPHI        .%                                                  :          
RHOB        .G/C3                                               :          
SN          .OHMM                                               :          
SP          .MV                                                 :          
SP_NORM     .MV                                                 :SP Normalized
VSH_GR      .V/V                                                :Volume of Shale from GR
VSH_SP      .V/V                                                :Volume of Shale from SP
~A        DEPTH            ASN           CALI            CIL           DRHO             DT             GR        GR_NORM            ILD           NPHI           RHOB             SN             SP        SP_NORM         VSH_GR         VSH_SP
# ...
      3047.0000         1.0793        -999.25       1244.914        -999.25        -999.25        42.9529       43.62532         0.7492        -999.25        -999.25         1.0047       -118.788      -24.33622      0.2260707      0.3795494
      3047.5000          1.082        -999.25       1417.219        -999.25        -999.25        40.5483       38.66496         0.6488        -999.25        -999.25         0.9551      -123.0254      -28.57654       0.120531      0.2617628
      3048.0000         1.0757        -999.25       1685.232        -999.25        -999.25        39.2585       36.00304         0.5326        -999.25        -999.25         0.9141      -126.3452      -31.89926     0.06389455       0.169465
      3048.5000         1.0065        -999.25       1982.338        -999.25        -999.25        38.6852       34.81841         0.4499        -999.25        -999.25         0.8765      -128.7927      -34.34968     0.03868955      0.1013978
      3049.0000         0.9263        -999.25       2215.969        -999.25        -999.25         37.883       33.16183         0.3965        -999.25        -999.25         0.8515      -130.3323       -35.8922    0.003443211     0.05854988
      3049.5000         0.8906        -999.25       2454.293        -999.25        -999.25        37.6942       32.76993         0.3576        -999.25        -999.25         0.8448      -131.4011      -36.96391              0      0.0287802
      3050.0000         0.8733        -999.25       2681.238        -999.25        -999.25         39.095       35.65545         0.3303        -999.25        -999.25         0.8466      -131.9636      -37.52934     0.05649899     0.01307403
      3050.5000         0.8643        -999.25       2806.137        -999.25        -999.25        40.5476       38.64777         0.3107        -999.25        -999.25         0.8504      -132.0901      -37.65876      0.1201654    0.009478887
      3051.0000         0.8618        -999.25       2876.973        -999.25        -999.25        41.7805       41.18711         0.2978        -999.25        -999.25         0.8471      -132.3218      -37.89337      0.1741939    0.002961901
      3051.5000         0.8604        -999.25       2846.656        -999.25        -999.25        43.8518       45.45506         0.2902        -999.25        -999.25         0.8404        -132.95       -38.5245      0.2650013              0
      3052.0000         0.8591        -999.25       2766.566        -999.25        -999.25        46.6047       51.12831         0.2954        -999.25        -999.25         0.8285      -133.2053      -38.78272      0.3857087              0
      3052.5000          0.858        -999.25        2679.84        -999.25        -999.25        49.3976       56.88404         0.3085        -999.25        -999.25         0.8128      -131.3154      -36.89574       0.508171     0.03067398
      3053.0000         0.8554        -999.25       2566.867        -999.25        -999.25        53.7499       65.85489         0.3269        -999.25        -999.25         0.7894      -128.1443      -33.72756      0.6990402      0.1186788
      3053.5000         0.8508        -999.25       2428.941        -999.25        -999.25        58.8637       76.39581         0.3493        -999.25        -999.25         0.7621      -123.7894      -29.37557       0.923315      0.2395674
      3054.0000         0.8397        -999.25       2280.242        -999.25        -999.25        64.8839       88.80552         0.3829        -999.25        -999.25         0.7335      -117.5819        -23.171              1      0.4119167
      3054.5000         0.8255        -999.25       2093.113        -999.25        -999.25        69.8979       99.14064         0.4193        -999.25        -999.25          0.717      -106.5826      -12.17462              1      0.7173716
      3055.0000         0.8076        -999.25       1929.643        -999.25        -999.25        71.7888       103.0366         0.4568        -999.25        -999.25         0.7188      -101.1766       -6.77153              1      0.8674575
      3055.5000          0.795        -999.25       1794.363        -999.25        -999.25        72.3002       104.0884         0.4924        -999.25        -999.25         0.7306       -96.6621      -2.259956              1       0.992779
      3056.0000         0.7797        -999.25       1683.635        -999.25        -999.25        72.1228         103.72         0.5193        -999.25        -999.25         0.7471        -93.627      0.7722244              1              1
      3056.5000         0.7624        -999.25       1612.703        -999.25        -999.25        68.5995       96.45316         0.5339        -999.25        -999.25         0.7672       -91.3672       3.029106              1              1
      3057.0000         0.7472        -999.25       1568.018        -999.25        -999.25        61.9999        82.8436         0.5484        -999.25        -999.25         0.7886       -93.0851       1.308289              1              1
      3057.5000         0.7418        -999.25       1528.172        -999.25        -999.25        59.3843       77.44819         0.5651        -999.25        -999.25         0.8121       -95.1252     -0.7347336      0.9457061              1
      3058.0000         0.7468        -999.25       1485.607        -999.25        -999.25        64.2173       87.41016          0.583        -999.25        -999.25         0.8236        -99.636      -5.248451              1      0.9097652
      3058.5000         0.7541        -999.25       1444.115        -999.25        -999.25        68.4397        96.1132         0.6027        -999.25        -999.25         0.8185       -98.2377      -3.853073              1      0.9485257
      3059.0000         0.7626        -999.25        1406.59        -999.25        -999.25        71.3057       102.0197         0.6223        -999.25        -999.25         0.8047       -93.4634      0.9183044              1              1
      3059.5000         0.7739        -999.25       1378.914        -999.25        -999.25        70.3879       100.1247          0.638        -999.25        -999.25         0.8019        -90.379       3.999794              1              1
      3060.0000         0.7995        -999.25       1375.016        -999.25        -999.25        68.6769       96.59439         0.6396        -999.25        -999.25          0.802       -90.1202       4.255669              1              1
      3060.5000         0.8141        -999.25       1424.305        -999.25        -999.25        66.3335       91.76022         0.6315        -999.25        -999.25         0.8043       -90.2292       4.143745              1              1
      3061.0000         0.8218        -999.25       1503.146        -999.25        -999.25        65.2383        89.4995          0.601        -999.25        -999.25         0.8079       -89.4841       4.885933              1              1
      3061.5000         0.8254        -999.25       1590.672        -999.25        -999.25        65.3085       89.64163         0.5611        -999.25        -999.25         0.8129       -91.8953       2.471809              1              1
      3062.0000         0.8289        -999.25       1671.609        -999.25        -999.25        62.6766       84.21259         0.5262        -999.25        -999.25         0.8205        -97.948      -3.583809              1      0.9560053
      3062.5000         0.8324        -999.25       1739.125        -999.25        -999.25        59.9175        78.5213         0.4993        -999.25        -999.25         0.8271      -103.5963      -9.235023      0.9685383      0.7990271
      3063.0000         0.8336        -999.25       1787.627        -999.25        -999.25        59.9824        78.6525         0.4845        -999.25        -999.25         0.8285      -109.3207      -14.96235      0.9713299      0.6399348
      3063.5000         0.8369        -999.25       1801.553        -999.25        -999.25        61.1584       81.07454         0.4788        -999.25        -999.25         0.8144      -109.2395      -14.88407              1      0.6421092
