#------------------------------------------------------------------------------
# Created by    : vladimir.rabinovich
# Created on    : 09/19/2023 17:20:36
#------------------------------------------------------------------------------
~Version Information Section
VERS.           2.0     :   CWLS log ASCII Standard - VERSION 2.0
WRAP.           NO      :   One line per depth step
~Well Information Section
#MNEM       .UNIT                                         VALUE :DESCRIPTION
#------------------------------------------------------------------------------
STRT        .FT                                             498 :START DEPTH
STOP        .FT                                            9565 :STOP DEPTH
STEP        .FT                                             0.5 :STEP      
NULL        .                                           -999.25 :NULL      
COMP        .                       BLUE DOLPHIN EXPLORATION CO :COMPANY   
WELL        .                                OCS 00714 ST00BP00 :WELL      
FLD         .                              GALVESTON BLOCK 0288 :FIELD     
LOC         .                                                   :LOCATION  
CNTY        .                             GALVESTON LARGE BLOCK :LOCATION  
STAT        .                                             TEXAS :STATE     
CTRY        .                                     UNITED STATES :COUNTRY   
SRVC        .                                                   :SERVICE COMPANY
DATE        .                             9/13/2023 11:19:25 AM :LOG DATE  
API         .                                    42706000390000 :API NUMBER
UWI         .                                    42706000390000 :UNIQUE WELL ID
XCOORD      .                                  1097340.72850425 :SURFACE X 
YCOORD      .                                  10481267.2561277 :SURFACE Y 
LAT         .                                        28.8709496 :LATITUDE  
LON         .                                       -94.6972159 :LONGITUDE 
ELEV        .FT                                              85 :ELEVATION VALUE
ELEV_TYPE   .                                                KB :ELEVATION REFERENCE TYPE
~Curve Information Section
#MNEM       .UNIT                                      API CODE :CURVE DESCRIPTION
#------------------------------------------------------------------------------
DEPT        .FT                                                 :DEPTH     
ASN         .OHMM                                               :          
CALI        .IN                                                 :          
DT          .US/F                                               :          
ILD         .OHMM                                               :          
SP          .MV                                                 :          
SP_1        .MV                                                 :          
SP_NORM     .MV                                                 :SP Normalized
VSH_SP      .V/V                                                :Volume of Shale from SP
~A        DEPTH            ASN           CALI             DT            ILD             SP           SP_1        SP_NORM         VSH_SP
# ...
      4716.5000         0.9147        10.8632       132.2207         0.9396       -55.8011        -999.25     -0.2202034              1
      4717.0000         1.0529        10.7726       132.7803         0.9637       -55.4265        -999.25      0.2289085              1
      4717.5000         1.0649        10.7783       133.3738         0.9879       -55.9709        -999.25     -0.2409897              1
      4718.0000         1.0736        10.7937       132.7798         1.0029       -55.9695        -999.25      -0.165081              1
      4718.5000         1.0656        10.7662       134.5378          0.991       -55.9962        -999.25     -0.1172714              1
      4719.0000         1.0557        10.7016       141.1619         0.9792       -56.2417        -999.25     -0.2882652              1
      4719.5000         1.0408        10.6175       141.1943         0.9672       -56.7863        -999.25      -0.758358              1
      4720.0000           1.03        10.5558       139.3337         0.9549       -57.4686        -999.25      -1.366154              1
      4720.5000         1.0193         10.519       138.0496         0.9427       -56.8132        -999.25     -0.6362457              1
      4721.0000         1.0096        10.5099       138.4189         0.9304       -57.2844        -999.25      -1.032936              1
      4721.5000         1.0036        10.5637       138.3149         0.9182       -57.7545        -999.25      -1.428532              1
      4722.0000         0.9987        10.6732       137.0618         0.9059       -58.1923        -999.25      -1.791821              1
      4722.5000         0.9948        10.7814       137.1213         0.8954       -58.5731        -999.25      -2.098118      0.9974179
      4723.0000         0.9918        10.8969       138.0195         0.8868       -58.8832        -999.25       -2.33371      0.9912181
      4723.5000         0.9887        11.0228       136.0195         0.8783       -58.9612        -999.25      -2.337204      0.9911262
      4724.0000         0.9703        10.9234       126.1943         0.8697       -58.6755        -999.25      -1.976994              1
      4724.5000         0.9185        10.7656       118.1288         0.8611       -58.7292        -999.25      -1.956184              1
      4725.0000         0.8695        10.6552       116.3781         0.8525       -59.0752        -999.25       -2.22768      0.9940084
      4725.5000         0.8634        10.6477       121.0878         0.8454       -59.3203        -999.25      -2.398273      0.9895191
      4726.0000         0.8575        10.7265       123.3406         0.8416       -58.7832        -999.25      -1.786667              1
      4726.5000         0.8587        10.7653       124.9939         0.8378       -58.7507        -999.25      -1.679661              1
      4727.0000         0.8632        10.7829       124.2844         0.8324       -59.1976        -999.25      -2.052055      0.9986301
      4727.5000         0.8674        10.8018         124.39         0.8253       -59.4147        -999.25      -2.194645      0.9948778
      4728.0000          0.871        10.8211        124.175         0.8182       -58.8895        -999.25      -1.594936              1
      4728.5000          0.854         10.812       124.2134         0.8111       -58.9266        -999.25      -1.557533              1
      4729.0000           0.84        10.8028       123.7312         0.8041       -58.4924        -999.25      -1.048824              1
      4729.5000         0.8232        10.8563       122.9529         0.7927       -58.5907        -999.25      -1.072617              1
      4730.0000         0.8126        10.9423       118.1647         0.7773       -58.7915        -999.25       -1.19891              1
      4730.5000         0.8021        11.0214       117.4719         0.7618       -59.0709        -999.25      -1.403805              1
      4731.0000         0.7921        11.1032       118.8837         0.7498       -59.3403        -999.25      -1.598698              1
      4731.5000         0.7828        11.1213       120.4287          0.741       -59.5465        -999.25      -1.730389              1
      4732.0000          0.774        11.0825       131.5652         0.7368       -59.6606        -999.25      -1.769981              1
      4732.5000         0.7662        11.0219       138.1445         0.7369       -59.7076        -999.25      -1.742474              1
      4733.0000          0.759        10.9265        139.199         0.7468       -59.6838        -999.25      -1.644169              1
      4733.5000         0.7546         10.818       138.7341         0.7656       -59.3512        -999.25      -1.237061              1
      4734.0000         0.7542        10.8104       136.4006         0.7842       -58.8489        -999.25     -0.6602554              1
      4734.5000         0.7601         10.844       134.7473         0.8029       -58.6705        -999.25     -0.4073486              1
      4735.0000         0.7788        10.9155       133.8579         0.8247       -58.9033        -999.25     -0.5656395              1
      4735.5000         0.8166        11.0158       132.9685         0.8491       -59.2838        -999.25     -0.8716316              1
      4736.0000         0.8547        11.0963       129.4614         0.8736       -59.3511        -999.25     -0.8644257              1
      4736.5000         0.8928         10.988       129.3181         0.8948       -59.2892        -999.25     -0.7280197              1
      4737.0000          0.931        11.1616       133.6455         0.9091       -58.8789        -999.25     -0.2432098              1
      4737.5000         0.9691        11.3943       134.9592         0.9129       -58.3812        -999.25      0.3289948              1
      4738.0000         0.9582        11.4951       135.8176         0.8932       -58.7157        -999.25     0.06900406              1
      4738.5000         0.9269        11.4604       137.6357         0.8735       -59.6427        -999.25     -0.7834892              1
      4739.0000         0.8908        11.3788       140.9165         0.8538       -60.8524        -999.25      -1.918686              1
      4739.5000         0.8493         11.225       142.3813         0.8403       -62.1554        -999.25      -3.147175      0.9698112
      4740.0000         0.8336        10.9883       141.2537         0.8325       -62.9445        -999.25      -3.861771      0.9510061
      4740.5000         0.8241        10.7744       139.7512         0.8246       -62.6412        -999.25      -3.483963      0.9609483
      4741.0000          0.817        10.6461       141.2649         0.8168       -61.7196        -999.25      -2.487858      0.9871616
      4741.5000         0.8129        10.5776       142.0952          0.809       -60.2482        -999.25     -0.9419479              1
      4742.0000         0.8083        10.5384       142.1248         0.8011       -58.7103        -999.25      0.6704597              1
      4742.5000         0.8036        10.5565        143.575         0.7933       -57.2762        -999.25       2.179066              1
      4743.0000          0.794        10.6817       137.4116         0.7855       -57.0061        -999.25       2.523674              1
      4743.5000         0.7855        10.7904        131.489         0.7776       -57.4816        -999.25       2.122677              1
      4744.0000         0.7798        10.8635       128.8259         0.7827       -58.3486        -999.25       1.330189              1
      4744.5000         0.7831        10.8138       122.6434         0.7884       -60.0044        -999.25     -0.2511063              1
      4745.0000         0.7864        10.7712       122.4731         0.7942       -61.0709        -999.25      -1.243099              1
      4745.5000         0.7926        10.7529       132.2556         0.7999       -61.8662        -999.25       -1.96389              1
