#------------------------------------------------------------------------------
# Created by    : vladimir.rabinovich
# Created on    : 09/19/2023 17:21:24
#------------------------------------------------------------------------------
~Version Information Section
VERS.           2.0     :   CWLS log ASCII Standard - VERSION 2.0
WRAP.           NO      :   One line per depth step
~Well Information Section
#MNEM       .UNIT                                         VALUE :DESCRIPTION
#------------------------------------------------------------------------------
STRT        .FT                                            4000 :START DEPTH
STOP        .FT                                            8085 :STOP DEPTH
STEP        .FT                                             0.5 :STEP      
NULL        .                                           -999.25 :NULL      
COMP        .                             WALTER OIL & GAS CORP :COMPANY   
WELL        .                               OCS G09047 ST00BP00 :WELL      
FLD         .                              GALVESTON BLOCK 0351 :FIELD     
LOC         .                                                   :LOCATION  
CNTY        .                             GALVESTON LARGE BLOCK :LOCATION  
STAT        .                                             TEXAS :STATE     
CTRY        .                                     UNITED STATES :COUNTRY   
SRVC        .                                                   :SERVICE COMPANY
DATE        .                             9/13/2023 11:19:36 AM :LOG DATE  
API         .                                    42706402000000 :API NUMBER
UWI         .                                    42706402000000 :UNIQUE WELL ID
XCOORD      .                                  1036183.96101641 :SURFACE X 
YCOORD      .                                  10437562.0132666 :SURFACE Y 
LAT         .                                        28.7482272 :LATITUDE  
LON         .                                       -94.8860948 :LONGITUDE 
ELEV        .FT                                              80 :ELEVATION VALUE
ELEV_TYPE   .                                                KB :ELEVATION REFERENCE TYPE
~Curve Information Section
#MNEM       .UNIT                                      API CODE :CURVE DESCRIPTION
#------------------------------------------------------------------------------
DEPT        .FT                                                 :DEPTH     
CALI        .IN                                                 :          
DRHO        .G/C3                                               :          
GR          .GAPI                                               :          
GR_NORM     .GAPI                                               :GammaRay Normalized
ILD         .OHMM                                               :          
ILM         .OHMM                                               :          
NPHI        .%                                                  :          
RHOB        .G/C3                                               :          
SFL         .OHMM                                               :          
SP          .MV                                                 :          
SP_NORM     .MV                                                 :SP Normalized
VSH_GR      .V/V                                                :Volume of Shale from GR
VSH_SP      .V/V                                                :Volume of Shale from SP
~A        DEPTH           CALI           DRHO             GR        GR_NORM            ILD            ILM           NPHI           RHOB            SFL             SP        SP_NORM         VSH_GR         VSH_SP
# ...
      7534.0000        10.0225         0.1194        88.5858       80.28053         0.6732         0.7498        34.2479         2.4422         0.8867       -45.0823     -0.6378517              1      0.9908878
      7534.5000        10.0212         0.1096        85.4683       76.81664         0.6908         0.7642        33.4346         2.4482          0.887       -44.8625     -0.4180527      0.9322689      0.9940278
      7535.0000        10.0198         0.0991        85.1127       76.42152         0.7126         0.7745        33.3354         2.4526         0.8853       -44.5967     -0.1522522      0.9238622       0.997825
      7535.5000         9.9961         0.1057        85.8539       77.24508         0.7314         0.7832        33.4641         2.4561         0.8807       -44.6117     -0.1672516      0.9413847      0.9976107
      7536.0000         9.9414         0.1083        86.7187       78.20596         0.7393          0.792        33.3551         2.4597         0.8761       -45.1302     -0.6857529       0.961829      0.9902036
      7536.5000         9.8866         0.1037        87.6385       79.22797         0.7473         0.7998        33.0805         2.4626         0.8788       -45.6487      -1.204254      0.9835737      0.9827964
      7537.0000         9.8421         0.0865        86.9385       78.45019         0.7554         0.8072        32.5556         2.4636         0.8917       -46.1679      -1.723454      0.9670253      0.9753792
      7537.5000          9.812         0.0864        82.7451       73.79086         0.7636         0.8146        32.1625         2.4645         0.9049       -46.6865      -2.242054      0.8678907      0.9679707
      7538.0000         9.7818         0.0865        79.2957       69.95819         0.7719         0.8202        32.5511         2.4623         0.9114        -47.205      -2.760555      0.7863445      0.9605635
      7538.5000         9.7517         0.0867        78.2661       68.81419         0.7803         0.8243        33.6443          2.459         0.9165       -47.6824      -3.237953       0.762004      0.9537435
      7539.0000         9.7459         0.0934        78.3441       68.90086         0.7861         0.8284        34.5908         2.4552         0.9106       -48.1497      -3.705254       0.763848      0.9470678
      7539.5000         9.7463         0.1035        78.5884        69.1723         0.7903         0.8325        34.8289         2.4552         0.8983       -48.1882      -3.743755      0.7696235      0.9465178
      7540.0000         9.7468         0.1122        79.3182       69.98319         0.7945         0.8376          34.45          2.454         0.8877       -48.2177      -3.773254      0.7868764      0.9460964
      7540.5000         9.7473         0.1209        80.2703       71.04108         0.7988         0.8428        33.7342         2.4508         0.8881       -48.2426      -3.798153      0.8093848      0.9457407
      7541.0000         9.7411         0.1233         80.358       71.13853         0.8017         0.8479         32.605         2.4488         0.8884       -48.2675      -3.823055       0.811458      0.9453849
      7541.5000         9.7264         0.1192        80.0095        70.7513         0.8041         0.8507        31.6923         2.4478         0.8972       -48.2923      -3.847855      0.8032191      0.9450306
      7542.0000         9.7117         0.1153        78.9937       69.62263         0.8065         0.8518        31.1378         2.4479         0.9122       -48.3171      -3.872654       0.779205      0.9446764
      7542.5000          9.697         0.1141        78.3304       68.88564         0.8089         0.8529         30.825          2.448         0.9273        -48.662      -4.217552      0.7635242      0.9397492
      7543.0000         9.6755          0.113        77.8549        68.3573         0.8113         0.8531        30.9304         2.4508         0.9414       -49.1044      -4.659954       0.752283      0.9334292
      7543.5000          9.632         0.1094         76.927        67.3263         0.8138         0.8458        30.8645         2.4536         0.9557       -49.5463      -5.101852      0.7303469      0.9271164
      7544.0000         9.5885         0.1045        75.4744        65.7123         0.8162         0.8385        30.6464         2.4541          0.954       -49.9113      -5.466854      0.6960065      0.9219021
      7544.5000          9.545         0.1002         74.627       64.77074         0.8178         0.8313        30.5819         2.4522         0.9393       -50.4036      -5.959152      0.6759733      0.9148692
      7545.0000         9.5247         0.0996        74.6326       64.77697          0.818         0.8279        30.5173          2.449         0.9246       -51.3346      -6.890152      0.6761057      0.9015692
      7545.5000         9.5045         0.1029        75.0475       65.23797         0.8182         0.8244        31.3276         2.4436         0.8928       -52.2532      -7.808754      0.6859142      0.8884464
      7546.0000         9.4941         0.1164        76.3679       66.70508         0.8182          0.821        32.2037         2.4377         0.8622         -51.85      -7.405552      0.7171293      0.8942064
      7546.5000         9.4955         0.1281         78.366       68.92519         0.8161         0.8193        33.6668         2.4324         0.8447       -50.8616      -6.417152      0.7643657      0.9083264
      7547.0000         9.4969         0.1389        79.5092       70.19541         0.7995         0.8186        35.0925         2.4323         0.8371       -50.1902      -5.745754      0.7913917      0.9179178
      7547.5000         9.4721         0.1526        80.2317       70.99818         0.7622         0.8179        35.2969         2.4311         0.8405       -49.8071      -5.362652       0.808472      0.9233907
      7548.0000          9.427         0.1667        80.8563       71.69219         0.7226         0.8079        34.5016         2.4282          0.858       -49.8026      -5.358154      0.8232381      0.9234549
      7548.5000         9.3819         0.1709        79.1659       69.81397         0.6805         0.7791        33.6608         2.4234         0.8758       -51.6154      -7.170952       0.783276      0.8975579
      7549.0000         9.3298         0.1679        75.2173       65.42664         0.6179         0.7435        32.8057         2.4146         0.8939       -54.4983      -10.05385      0.6899284      0.8563735
      7549.5000          9.269         0.1283        71.1937       60.95597         0.5667          0.683         31.669         2.4028         0.9122       -60.8032      -16.35875      0.5948079      0.7663035
      7550.0000         9.2081         0.0492        67.1453       56.45775         0.5261         0.6267        30.7203         2.3903         0.9107        -67.153      -22.70855       0.499101      0.6755921
      7550.5000         9.1626           0.02        64.1027       53.07708         0.4877         0.5742         30.343         2.3746         0.9073       -75.7092      -31.26475      0.4271719      0.5533607
      7551.0000         9.1443          0.013        61.9236       50.65586         0.4521          0.528        31.0446         2.3585          0.913       -82.7079      -38.26345      0.3756565      0.4533792
      7551.5000         9.1262         0.0061         60.783       49.38853         0.4234         0.4866        31.6967         2.3405         0.9196       -89.0776      -44.63315      0.3486921      0.3623835
      7552.0000          9.108         0.0058        59.4401       47.89642         0.4032         0.4562        32.0209         2.3225         0.9416       -93.1262      -48.68175       0.316945      0.3045464
      7552.5000         9.1254         0.0056        56.9217       45.09819         0.3938         0.4456        32.1572         2.3061         0.9673       -98.5325      -54.08805      0.2574083      0.2273135
