#------------------------------------------------------------------------------
# Created by    : vladimir.rabinovich
# Created on    : 09/19/2023 17:21:24
#------------------------------------------------------------------------------
~Version Information Section
VERS.           2.0     :   CWLS log ASCII Standard - VERSION 2.0
WRAP.           NO      :   One line per depth step
~Well Information Section
#MNEM       .UNIT                                         VALUE :DESCRIPTION
#------------------------------------------------------------------------------
STRT        .FT                                             682 :START DEPTH
STOP        .FT                                            8542 :STOP DEPTH
STEP        .FT                                             0.5 :STEP      
NULL        .                                           -999.25 :NULL      
COMP        .                       CORPUS CHRISTI OIL & GAS CO :COMPANY   
WELL        .                               OCS G08551 ST00BP00 :WELL      
FLD         .                                           WILDCAT :FIELD     
LOC         .                                                   :LOCATION  
CNTY        .                             GALVESTON LARGE BLOCK :LOCATION  
STAT        .                                             TEXAS :STATE     
CTRY        .                                     UNITED STATES :COUNTRY   
SRVC        .                                                   :SERVICE COMPANY
DATE        .                             9/13/2023 11:19:36 AM :LOG DATE  
API         .                                    42706401950000 :API NUMBER
UWI         .                                    42706401950000 :UNIQUE WELL ID
XCOORD      .                                   976199.22633255 :SURFACE X 
YCOORD      .                                  10415950.2633902 :SURFACE Y 
LAT         .                                         28.686063 :LATITUDE  
LON         .                                        -95.072067 :LONGITUDE 
ELEV        .FT                                              81 :ELEVATION VALUE
ELEV_TYPE   .                                                KB :ELEVATION REFERENCE TYPE
~Curve Information Section
#MNEM       .UNIT                                      API CODE :CURVE DESCRIPTION
#------------------------------------------------------------------------------
DEPT        .FT                                                 :DEPTH     
CALI        .IN                                                 :          
DPHI        .%                                                  :          
DRHO        .G/C3                                               :          
DT          .US/F                                               :          
GR          .GAPI                                               :          
GR_1        .GAPI                                               :          
GR_NORM     .GAPI                                               :GammaRay Normalized
ILD         .OHMM                                               :          
ILM         .OHMM                                               :          
NPHI        .%                                                  :          
SFL         .OHMM                                               :          
SP_NORM     .MV                                                 :SP Normalized
SPS         .MV                                                 :          
VSH_GR      .V/V                                                :Volume of Shale from GR
VSH_SP      .V/V                                                :Volume of Shale from SP
~A        DEPTH           CALI           DPHI           DRHO             DT             GR           GR_1        GR_NORM            ILD            ILM           NPHI            SFL        SP_NORM            SPS         VSH_GR         VSH_SP
# ...
      5255.0000        -999.25        -999.25        -999.25       112.7739         58.301        -999.25       72.01443         0.6553         0.6694        -999.25         0.9183        -11.608        -77.092      0.8300943      0.8202034
      5255.5000        -999.25        -999.25        -999.25       113.0435        60.5292        -999.25       76.19817         0.6865         0.6939        -999.25         0.8888      -10.26233       -75.7434      0.9191101      0.8430114
      5256.0000        -999.25        -999.25        -999.25       113.2466        62.4644        -999.25       79.83176         0.7092         0.7142        -999.25         0.8558      -9.172447       -74.6506      0.9964203      0.8614839
      5256.5000        -999.25        -999.25        -999.25       113.5972        61.9582        -999.25       78.88129         0.7251         0.7295        -999.25          0.822      -11.23927       -76.7145      0.9761978       0.826453
      5257.0000        -999.25        -999.25        -999.25       114.0164        60.8127        -999.25       76.73047         0.7274         0.7345        -999.25         0.8012       -14.1252       -79.5975      0.9304355       0.777539
      5257.5000        -999.25        -999.25        -999.25       114.4921        59.6559        -999.25       74.55843         0.7258         0.7298        -999.25         0.8048      -16.96612       -82.4355       0.884222      0.7293878
      5258.0000        -999.25        -999.25        -999.25       114.9681        58.6071        -999.25       72.58917         0.7191         0.7214        -999.25         0.8049      -19.59624       -85.0627      0.8423228      0.6848096
      5258.5000        -999.25        -999.25        -999.25       115.1299        57.5972        -999.25       70.69296         0.6998         0.7099        -999.25         0.8189      -21.04077       -86.5043      0.8019778      0.6603259
      5259.0000        -999.25        -999.25        -999.25       115.1765        56.7032        -999.25       69.01437         0.6784         0.6961        -999.25         0.8222      -21.60979       -87.0704      0.7662631      0.6506816
      5259.5000        -999.25        -999.25        -999.25       114.6136        57.8016        -999.25       71.07673         0.6588         0.6785        -999.25         0.8194      -20.76801       -86.2257      0.8101432      0.6649489
      5260.0000        -999.25        -999.25        -999.25       114.1971        60.6948        -999.25       76.50912         0.6404          0.664        -999.25         0.8298      -19.12994       -84.5847      0.9257259       0.692713
      5260.5000        -999.25        -999.25        -999.25       114.5747        63.2141        -999.25       81.23942         0.6267         0.6543        -999.25          0.842      -17.60966       -83.0615              1      0.7184804
      5261.0000        -999.25        -999.25        -999.25       115.4131        64.6195        -999.25       83.87823         0.6139         0.6503        -999.25         0.8207      -16.88618       -82.3351              1      0.7307428
      5261.5000        -999.25        -999.25        -999.25       116.2866        63.7906        -999.25       82.32186          0.609         0.6501        -999.25         0.7987      -16.64801        -82.094              1      0.7347795
      5262.0000        -999.25        -999.25        -999.25        117.137        62.4324        -999.25       79.77167          0.605         0.6493        -999.25         0.7798      -16.38033       -81.8234      0.9951419      0.7393164
      5262.5000        -999.25        -999.25        -999.25       118.3352        61.0059        -999.25       77.09324         0.6048         0.6477        -999.25         0.7783      -15.31665       -80.7568       0.938154      0.7573449
      5263.0000        -999.25        -999.25        -999.25       120.6564        59.3311        -999.25       73.94858          0.605         0.6452        -999.25         0.7749      -13.65607       -79.0933      0.8712463      0.7854903
      5263.5000        -999.25        -999.25        -999.25       123.0453        57.7075        -999.25       70.90005         0.6061         0.6435        -999.25         0.7471       -11.6264       -77.0607      0.8063841      0.8198916
      5264.0000        -999.25        -999.25        -999.25        125.006        60.1703        -999.25       75.52428         0.6042         0.6418        -999.25         0.7118      -9.609421       -75.0408       0.904772      0.8540776
      5264.5000        -999.25        -999.25        -999.25       126.5044        63.7586        -999.25       82.26178         0.5968         0.6397        -999.25         0.6877      -8.120644       -73.5491              1      0.8793111
      5265.0000        -999.25        -999.25        -999.25       126.7167        66.6643        -999.25        87.7176         0.5823         0.6344        -999.25         0.6672      -9.140968       -74.5665              1      0.8620175
      5265.5000        -999.25        -999.25        -999.25       124.1882        64.8701        -999.25       84.34878         0.5616         0.6251        -999.25         0.6489      -12.56909       -77.9917              1      0.8039137
      5266.0000        -999.25        -999.25        -999.25       121.3296        60.5217        -999.25       76.18409         0.5419          0.609        -999.25          0.636      -16.27302       -81.6927      0.9188104      0.7411353
      5266.5000        -999.25        -999.25        -999.25       118.7548        57.3023        -999.25       70.13925         0.5231         0.5942        -999.25         0.6573      -21.27193       -86.6887      0.7901968      0.6564079
      5267.0000        -999.25        -999.25        -999.25       116.7288        56.6549        -999.25       68.92365         0.5072         0.5805        -999.25         0.6838      -25.14916        -90.563      0.7643329      0.5906922
      5267.5000        -999.25        -999.25        -999.25        115.327        57.6223        -999.25       70.74008         0.4954          0.568        -999.25         0.7184      -25.85958       -91.2705      0.8029805      0.5786512
      5268.0000        -999.25        -999.25        -999.25       114.3398        58.2006        -999.25       71.82592         0.4877         0.5563        -999.25         0.7485      -22.81141       -88.2194      0.8260834      0.6303151
      5268.5000        -999.25        -999.25        -999.25       115.5757        58.4081        -999.25       72.21553          0.489         0.5462        -999.25         0.7579      -17.60503       -83.0101       0.834373      0.7185587
      5269.0000        -999.25        -999.25        -999.25       117.4032        58.7213        -999.25        72.8036         0.5034         0.5381        -999.25         0.7388      -13.30206       -78.7042       0.846885      0.7914906
      5269.5000        -999.25        -999.25        -999.25       119.2421        60.5066        -999.25       76.15572         0.5211         0.5448        -999.25         0.7199      -10.64518       -76.0444      0.9182068      0.8365224
      5270.0000        -999.25        -999.25        -999.25       121.0972        62.8578        -999.25        80.5704         0.5413         0.5645        -999.25          0.702      -8.465202       -73.8615              1      0.8734711
      5270.5000        -999.25        -999.25        -999.25       122.7439        65.4323        -999.25       85.40436         0.5651         0.5849        -999.25          0.689      -7.279823       -72.6732              1      0.8935623
      5271.0000        -999.25        -999.25        -999.25       123.8467        65.0056        -999.25       84.60319         0.5924         0.6061        -999.25         0.6872      -7.716949       -73.1074              1      0.8861534
      5271.5000        -999.25        -999.25        -999.25       123.6324         62.785        -999.25       80.43371         0.6185         0.6273        -999.25         0.6911       -8.60817       -73.9957              1       0.871048
