#------------------------------------------------------------------------------
# Created by    : vladimir.rabinovich
# Created on    : 09/19/2023 17:22:39
#------------------------------------------------------------------------------
~Version Information Section
VERS.           2.0     :   CWLS log ASCII Standard - VERSION 2.0
WRAP.           NO      :   One line per depth step
~Well Information Section
#MNEM       .UNIT                                         VALUE :DESCRIPTION
#------------------------------------------------------------------------------
STRT        .FT                                            2600 :START DEPTH
STOP        .FT                                            8208 :STOP DEPTH
STEP        .FT                                             0.5 :STEP      
NULL        .                                           -999.25 :NULL      
COMP        .                          SEAGULL ENERGY E & P INC :COMPANY   
WELL        .                               OCS G09039 ST00BP00 :WELL      
FLD         .                              GALVESTON BLOCK 0273 :FIELD     
LOC         .                                                   :LOCATION  
CNTY        .                             GALVESTON LARGE BLOCK :LOCATION  
STAT        .                                             TEXAS :STATE     
CTRY        .                                     UNITED STATES :COUNTRY   
SRVC        .                                                   :SERVICE COMPANY
DATE        .                             9/13/2023 11:19:54 AM :LOG DATE  
API         .                                    42706403220000 :API NUMBER
UWI         .                                    42706403220000 :UNIQUE WELL ID
XCOORD      .                                  1018306.80056624 :SURFACE X 
YCOORD      .                                  10490966.5196098 :SURFACE Y 
LAT         .                                         28.894284 :LATITUDE  
LON         .                                        -94.944599 :LONGITUDE 
ELEV        .FT                                             103 :ELEVATION VALUE
ELEV_TYPE   .                                                KB :ELEVATION REFERENCE TYPE
~Curve Information Section
#MNEM       .UNIT                                      API CODE :CURVE DESCRIPTION
#------------------------------------------------------------------------------
DEPT        .FT                                                 :DEPTH     
DCAL        .IN                                                 :          
DPHI        .%                                                  :          
DTL         .US/F                                               :          
GR          .GAPI                                               :          
GR_1        .GAPI                                               :          
GR_NORM     .GAPI                                               :GammaRay Normalized
ILD         .OHMM                                               :          
ILM         .OHMM                                               :          
NPHI        .%                                                  :          
SFL         .OHMM                                               :          
SP          .MV                                                 :          
SP_NORM     .MV                                                 :SP Normalized
VSH_GR      .V/V                                                :Volume of Shale from GR
VSH_SP      .V/V                                                :Volume of Shale from SP
~A        DEPTH           DCAL           DPHI            DTL             GR           GR_1        GR_NORM            ILD            ILM           NPHI            SFL             SP        SP_NORM         VSH_GR         VSH_SP
# ...
      4526.0000        -999.25        -999.25        -999.25        48.0834        -999.25       65.74683         0.6584         0.6885        -999.25         0.8004       -50.0005      -12.49759       0.696741      0.7500483
      4526.5000        -999.25        -999.25        -999.25        49.8692        -999.25       68.04339          0.632         0.6523        -999.25         0.7659       -49.1525      -11.58394       0.745604      0.7683213
      4527.0000        -999.25        -999.25        -999.25        52.5216        -999.25       71.45439         0.6158          0.642        -999.25         0.6967        -47.423      -9.720974      0.8181785      0.8055805
      4527.5000        -999.25        -999.25        -999.25        56.7444        -999.25       76.88494         0.6018          0.635        -999.25         0.6627       -44.8992      -7.002617      0.9337221      0.8599477
      4528.0000        -999.25        -999.25        -999.25        61.2854        -999.25       82.72471         0.5934         0.6301        -999.25         0.6566        -43.177      -5.147519              1      0.8970496
      4528.5000        -999.25        -999.25        -999.25        63.7371        -999.25       85.87762         0.5876         0.6302        -999.25         0.6665       -42.0662      -3.950855              1      0.9209829
      4529.0000        -999.25        -999.25        -999.25        65.9635        -999.25       88.74078         0.5835         0.6282        -999.25         0.6819       -41.3893      -3.221468              1      0.9355707
      4529.5000        -999.25        -999.25        -999.25        67.7395        -999.25       91.02473         0.5782         0.6243        -999.25         0.6859       -41.2065      -3.024188              1      0.9395162
      4530.0000        -999.25        -999.25        -999.25        68.5804        -999.25       92.10614         0.5729         0.6186        -999.25         0.6488       -41.8569      -3.724193              1      0.9255161
      4530.5000        -999.25        -999.25        -999.25         65.851        -999.25       88.59612         0.5689         0.6133        -999.25         0.6852         -43.21      -5.180959              1      0.8963808
      4531.0000        -999.25        -999.25        -999.25        63.5927        -999.25       85.69193         0.5621          0.607        -999.25          0.683       -45.9016      -8.079186              1      0.8384163
      4531.5000        -999.25        -999.25        -999.25        62.6385        -999.25       84.46481         0.5515         0.5964        -999.25         0.6432       -47.7278      -10.04544              1      0.7990912
      4532.0000        -999.25        -999.25        -999.25        63.1177        -999.25       85.08105         0.5378         0.5745        -999.25         0.5695       -48.8209      -11.22221              1      0.7755558
      4532.5000        -999.25        -999.25        -999.25        64.4838        -999.25       86.83788         0.5039          0.542        -999.25         0.5325       -49.4552      -11.90488              1      0.7619024
      4533.0000        -999.25        -999.25        -999.25        64.9746        -999.25       87.46905         0.4771         0.5223        -999.25         0.5259       -50.0926      -12.59089              1      0.7481821
      4533.5000        -999.25        -999.25        -999.25        63.3687        -999.25       85.40385         0.4576         0.5258        -999.25         0.5457        -51.275      -13.86383              1      0.7227234
      4534.0000        -999.25        -999.25        -999.25        56.4066        -999.25       76.45055         0.4445         0.5136        -999.25         0.5799       -53.8833      -16.67235      0.9244797      0.6665531
      4534.5000        -999.25        -999.25        -999.25        51.0259        -999.25       69.53092         0.4245         0.4714        -999.25         0.6061       -59.1661       -22.3611      0.7772537      0.5527781
      4535.0000        -999.25        -999.25        -999.25        40.0001        -999.25       55.35164         0.3658         0.4223        -999.25         0.6099       -65.7854      -29.48915      0.4755668       0.410217
      4535.5000        -999.25        -999.25        -999.25        38.5135        -999.25       53.43986         0.3304         0.3885        -999.25         0.6051       -70.4121      -34.47133      0.4348907      0.3105733
      4536.0000        -999.25        -999.25        -999.25        38.9511        -999.25       54.00262         0.3246         0.3777        -999.25         0.6127       -73.1783      -37.44989      0.4468642      0.2510021
      4536.5000        -999.25        -999.25        -999.25        40.4536        -999.25       55.93485         0.3279         0.3817        -999.25         0.6941       -74.9655      -39.37415      0.4879756      0.2125169
      4537.0000        -999.25        -999.25        -999.25        39.8336        -999.25       55.13752          0.336         0.3976        -999.25         0.7117       -75.1625      -39.58589      0.4710111      0.2082822
      4537.5000        -999.25        -999.25        -999.25        37.2755        -999.25       51.84779         0.3404         0.4097        -999.25         0.6285       -76.2421      -40.74812      0.4010167      0.1850376
      4538.0000        -999.25        -999.25        -999.25        33.5031        -999.25       46.99645         0.3385         0.4107        -999.25         0.5649       -77.5511      -42.15739      0.2977968      0.1568523
      4538.5000        -999.25        -999.25        -999.25        30.5362        -999.25       43.18099          0.327         0.3875        -999.25         0.5392        -78.542      -43.22409      0.2166168      0.1355182
      4539.0000        -999.25        -999.25        -999.25        30.3391        -999.25       42.92751         0.3151         0.3669        -999.25         0.5675       -79.1974      -43.92949      0.2112237      0.1214102
      4539.5000        -999.25        -999.25        -999.25        32.0098        -999.25       45.07605         0.3034         0.3567        -999.25         0.5844       -79.4198      -44.16858      0.2569372      0.1166285
      4540.0000        -999.25        -999.25        -999.25        35.6451        -999.25       49.75108         0.3019         0.3517        -999.25          0.536        -79.176      -43.90561      0.3564059      0.1218879
      4540.5000        -999.25        -999.25        -999.25        36.7984        -999.25       51.23423         0.3096         0.3703        -999.25         0.5596       -78.5315       -43.2111      0.3879623       0.135778
      4541.0000        -999.25        -999.25        -999.25        36.6323        -999.25       51.02062          0.339         0.4191        -999.25         0.7305       -78.0537      -42.69613      0.3834175      0.1460773
      4541.5000        -999.25        -999.25        -999.25        36.0588        -999.25        50.2831         0.3892         0.4712        -999.25         0.9076       -77.8245      -42.44888      0.3677255      0.1510224
      4542.0000        -999.25        -999.25        -999.25        35.2736        -999.25       49.27333         0.4198         0.4825        -999.25         0.9427       -77.4333      -42.02716       0.346241      0.1594567
      4542.5000        -999.25        -999.25        -999.25        34.6009        -999.25       48.40823         0.3983         0.4319        -999.25         0.6622       -76.7347      -41.27441      0.3278346      0.1745117
      4543.0000        -999.25        -999.25        -999.25        35.1751        -999.25       49.14665         0.3621         0.3799        -999.25         0.4616       -75.5725      -40.02239      0.3435457      0.1995522
      4543.5000        -999.25        -999.25        -999.25        37.8557        -999.25       52.59393         0.3448         0.3929        -999.25         0.5058       -74.0242      -38.35457       0.416892      0.2329086
