#------------------------------------------------------------------------------
# Created by    : vladimir.rabinovich
# Created on    : 09/19/2023 17:21:23
#------------------------------------------------------------------------------
~Version Information Section
VERS.           2.0     :   CWLS log ASCII Standard - VERSION 2.0
WRAP.           NO      :   One line per depth step
~Well Information Section
#MNEM       .UNIT                                         VALUE :DESCRIPTION
#------------------------------------------------------------------------------
STRT        .FT                                            1005 :START DEPTH
STOP        .FT                                            8973 :STOP DEPTH
STEP        .FT                                             0.5 :STEP      
NULL        .                                           -999.25 :NULL      
COMP        .                            MARITECH RESOURCES INC :COMPANY   
WELL        .                               OCS G06113 ST00BP00 :WELL      
FLD         .                              GALVESTON BLOCK 0343 :FIELD     
LOC         .                                                   :LOCATION  
CNTY        .                             GALVESTON LARGE BLOCK :LOCATION  
STAT        .                                             TEXAS :STATE     
CTRY        .                                     UNITED STATES :COUNTRY   
SRVC        .                                                   :SERVICE COMPANY
DATE        .                             9/13/2023 11:19:36 AM :LOG DATE  
API         .                                    42706402140000 :API NUMBER
UWI         .                                    42706402140000 :UNIQUE WELL ID
XCOORD      .                                  914498.553138379 :SURFACE X 
YCOORD      .                                  10427492.1426863 :SURFACE Y 
LAT         .                                         28.714711 :LATITUDE  
LON         .                                        -95.265111 :LONGITUDE 
ELEV        .FT                                              84 :ELEVATION VALUE
ELEV_TYPE   .                                                KB :ELEVATION REFERENCE TYPE
~Curve Information Section
#MNEM       .UNIT                                      API CODE :CURVE DESCRIPTION
#------------------------------------------------------------------------------
DEPT        .FT                                                 :DEPTH     
CALI        .IN                                                 :          
DPHI        .%                                                  :          
DRHO        .G/C3                                               :          
DT          .US/F                                               :          
GR          .GAPI                                               :          
ILD         .OHMM                                               :          
ILM         .OHMM                                               :          
NPHI        .%                                                  :          
SGRD        .OHMM                                               :          
SP          .MV                                                 :          
SP_NORM     .MV                                                 :SP Normalized
VSH_SP      .V/V                                                :Volume of Shale from SP
~A        DEPTH           CALI           DPHI           DRHO             DT             GR            ILD            ILM           NPHI           SGRD             SP        SP_NORM         VSH_SP
      1005.0000        -999.25        -999.25        -999.25        -999.25        -999.25         0.7373         0.5599        -999.25         0.4895      -111.5081      -18.17477      0.1014019
      1005.5000        -999.25        -999.25        -999.25        -999.25        -999.25         1.1023         0.7741        -999.25         0.5736      -110.8805      -17.54716      0.1362686
      1006.0000        -999.25        -999.25        -999.25        -999.25        -999.25         1.4836         0.9913        -999.25         0.6452      -110.5933      -17.25996      0.1522242
      1006.5000        -999.25        -999.25        -999.25        -999.25        -999.25         1.5975         1.1783        -999.25         0.6972      -110.5476      -17.21426      0.1547631
      1007.0000        -999.25        -999.25        -999.25        -999.25        -999.25         1.7128         1.2926        -999.25         0.7429      -110.6722      -17.33887      0.1478407
      1007.5000        -999.25        -999.25        -999.25        -999.25        -999.25         1.8188          1.348        -999.25         0.7813      -111.0348      -17.70146      0.1276966
      1008.0000        -999.25        -999.25        -999.25        -999.25        -999.25         1.8311         1.4079        -999.25         0.8071      -111.7322      -18.39886     0.08895196
      1008.5000        -999.25        -999.25        -999.25        -999.25        -999.25         1.7671         1.4457        -999.25         0.8211       -112.443      -19.10966     0.04946306
      1009.0000        -999.25        -999.25        -999.25        -999.25        -999.25         1.6974         1.4748        -999.25         0.8329      -113.1539      -19.82056    0.009968651
      1009.5000        -999.25        -999.25        -999.25        -999.25        -999.25         1.6685         1.4739        -999.25         0.8445      -113.7214      -20.38806              0
      1010.0000        -999.25        -999.25        -999.25        -999.25        -999.25          1.656          1.451        -999.25         0.8709      -114.1552      -20.82186              0
      1010.5000        -999.25        -999.25        -999.25        -999.25        -999.25         1.6487         1.4491        -999.25         0.9006      -114.2639      -20.93056              0
      1011.0000        -999.25        -999.25        -999.25        -999.25        -999.25         1.6459         1.4691        -999.25         0.9292      -114.1862      -20.85287              0
      1011.5000        -999.25        -999.25        -999.25        -999.25        -999.25         1.6482         1.4722        -999.25         0.9479      -113.9857      -20.65237              0
      1012.0000        -999.25        -999.25        -999.25        -999.25        -999.25         1.6628         1.4595        -999.25         0.9642      -113.7535      -20.42017              0
      1012.5000        -999.25        -999.25        -999.25        -999.25        -999.25         1.7017         1.4479        -999.25          0.973        -113.34      -20.00666              0
      1013.0000        -999.25        -999.25        -999.25        -999.25        -999.25         1.7486         1.4472        -999.25         0.9857      -112.9264      -19.59306     0.02260759
      1013.5000        -999.25        -999.25        -999.25        -999.25        -999.25         1.8068         1.4772        -999.25         1.0039        -112.45      -19.11666     0.04907439
      1014.0000        -999.25        -999.25        -999.25        -999.25        -999.25         1.8551         1.5175        -999.25          1.038      -111.8247      -18.49136     0.08381314
      1014.5000        -999.25        -999.25        -999.25        -999.25        -999.25         1.8886         1.5345        -999.25          1.083      -111.1995      -17.86617      0.1185464
      1015.0000        -999.25        -999.25        -999.25        -999.25        -999.25         1.9319         1.5485        -999.25         1.1278      -110.7214      -17.38806      0.1451077
      1015.5000        -999.25        -999.25        -999.25        -999.25        -999.25           1.98         1.5332        -999.25         1.1631      -110.3221      -16.98876       0.167291
      1016.0000        -999.25        -999.25        -999.25        -999.25        -999.25         2.0186         1.4773        -999.25         1.1823       -110.204      -16.87067      0.1738519
      1016.5000        -999.25        -999.25        -999.25        -999.25        -999.25         2.0615         1.4356        -999.25         1.1649      -110.2419      -16.90856      0.1717466
      1017.0000        -999.25        -999.25        -999.25        -999.25        -999.25         2.0559         1.4033        -999.25         1.1507      -110.4443      -17.11096      0.1605021
      1017.5000        -999.25        -999.25        -999.25        -999.25        -999.25         2.0326         1.3661        -999.25         1.1482      -110.7451      -17.41177      0.1437908
      1018.0000        -999.25        -999.25        -999.25        -999.25        -999.25           2.01         1.3354        -999.25         1.1582       -111.441      -18.10767      0.1051297
      1018.5000        -999.25        -999.25        -999.25        -999.25        -999.25         1.9964           1.31        -999.25         1.1752       -112.257      -18.92367     0.05979623
      1019.0000        -999.25        -999.25        -999.25        -999.25        -999.25         2.0028         1.2943        -999.25         1.1789      -113.0726      -19.73927     0.01448525
      1019.5000        -999.25        -999.25        -999.25        -999.25        -999.25         2.0337          1.299        -999.25         1.1757      -114.1842      -20.85086              0
      1020.0000        -999.25        -999.25        -999.25        -999.25        -999.25         2.0908         1.3281        -999.25         1.1677      -115.1727      -21.83936              0
      1020.5000        -999.25        -999.25        -999.25        -999.25        -999.25         2.1417         1.3731        -999.25          1.184      -116.0302      -22.69686              0
      1021.0000        -999.25        -999.25        -999.25        -999.25        -999.25         2.2044         1.4241        -999.25         1.2135      -116.8876      -23.55427              0
      1021.5000        -999.25        -999.25        -999.25        -999.25        -999.25          2.309          1.477        -999.25         1.2533      -116.8224      -23.48907              0
      1022.0000        -999.25        -999.25        -999.25        -999.25        -999.25         2.4578         1.5371        -999.25         1.3123      -116.6986      -23.36526              0
      1022.5000        -999.25        -999.25        -999.25        -999.25        -999.25         2.6414         1.6017        -999.25         1.3729       -116.575      -23.24166              0
      1023.0000        -999.25        -999.25        -999.25        -999.25        -999.25         2.8451         1.6699        -999.25           1.44      -116.3993      -23.06596              0
      1023.5000        -999.25        -999.25        -999.25        -999.25        -999.25         3.0288         1.7339        -999.25         1.5277      -114.7699      -21.43656              0
      1024.0000        -999.25        -999.25        -999.25        -999.25        -999.25         3.1665         1.8014        -999.25         1.6056      -113.3197      -19.98637   0.0007574293
      1024.5000        -999.25        -999.25        -999.25        -999.25        -999.25         3.2469          1.856        -999.25         1.6537      -111.9686      -18.63526     0.07581881
      1025.0000        -999.25        -999.25        -999.25        -999.25        -999.25         3.2623          1.878        -999.25         1.6727      -110.4385      -17.10516      0.1608242
