#------------------------------------------------------------------------------
# Created by    : vladimir.rabinovich
# Created on    : 09/19/2023 17:20:31
#------------------------------------------------------------------------------
~Version Information Section
VERS.           2.0     :   CWLS log ASCII Standard - VERSION 2.0
WRAP.           NO      :   One line per depth step
~Well Information Section
#MNEM       .UNIT                                         VALUE :DESCRIPTION
#------------------------------------------------------------------------------
STRT        .FT                                            2310 :START DEPTH
STOP        .FT                                           12118 :STOP DEPTH
STEP        .FT                                             0.5 :STEP      
NULL        .                                           -999.25 :NULL      
COMP        .                                   FOREST OIL CORP :COMPANY   
WELL        .                               OCS G01793 ST00BP00 :WELL      
FLD         .                                           WILDCAT :FIELD     
LOC         .                                                   :LOCATION  
CNTY        .                             GALVESTON LARGE BLOCK :LOCATION  
STAT        .                                             TEXAS :STATE     
CTRY        .                                     UNITED STATES :COUNTRY   
SRVC        .                                                   :SERVICE COMPANY
DATE        .                             9/13/2023 11:19:24 AM :LOG DATE  
API         .                                    42706001380000 :API NUMBER
UWI         .                                    42706001380000 :UNIQUE WELL ID
XCOORD      .                                  1024149.02927821 :SURFACE X 
YCOORD      .                                  10425384.3690734 :SURFACE Y 
LAT         .                                         28.714212 :LATITUDE  
LON         .                                        -94.923031 :LONGITUDE 
ELEV        .FT                                              60 :ELEVATION VALUE
ELEV_TYPE   .                                                KB :ELEVATION REFERENCE TYPE
~Curve Information Section
#MNEM       .UNIT                                      API CODE :CURVE DESCRIPTION
#------------------------------------------------------------------------------
DEPT        .FT                                                 :DEPTH     
ASN         .OHMM                                               :          
CALI        .IN                                                 :          
CILD        .MMHO                                               :          
DT          .US/F                                               :          
ILD         .OHMM                                               :          
RHOB        .G/C3                                               :          
SP          .MV                                                 :          
SP_NORM     .MV                                                 :SP Normalized
VSH_SP      .V/V                                                :Volume of Shale from SP
~A        DEPTH            ASN           CALI           CILD             DT            ILD           RHOB             SP        SP_NORM         VSH_SP
# ...
      6868.0000         0.6566        11.4723       1655.039       114.2828         0.5378        -999.25       -59.0328      -4.868138      0.9251056
      6868.5000          0.655        11.5322       1659.691       114.1666         0.5317        -999.25       -59.1982        -5.0997      0.9215431
      6869.0000         0.6534        11.7006       1664.342       114.0505         0.5283        -999.25       -59.3635      -5.331118      0.9179828
      6869.5000         0.6518        11.8057       1666.551       114.3119         0.5284        -999.25       -59.5234      -5.554979      0.9145388
      6870.0000         0.6508        11.8854       1666.117       114.7146         0.5284        -999.25       -59.6675      -5.756719      0.9114351
      6870.5000         0.6499        11.9514       1666.059       115.2791         0.5285        -999.25       -59.7451      -5.865357      0.9097638
      6871.0000         0.6495        12.0032       1666.391       115.7163         0.5286        -999.25       -58.6473      -4.328441      0.9334086
      6871.5000         0.6503        12.0432       1669.834        115.672         0.5305        -999.25       -57.6331      -2.908558      0.9552529
      6872.0000         0.6509        12.0712        1680.82       115.6927         0.5328        -999.25         -56.66       -1.54622       0.976212
      6872.5000         0.6509        12.0672       1691.795       115.8027          0.535        -999.25       -55.8999     -0.4820778      0.9925834
      6873.0000         0.6509        12.0591       1702.779       115.9127         0.5372        -999.25       -55.3535      0.2828797              1
      6873.5000         0.6482        11.9943        1712.77       116.0227         0.5394        -999.25       -54.8065       1.048681              1
      6874.0000         0.6442        11.8733       1722.508       116.1326         0.5415        -999.25       -54.2191       1.871039              1
      6874.5000         0.6402        11.7782        1732.26       116.2246         0.5433        -999.25       -53.6154       2.716222              1
      6875.0000         0.6373        11.7239       1739.316       116.2996          0.545        -999.25       -53.0709        3.47852              1
      6875.5000         0.6369         11.681       1730.227       116.3744         0.5509        -999.25       -52.6435       4.076879              1
      6876.0000         0.6389        11.5732       1721.137       116.4493         0.5571        -999.25       -52.8727       3.756001              1
      6876.5000         0.6428        11.4568       1702.219       116.2728          0.565        -999.25       -53.4945       2.885481              1
      6877.0000         0.6469        11.3597       1669.148       115.6825         0.5764        -999.25       -54.1249       2.002919              1
      6877.5000         0.6509        11.3039       1636.129       113.7174         0.5878        -999.25       -54.7293       1.156758              1
      6878.0000         0.6691        11.2633       1579.615       109.9504         0.5997        -999.25       -55.3243      0.3237618              1
      6878.5000         0.6882        11.3097       1534.176       108.5363         0.6149        -999.25       -55.9192     -0.5091011      0.9921677
      6879.0000         0.7225        11.3829       1509.535       107.3362           0.63        -999.25       -56.5372      -1.374301      0.9788569
      6879.5000         0.7473        11.4677        1484.92       105.3606         0.6452        -999.25       -57.1746      -2.266658      0.9651284
      6880.0000         0.7664        11.5129       1458.908       105.1125         0.6598        -999.25       -57.8119      -3.158881      0.9514018
      6880.5000         0.7763        11.5468       1432.047       105.3289         0.6721        -999.25       -58.6386      -4.316259       0.933596
      6881.0000         0.7742        11.5769       1414.715        106.476         0.6845        -999.25        -59.537      -5.574018      0.9142459
      6881.5000         0.7686        11.5753        1400.76       107.5653         0.6968        -999.25       -60.3157      -6.664201      0.8974738
      6882.0000         0.7612        11.5737       1405.213       108.4055         0.6952        -999.25       -60.5276      -6.960859      0.8929099
      6882.5000         0.7505        11.5683       1423.992       109.0416         0.6853        -999.25        -59.689      -5.786819       0.910972
      6883.0000         0.7399        11.5273       1456.863       109.4799         0.6719        -999.25       -58.8517        -4.6146      0.9290062
      6883.5000         0.7293        11.4492       1489.783       109.9175         0.6563        -999.25       -58.3029      -3.846278      0.9408265
      6884.0000         0.7234        11.3618       1514.896       110.3154         0.6407        -999.25       -57.8636      -3.231262      0.9502883
      6884.5000         0.7178        11.2924       1525.908       110.6898         0.6394        -999.25       -57.6509      -2.933482      0.9548695
      6885.0000         0.7123         11.263       1536.918       111.0646         0.6409        -999.25       -57.6277      -2.901001      0.9553692
      6885.5000         0.7114         11.277       1527.555       111.4554         0.6426        -999.25       -57.6478      -2.929141      0.9549363
      6886.0000         0.7115        11.3067       1515.869        111.918         0.6487        -999.25       -57.6824       -2.97758      0.9541911
      6886.5000         0.7156        11.3848       1504.174       109.7388         0.6548        -999.25       -57.7171      -3.026157      0.9534437
      6887.0000         0.7196        11.7305       1492.189       108.7205         0.6609        -999.25       -57.7518      -3.074741      0.9526963
      6887.5000          0.724        11.9504       1479.781       108.3085          0.667        -999.25       -57.7865      -3.123318      0.9519489
      6888.0000         0.7304        11.9988       1467.375       108.0592         0.6731        -999.25       -57.7951      -3.135361      0.9517637
      6888.5000         0.7369        12.0464       1454.979       107.8098         0.6786        -999.25       -57.6669      -2.955881      0.9545249
      6889.0000         0.7397        12.0798       1443.258       107.6459         0.6787        -999.25       -57.5386      -2.776261      0.9572883
      6889.5000         0.7416        12.0815       1435.414       107.6361         0.6788        -999.25       -57.1191      -2.188958      0.9663237
      6890.0000         0.7435        12.0386       1427.559       107.8391         0.6789        -999.25       -56.6899      -1.588079       0.975568
      6890.5000          0.743        11.9965       1420.531        108.395         0.6789        -999.25       -56.2606     -0.9870613      0.9848145
      6891.0000         0.7419        11.9592       1415.213       108.9508          0.679        -999.25       -55.8301     -0.3843613      0.9940867
      6891.5000         0.7409        11.9219       1450.926       109.4357          0.678        -999.25       -56.3161      -1.064761       0.983619
      6892.0000         0.7398        11.8846       1474.508       109.8938         0.6761        -999.25       -57.1565      -2.241322      0.9655181
      6892.5000         0.7369         11.905       1468.857       110.1302         0.6741        -999.25       -57.8113      -3.158038      0.9514148
      6893.0000          0.734        11.9402       1463.203       109.6735         0.6721        -999.25       -58.0444      -3.484379      0.9463941
      6893.5000         0.7313        11.9931       1457.549       108.5959         0.6702        -999.25       -57.9741      -3.385957      0.9479083
      6894.0000          0.735        12.0822       1451.898       107.6985         0.6682        -999.25       -57.9039       -3.28768      0.9494203
