#------------------------------------------------------------------------------
# Created by    : vladimir.rabinovich
# Created on    : 09/19/2023 17:20:04
#------------------------------------------------------------------------------
~Version Information Section
VERS.           2.0     :   CWLS log ASCII Standard - VERSION 2.0
WRAP.           NO      :   One line per depth step
~Well Information Section
#MNEM       .UNIT                                         VALUE :DESCRIPTION
#------------------------------------------------------------------------------
STRT        .FT                                             627 :START DEPTH
STOP        .FT                                            8077 :STOP DEPTH
STEP        .FT                                             0.5 :STEP      
NULL        .                                           -999.25 :NULL      
COMP        .                                    MOBIL OIL CORP :COMPANY   
WELL        .                               OCS G02338 ST00BP00 :WELL      
FLD         .                                           WILDCAT :FIELD     
LOC         .                                                   :LOCATION  
CNTY        .                             GALVESTON LARGE BLOCK :LOCATION  
STAT        .                                             TEXAS :STATE     
CTRY        .                                     UNITED STATES :COUNTRY   
SRVC        .                                                   :SERVICE COMPANY
DATE        .                             9/13/2023 11:18:53 AM :LOG DATE  
API         .                                    42706400220000 :API NUMBER
UWI         .                                    42706400220000 :UNIQUE WELL ID
XCOORD      .                                  948421.875172236 :SURFACE X 
YCOORD      .                                   10402667.405867 :SURFACE Y 
LAT         .                                         28.648189 :LATITUDE  
LON         .                                        -95.157922 :LONGITUDE 
ELEV        .FT                                              76 :ELEVATION VALUE
ELEV_TYPE   .                                                KB :ELEVATION REFERENCE TYPE
~Curve Information Section
#MNEM       .UNIT                                      API CODE :CURVE DESCRIPTION
#------------------------------------------------------------------------------
DEPT        .FT                                                 :DEPTH     
ASFL        .OHMM                                               :          
CALI        .IN                                                 :          
CILD        .MMHO                                               :          
DT          .US/F                                               :          
DT_1        .US/F                                               :          
GR          .GAPI                                               :          
GR_NORM     .GAPI                                               :GammaRay Normalized
ILD         .OHMM                                               :          
SFL         .OHMM                                               :          
SP          .MV                                                 :          
SP_NORM     .MV                                                 :SP Normalized
VSH_GR      .V/V                                                :Volume of Shale from GR
VSH_SP      .V/V                                                :Volume of Shale from SP
~A        DEPTH           ASFL           CALI           CILD             DT           DT_1             GR        GR_NORM            ILD            SFL             SP        SP_NORM         VSH_GR         VSH_SP
# ...
      6574.0000         1.1153         9.8119       1340.434        91.6854        -999.25        83.8519       61.11697         0.8583         1.2649       -72.9731      -20.00952      0.5982334      0.7593732
      6574.5000         1.1693         9.8218       1292.217        92.3016        -999.25        84.3359       61.68307         0.7949         1.2225       -73.7802      -20.81941       0.610278      0.7491214
      6575.0000         1.2233         9.7627       1217.588        93.1649        -999.25        84.8163       62.24483         0.7382         1.1942       -75.4475      -22.48951      0.6222304      0.7279809
      6575.5000         1.2641         9.6789        1172.92        94.1572        -999.25        85.4576       63.00032         0.6869         1.1812       -79.0793      -26.12411      0.6383047      0.6819733
      6576.0000         1.2321         9.7178       1126.602        94.1641        -999.25         86.207       63.88594         0.6611         1.1738       -83.4678       -30.5154      0.6571476      0.6263874
      6576.5000         1.2135         9.7915       1089.338        93.6034        -999.25         87.521       65.45135         0.6412         1.0845       -87.8058       -34.8562      0.6904542      0.5714405
      6577.0000         1.1886         9.7851       1144.609         95.016        -999.25        89.3345       67.61811         0.6307         0.9563       -86.0187       -33.0719      0.7365555      0.5940266
      6577.5000         1.1522         9.8012       1347.137        97.1691        -999.25         91.931        70.7276         0.6229         0.9017       -77.4796      -24.53559      0.8027149      0.7020811
      6578.0000         1.0813         9.6789       1502.697        98.5038        -999.25        94.2875       73.54813         0.6213         0.9792        -70.641      -17.69979      0.8627263      0.7886103
      6578.5000         1.0477         9.5914       1574.912        99.6315        -999.25        96.4325       76.11404         0.6349         1.1049       -64.5808      -11.64239        0.91732      0.8652862
      6579.0000         1.0281         9.6035       1587.379        98.5961        -999.25        98.3564       78.41373         0.6799         1.0124       -58.6646      -5.728981      0.9662495      0.9401395
      6579.5000          1.008         9.6442        1588.68         96.826        -999.25        99.9082       80.26542         0.7057         0.8639       -53.6348     -0.7019768              1              1
      6580.0000          0.988         9.7187       1584.209       102.2111        -999.25        98.7684       78.87652          0.701         0.7987       -53.0313     -0.1012726      0.9760962              1
      6580.5000         0.9709         9.8061       1567.723       106.9937        -999.25        98.0424       77.98579         0.6802         0.8635       -54.2311      -1.303867      0.9571446      0.9961536
      6581.0000         0.9555         9.8139        1537.91       107.9442        -999.25        97.6785       77.53104         0.6608         0.9715       -55.7101      -2.785664      0.9474689      0.9773967
      6581.5000         0.9459         9.8087       1497.945       108.1039        -999.25          97.45       77.23931         0.6389         0.9319       -57.2451       -4.32346      0.9412619      0.9579309
      6582.0000         0.9362         9.8488       1450.727       107.8245        -999.25        96.9669       76.64105         0.6211         0.8886        -62.246      -9.327156       0.928533      0.8945929
      6582.5000         0.9265         9.8975       1446.025       106.5396        -999.25        96.0518       75.52267         0.6014         0.9818       -70.6338      -17.71775      0.9047378      0.7883829
      6583.0000         0.9206         9.9343       1505.799       107.0448        -999.25        95.0693       74.32314         0.5827         0.9946       -71.8566      -18.94335      0.8792157       0.772869
      6583.5000         0.9165         9.8685       1571.273       107.1533        -999.25        94.1061       73.14685         0.5671         0.9849       -71.0851      -18.17464      0.8541883      0.7825994
      6584.0000         0.9207         9.7406       1613.539       101.3529        -999.25        93.0732       71.88663          0.554          1.059       -70.3987      -17.49104      0.8273752      0.7912527
      6584.5000         0.9287         9.6773       1653.105        100.355        -999.25        91.9995       70.57731         0.5512         0.9219       -71.7147      -18.80983      0.7995172      0.7745591
      6585.0000         0.9366         9.6843        1691.02       103.7816        -999.25        90.8947       69.23053         0.5576         0.8231       -76.0383      -23.13623      0.7708623      0.7197946
      6585.5000          0.942         9.7112       1719.656       104.2693        -999.25        90.7974       69.09676          0.568         0.9346       -80.3187      -27.41943      0.7680161      0.6655768
      6586.0000         0.9453         9.7918       1736.314       107.2532        -999.25        92.0812       70.62579          0.578          1.039       -79.4324      -26.53593      0.8005488      0.6767604
      6586.5000         0.9486         9.7732       1732.207       106.6356        -999.25        93.6605        72.5106         0.5928         1.0058       -75.4979      -22.60422      0.8406512      0.7265288
      6587.0000         0.9519         9.6783         1728.1       104.0123        -999.25        95.3804        74.5647         0.6137         1.0187       -70.4104      -17.51952      0.8843552      0.7908922
      6587.5000         0.9532         9.6223       1708.951       100.0531        -999.25        97.3188       76.88184         0.6437         0.9821       -64.6888      -11.80071      0.9336561      0.8632821
      6588.0000         0.9532         9.6538       1679.164        97.9799        -999.25       100.1376       80.25897         0.6807         0.8541       -59.5834      -6.698109              1      0.9278721
      6588.5000         0.9525         9.7197       1637.699       100.3322        -999.25       100.6333       80.83914         0.7196         0.8187       -58.1116      -5.229103              1       0.946467
      6589.0000         0.9509         9.7896       1588.279       100.3175        -999.25       100.5405       80.71078         0.7441         0.8245       -57.0162      -4.136501              1      0.9602975
      6589.5000         0.9476         9.9044       1538.861       103.0793        -999.25        99.4709        79.4064         0.7484         0.8007       -56.2713      -3.394398      0.9873703      0.9696912
      6590.0000         0.8902         9.9287       1489.941       106.5558        -999.25        97.0354        76.4575         0.7372         0.7693       -55.7579      -2.883793      0.9246276      0.9761545
      6590.5000         0.8375         9.8896       1441.072       106.4149        -999.25        92.8367       71.38576         0.7097         0.7489       -57.4072      -4.535889      0.8167182      0.9552419
      6591.0000         0.8204         9.8566       1387.752       110.8232        -999.25        88.7292       66.42382         0.6451         0.7664       -60.6931      -7.824585      0.7111451      0.9136128
      6591.5000         0.8218         9.8629       1333.758       114.7975        -999.25        85.2223       62.18497         0.5396         0.8411       -66.9443      -14.07858      0.6209569      0.8344484
      6592.0000         0.8344         9.9438       1302.445       115.3638        -999.25        83.1036       59.61749         0.4534         1.0011       -76.5789      -23.71598      0.5663297      0.7124559
      6592.5000         0.8561         9.9757       1308.098        112.854        -999.25         79.616       55.40189         0.3875         1.0227       -86.0332      -33.17308       0.476636      0.5927458
