#------------------------------------------------------------------------------
# Created by    : vladimir.rabinovich
# Created on    : 09/19/2023 17:19:40
#------------------------------------------------------------------------------
~Version Information Section
VERS.           2.0     :   CWLS log ASCII Standard - VERSION 2.0
WRAP.           NO      :   One line per depth step
~Well Information Section
#MNEM       .UNIT                                         VALUE :DESCRIPTION
#------------------------------------------------------------------------------
STRT        .FT                                             305 :START DEPTH
STOP        .FT                                          9892.5 :STOP DEPTH
STEP        .FT                                             0.5 :STEP      
NULL        .                                           -999.25 :NULL      
COMP        .                         ATLANTIC RICHFIELD CO THE :COMPANY   
WELL        .                               OCS G07247 ST00BP00 :WELL      
FLD         .                                           WILDCAT :FIELD     
LOC         .                                                   :LOCATION  
CNTY        .                             GALVESTON LARGE BLOCK :LOCATION  
STAT        .                                             TEXAS :STATE     
CTRY        .                                     UNITED STATES :COUNTRY   
SRVC        .                                                   :SERVICE COMPANY
DATE        .                             9/13/2023 11:19:27 AM :LOG DATE  
API         .                                    42706401220000 :API NUMBER
UWI         .                                    42706401220000 :UNIQUE WELL ID
XCOORD      .                                  995038.545578968 :SURFACE X 
YCOORD      .                                  10445559.0196594 :SURFACE Y 
LAT         .                                         28.768363 :LATITUDE  
LON         .                                        -95.014888 :LONGITUDE 
ELEV        .FT                                              98 :ELEVATION VALUE
ELEV_TYPE   .                                                KB :ELEVATION REFERENCE TYPE
~Curve Information Section
#MNEM       .UNIT                                      API CODE :CURVE DESCRIPTION
#------------------------------------------------------------------------------
DEPT        .FT                                                 :DEPTH     
ALL         .OHMM                                               :          
CILD        .MMHO                                               :          
GR          .GAPI                                               :          
GR_NORM     .GAPI                                               :GammaRay Normalized
ILD         .OHMM                                               :          
SP          .MV                                                 :          
VSH_GR      .V/V                                                :Volume of Shale from GR
~A        DEPTH            ALL           CILD             GR        GR_NORM            ILD             SP         VSH_GR
# ...
      7340.0000         1.1255       1110.057         51.655       75.31941         0.9418        25.5953       0.900413
      7340.5000         1.1305       1106.814        51.8812       75.50355          0.938        25.5844      0.9043308
      7341.0000         1.1355        1103.57        52.1072       75.68749         0.9343        25.5321      0.9082445
      7341.5000         1.1405       1100.328        52.3332       75.87144         0.9305        25.4347      0.9121584
      7342.0000         1.1464       1097.084        52.4492       75.96588         0.9268        25.3372      0.9141677
      7342.5000         1.1524       1094.426        52.5641       76.05939          0.923        25.2398      0.9161574
      7343.0000         1.1584        1092.82        52.6789       76.15284         0.9216        25.1424      0.9181455
      7343.5000         1.1644       1091.213        52.7939       76.24644         0.9215        25.0461      0.9201371
      7344.0000         1.1704       1089.605        52.3278       75.86705         0.9215        25.0203      0.9120649
      7344.5000         1.1764       1087.998        51.5518       75.23542         0.9214        24.9945       0.898626
      7345.0000         1.1824       1086.391        50.7759       74.60384         0.9214        24.9687      0.8851882
      7345.5000         1.1886       1084.783        50.0585       74.01991         0.9214        24.9429      0.8727639
      7346.0000          1.195       1084.779        49.3953       73.48008         0.9213        24.9171      0.8612783
      7346.5000         1.2014       1084.848        48.7322       72.94033         0.9213        24.8912      0.8497943
      7347.0000         1.2078       1084.916        48.2856       72.57682         0.9187        24.8654        0.84206
      7347.5000         1.2142       1084.986        48.2162       72.52033         0.9158        24.8396      0.8408582
      7348.0000         1.2206       1085.055        48.2881       72.57886         0.9129        24.8238      0.8421034
      7348.5000         1.2316       1085.891         48.428       72.69273           0.91        24.8162      0.8445261
      7349.0000          1.243       1087.072        48.5678       72.80652         0.9071        24.8086      0.8469472
      7349.5000         1.2544       1088.254        48.7076       72.92032         0.9042         24.801      0.8493685
      7350.0000         1.2654       1089.436        48.8475       73.03419         0.9013        24.7935      0.8517912
      7350.5000         1.2759       1091.977        48.9874       73.14806         0.8985        24.7859       0.854214
      7351.0000          1.286       1095.619        49.1273       73.26194         0.8956        24.7783       0.856637
      7351.5000          1.246       1099.268        49.2671       73.37573         0.8927        24.7707      0.8590581
      7352.0000         1.2154       1103.395        49.4069       73.48952           0.89        24.7616      0.8614791
      7352.5000         1.2004       1107.924        49.5186       73.58045         0.8891        24.7346      0.8634139
      7353.0000         1.1855       1112.453        49.6124        73.6568         0.8882        24.7075      0.8650383
      7353.5000          1.181        1116.98        49.7061       73.73307         0.8873        24.6804      0.8666611
      7354.0000         1.1769       1119.625        49.7997       73.80926         0.8864        24.6533      0.8682821
      7354.5000         1.1734       1119.693        49.8936       73.88569         0.8855        24.6262      0.8699083
      7355.0000         1.1732       1119.762        49.9872       73.96188         0.8846        24.5991      0.8715293
      7355.5000          1.173       1119.832        50.0811       74.03831         0.8837         24.572      0.8731555
      7356.0000         1.1728       1120.643        50.1503       74.09463         0.8828         24.545      0.8743538
      7356.5000         1.1754       1122.279        50.1495       74.09398         0.8817        24.5378        0.87434
      7357.0000         1.1825       1123.918        50.1487       74.09334         0.8803         24.531      0.8743263
      7357.5000         1.1897       1125.557         50.148       74.09275         0.8789        24.5241      0.8743138
      7358.0000         1.1872       1127.193        50.1472       74.09211         0.8775        24.5173      0.8743002
      7358.5000         1.1839       1131.113        50.1464       74.09146          0.876        24.5105      0.8742864
      7359.0000         1.1789       1136.637        49.9411       73.92435         0.8746        24.5037      0.8707309
      7359.5000         1.1736        1142.16        49.6852       73.71605         0.8732        24.4968      0.8662989
      7360.0000         1.1684       1140.027        49.4291        73.5076         0.8718          24.49      0.8618638
      7360.5000         1.1631        1135.66        48.7762       72.97615         0.8703        24.4832      0.8505564
      7361.0000         1.1674       1131.299        47.8845       72.25033         0.8735         24.489      0.8351133
      7361.5000         1.1726       1126.932        46.9927       71.52443         0.8768        24.4988      0.8196687
      7362.0000         1.1778       1121.145        46.7798       71.35114         0.8801        24.5085      0.8159817
      7362.5000          1.189       1114.502        46.8907       71.44141         0.8833        24.5183      0.8179024
      7363.0000         1.2029       1107.857        47.0016       71.53168         0.8866         24.528      0.8198229
      7363.5000         1.2169       1101.207        47.1124       71.62187         0.8899        24.5378      0.8217419
      7364.0000         1.2266       1094.564        47.4072       71.86182         0.8931        24.5475      0.8268473
      7364.5000         1.2355       1088.035         47.867       72.23609         0.8974        24.5573      0.8348104
      7365.0000         1.2444       1082.199        48.3262       72.60986         0.9017        24.5671      0.8427631
      7365.5000         1.2532       1076.365        48.7859       72.98405          0.906        24.5739      0.8507244
      7366.0000         1.2589       1070.529        49.2457       73.35831         0.9102        24.5754      0.8586874
      7366.5000         1.2646       1064.695        49.6904       73.72029         0.9145        24.5769      0.8663892
      7367.0000         1.2702       1060.861        50.1236       74.07291         0.9188        24.5785      0.8738917
      7367.5000         1.2759       1057.057        50.5574         74.426         0.9247          24.58      0.8814043
      7368.0000         1.2816       1053.258        50.9907        74.7787         0.9312        24.5816      0.8889086
      7368.5000         1.2873       1049.496        51.4239        75.1313         0.9376        24.5831      0.8964107
      7369.0000         1.2892       1047.346        51.8469       75.47561          0.944        24.5953      0.9037364
      7369.5000         1.2908       1045.195        52.1135       75.69262         0.9509        24.6236      0.9083536
      7370.0000         1.2925        1045.15        52.3806       75.91003          0.958         24.652      0.9129794
      7370.5000         1.2941       1045.219        52.6472       76.12704         0.9652        24.6803      0.9175967
      7371.0000         1.2847       1051.652        52.9142       76.34437         0.9669        24.7086      0.9222206
      7371.5000         1.2685       1064.377        53.1809       76.56145         0.9613        24.7369      0.9268395
      7372.0000         1.2434       1077.162        53.4476       76.77855         0.9557        24.7653      0.9314585
      7372.5000         1.2126       1090.604        53.6256       76.92343         0.9502        24.7936      0.9345411
      7373.0000         1.1862       1104.035        53.8036       77.06831         0.9446        24.8219      0.9376237
