#------------------------------------------------------------------------------
# Created by    : vladimir.rabinovich
# Created on    : 09/19/2023 17:20:10
#------------------------------------------------------------------------------
~Version Information Section
VERS.           2.0     :   CWLS log ASCII Standard - VERSION 2.0
WRAP.           NO      :   One line per depth step
~Well Information Section
#MNEM       .UNIT                                         VALUE :DESCRIPTION
#------------------------------------------------------------------------------
STRT        .FT                                             409 :START DEPTH
STOP        .FT                                           13135 :STOP DEPTH
STEP        .FT                                             0.5 :STEP      
NULL        .                                           -999.25 :NULL      
COMP        .                         ATLANTIC RICHFIELD CO THE :COMPANY   
WELL        .                               OCS G04547 ST00BP00 :WELL      
FLD         .                                           WILDCAT :FIELD     
LOC         .                                                   :LOCATION  
CNTY        .                      MATAGORDA ISLAND LARGE BLOCK :LOCATION  
STAT        .                                             TEXAS :STATE     
CTRY        .                                     UNITED STATES :COUNTRY   
SRVC        .                                                   :SERVICE COMPANY
DATE        .                             9/13/2023 11:12:03 AM :LOG DATE  
API         .                                    42703401300000 :API NUMBER
UWI         .                                    42703401300000 :UNIQUE WELL ID
XCOORD      .                                  517134.995430583 :SURFACE X 
YCOORD      .                                  10172294.5320476 :SURFACE Y 
LAT         .                                         27.987424 :LATITUDE  
LON         .                                        -96.480505 :LONGITUDE 
ELEV        .FT                                              99 :ELEVATION VALUE
ELEV_TYPE   .                                                KB :ELEVATION REFERENCE TYPE
~Curve Information Section
#MNEM       .UNIT                                      API CODE :CURVE DESCRIPTION
#------------------------------------------------------------------------------
DEPT        .FT                                                 :DEPTH     
ASFL        .OHMM                                               :          
CILD        .MMHO                                               :          
GR          .GAPI                                               :          
GR_NORM     .GAPI                                               :GammaRay Normalized
ILD         .OHMM                                               :          
SP          .MV                                                 :          
SP_NORM     .MV                                                 :SP Normalized
VSH_GR      .V/V                                                :Volume of Shale from GR
VSH_SP      .V/V                                                :Volume of Shale from SP
~A        DEPTH           ASFL           CILD             GR        GR_NORM            ILD             SP        SP_NORM         VSH_GR         VSH_SP
# ...
      3801.0000          0.794       1247.822        63.2977       78.42724         0.7847       -48.2962      -2.165836       0.966537      0.9701068
      3801.5000         0.7666       1237.438        63.7573       79.22852         0.7846       -47.6356      -1.506592      0.9835854      0.9870105
      3802.0000         0.7518       1228.334        62.5789       77.17107         0.7805       -47.0775     -0.9498405      0.9398101              1
      3802.5000         0.7374       1250.895        59.7703       72.26862         0.7729       -47.5798      -1.453495      0.8355026      0.9883719
      3803.0000         0.7236       1280.736        55.8895       65.49495         0.7653       -50.5154       -4.39045      0.6913819      0.9130654
      3803.5000         0.7109       1297.156        53.0547       60.54673         0.7576       -53.5849        -7.4613      0.5861007      0.8343257
      3804.0000         0.7739       1313.578        50.8309       56.66487           0.75        -55.415      -9.292755      0.5035078      0.7873653
      3804.5000         0.8445       1323.854        48.7327       53.00222         0.7424       -56.8928       -10.7719      0.4255792      0.7494383
      3805.0000         0.8927       1329.123        46.9892       49.95857         0.7523       -58.1406      -12.02106      0.3608206      0.7174088
      3805.5000         0.9174       1311.572        46.2206       48.61634         0.7658        -54.975      -8.856812      0.3322626      0.7985433
      3806.0000         0.9379       1287.266        45.4705        47.3064         0.7794       -52.4677      -6.350864      0.3043915      0.8627983
      3806.5000         0.9519       1257.256        44.8353       46.19698         0.7929       -50.7288      -4.613319      0.2807867      0.9073508
      3807.0000          0.954        1229.84        48.7493       53.02691         0.8238       -49.7711      -3.656971      0.4261044      0.9318725
      3807.5000         0.9285       1203.287        53.5529       61.40937         0.8669       -48.9907      -2.877922      0.6044546      0.9518481
      3808.0000         0.8982       1179.629        57.0803       67.56461         0.8893       -48.4403      -2.328876      0.7354173      0.9659262
      3808.5000         0.8624       1162.104        60.0466       72.74059         0.8544       -48.0697      -1.959625      0.8455444      0.9753942
      3809.0000          0.823       1205.881        62.3322       76.72858         0.8219       -47.7059      -1.597179      0.9303954      0.9846877
      3809.5000         0.7715       1264.891        64.3201       80.19706         0.7936       -47.3515      -1.244137              1      0.9937401
      3810.0000         0.7457       1317.449        66.2058       83.48717         0.7653       -47.0861     -0.9800873              1              1
      3810.5000         0.7316       1330.646        69.0619       88.47082         0.7369       -46.9143      -0.809639              1              1
      3811.0000         0.7213       1338.176        71.6736       93.02795         0.7306       -46.7425     -0.6391945              1              1
      3811.5000         0.7156       1343.445        72.7601       94.92329         0.7255       -46.4216     -0.3196449              1              1
      3812.0000           0.71       1348.715        73.4557       96.13642         0.7205       -45.8482      0.2523994              1              1
      3812.5000         0.7045       1352.932        73.9614        97.0181         0.7155       -44.5874       1.511852              1              1
      3813.0000         0.6992       1356.865        73.5536       96.30553         0.7247       -43.4525       2.645397              1              1
      3813.5000         0.7003        1349.57        71.3677       92.48981         0.7339       -43.1288       2.967743              1              1
      3814.0000         0.7342        1327.43        69.2719       88.83132          0.743       -42.7256       3.369591              1              1
      3814.5000         0.7531       1285.561        67.2935       85.37776         0.7522       -42.3241       3.769737              1              1
      3815.0000          0.772        1226.91        64.4031       80.33253         0.7613       -42.0623       4.030182              1              1
      3815.5000         0.7859       1172.775        60.7025       73.87334         0.7705       -42.0919       3.999233      0.8696455              1
      3816.0000         0.7983        1132.49        59.2271        71.2976         0.7944       -42.1216       3.968178      0.8148425              1
      3816.5000         0.8186       1109.996        58.3061       69.68938         0.8224       -42.1513        3.93713      0.7806252              1
      3817.0000         0.8453       1092.205        57.5378       68.34769         0.8503       -42.2953       3.791775      0.7520786              1
      3817.5000          0.878       1074.428        57.0115       67.42831         0.8783       -42.6271       3.458618      0.7325172              1
      3818.0000         0.9035       1051.658        56.4852       66.50896         0.9062       -42.9589       3.125469      0.7129565              1
      3818.5000         0.9253       1025.514        55.9434       65.56255         0.9274       -44.6337       1.449314      0.6928201              1
      3819.0000          0.945       1001.915        55.2615       64.37164         0.9472       -47.9641      -1.882439      0.6674818      0.9773734
      3819.5000         0.9574       978.8193        54.6598       63.32069          0.967       -50.3517      -4.271389       0.645121      0.9161182
      3820.0000         0.9682       972.8662        54.1266       62.38928         0.9869       -52.4318      -6.352844      0.6253039      0.8627476
      3820.5000         0.9781       988.6143        53.3851       61.09434         0.9637        -52.094      -6.016399      0.5977519      0.8713744
      3821.0000         0.9852       1004.363        52.3331       59.25753         0.9387       -51.6967      -5.620449      0.5586709      0.8815269
      3821.5000         0.9922       1022.249        51.2585       57.38126         0.9137       -51.1552      -5.080303      0.5187502      0.8953769
      3822.0000         1.0114       1040.121        51.7009       58.15248         0.8887       -50.6135      -4.539951      0.5351591       0.909232
      3822.5000         1.0283       1057.996        52.2708       59.14623         0.8637       -50.0721      -3.999908      0.5563028      0.9230793
      3823.0000         1.0201       1074.188        52.9468       60.32517          0.824       -51.2958       -5.22496      0.5813866      0.8916677
      3823.5000          1.003       1089.457        52.7322       59.94977         0.7841       -53.2421      -7.172611      0.5733993      0.8417279
      3824.0000         0.9856       1104.738         51.514       57.82289         0.7442       -55.4553      -9.387165      0.5281466      0.7849445
      3824.5000          0.968       1222.494        50.7313       56.45606         0.7042       -58.5095      -12.44272      0.4990652       0.706597
      3825.0000         0.9504       1484.701        50.5029        56.0566         0.6643       -62.9074      -16.84197       0.490566      0.5937957
      3825.5000         0.9182       1622.504        50.2746       55.65732         0.6199       -69.3134      -23.24932      0.4820707      0.4295045
      3826.0000         0.8768       1742.637        49.8542       54.92277         0.5718       -72.0732      -26.01047       0.466442      0.3587058
      3826.5000         0.8288       2019.537        49.2244        53.8228         0.5236       -74.5558      -28.49443      0.4430382      0.2950146
      3827.0000         0.7928       2133.379        47.4109       50.65698         0.4755       -77.0334      -30.97338      0.3756804      0.2314517
