#------------------------------------------------------------------------------
# Created by    : vladimir.rabinovich
# Created on    : 09/19/2023 17:20:25
#------------------------------------------------------------------------------
~Version Information Section
VERS.           2.0     :   CWLS log ASCII Standard - VERSION 2.0
WRAP.           NO      :   One line per depth step
~Well Information Section
#MNEM       .UNIT                                         VALUE :DESCRIPTION
#------------------------------------------------------------------------------
STRT        .FT                                             293 :START DEPTH
STOP        .FT                                            8505 :STOP DEPTH
STEP        .FT                                             0.5 :STEP      
NULL        .                                           -999.25 :NULL      
COMP        .                                        TEXACO USA :COMPANY   
WELL        .                                     ST TR 00058-L :WELL      
FLD         .                                           WILDCAT :FIELD     
LOC         .                                                   :LOCATION  
CNTY        .                           HIGH ISLAND LARGE BLOCK :LOCATION  
STAT        .                                             TEXAS :STATE     
CTRY        .                                     UNITED STATES :COUNTRY   
SRVC        .                                                   :SERVICE COMPANY
DATE        .                             9/13/2023 11:19:15 AM :LOG DATE  
API         .                                    42708000230000 :API NUMBER
UWI         .                                    42708000230000 :UNIQUE WELL ID
XCOORD      .                                  1179226.38702832 :SURFACE X 
YCOORD      .                                  10699123.4735792 :SURFACE Y 
LAT         .                                        29.4730929 :LATITUDE  
LON         .                                        -94.449778 :LONGITUDE 
ELEV        .FT                                              80 :ELEVATION VALUE
ELEV_TYPE   .                                                KB :ELEVATION REFERENCE TYPE
~Curve Information Section
#MNEM       .UNIT                                      API CODE :CURVE DESCRIPTION
#------------------------------------------------------------------------------
DEPT        .FT                                                 :DEPTH     
ASN         .OHMM                                               :          
CILD        .MMHO                                               :          
ILD         .OHMM                                               :          
LAT         .OHMM                                               :          
LN          .OHMM                                               :          
SP          .MV                                                 :          
SP_NORM     .MV                                                 :SP Normalized
VSH_SP      .V/V                                                :Volume of Shale from SP
~A        DEPTH            ASN           CILD            ILD            LAT             LN             SP        SP_NORM         VSH_SP
# ...
      4098.5000         0.9057        -999.25        -999.25         0.2969          0.473       -85.9668      -48.67596      0.3135888
      4099.0000         0.9628        -999.25        -999.25         0.3296          0.473       -83.2753      -45.98087      0.3532225
      4099.5000         1.0198        -999.25        -999.25         0.3623         0.4731       -69.0443      -31.74627      0.5625548
      4100.0000         1.0807        -999.25        -999.25         0.3949         0.4731       -47.4055      -10.10387      0.8808254
      4100.5000         1.1434        -999.25        -999.25         0.4276         0.4732       -41.4824      -4.177177      0.9679827
      4101.0000         1.1309        -999.25        -999.25         0.4597         0.4759       -38.1153     -0.8064804              1
      4101.5000         1.1141        -999.25        -999.25         0.4627         0.4893        -37.598     -0.2855835              1
      4102.0000         1.0975        -999.25        -999.25         0.4658         0.5027       -37.3547    -0.03868484              1
      4102.5000         1.0813        -999.25        -999.25         0.4528         0.5161       -39.7466      -2.426991      0.9937207
      4103.0000         1.0651        -999.25        -999.25          0.417         0.5295       -44.8852      -7.561993       0.918206
      4103.5000         1.0489        -999.25        -999.25         0.3812         0.5418       -50.0193      -12.69249      0.8427575
      4104.0000         1.0327        -999.25        -999.25         0.3454         0.5523       -55.1356       -17.8052      0.7675706
      4104.5000         1.0165        -999.25        -999.25         0.3096         0.5627       -60.2519       -22.9179      0.6923838
      4105.0000         1.0005        -999.25        -999.25         0.2738         0.5732       -65.4037       -28.0661      0.6166749
      4105.5000         0.9965        -999.25        -999.25         0.2381         0.5837       -70.8623       -33.5211      0.5364544
      4106.0000         1.0149        -999.25        -999.25         0.2144         0.5844       -76.3209      -38.97611      0.4562337
      4106.5000         1.0133        -999.25        -999.25         0.1965         0.5779       -80.7015      -43.35311       0.391866
      4107.0000         0.9974        -999.25        -999.25         0.1786         0.5714       -83.9464      -46.59442      0.3441997
      4107.5000         0.9816        -999.25        -999.25         0.1606         0.5649       -87.1914      -49.83582      0.2965321
      4108.0000         0.9575        -999.25        -999.25         0.1427         0.5584       -90.4363      -53.07712      0.2488659
      4108.5000         0.9322        -999.25        -999.25         0.1248          0.549       -92.8145      -55.45172      0.2139453
      4109.0000         0.9068        -999.25        -999.25         0.1093         0.5373        -95.097      -57.73062       0.180432
      4109.5000         0.8815        -999.25        -999.25         0.1033         0.5255       -97.3795      -60.00953      0.1469187
      4110.0000         0.7965        -999.25        -999.25         0.0973         0.5137      -100.6384      -63.26482     0.09904671
      4110.5000         0.6508        -999.25        -999.25         0.0912         0.5019      -101.3013      -63.92413     0.08935104
      4111.0000         0.6036        -999.25        -999.25         0.0852         0.4901      -100.5339      -63.15313      0.1006893
      4111.5000         0.5588        -999.25        -999.25         0.0792         0.4801        -99.766      -62.38163      0.1120348
      4112.0000         0.5385        -999.25        -999.25         0.0732         0.4753       -99.5887      -62.20074       0.114695
      4112.5000         0.5182        -999.25        -999.25         0.0672         0.4705      -100.7911      -63.39954     0.09706559
      4113.0000         0.5099        -999.25        -999.25         0.0647         0.4657      -101.9924      -64.59724     0.07945229
      4113.5000         0.5052        -999.25        -999.25          0.065         0.4609      -103.1932      -65.79445     0.06184634
      4114.0000         0.4994        -999.25        -999.25         0.0654         0.4561       -104.285      -66.88265     0.04584335
      4114.5000         0.4854        -999.25        -999.25         0.0657         0.4514      -105.3763      -67.97035     0.02984776
      4115.0000         0.4766        -999.25        -999.25         0.0661         0.4466      -106.4681      -69.05856     0.01384477
      4115.5000         0.4865        -999.25        -999.25         0.0664         0.4442      -106.9172      -69.50406    0.007293252
      4116.0000         0.5048        -999.25        -999.25         0.0668         0.4525      -106.7681      -69.35136    0.009538875
      4116.5000          0.523        -999.25        -999.25         0.0671         0.4609      -106.6189      -69.19856     0.01178584
      4117.0000         0.5413        -999.25        -999.25         0.0675         0.4693      -106.0048      -68.58086     0.02086965
      4117.5000         0.5532        -999.25        -999.25         0.0678         0.4777      -104.8929      -67.46536     0.03727408
      4118.0000         0.5649        -999.25        -999.25         0.0681          0.486      -103.7816      -66.35047     0.05366954
      4118.5000         0.5719        -999.25        -999.25         0.0685         0.4867      -102.6698      -65.23508      0.0700724
      4119.0000         0.5618        -999.25        -999.25         0.0688         0.4871      -101.5469      -64.10857     0.08663862
      4119.5000         0.5518        -999.25        -999.25         0.0692         0.4875      -100.4122      -62.97028      0.1033782
      4120.0000         0.5579        -999.25        -999.25         0.0695         0.4879       -99.0999      -61.65438      0.1227297
      4120.5000         0.5962        -999.25        -999.25         0.0699         0.4882       -95.8971      -58.44799      0.1698826
      4121.0000         0.6345        -999.25        -999.25         0.0702         0.4894       -92.6945      -55.24179      0.2170325
      4121.5000         0.6728        -999.25        -999.25         0.0706         0.4913       -89.4917      -52.03539      0.2641855
      4122.0000         0.7312        -999.25        -999.25         0.0919         0.4932       -86.2891      -48.82919      0.3113354
      4122.5000         0.7883        -999.25        -999.25         0.1222         0.4951       -75.1608      -37.69729      0.4750399
      4123.0000         0.8122        -999.25        -999.25         0.1524         0.4969       -66.0216      -28.55449      0.6094928
      4123.5000         0.8064        -999.25        -999.25         0.1827         0.5094       -60.7897        -23.319      0.6864854
      4124.0000         0.8006        -999.25        -999.25         0.2169         0.5232       -56.9625       -19.4882      0.7428206
      4124.5000         0.7949        -999.25        -999.25         0.2526         0.5422       -57.9066       -20.4287      0.7289897
      4125.0000         0.7892        -999.25        -999.25         0.2882         0.5741       -57.3684      -19.88691      0.7369573
      4125.5000         0.8249        -999.25        -999.25         0.3238          0.606       -47.1389      -9.653809       0.887444
      4126.0000         0.8574        -999.25        -999.25          0.338         0.6379       -40.2401      -2.751411      0.9889498
      4126.5000           0.89        -999.25        -999.25         0.3383         0.6767       -35.8394       1.652885              1
      4127.0000         0.9209        -999.25        -999.25         0.3387         0.7301       -33.6122       3.883682              1
      4127.5000         0.9509        -999.25        -999.25          0.339         0.7718       -33.8662       3.633282              1
