#------------------------------------------------------------------------------
# Created by    : vladimir.rabinovich
# Created on    : 09/19/2023 17:22:43
#------------------------------------------------------------------------------
~Version Information Section
VERS.           2.0     :   CWLS log ASCII Standard - VERSION 2.0
WRAP.           NO      :   One line per depth step
~Well Information Section
#MNEM       .UNIT                                         VALUE :DESCRIPTION
#------------------------------------------------------------------------------
STRT        .FT                                            3600 :START DEPTH
STOP        .FT                                            7940 :STOP DEPTH
STEP        .FT                                             0.5 :STEP      
NULL        .                                           -999.25 :NULL      
COMP        .                          SEAGULL ENERGY E & P INC :COMPANY   
WELL        .                               OCS G09015 ST00BP00 :WELL      
FLD         .                                 BRAZOS BLOCK 0431 :FIELD     
LOC         .                                                   :LOCATION  
CNTY        .                                BRAZOS LARGE BLOCK :LOCATION  
STAT        .                                             TEXAS :STATE     
CTRY        .                                     UNITED STATES :COUNTRY   
SRVC        .                                                   :SERVICE COMPANY
DATE        .                             9/13/2023 11:09:51 AM :LOG DATE  
API         .                                    42704402370000 :API NUMBER
UWI         .                                    42704402370000 :UNIQUE WELL ID
XCOORD      .                                  876086.487249857 :SURFACE X 
YCOORD      .                                  10366258.6106956 :SURFACE Y 
LAT         .                                        28.5443209 :LATITUDE  
LON         .                                       -95.3810825 :LONGITUDE 
ELEV        .FT                                              90 :ELEVATION VALUE
ELEV_TYPE   .                                                KB :ELEVATION REFERENCE TYPE
~Curve Information Section
#MNEM       .UNIT                                      API CODE :CURVE DESCRIPTION
#------------------------------------------------------------------------------
DEPT        .FT                                                 :DEPTH     
DCAL        .IN                                                 :          
DPHI        .%                                                  :          
GR          .GAPI                                               :          
GR_NORM     .GAPI                                               :GammaRay Normalized
ILD         .OHMM                                               :          
ILM         .OHMM                                               :          
NPHI        .%                                                  :          
SGRD        .OHMM                                               :          
SP          .MV                                                 :          
SP_NORM     .MV                                                 :SP Normalized
VSH_GR      .V/V                                                :Volume of Shale from GR
VSH_SP      .V/V                                                :Volume of Shale from SP
~A        DEPTH           DCAL           DPHI             GR        GR_NORM            ILD            ILM           NPHI           SGRD             SP        SP_NORM         VSH_GR         VSH_SP
# ...
      6490.5000         0.6306        24.0416        72.6497       73.21686         0.5391         0.6173        40.8836         0.8496       -59.4863      -16.71173      0.8556778      0.3603594
      6491.0000         0.6389        25.3012        67.2177        65.3429         0.5156          0.599        40.3421         0.8333       -60.6274      -17.85283      0.6881469      0.3107464
      6491.5000         0.6506        27.8131        62.3146       58.23561         0.4987         0.5911        39.6997         0.8173       -61.3488      -18.57423       0.536928      0.2793811
      6492.0000         0.6662        28.6493        60.1105       55.04068         0.4928         0.5902        38.5175         0.8052       -61.0156      -18.24103      0.4689506      0.2938682
      6492.5000         0.6824        28.6645        57.7215       51.57771         0.4976         0.5936        36.3163         0.8233       -60.4575      -17.68293      0.3952703      0.3181333
      6493.0000         0.6902        26.4674        56.8715       50.34558         0.5132         0.6104        32.6574         1.0796        -59.883      -17.10843      0.3690549      0.3431116
      6493.5000         0.7347        22.2831           56.7       50.09698         0.5368         0.6367        29.2597          1.291       -59.3106      -16.53603      0.3637656      0.3679985
      6494.0000         0.7762        19.2809         56.443       49.72446         0.5724         0.6642        28.1279         1.3697       -59.3479      -16.57333      0.3558395      0.3663768
      6494.5000         0.8177        17.2148        55.8594        48.8785         0.6184         0.7206        28.6333         1.3119       -59.4642      -16.68963      0.3378404      0.3613203
      6495.0000         0.8377        17.8376         55.731       48.69238         0.6745         0.7778        30.8312         1.1684       -59.5111      -16.73653      0.3338803      0.3592811
      6495.5000         0.8543        19.0294        56.5856       49.93116         0.7112         0.8162        31.9398         1.1714       -59.8276      -17.05303      0.3602374      0.3455203
      6496.0000         0.8404        20.1524        57.8687       51.79107         0.7305         0.8515        32.5176         1.2106       -60.2223      -17.44773        0.39981      0.3283594
      6496.5000         0.8253        20.5737        56.6156       49.97464         0.7431         0.8775        32.8705         1.2182       -60.8398      -18.06524      0.3611626      0.3015115
      6497.0000         0.8096        21.2738        55.0632       47.72436         0.7438         0.8848        33.1841          1.209       -61.4996      -18.72503      0.3132843      0.2728247
      6497.5000         0.7884        21.9835        55.4523       48.28839          0.733         0.8697         33.405         1.1656       -62.1704      -19.39583      0.3252848      0.2436595
      6498.0000         0.7582        23.0856         56.398       49.65922         0.7223           0.85        33.6747         1.0816       -62.5609      -19.78633      0.3544515      0.2266811
      6498.5000         0.7061        23.8442         57.573       51.36244         0.7118         0.8216        34.0039         1.0227       -62.6964      -19.92183      0.3906903      0.2207899
      6499.0000         0.6614        23.8688          57.84       51.74947         0.6981         0.7961        34.3716          1.009       -62.5218      -19.74723      0.3989249      0.2283811
      6499.5000         0.6628        23.8818        57.2161        50.8451         0.6791         0.7663        34.7817         1.0168       -62.5131      -19.73853      0.3796829      0.2287594
      6500.0000         0.6757         24.207        56.7857       50.22121          0.651          0.737        35.2903         1.0282       -62.7856      -20.01103      0.3664088      0.2169116
      6500.5000         0.6862        24.2022        58.7402       53.05436         0.6292         0.7273        35.9167          1.022       -63.0461      -20.27153      0.4266884      0.2055855
      6501.0000         0.6983        23.7785        63.4036       59.81418         0.6023         0.7294        36.9323         0.9655       -62.8852      -20.11063      0.5705145      0.2125811
      6501.5000         0.7119        23.2815        66.1652       63.81727         0.5552         0.7065        37.9471         0.9138       -62.8681      -20.09353      0.6556866      0.2133247
      6502.0000         0.7093        23.0824        67.1345       65.22229         0.5144          0.648        39.2191          0.862        -63.462      -20.68744      0.6855806      0.1875028
      6502.5000         0.6709        25.5383        65.4929       62.84272         0.4795         0.5876        39.8746         0.8095       -64.8453      -22.07073      0.6349515      0.1273595
      6503.0000         0.6039        27.8195        61.5643       57.14803         0.4522         0.5358        39.8058         0.7875       -66.2476      -23.47303      0.5137879     0.06638999
      6503.5000         0.5478         29.886        55.4002       48.21286         0.4277         0.5056        39.7267         0.7811       -66.7712      -23.99664       0.323678     0.04362455
      6504.0000         0.5104        31.6866        49.8302       40.13888         0.4068         0.4846        39.5283         0.7845       -67.0106      -24.23603       0.151891     0.03321606
      6504.5000         0.4898        32.2426        46.1105       34.74699         0.3914         0.4629        38.8275         0.7827       -67.2106      -24.43604     0.03717009     0.02452021
      6505.0000         0.5369        31.9111        46.8732       35.85256          0.375         0.4468        38.3545         0.7871       -67.4291      -24.65453     0.06069281     0.01502029
      6505.5000         0.5856        31.6578        47.8645        37.2895         0.3625         0.4316        37.9332         0.7866       -67.5165      -24.74194      0.0912659     0.01122019
      6506.0000         0.6648        31.5372        48.5868        38.3365         0.3574         0.4264        37.7519         0.7819       -67.5802      -24.80563      0.1135426    0.008450716
      6506.5000         0.6448          31.63         48.701       38.50204         0.3633         0.4213        37.8204         0.7743       -67.6091      -24.83453      0.1170648    0.007194187
      6507.0000         0.5876        31.8412         48.798       38.64265         0.3752         0.4302        37.9294         0.7615       -67.3682      -24.59364      0.1200564     0.01766802
      6507.5000         0.5718        32.1636        49.0515       39.01011         0.3928         0.4375        38.0605         0.7434       -66.9536      -24.17903      0.1278747     0.03569429
      6508.0000         0.5809        32.0543        50.8749       41.65322          0.416         0.4415        38.3168         0.7198       -66.2743      -23.49973       0.184111       0.065229
      6508.5000         0.5982        30.9113        57.3386       51.02267         0.4356         0.4562        38.8459         0.7162       -62.7729      -19.99833       0.383461      0.2174638
      6509.0000         0.6563        29.3093        62.4136       58.37913         0.4551          0.489        39.5956         0.7301       -59.0474      -16.27283      0.5399814       0.379442
      6509.5000         0.7254        27.3181        66.8711        64.8405         0.4878         0.5354        40.2789         0.7672       -55.5328      -12.75823      0.6774575      0.5322508
      6510.0000         0.7832        26.0301        68.8245       67.67204         0.5353         0.5776        40.9276         0.8143       -54.0895      -11.31493       0.737703      0.5950029
      6510.5000         0.7221        24.9608        69.2933       68.35159         0.5782         0.6206        40.9395         0.8599       -53.5561      -10.78153      0.7521614      0.6181942
