#------------------------------------------------------------------------------
# Created by    : vladimir.rabinovich
# Created on    : 09/19/2023 17:22:50
#------------------------------------------------------------------------------
~Version Information Section
VERS.           2.0     :   CWLS log ASCII Standard - VERSION 2.0
WRAP.           NO      :   One line per depth step
~Well Information Section
#MNEM       .UNIT                                         VALUE :DESCRIPTION
#------------------------------------------------------------------------------
STRT        .FT                                            2472 :START DEPTH
STOP        .FT                                            8382 :STOP DEPTH
STEP        .FT                                             0.5 :STEP      
NULL        .                                           -999.25 :NULL      
COMP        .                                 EPL OIL & GAS LLC :COMPANY   
WELL        .                               OCS G07215 ST00BP00 :WELL      
FLD         .                                 BRAZOS BLOCK 0376 :FIELD     
LOC         .                                                   :LOCATION  
CNTY        .                                BRAZOS LARGE BLOCK :LOCATION  
STAT        .                                             TEXAS :STATE     
CTRY        .                                     UNITED STATES :COUNTRY   
SRVC        .                                                   :SERVICE COMPANY
DATE        .                             9/13/2023 11:19:08 AM :LOG DATE  
API         .                                    42704402290000 :API NUMBER
UWI         .                                    42704402290000 :UNIQUE WELL ID
XCOORD      .                                  871225.230552878 :SURFACE X 
YCOORD      .                                  10399792.7272756 :SURFACE Y 
LAT         .                                         28.636239 :LATITUDE  
LON         .                                        -95.398308 :LONGITUDE 
ELEV        .FT                                              95 :ELEVATION VALUE
ELEV_TYPE   .                                                KB :ELEVATION REFERENCE TYPE
~Curve Information Section
#MNEM       .UNIT                                      API CODE :CURVE DESCRIPTION
#------------------------------------------------------------------------------
DEPT        .FT                                                 :DEPTH     
DT          .US/F                                               :          
GR          .GAPI                                               :          
GR_NORM     .GAPI                                               :GammaRay Normalized
ILD         .OHMM                                               :          
ILM         .OHMM                                               :          
SFL         .OHMM                                               :          
SP          .MV                                                 :          
SP_NORM     .MV                                                 :SP Normalized
VSH_GR      .V/V                                                :Volume of Shale from GR
VSH_SP      .V/V                                                :Volume of Shale from SP
~A        DEPTH             DT             GR        GR_NORM            ILD            ILM            SFL             SP        SP_NORM         VSH_GR         VSH_SP
# ...
      6392.0000       118.0858         70.642       75.44501         0.8905         0.8383         0.8507        -35.629      -2.762573      0.9030854      0.9661044
      6392.5000        117.106        71.9385       76.88536         0.8773         0.8032         0.8048       -35.8373      -2.971451      0.9337311      0.9620875
      6393.0000       116.8048        71.5795       76.48626         0.8626          0.779         0.7756       -35.9677      -3.102432      0.9252396      0.9595686
      6393.5000        117.184        70.4679       75.25095         0.8463         0.7643         0.7656       -35.9442      -3.079514      0.8989563      0.9600093
      6394.0000       117.9493        69.9781       74.70651          0.832         0.7575         0.7636       -35.7874      -2.923294      0.8873726      0.9630136
      6394.5000       118.5795        69.8391       74.55186         0.8226         0.7567         0.7558       -35.6025      -2.738976      0.8840821      0.9665582
      6395.0000        119.042        69.7876       74.49442         0.8185         0.7539         0.7492        -35.465      -2.602055      0.8828599      0.9691913
      6395.5000       119.4581         69.681       74.37576         0.8153         0.7507         0.7436       -35.3862      -2.523838      0.8803354      0.9706954
      6396.0000       120.6794        69.4708         74.142         0.8127         0.7473         0.7485       -35.4366      -2.574818      0.8753617      0.9697151
      6396.5000       121.6569        69.0171       73.63767          0.812         0.7548         0.7614       -35.6857      -2.824497      0.8646314      0.9649135
      6397.0000        121.978        68.5284       73.09446         0.8111         0.7659         0.7765       -35.9777      -3.117077      0.8530736       0.959287
      6397.5000       121.4143        68.8472       73.44847         0.8085         0.7736         0.7805       -36.1166      -3.256557      0.8606058      0.9566047
      6398.0000        121.307        70.0609       74.79681          0.806         0.7751         0.7772        -36.078       -3.21854      0.8892939      0.9573358
      6398.5000       121.4265        71.3292       76.20583         0.8045           0.77         0.7693       -35.9045       -3.04562      0.9192729      0.9606612
      6399.0000       121.8654        71.4996       76.39495         0.8032         0.7645         0.7576       -35.6536        -2.7953      0.9232968       0.965475
      6399.5000       122.0092        71.0657       75.91262         0.8023         0.7586         0.7509       -35.1878      -2.330082      0.9130345      0.9744215
      6400.0000       121.5959         70.699       75.50497         0.8016         0.7557         0.7482        -34.743      -1.885864       0.904361      0.9829642
      6400.5000       120.8976        71.2584       76.12631         0.8007         0.7557         0.7517       -34.3252      -1.468643      0.9175811      0.9909877
      6401.0000         120.33        72.2014       77.17387         0.7986         0.7604         0.7682         -34.26      -1.404022      0.9398696      0.9922304
      6401.5000       120.7056        73.2596       78.34944         0.7966         0.7594         0.7639       -34.2197      -1.364304      0.9648817      0.9929942
      6402.0000       121.5874        74.0183       79.19225         0.8001         0.7568         0.7519       -34.2812      -1.426388      0.9828137      0.9918002
      6402.5000       122.5613        74.2804       79.48325         0.8046         0.7552          0.743       -34.3536      -1.499367      0.9890054      0.9903968
      6403.0000       123.1097         74.395       79.61037         0.8101         0.7546         0.7507       -34.5372      -1.683548      0.9917099      0.9868549
      6403.5000       123.0548        74.3639        79.5756         0.8163         0.7561         0.7588       -34.7274      -1.874329      0.9909702       0.983186
      6404.0000       122.4857        74.2013       79.39473         0.8204         0.7594          0.765       -34.9552      -2.102711      0.9871219       0.978794
      6404.5000       121.2766        73.5015       78.61696          0.823         0.7645         0.7677       -35.1274       -2.27549      0.9705736      0.9754714
      6405.0000       119.9347        72.9631       78.01852          0.825         0.7747         0.7751       -35.1328      -2.281471      0.9578408      0.9753563
      6405.5000       118.8353        73.2671       78.35609         0.8262         0.7846         0.7882       -35.0596      -2.208851      0.9650231      0.9767529
      6406.0000       117.8817         72.049       77.00243         0.8282         0.7942         0.7985       -34.7724      -1.922234       0.936222      0.9822648
      6406.5000       117.4331        64.7919       68.93877         0.8312         0.8039         0.8014       -34.5416      -1.692013      0.7646548      0.9866921
      6407.0000       118.1249        64.8075        68.9559         0.8341         0.8057         0.8101       -34.5908      -1.741795      0.7650192      0.9857347
      6407.5000       118.9609         68.385       72.93069         0.8346         0.8023         0.8099       -34.7025      -1.854073      0.8495891      0.9835755
      6408.0000       119.8324        70.6467       75.44347         0.8351         0.7962         0.7927       -34.9042      -2.056358      0.9030526      0.9796854
      6408.5000       120.3622        70.9132       75.73937         0.8331         0.7891         0.7809       -34.9961      -2.148838      0.9093484      0.9779069
      6409.0000       120.7526        68.6371       73.21016         0.8301         0.7819         0.7788       -34.9987      -2.152016      0.8555353      0.9778458
      6409.5000       120.8269        67.5507       72.00284         0.8288          0.775         0.7759       -35.0992      -2.253098      0.8298476       0.975902
      6410.0000       120.8269        66.5085       70.84463         0.8286         0.7685         0.7709       -35.3099      -2.464378      0.8052048      0.9718389
      6410.5000       120.8035        65.7249       69.97375         0.8278         0.7663         0.7633       -35.5668      -2.721859      0.7866755      0.9668874
      6411.0000       120.9493        66.6563       71.00844          0.827          0.764         0.7579       -35.6143      -2.769939      0.8086902      0.9659627
      6411.5000        121.418        68.3562         72.897         0.8285         0.7642          0.774       -35.5527       -2.70892      0.8488724      0.9671361
      6412.0000       122.4503        69.7391       74.43334         0.8301         0.7698         0.7896       -35.3971      -2.553902      0.8815604      0.9701173
      6412.5000       123.1334        69.1965       73.83025         0.8321         0.7798         0.7961       -35.2052      -2.362583      0.8687286      0.9737965
      6413.0000        123.412        66.8579       71.23159         0.8344         0.7939          0.802       -34.7484      -1.906364      0.8134381      0.9825699
      6413.5000       122.2261        64.3873       68.48626         0.8381         0.7998         0.8051       -34.3646      -1.523144      0.7550268      0.9899396
      6414.0000       121.0243        63.2643       67.23828         0.8423         0.8077         0.8106       -34.1155      -1.274628      0.7284741      0.9947187
      6414.5000       119.5265        67.8904       72.37817         0.8477         0.8147         0.8142       -34.3492      -1.508907      0.8378335      0.9902133
      6415.0000       118.4064        71.9313       76.86784          0.853         0.8192          0.821       -34.7826      -1.942886      0.9333584      0.9818676
      6415.5000        117.683        74.0562       79.22864         0.8582         0.8212         0.8308       -35.0923      -2.253166       0.983588      0.9759007
      6416.0000       117.9518        73.8953       79.04965         0.8652         0.8232          0.841       -35.1309      -2.292351      0.9797798      0.9751471
