#------------------------------------------------------------------------------
# Created by    : vladimir.rabinovich
# Created on    : 09/19/2023 17:22:53
#------------------------------------------------------------------------------
~Version Information Section
VERS.           2.0     :   CWLS log ASCII Standard - VERSION 2.0
WRAP.           NO      :   One line per depth step
~Well Information Section
#MNEM       .UNIT                                         VALUE :DESCRIPTION
#------------------------------------------------------------------------------
STRT        .FT                                             411 :START DEPTH
STOP        .FT                                           10036 :STOP DEPTH
STEP        .FT                                             0.5 :STEP      
NULL        .                                           -999.25 :NULL      
COMP        .                          HUMBLE OIL & REFINING CO :COMPANY   
WELL        .                                     ST TR 00278-L :WELL      
FLD         .                                           WILDCAT :FIELD     
LOC         .                                                   :LOCATION  
CNTY        .                             GALVESTON LARGE BLOCK :LOCATION  
STAT        .                                             TEXAS :STATE     
CTRY        .                                     UNITED STATES :COUNTRY   
SRVC        .                                                   :SERVICE COMPANY
DATE        .                             9/13/2023 11:19:42 AM :LOG DATE  
API         .                                    42706000220000 :API NUMBER
UWI         .                                    42706000220000 :UNIQUE WELL ID
XCOORD      .                                  941560.719964966 :SURFACE X 
YCOORD      .                                  10497824.1170516 :SURFACE Y 
LAT         .                                        28.9094621 :LATITUDE  
LON         .                                       -95.1847519 :LONGITUDE 
ELEV        .FT                                              10 :ELEVATION VALUE
ELEV_TYPE   .                                                KB :ELEVATION REFERENCE TYPE
~Curve Information Section
#MNEM       .UNIT                                      API CODE :CURVE DESCRIPTION
#------------------------------------------------------------------------------
DEPT        .FT                                                 :DEPTH     
LAT         .OHMM                                               :          
LN          .OHMM                                               :          
SN          .OHMM                                               :          
SP          .MV                                                 :          
SP_NORM     .MV                                                 :SP Normalized
VSH_SP      .V/V                                                :Volume of Shale from SP
~A        DEPTH            LAT             LN             SN             SP        SP_NORM         VSH_SP
# ...
      8695.0000         0.4874         0.5433         0.5881       148.1855      -50.71746      0.4413768
      8695.5000         0.4869         0.5442         0.5906       148.8474      -51.33446      0.4344443
      8696.0000         0.4863         0.5451         0.5931       149.6248      -52.06696      0.4262139
      8696.5000         0.4858          0.546         0.5956       150.5078      -52.90506      0.4167971
      8697.0000         0.4853         0.5469         0.5981       148.9775      -51.32986       0.434496
      8697.5000         0.4847         0.5492         0.6006       148.1682      -50.47565      0.4440938
      8698.0000         0.4842         0.5516         0.6031       147.3599      -49.62245      0.4536803
      8698.5000         0.4836         0.5539         0.6051       146.5515      -48.76916      0.4632679
      8699.0000         0.4831         0.5563         0.6063       145.7422      -47.91496      0.4728656
      8699.5000         0.4825         0.5587         0.6076       144.9338      -47.06167      0.4824532
      8700.0000          0.482          0.561         0.6088       144.1243      -46.20726      0.4920533
      8700.5000         0.4815         0.5634         0.6101       142.9878      -45.02585      0.5053275
      8701.0000         0.4809         0.5657         0.6113       141.6775      -43.67066      0.5205544
      8701.5000         0.4804         0.5681         0.6126       138.9785      -40.92676      0.5513847
      8702.0000         0.4798         0.5702         0.6139       134.9807      -36.88406      0.5968084
      8702.5000         0.4793         0.5696         0.6151       131.4021      -33.26056      0.6375218
      8703.0000         0.4788          0.569         0.6164        127.934      -29.74756      0.6769937
      8703.5000         0.4782         0.5684         0.6176       124.5165      -26.28516       0.715897
      8704.0000         0.4774         0.5678         0.6189       121.4445      -23.16826      0.7509184
      8704.5000         0.4764         0.5672         0.6201       118.3678      -20.04665      0.7859927
      8705.0000         0.4755         0.5666         0.6228        116.051      -17.68496      0.8125286
      8705.5000         0.4745          0.566         0.6265       114.6924      -16.28146      0.8282983
      8706.0000         0.4736         0.5654         0.6302       113.3336      -14.87776      0.8440701
      8706.5000         0.4726         0.5648         0.6339        111.975      -13.47426      0.8598398
      8707.0000         0.4716         0.5641         0.6376       110.6139      -12.06826      0.8756375
      8707.5000         0.4707         0.5626         0.6414       109.7228      -11.13226      0.8861544
      8708.0000         0.4697         0.5611         0.6451       108.9674      -10.33195      0.8951465
      8708.5000         0.4687         0.5596         0.6488        108.212      -9.531654      0.9041387
      8709.0000         0.4678         0.5581         0.6525       107.4567      -8.731461      0.9131296
      8709.5000         0.4668         0.5566         0.6562       106.7341      -7.963959      0.9217533
      8710.0000         0.4658         0.5551         0.6559       106.3685      -7.553459      0.9263656
      8710.5000         0.4649         0.5536         0.6539       106.0029      -7.142952      0.9309781
      8711.0000         0.4639         0.5522         0.6518       105.6379      -6.733055      0.9355837
      8711.5000         0.4629         0.5512         0.6498       105.2723      -6.322556       0.940196
      8712.0000          0.462         0.5532         0.6477       104.9069      -5.912254      0.9448062
      8712.5000          0.461         0.5553         0.6457       104.5413      -5.501755      0.9494185
      8713.0000           0.46         0.5574         0.6436       104.2585      -5.174057      0.9531005
      8713.5000         0.4591         0.5594         0.6416       104.0265      -4.897156      0.9562117
      8714.0000         0.4591         0.5615         0.6396       103.7946      -4.620354      0.9593219
      8714.5000         0.4596         0.5635         0.6375       103.5625      -4.343353      0.9624342
      8715.0000         0.4601         0.5656         0.6355       103.3304      -4.066353      0.9655466
      8715.5000         0.4606         0.5705         0.6334       103.4457      -4.136757      0.9647555
      8716.0000         0.4611         0.5758         0.6314       103.8762      -4.522354       0.960423
      8716.5000         0.4616         0.5812         0.6293       104.3069      -4.908157      0.9560881
      8717.0000         0.4621         0.5866         0.6273       105.4647      -6.021049      0.9435837
      8717.5000         0.4626          0.592         0.6253        106.653      -7.164452      0.9307365
      8718.0000         0.4631         0.5973         0.6246       107.8413      -8.307854      0.9178893
      8718.5000         0.4636         0.6027         0.6333       109.0295      -9.451157      0.9050432
      8719.0000         0.4641         0.6081          0.642       107.9541      -8.330856      0.9176309
      8719.5000         0.4646         0.6135         0.6506       107.0364      -7.368256      0.9284466
      8720.0000         0.4651         0.6147         0.6593       106.1176      -6.404556      0.9392747
      8720.5000         0.4656         0.6093         0.6679       105.1998      -5.441849      0.9500916
      8721.0000         0.4661          0.604         0.6766        104.281      -4.478149      0.9609197
      8721.5000         0.4666         0.5986         0.6853       103.3622       -3.51445      0.9717478
      8722.0000         0.4671         0.5933          0.682       102.7893      -2.896652      0.9786893
      8722.5000         0.4675         0.5879         0.6721       102.3287      -2.391151      0.9843691
      8723.0000         0.4681         0.5825         0.6622       105.5292      -5.546753      0.9489129
      8723.5000         0.4686         0.5795         0.6523         107.74      -7.712654      0.9245769
      8724.0000         0.4691         0.5768         0.6424       109.9507      -9.878448      0.9002421
      8724.5000         0.4697         0.5742         0.6324       112.1615      -12.04435      0.8759062
      8725.0000         0.4702         0.5715         0.6225       113.1125      -12.95045      0.8657252
      8725.5000         0.4707         0.5688         0.6183        114.043      -13.83605      0.8557747
      8726.0000         0.4712         0.5662          0.619       114.9722      -14.72035      0.8458387
      8726.5000         0.4718         0.5635         0.6197       115.9025      -15.60575      0.8358904
      8727.0000         0.4723         0.5612         0.6204       116.8329      -16.49125       0.825941
      8727.5000         0.4728         0.5604         0.6211       117.7632      -17.37665      0.8159927
      8728.0000         0.4734         0.5597         0.6219       118.6936      -18.26215      0.8060432
      8728.5000         0.4739          0.559         0.6226       117.3361      -16.85975      0.8218006
      8729.0000         0.4744         0.5582         0.6233       115.6042      -15.08295      0.8417646
      8729.5000          0.475         0.5575          0.624       113.8726      -13.30645      0.8617253
      8730.0000         0.4755         0.5568         0.6247       112.1407      -11.52966      0.8816893
      8730.5000          0.476          0.556         0.6254       111.2783      -10.62234      0.8918838
      8731.0000         0.4766         0.5553         0.6261       110.4286      -9.727745      0.9019355
      8731.5000         0.4812         0.5581         0.6256       109.5776      -8.831848      0.9120017
      8732.0000         0.4887         0.5625         0.6246       108.7279      -7.937248      0.9220534
      8732.5000         0.4962         0.5668         0.6236        107.877      -7.041451      0.9321185
