#------------------------------------------------------------------------------
# Created by    : vladimir.rabinovich
# Created on    : 09/19/2023 17:20:38
#------------------------------------------------------------------------------
~Version Information Section
VERS.           2.0     :   CWLS log ASCII Standard - VERSION 2.0
WRAP.           NO      :   One line per depth step
~Well Information Section
#MNEM       .UNIT                                         VALUE :DESCRIPTION
#------------------------------------------------------------------------------
STRT        .FT                                             510 :START DEPTH
STOP        .FT                                            8711 :STOP DEPTH
STEP        .FT                                             0.5 :STEP      
NULL        .                                           -999.25 :NULL      
COMP        .                                      SHELL OIL CO :COMPANY   
WELL        .                                OCS 00708 ST00BP00 :WELL      
FLD         .                                           WILDCAT :FIELD     
LOC         .                                                   :LOCATION  
CNTY        .                             GALVESTON LARGE BLOCK :LOCATION  
STAT        .                                             TEXAS :STATE     
CTRY        .                                     UNITED STATES :COUNTRY   
SRVC        .                                                   :SERVICE COMPANY
DATE        .                             9/13/2023 11:19:25 AM :LOG DATE  
API         .                                    42706000300000 :API NUMBER
UWI         .                                    42706000300000 :UNIQUE WELL ID
XCOORD      .                                  1082576.09526943 :SURFACE X 
YCOORD      .                                  10493698.2734572 :SURFACE Y 
LAT         .                                         28.904546 :LATITUDE  
LON         .                                        -94.743912 :LONGITUDE 
ELEV        .FT                                              92 :ELEVATION VALUE
ELEV_TYPE   .                                                KB :ELEVATION REFERENCE TYPE
~Curve Information Section
#MNEM       .UNIT                                      API CODE :CURVE DESCRIPTION
#------------------------------------------------------------------------------
DEPT        .FT                                                 :DEPTH     
ASN         .OHMM                                               :          
CILD        .MMHO                                               :          
DT          .US/F                                               :          
ILD         .OHMM                                               :          
SP          .MV                                                 :          
SP_NORM     .MV                                                 :SP Normalized
VSH_SP      .V/V                                                :Volume of Shale from SP
~A        DEPTH            ASN           CILD             DT            ILD             SP        SP_NORM         VSH_SP
# ...
      7042.5000         1.1009       1071.459        95.4472         0.9712       -49.3612     -0.2757607              1
      7043.0000         1.0995       1073.965        95.8234         0.9707       -48.9902      0.0927887              1
      7043.5000         1.0969       1076.713        95.8363         0.9736       -49.1082    -0.02765656              1
      7044.0000         1.0933       1084.041        97.1807         0.9765       -49.2264      -0.148304              1
      7044.5000         1.0898       1091.355        100.092         0.9794       -49.0002      0.0754509              1
      7045.0000         1.0863       1098.492       102.3974         0.9824       -48.5805      0.4926987              1
      7045.5000         1.0827       1104.484       103.8118         0.9853       -48.1608      0.9099541              1
      7046.0000          1.081       1105.586         105.38         0.9882       -47.8692       1.199108              1
      7046.5000         1.0799       1106.686       107.4681         0.9856       -47.7184       1.347462              1
      7047.0000         1.0787       1107.785        110.753         0.9794       -47.5677       1.495716              1
      7047.5000         1.0797       1109.268       113.7905         0.9732       -47.4169       1.644066              1
      7048.0000         1.0812       1111.797       115.1511          0.967       -47.6039        1.45462              1
      7048.5000         1.0763       1114.328       113.7324         0.9609       -47.8317       1.224373              1
      7049.0000         1.0669       1116.859        110.898         0.9547       -48.0142       1.039429              1
      7049.5000         1.0575        1124.99       107.8247         0.9461       -47.6252       1.425983              1
      7050.0000         1.0481       1136.836       104.9609         0.9343       -47.2363       1.812431              1
      7050.5000         1.0379       1148.672       104.1921         0.9225        -47.131       1.915287              1
      7051.0000         1.0263       1168.189       105.2389         0.9144       -47.6767       1.367138              1
      7051.5000         1.0282       1186.938       108.0316          0.911       -48.1306      0.9107933              1
      7052.0000         1.0306       1187.703       108.6686         0.9075       -48.3066      0.7323456              1
      7052.5000         1.0331       1183.145       109.0217         0.9063       -48.0433      0.9931984              1
      7053.0000         1.0394       1177.697       109.2168         0.9077         -47.78       1.254051              1
      7053.5000         1.0458        1172.25       107.4703         0.9092       -47.5167       1.514904              1
      7054.0000         1.0522       1166.803       108.8913         0.9106       -47.2534       1.775761              1
      7054.5000         1.0578       1161.355        109.526          0.912       -47.2009       1.825809              1
      7055.0000         1.0504       1161.531       108.8181         0.9134       -47.2397       1.784565              1
      7055.5000          1.043       1163.564       108.0525         0.9099       -47.3732       1.648617              1
      7056.0000         1.0353       1165.635        107.816         0.9043       -47.5176        1.50177              1
      7056.5000         1.0274       1168.744       108.7579         0.8987        -47.662       1.354923              1
      7057.0000         1.0201        1171.85       109.4907         0.8931       -47.8065       1.207977              1
      7057.5000         1.0315       1174.961       108.2151         0.8875       -47.9509       1.061127              1
      7058.0000         1.0428        1178.07       107.1123         0.8819        -48.033      0.9765816              1
      7058.5000         1.0547       1174.051        108.047         0.8849       -48.0459      0.9612389              1
      7059.0000         1.0681       1163.402       110.3298         0.8957       -48.0588      0.9458885              1
      7059.5000         1.0816       1129.936        111.283         0.9065       -48.0716      0.9306412              1
      7060.0000          1.095       1098.883       111.2339         0.9204       -48.0845      0.9152946              1
      7060.5000         1.1084       1080.359       112.2359         0.9504        -48.118      0.8793488              1
      7061.0000         1.1215       1073.084       113.5171         0.9803       -48.2064      0.7884979              1
      7061.5000         1.1294       1068.996       111.7177         1.0103       -48.2948      0.6976547              1
      7062.0000         1.1373       1064.908       108.3589         1.0403       -48.3832      0.6068039              1
      7062.5000         1.1354       1061.305       106.3482         1.0344       -48.4717      0.5158615              1
      7063.0000         1.1245       1059.082       106.1484         1.0216       -48.5601      0.4250145              1
      7063.5000         1.1155       1056.859        105.454         1.0088       -48.6727       0.309967              1
      7064.0000         1.1103       1054.637       105.0817         1.0004       -48.7978      0.1824226              1
      7064.5000         1.1258       1052.412       105.7048         1.0051       -48.9227     0.05507278              1
      7065.0000         1.1412       1045.674       108.2147         1.0098       -49.0721    -0.09677505              1
      7065.5000         1.1567       1037.799       109.1298         1.0217       -49.2966     -0.3237228              1
      7066.0000         1.1713       1029.936       108.8498         1.0346       -49.5212      -0.550766              1
      7066.5000         1.1853       1012.777       109.8966         1.0476       -49.7881     -0.8201141              1
      7067.0000         1.1993        993.001        109.477         1.0606       -50.2006      -1.235062       0.995391
      7067.5000         1.2133        977.207       108.4987         1.0736       -50.6125      -1.649406      0.9872665
      7068.0000         1.2246       961.4121       107.6532         1.0865       -51.0356      -2.074955      0.9789224
      7068.5000         1.2357       944.9697       107.1953         1.0995       -51.5062         -2.548       0.969647
      7069.0000         1.2467       928.1689       106.1997         1.1125       -51.9763       -3.02055      0.9603814
      7069.5000         1.2578       910.1602       104.2363         1.1247       -52.4109      -3.457596      0.9518119
      7070.0000         1.2688       888.4824       104.8439         1.1367       -52.6426      -3.691746      0.9472207
      7070.5000         1.2769       876.8711       105.5387         1.1488       -52.8743      -3.925888      0.9426296
      7071.0000         1.2844       869.4326        105.807         1.1608       -52.9891      -4.043137      0.9403307
      7071.5000         1.2919       861.9941        105.762         1.1728        -53.002      -4.058483      0.9400297
      7072.0000         1.2994       857.8057       107.2291         1.1846       -53.0148       -4.07373      0.9397308
      7072.5000         1.2833       855.0205       107.5902         1.1864       -52.3491      -3.410477      0.9527357
      7073.0000         1.2656       852.6045       106.8125         1.1882       -51.6339      -2.697723      0.9667113
      7073.5000          1.248       857.8779       105.9394          1.167       -50.8403      -1.906574       0.982224
      7074.0000         1.2347       863.1523       106.1303         1.1415       -50.0327      -1.101418      0.9980114
      7074.5000         1.2221       893.1582       106.4197         1.1161       -49.6516     -0.7227669              1
      7075.0000         1.2095       931.9941       105.9114         1.0935       -49.2929     -0.3665123              1
      7075.5000         1.1969        975.999       106.0277         1.0725       -49.4924     -0.5684586              1
