#------------------------------------------------------------------------------
# Created by    : vladimir.rabinovich
# Created on    : 09/19/2023 17:20:01
#------------------------------------------------------------------------------
~Version Information Section
VERS.           2.0     :   CWLS log ASCII Standard - VERSION 2.0
WRAP.           NO      :   One line per depth step
~Well Information Section
#MNEM       .UNIT                                         VALUE :DESCRIPTION
#------------------------------------------------------------------------------
STRT        .FT                                            3496 :START DEPTH
STOP        .FT                                           13495 :STOP DEPTH
STEP        .FT                                             0.5 :STEP      
NULL        .                                           -999.25 :NULL      
COMP        .                      TEXAS EASTERN EXPLORATION CO :COMPANY   
WELL        .                                ST TR 00798-L NE/4 :WELL      
FLD         .                                           WILDCAT :FIELD     
LOC         .                                                   :LOCATION  
CNTY        .                        MUSTANG ISLAND LARGE BLOCK :LOCATION  
STAT        .                                             TEXAS :STATE     
CTRY        .                                     UNITED STATES :COUNTRY   
SRVC        .                                                   :SERVICE COMPANY
DATE        .                             9/13/2023 11:18:55 AM :LOG DATE  
API         .                                    42702302040000 :API NUMBER
UWI         .                                    42702302040000 :UNIQUE WELL ID
XCOORD      .                                  329124.923046376 :SURFACE X 
YCOORD      .                                  10022065.1107101 :SURFACE Y 
LAT         .                                        27.5591082 :LATITUDE  
LON         .                                       -97.0466418 :LONGITUDE 
ELEV        .FT                                              82 :ELEVATION VALUE
ELEV_TYPE   .                                                KB :ELEVATION REFERENCE TYPE
~Curve Information Section
#MNEM       .UNIT                                      API CODE :CURVE DESCRIPTION
#------------------------------------------------------------------------------
DEPT        .FT                                                 :DEPTH     
ASFL        .OHMM                                               :          
CILD        .MMHO                                               :          
GR          .GAPI                                               :          
GR_NORM     .GAPI                                               :GammaRay Normalized
ILD         .OHMM                                               :          
SFL         .OHMM                                               :          
SP          .MV                                                 :          
SP_NORM     .MV                                                 :SP Normalized
VSH_GR      .V/V                                                :Volume of Shale from GR
VSH_SP      .V/V                                                :Volume of Shale from SP
~A        DEPTH           ASFL           CILD             GR        GR_NORM            ILD            SFL             SP        SP_NORM         VSH_GR         VSH_SP
# ...
     11483.0000         0.8017       1390.787        62.4444       69.77959         0.6772         0.7995       -40.8243      -3.639851      0.7825446      0.9617413
     11483.5000          0.852       1366.152        61.3607        68.3813         0.6906         0.8297       -41.1437      -3.958462      0.7527937      0.9571238
     11484.0000         0.9024       1344.789        60.3506       67.07726         0.7006         0.8784       -40.9576      -3.771576      0.7250481      0.9598323
     11484.5000         0.9527        1326.15        62.8942       70.32488          0.714         0.9242       -40.7069      -3.520088      0.7941464       0.963477
     11485.0000         1.0029       1309.125        64.6709       72.59024         0.7214          0.959       -40.4556      -3.268002      0.8423455      0.9671304
     11485.5000         0.9371       1321.541        65.6466       73.82965         0.7195          0.946       -40.1085      -2.920113       0.868716      0.9721723
     11486.0000         0.8888       1460.529        67.3743       76.03225          0.716         0.9173       -39.7571      -2.567924      0.9155798      0.9772764
     11486.5000         0.8354       1550.051        69.9104       79.27026         0.6955         0.8698        -39.468      -2.278034      0.9844737      0.9814777
     11487.0000         0.8139       1612.457         71.213       80.92838         0.6771         0.8387       -39.2701       -2.07935              1      0.9843572
     11487.5000         0.8013       1643.436        72.1345       82.09839         0.6597         0.8237       -39.1884      -1.996861              1      0.9855527
     11488.0000         0.7915       1662.594        72.8005       82.94113         0.6466         0.8206       -39.1714      -1.979073              1      0.9858105
     11488.5000         0.7819       1673.127        72.7513       82.86784         0.6336         0.8175        -39.177      -1.983883              1      0.9857408
     11489.0000         0.7733       1677.941        72.1517       82.08958          0.628         0.8139       -39.1927      -1.998798              1      0.9855247
     11489.5000         0.7648       1679.189        71.5521       81.31133         0.6224         0.8097       -39.2084       -2.01371              1      0.9853085
     11490.0000         0.7616       1680.439        70.8604       80.41509         0.6177         0.8054        -39.217      -2.021523              1      0.9851953
     11490.5000         0.7588       1681.689        70.1169       79.45254         0.6212         0.8012       -39.2202      -2.023933      0.9883519      0.9851604
     11491.0000          0.756       1682.076        69.3157       78.41605         0.6246         0.7952       -39.2233      -2.026249       0.966299      0.9851269
     11491.5000         0.7535       1682.109        68.5637       77.44261          0.628         0.7879       -39.2265       -2.02866      0.9455875      0.9850919
     11492.0000          0.751       1663.512        68.6202        77.5047         0.6294         0.7805       -39.2375      -2.038868      0.9469085      0.9849439
     11492.5000         0.7471       1638.875         69.849       79.06829         0.6304         0.7719       -39.2498      -2.050385      0.9801764       0.984777
     11493.0000          0.743       1614.291        71.4464         81.104         0.6313         0.7592       -39.2621      -2.061893              1      0.9846103
     11493.5000         0.7389       1589.705         70.896       80.38875         0.6325         0.7465       -39.2744      -2.073406              1      0.9844434
     11494.0000         0.7348       1571.414        69.9351       79.14774         0.6341         0.7475       -39.3961      -2.194317      0.9818669       0.982691
     11494.5000         0.7453       1558.947        68.3499        77.1071         0.6357         0.7541       -39.6013      -2.398731       0.938449      0.9797285
     11495.0000         0.7615       1550.818        67.6949       76.25789         0.6372          0.762       -39.7924      -2.589043      0.9203806      0.9769704
     11495.5000         0.7786       1544.027        67.2317       75.65432         0.6388          0.772       -39.9825      -2.778355      0.9075387      0.9742268
     11496.0000         0.7942       1538.129        67.0413       75.40017         0.6397         0.7819       -40.2246      -3.019669      0.9021313      0.9707295
     11496.5000         0.8064         1533.5        67.1136       75.48251         0.6404         0.7919        -40.455      -3.249283      0.9038833      0.9674017
     11497.0000         0.8179       1530.402        67.1858        75.5647          0.641         0.7998       -40.6025      -3.395992       0.905632      0.9652755
     11497.5000         0.8218       1527.305        67.2876       75.68481         0.6417         0.8055       -40.5038      -3.296505      0.9081874      0.9667173
     11498.0000         0.8105       1531.412        67.4634        75.8997         0.6421         0.8111       -40.3272      -3.119118      0.9127597      0.9692882
     11498.5000         0.7992       1536.158        67.3767       75.77837          0.641         0.8076       -40.1506       -2.94173      0.9101782       0.971859
     11499.0000         0.7887       1545.787        67.0524       75.35273         0.6398          0.801       -39.9736      -2.763939      0.9011219      0.9744357
     11499.5000         0.7792       1559.096        66.7279       74.92683         0.6387         0.7945        -39.789      -2.578556      0.8920602      0.9771224
     11500.0000         0.7784       1572.381        66.4036       74.50118         0.6374         0.7883       -39.6044      -2.393166      0.8830039      0.9798092
     11500.5000         0.7817       1585.689        65.8604       73.79515         0.6335         0.7822       -39.4262       -2.21418      0.8679819      0.9824032
     11501.0000         0.7849       1599.023        65.0985       72.80903         0.6296         0.7761       -39.2643      -2.051491      0.8470006       0.984761
     11501.5000         0.7871       1617.809        64.3625       71.85607         0.6256         0.7712       -39.1205      -1.906902      0.8267249      0.9868565
     11502.0000         0.7868       1636.596        63.7199       71.02273          0.622         0.7687       -39.0132      -1.798813      0.8089942       0.988423
     11502.5000         0.7864       1655.332        65.3468       73.09621         0.6185         0.7604       -38.9057      -1.690529       0.853111      0.9899923
     11503.0000         0.7734       1675.109         67.303       75.59148         0.6149         0.7473       -38.7988       -1.58284      0.9062018      0.9915531
     11503.5000          0.757       1702.273        69.2543       78.08047         0.6109         0.7241       -38.7098      -1.493053      0.9591589      0.9928543
     11504.0000         0.7405       1729.387        71.2104       80.57561         0.6062         0.7069       -38.6209      -1.403362              1      0.9941542
     11504.5000         0.7262       1748.197        73.1667         83.071         0.6015         0.6965       -38.5322      -1.313877              1       0.995451
     11505.0000         0.7138       1764.555        75.1229       85.56627         0.5968         0.6896       -38.4681      -1.248989              1      0.9963915
     11505.5000         0.7053       1765.324        75.7029       86.29886         0.5988         0.7017       -38.4068      -1.186901              1      0.9972913
     11506.0000         0.7094       1745.496         74.887       85.24356         0.6011         0.7139       -38.4035      -1.182812              1      0.9973506
     11506.5000         0.7197       1725.619        73.8401        83.8924         0.6033         0.7252       -38.4036      -1.182125              1      0.9973605
     11507.0000         0.7339       1702.521        72.4908        82.1539         0.6084         0.7336       -38.4653      -1.243038              1      0.9964777
