#------------------------------------------------------------------------------
# Created by    : vladimir.rabinovich
# Created on    : 09/19/2023 17:22:30
#------------------------------------------------------------------------------
~Version Information Section
VERS.           2.0     :   CWLS log ASCII Standard - VERSION 2.0
WRAP.           NO      :   One line per depth step
~Well Information Section
#MNEM       .UNIT                                         VALUE :DESCRIPTION
#------------------------------------------------------------------------------
STRT        .FT                                             456 :START DEPTH
STOP        .FT                                           11667 :STOP DEPTH
STEP        .FT                                             0.5 :STEP      
NULL        .                                           -999.25 :NULL      
COMP        .                              PATRICK PETROLEUM CO :COMPANY   
WELL        .                                     ST TR 00693-L :WELL      
FLD         .                                           WILDCAT :FIELD     
LOC         .                                                   :LOCATION  
CNTY        .                      MATAGORDA ISLAND LARGE BLOCK :LOCATION  
STAT        .                                             TEXAS :STATE     
CTRY        .                                     UNITED STATES :COUNTRY   
SRVC        .                                                   :SERVICE COMPANY
DATE        .                             9/13/2023 11:12:01 AM :LOG DATE  
API         .                                    42703302660000 :API NUMBER
UWI         .                                    42703302660000 :UNIQUE WELL ID
XCOORD      .                                  384413.417453263 :SURFACE X 
YCOORD      .                                  10143960.4717662 :SURFACE Y 
LAT         .                                        27.8986234 :LATITUDE  
LON         .                                       -96.8882217 :LONGITUDE 
ELEV        .FT                                              92 :ELEVATION VALUE
ELEV_TYPE   .                                                KB :ELEVATION REFERENCE TYPE
~Curve Information Section
#MNEM       .UNIT                                      API CODE :CURVE DESCRIPTION
#------------------------------------------------------------------------------
DEPT        .FT                                                 :DEPTH     
CILD        .MMHO                                               :          
DPHI        .%                                                  :          
DT          .US/F                                               :          
GR          .GAPI                                               :          
GR_NORM     .GAPI                                               :GammaRay Normalized
ILD         .OHMM                                               :          
SN          .OHMM                                               :          
SP          .MV                                                 :          
SP_NORM     .MV                                                 :SP Normalized
VSH_GR      .V/V                                                :Volume of Shale from GR
VSH_SP      .V/V                                                :Volume of Shale from SP
~A        DEPTH           CILD           DPHI             DT             GR        GR_NORM            ILD             SN             SP        SP_NORM         VSH_GR         VSH_SP
# ...
     11638.5000         1533.2        -999.25       130.6055           91.7       81.58532         0.6435          0.687         -19.53      -2.863333              1      0.9661212
     11639.0000         1552.8        -999.25       130.8558          91.96       81.86192         0.6435          0.687         -20.73      -4.063332              1       0.944303
     11639.5000         1575.6        -999.25       131.0979          92.72       82.67043         0.6394          0.687         -20.54      -3.873333              1      0.9477576
     11640.0000           1588        -999.25       130.8179        94.0273       84.06117         0.6307         0.6871          -19.2      -2.533333              1      0.9721212
     11640.5000           1606        -999.25         130.56           94.9       84.98959         0.6219         0.6879       -20.0452      -3.378532              1       0.956754
     11641.0000         1616.4        -999.25          130.4          94.24       84.28745         0.6157         0.6887       -20.6412      -3.974531              1      0.9459176
     11641.5000           1638        -999.25         130.62           94.6       84.67043         0.6095         0.6894       -19.3244      -2.657732              1      0.9698594
     11642.0000           1660        -999.25       131.3091        96.0909       86.25649         0.6053         0.6902       -18.4951      -1.828432              1      0.9849376
     11642.5000         1679.2        -999.25         131.98           97.6       87.86192         0.6028         0.6903         -18.75      -2.083332              1       0.980303
     11643.0000           1672        -999.25         132.64          97.24       87.47894         0.6028         0.6903       -19.4495      -2.782831              1      0.9675849
     11643.5000         1658.8        -999.25         132.97          95.58       85.71299         0.6028         0.6903       -20.6931      -4.026432              1      0.9449739
     11644.0000       1640.364        -999.25       132.5455        93.8727       83.89671         0.6028         0.6903       -19.0636      -2.396933              1      0.9746012
     11644.5000         1625.6        -999.25         131.45          94.06       84.09596         0.6028         0.6903         -18.15      -1.483332              1      0.9912121
     11645.0000           1618        -999.25         130.58          95.57       85.70235         0.6028         0.6903          -17.5     -0.8333321              1              1
     11645.5000           1598        -999.25         129.99          97.27       87.51086         0.6028         0.6903         -18.25      -1.583332              1      0.9893939
     11646.0000       1588.364        -999.25       129.5727        98.7182        89.0515         0.6028         0.6929       -19.2636      -2.596931              1      0.9709649
     11646.5000           1588        -999.25         129.53           99.3       89.67043         0.5989         0.6877         -19.64      -2.973331              1      0.9641212
     11647.0000           1590        -999.25         129.97           97.6       87.86192         0.5958         0.6784         -19.81      -3.143332              1      0.9610304
     11647.5000         1598.8        -999.25         130.52          95.62       85.75554         0.5939         0.6743       -20.0295      -3.362831              1      0.9570394
     11648.0000       1614.182        -999.25          130.7        94.4727       84.53501         0.5916         0.6743        -20.099      -3.432333              1      0.9557757
     11648.5000         1625.6        -999.25         130.54          94.27       84.31937         0.5889         0.6743       -20.0792      -3.412533              1      0.9561357
     11649.0000       1634.909        -999.25       130.1273           94.4       84.45767         0.5848         0.6743          -19.8      -3.133331              1      0.9612122
     11649.5000           1640        -999.25         129.85          93.83       83.85129         0.5801         0.6756        -20.099      -3.432333              1      0.9557757
     11650.0000         1630.4        -999.25          129.8          92.67       82.61724         0.5761         0.6812        -19.833      -3.166332              1      0.9606121
     11650.5000         1620.4        -999.25        -999.25          91.43        81.2981         0.5753         0.6838       -19.4638      -2.797132              1      0.9673249
     11651.0000         1612.8        -999.25        -999.25          90.28       80.07468         0.5753         0.6838       -19.3088      -2.642132              1      0.9701431
     11651.5000           1608        -999.25        -999.25        89.7879       79.55118         0.5729         0.6838       -19.4326      -2.765932      0.9904506      0.9678922
     11652.0000         1611.6        -999.25        -999.25         89.697       79.45448         0.5699         0.6816       -18.0926      -1.425932      0.9883931      0.9922558
     11652.5000         1624.8        -999.25        -999.25        89.1616        78.8849         0.5683         0.6729         -16.55      0.1166687      0.9762744              1
     11653.0000         1636.8        -999.25        -999.25        87.6869       77.31607         0.5659         0.6674       -15.1182       1.548468      0.9428951              1
     11653.5000           1640        -999.25        -999.25        87.0808       76.67129         0.5607         0.6618          -14.4       2.266668      0.9291763              1
     11654.0000       1647.636        -999.25        -999.25        87.1212       76.71426         0.5594         0.6618          -15.1       1.566668      0.9300907              1
     11654.5000           1660        -999.25        -999.25        87.6566       77.28384         0.5594         0.6649         -16.35      0.3166676      0.9422093              1
     11655.0000           1668        -999.25        -999.25        88.2424       77.90703          0.562         0.6693         -17.47     -0.8033314      0.9554687              1
     11655.5000           1668        -999.25        -999.25        88.8182       78.51958         0.5594         0.6712         -19.17      -2.503332      0.9685018      0.9726667
     11656.0000           1668        -999.25        -999.25        89.4215       79.16139         0.5594         0.6712          -20.6      -3.933332      0.9821573      0.9466667
     11656.5000           1668        -999.25        -999.25        90.2296       80.02107         0.5594         0.6675         -18.54      -1.873333              1      0.9841212
     11657.0000         1663.6        -999.25        -999.25           91.6       81.47894         0.5594         0.6625         -16.16      0.5066681              1              1
     11657.5000           1660        -999.25        -999.25        92.3727       82.30097         0.5575         0.6618         -15.25       1.416668              1              1
     11658.0000           1654        -999.25        -999.25          93.26        83.2449         0.5517         0.6653       -15.1727       1.493968              1              1
     11658.5000         1645.6        -999.25        -999.25           93.5       83.50022         0.5519         0.6696         -15.97      0.6966677              1              1
     11659.0000         1638.8        -999.25        -999.25          93.33       83.31937         0.5522          0.674          -16.7    -0.03333282              1              1
     11659.5000         1624.8        -999.25        -999.25        93.1636       83.14234         0.5524         0.6743          -15.7      0.9666681              1              1
     11660.0000       1609.091        -999.25        -999.25           93.1       83.07468         0.5527         0.6743          -14.4       2.266668              1              1
     11660.5000         1599.2        -999.25        -999.25           93.2       83.18107         0.5527         0.6712         -16.08       0.586668              1              1
