#------------------------------------------------------------------------------
# Created by    : vladimir.rabinovich
# Created on    : 09/19/2023 17:21:31
#------------------------------------------------------------------------------
~Version Information Section
VERS.           2.0     :   CWLS log ASCII Standard - VERSION 2.0
WRAP.           NO      :   One line per depth step
~Well Information Section
#MNEM       .UNIT                                         VALUE :DESCRIPTION
#------------------------------------------------------------------------------
STRT        .FT                                              40 :START DEPTH
STOP        .FT                                           13401 :STOP DEPTH
STEP        .FT                                             0.5 :STEP      
NULL        .                                           -999.25 :NULL      
COMP        .                                        TEXACO USA :COMPANY   
WELL        .                               OCS G01759 ST00BP00 :WELL      
FLD         .                                           WILDCAT :FIELD     
LOC         .                                                   :LOCATION  
CNTY        .                             GALVESTON LARGE BLOCK :LOCATION  
STAT        .                                             TEXAS :STATE     
CTRY        .                                     UNITED STATES :COUNTRY   
SRVC        .                                                   :SERVICE COMPANY
DATE        .                             9/13/2023 11:19:24 AM :LOG DATE  
API         .                                    42706001440000 :API NUMBER
UWI         .                                    42706001440000 :UNIQUE WELL ID
XCOORD      .                                   1131482.4965331 :SURFACE X 
YCOORD      .                                  10562344.6824913 :SURFACE Y 
LAT         .                                         29.095227 :LATITUDE  
LON         .                                        -94.593967 :LONGITUDE 
ELEV        .FT                                              83 :ELEVATION VALUE
ELEV_TYPE   .                                                KB :ELEVATION REFERENCE TYPE
~Curve Information Section
#MNEM       .UNIT                                      API CODE :CURVE DESCRIPTION
#------------------------------------------------------------------------------
DEPT        .FT                                                 :DEPTH     
CALI        .IN                                                 :          
DT          .US/F                                               :          
GR          .GAPI                                               :          
GR_NORM     .GAPI                                               :GammaRay Normalized
RHOB        .G/C3                                               :          
SP          .MV                                                 :          
SP_NORM     .MV                                                 :SP Normalized
VSH_GR      .V/V                                                :Volume of Shale from GR
VSH_SP      .V/V                                                :Volume of Shale from SP
~A        DEPTH           CALI             DT             GR        GR_NORM           RHOB             SP        SP_NORM         VSH_GR         VSH_SP
# ...
      9951.0000         7.7733        65.7871        47.0298       55.86433         2.4228       -19.3009      -11.46052      0.4864752      0.3242489
      9951.5000         7.4478        72.0905        52.6899       62.84941          2.395       -19.3839       -11.5416      0.6350939      0.3184571
      9952.0000         7.6004        78.8011        58.2462       69.70634          2.389       -18.5528      -10.70858      0.7809861      0.3779582
      9952.5000         8.0341        88.0913         61.238       73.39723         2.4096       -16.4762       -8.63007      0.8595155      0.5264236
      9953.0000         8.4775        94.8407        64.1605       77.00258         2.4247       -14.5034      -6.655354      0.9362251      0.6674747
      9953.5000         8.6262       104.2279        66.3207       79.66679         2.4314       -13.1705      -5.320539      0.9929103      0.7628187
      9954.0000         8.6173       115.0599        66.3967       79.75793         2.4363       -12.4053      -4.553423      0.9948495      0.8176126
      9954.5000         8.6345       116.7449        66.6427       80.05893         2.4409       -12.7564      -4.902608              1      0.7926708
      9955.0000         8.7898       117.7716        66.6306        80.0413         2.4285       -13.4796      -5.623892              1      0.7411506
      9955.5000         8.7483       113.7701        65.8485       79.07306         2.3997       -14.2547      -6.397077      0.9802778      0.6859231
      9956.0000         8.2708       106.7589        66.4939       79.86714         2.3976       -15.6262      -7.766661      0.9971732      0.5880956
      9956.5000         7.5884        102.686        63.1787       75.77162         2.4063       -16.9785      -9.117046      0.9100345      0.4916396
      9957.0000         7.5108        97.5609        55.2698       66.00484         2.3942       -18.1499      -10.28653      0.7022306       0.408105
      9957.5000          7.474         93.774        49.5788       58.97623         2.3776       -18.2175      -10.35221      0.5526857      0.4034132
      9958.0000         7.4353        90.2393          43.78       51.81451         2.3682        -18.532       -10.6648      0.4003088      0.3810858
      9958.5000         7.4295        87.1846        37.8425       44.48158          2.374       -18.4442      -10.57508      0.2442888      0.3874939
      9959.0000         7.5637        86.0706        32.3902       37.74765         2.3257       -17.2634      -9.392367      0.1010137      0.4719737
      9959.5000         7.9259        92.4552        30.3443       35.21915         2.2365       -15.6214      -7.748453     0.04721597      0.5893962
      9960.0000         8.4929       100.9889        30.2506       35.10079         2.2324       -13.9565      -6.081637     0.04469762      0.7084545
      9960.5000         8.5463       109.0573        30.1358       34.95635         2.2433       -12.8783      -5.001522     0.04162452      0.7856056
      9961.0000         8.4832       113.3726        30.6537       35.59305         2.2194       -11.8642      -3.985506     0.05517132      0.8581781
      9961.5000         8.4421       113.5254        31.6047       36.76443         2.2052       -12.3083      -4.427691      0.0800942      0.8265935
      9962.0000         8.5073       110.7737        32.1688       37.45816          2.214       -12.2152      -4.332675     0.09485439      0.8333803
      9962.5000         8.5194       108.4657        32.9543       38.42521         2.2238       -11.8485       -3.96406      0.1154301        0.85971
      9963.0000         8.5537       107.0134        33.0891       38.58894         2.2258        -12.166      -4.279644      0.1189136      0.8371683
      9963.5000         8.6207       110.9143        34.4656       40.28563         2.2286       -12.5076      -4.619328      0.1550134      0.8129051
      9964.0000         8.5844       112.8901        36.5449       42.84997         2.2357       -12.5224      -4.632213      0.2095739      0.8119848
      9964.5000         8.5469       114.1254        38.0235       44.67271         2.2496       -12.6761      -4.783998      0.2483555      0.8011431
      9965.0000         8.5191        113.489         39.529       46.52866         2.2687       -13.3806      -5.486582      0.2878437      0.7509584
      9965.5000         8.4893       108.4172        41.0789       48.43943         2.2642       -14.2173      -6.321367      0.3284984      0.6913309
      9966.0000         8.3973        99.6119         41.592       49.07018         2.2591        -15.462      -7.564151      0.3419187      0.6025606
      9966.5000         7.8042        88.8962        41.6165       49.09774         2.2599        -18.577      -10.67723      0.3425052      0.3801975
      9967.0000         7.6537        83.6207        41.8932       49.43664         2.2684       -20.4121      -12.51042      0.3497158      0.2492557
      9967.5000         7.6232        81.3418        41.7874       49.30334          2.267       -21.1678      -13.26421      0.3468796      0.1954139
      9968.0000         7.6595        89.5265        41.4562       48.89175         2.2527       -21.2116      -13.30609      0.3381223      0.1924223
      9968.5000         7.7139        93.0879        40.4281        47.6198         2.2426       -21.3578      -13.45037      0.3110597      0.1821162
      9969.0000         7.7329        93.6261        38.6434       45.41376         2.2407       -21.5754      -13.66606      0.2641227      0.1667102
      9969.5000         7.6905        93.1825         35.898        42.0217         2.2431       -21.6749      -13.76364       0.191951      0.1597398
      9970.0000         7.7052        93.1436        32.5981       37.94506         2.2404       -21.6438      -13.73063      0.1052141      0.1620981
      9970.5000         7.7899        93.3325        30.0684       34.81927         2.2242       -21.5342      -13.61911     0.03870782      0.1700634
      9971.0000         7.7851        93.5222        29.6237       34.26757         2.2181       -21.5392       -13.6222     0.02696967      0.1698431
      9971.5000         7.7798         93.743        30.0963       34.84833         2.2304        -21.678      -13.75908     0.03932612      0.1600657
      9972.0000         7.7387        93.2904         30.259       35.04651          2.246       -21.8488      -13.92797     0.04354274      0.1480025
      9972.5000         7.7561        92.6794        32.1669       37.39924         2.2522       -21.9601      -14.03735     0.09360082      0.1401893
      9973.0000         7.7031        92.2242        34.5619       40.35334         2.2422       -21.5253      -13.60063       0.156454      0.1713833
      9973.5000         7.6873        91.9242        35.9442       42.05718          2.247       -21.3031      -13.37652      0.1927059      0.1873915
      9974.0000         7.7106        91.7339        34.1345       39.82029         2.2418       -21.8923       -13.9638      0.1451126      0.1454427
      9974.5000         7.6946        91.4084        33.3952       38.90488         2.2243       -21.8362      -13.90579      0.1256357      0.1495865
      9975.0000         7.6704        91.6139        34.5946       40.38293         2.2179       -21.6952      -13.76287      0.1570837      0.1597949
      9975.5000         7.7289        91.7506        36.0193       42.13913         2.2345       -21.6044      -13.67016      0.1944495      0.1664174
      9976.0000         7.7508        91.6296        37.1273       43.50433         2.2552       -21.7698      -13.83364      0.2234965      0.1547399
      9976.5000         7.7359        91.1814        37.2111        43.6051         2.2449       -21.6412      -13.70313      0.2256404      0.1640625
      9977.0000         7.7489        91.2714        37.2433       43.64216         2.2327       -21.6243      -13.68431      0.2264289      0.1654064
