#------------------------------------------------------------------------------
# Created by    : vladimir.rabinovich
# Created on    : 09/19/2023 17:19:44
#------------------------------------------------------------------------------
~Version Information Section
VERS.           2.0     :   CWLS log ASCII Standard - VERSION 2.0
WRAP.           NO      :   One line per depth step
~Well Information Section
#MNEM       .UNIT                                         VALUE :DESCRIPTION
#------------------------------------------------------------------------------
STRT        .FT                                             490 :START DEPTH
STOP        .FT                                           13420 :STOP DEPTH
STEP        .FT                                             0.5 :STEP      
NULL        .                                           -999.25 :NULL      
COMP        .                                 MESA PETROLEUM CO :COMPANY   
WELL        .                                     ST TR 00012-L :WELL      
FLD         .                                           WILDCAT :FIELD     
LOC         .                                                   :LOCATION  
CNTY        .                           HIGH ISLAND LARGE BLOCK :LOCATION  
STAT        .                                             TEXAS :STATE     
CTRY        .                                     UNITED STATES :COUNTRY   
SRVC        .                                                   :SERVICE COMPANY
DATE        .                             9/13/2023 11:19:15 AM :LOG DATE  
API         .                                    42708302120000 :API NUMBER
UWI         .                                    42708302120000 :UNIQUE WELL ID
XCOORD      .                                  1361115.25412243 :SURFACE X 
YCOORD      .                                  10723579.9964947 :SURFACE Y 
LAT         .                                        29.5453665 :LATITUDE  
LON         .                                       -93.8786547 :LONGITUDE 
ELEV        .FT                                              80 :ELEVATION VALUE
ELEV_TYPE   .                                                KB :ELEVATION REFERENCE TYPE
~Curve Information Section
#MNEM       .UNIT                                      API CODE :CURVE DESCRIPTION
#------------------------------------------------------------------------------
DEPT        .FT                                                 :DEPTH     
ASFL        .OHMM                                               :          
CILD        .MMHO                                               :          
GR          .GAPI                                               :          
GR_NORM     .GAPI                                               :GammaRay Normalized
ILD         .OHMM                                               :          
SP          .MV                                                 :          
SP_NORM     .MV                                                 :SP Normalized
VSH_GR      .V/V                                                :Volume of Shale from GR
~A        DEPTH           ASFL           CILD             GR        GR_NORM            ILD             SP        SP_NORM         VSH_GR
# ...
     11670.5000         0.8115       1990.453        74.0569         80.835         0.5353       -65.2858      -3.467613              1
     11671.0000          0.864       1944.748        71.4321       78.20952         0.5471       -67.3193      -5.501114      0.9619046
     11671.5000         0.8663       1902.674         69.661       76.43775         0.5588        -66.689      -4.870819      0.9242075
     11672.0000         0.8496        1867.66        67.9414       74.71747         0.5704       -65.5654      -3.747215      0.8876057
     11672.5000         0.8957        1827.84         67.208        73.9834         0.5808       -64.4395      -2.621315      0.8719872
     11673.0000         0.9215       1787.922        69.8376       76.61232         0.5912       -63.4705      -1.652317      0.9279217
     11673.5000          0.941       1748.102        71.4934       78.26744         0.5958       -64.4468      -2.628616       0.963137
     11674.0000         0.9815       1704.947        72.1411       78.91447         0.5798       -65.3643       -3.54612      0.9769036
     11674.5000         1.0219       1799.104        69.8965       76.66919         0.5638       -66.2842      -4.466019      0.9291317
     11675.0000         1.0586       1877.564        67.4729       74.24492         0.5467        -67.025      -5.206818      0.8775514
     11675.5000         1.0728       1956.225         65.243       72.01434          0.529       -65.5409      -3.722717      0.8300923
     11676.0000         1.0532       2028.313        64.0533       70.82396         0.5113       -64.4983      -2.680115      0.8047651
     11676.5000         1.0359       2089.609        65.2848       72.05479         0.4936       -63.4558      -1.637615      0.8309529
     11677.0000         1.0187       2149.828        67.0044       73.77371         0.4759       -63.0584      -1.240215      0.8675258
     11677.5000         1.0014       2210.051        69.6071       76.37573         0.4582       -63.3785      -1.560318      0.9228879
     11678.0000         0.9842       2270.367        72.4182       79.18616         0.4405       -63.6987      -1.880516      0.9826842
     11678.5000         0.9669       2344.418        75.2295       81.99678         0.4228       -63.4755      -1.657314              1
     11679.0000         0.9497       2426.801        77.5648       84.33141         0.4148       -62.3716     -0.5534172              1
     11679.5000         0.9324       2508.992        78.5754       85.34133         0.4094       -61.5084      0.3097839              1
     11680.0000         0.9247       2527.332        79.1678       85.93305          0.404       -61.7139      0.1042824              1
     11680.5000          0.925       2490.555         78.254       85.01858         0.3986       -61.5057      0.3124847              1
     11681.0000          0.935       2454.461        76.6473        83.4112         0.4093       -61.0598      0.7583847              1
     11681.5000         0.9515       2418.465        74.8959       81.65913         0.4217       -60.7599       1.058285              1
     11682.0000         0.9681       2382.371        73.1444       79.90695          0.434       -61.9913     -0.1731148      0.9980202
     11682.5000         0.9846       2346.379        71.3904       78.15228          0.446       -63.2228      -1.404617      0.9606867
     11683.0000         1.0012       2310.285        69.7983        76.5595          0.456       -63.9967      -2.178516      0.9267979
     11683.5000         1.0177       2274.289        68.3523       75.11282          0.466       -63.4841      -1.665916      0.8960175
     11684.0000         1.0343       2236.039        68.7607       75.52055          0.476       -62.9726      -1.154415      0.9046925
     11684.5000          1.045       2197.594        70.0413       76.80047          0.486       -62.8824      -1.064217      0.9319249
     11685.0000          1.054       2175.465        71.3193       78.07779         0.4961       -62.8503      -1.032116      0.9591019
     11685.5000          1.063        2168.34        72.5997       79.35752         0.5061       -62.8182      -1.000015      0.9863302
     11686.0000          1.072       2161.219        73.6841       80.44124         0.5106       -62.7861     -0.9679146              1
     11686.5000         1.0814       2154.082         74.756       81.51247         0.5055       -62.6788     -0.8606148              1
     11687.0000         1.0911       2177.191         75.828       82.58379         0.5005       -62.4587     -0.6405144              1
     11687.5000         1.0531       2207.402        74.5402       81.29531         0.4955       -62.2532     -0.4350166              1
     11688.0000         1.0149        2237.66        73.1394       79.89384         0.4905       -62.7886      -0.970417      0.9977412
     11688.5000         0.9999       2267.914        71.7388       78.49256         0.4855       -63.7011      -1.882915      0.9679269
     11689.0000          0.985       2298.125         70.338       77.09109         0.4805       -64.6112      -2.793015      0.9381083
     11689.5000         0.9698       2328.871        69.8204       76.57281         0.4755       -64.7866      -2.968414       0.927081
     11690.0000         0.9444       2360.109           70.5       77.25173         0.4684       -63.9526      -2.134415      0.9415262
     11690.5000         0.9585       2391.395        72.5752       79.32626         0.4607       -63.1185      -1.300316      0.9856652
     11691.0000         0.9936       2422.633        74.6554       81.40578          0.453       -62.7254     -0.9072151              1
     11691.5000         1.0288       2448.035        75.1403       81.89001         0.4452       -62.4139     -0.5957146              1
     11692.0000         1.0639       2468.191        75.2289       81.97793         0.4375       -62.0208     -0.2026176              1
     11692.5000          1.099       2462.848        75.5262       82.27455         0.4298       -60.9022      0.9159851              1
     11693.0000         1.1059       2451.566        75.9329       82.68058          0.427       -61.0077       0.810482              1
     11693.5000         1.1117       2440.164        76.3401        83.0871         0.4315       -61.6345      0.1836853              1
     11694.0000         1.1109       2428.691        76.7467       83.49303          0.436       -62.2612     -0.4430161              1
     11694.5000         1.1006       2442.789        75.6956       82.44125         0.4405       -62.8879      -1.069717              1
     11695.0000         1.0686       2468.191        74.4788       81.22377         0.4421       -63.2773      -1.459118              1
     11695.5000         1.0336       2493.645        73.1345        79.8788         0.4378       -63.1909      -1.372715      0.9974213
     11696.0000         0.9986       2519.043        71.7903       78.53392         0.4334       -62.6954     -0.8772163      0.9688068
     11696.5000         0.9636       2544.445         70.446       77.18895          0.429       -62.1999     -0.3817177      0.9401904
     11697.0000         0.9373       2577.941        69.9628       76.70507          0.422       -61.7043       0.113884      0.9298951
     11697.5000         0.9124       2625.313        70.5564       77.29799         0.4115       -61.6982      0.1199837      0.9425104
     11698.0000         0.8875       2672.586        71.3242       78.06512          0.401       -62.0466     -0.2284164      0.9588324
     11698.5000         0.8627       2623.941        72.1779       78.91814         0.3905       -62.2005     -0.3823166      0.9769818
     11699.0000         0.8317        2529.59         72.119       78.85857         0.3923       -62.2483     -0.4301147      0.9757143
     11699.5000          0.887       2435.039        69.7983       76.53719         0.4037       -62.0496     -0.2314148      0.9263232
