#------------------------------------------------------------------------------
# Created by    : vladimir.rabinovich
# Created on    : 09/19/2023 17:20:36
#------------------------------------------------------------------------------
~Version Information Section
VERS.           2.0     :   CWLS log ASCII Standard - VERSION 2.0
WRAP.           NO      :   One line per depth step
~Well Information Section
#MNEM       .UNIT                                         VALUE :DESCRIPTION
#------------------------------------------------------------------------------
STRT        .FT                                             498 :START DEPTH
STOP        .FT                                            9565 :STOP DEPTH
STEP        .FT                                             0.5 :STEP      
NULL        .                                           -999.25 :NULL      
COMP        .                       BLUE DOLPHIN EXPLORATION CO :COMPANY   
WELL        .                                OCS 00714 ST00BP00 :WELL      
FLD         .                              GALVESTON BLOCK 0288 :FIELD     
LOC         .                                                   :LOCATION  
CNTY        .                             GALVESTON LARGE BLOCK :LOCATION  
STAT        .                                             TEXAS :STATE     
CTRY        .                                     UNITED STATES :COUNTRY   
SRVC        .                                                   :SERVICE COMPANY
DATE        .                             9/13/2023 11:19:25 AM :LOG DATE  
API         .                                    42706000390000 :API NUMBER
UWI         .                                    42706000390000 :UNIQUE WELL ID
XCOORD      .                                  1097340.72850425 :SURFACE X 
YCOORD      .                                  10481267.2561277 :SURFACE Y 
LAT         .                                        28.8709496 :LATITUDE  
LON         .                                       -94.6972159 :LONGITUDE 
ELEV        .FT                                              85 :ELEVATION VALUE
ELEV_TYPE   .                                                KB :ELEVATION REFERENCE TYPE
~Curve Information Section
#MNEM       .UNIT                                      API CODE :CURVE DESCRIPTION
#------------------------------------------------------------------------------
DEPT        .FT                                                 :DEPTH     
ASN         .OHMM                                               :          
CALI        .IN                                                 :          
DT          .US/F                                               :          
ILD         .OHMM                                               :          
SP          .MV                                                 :          
SP_1        .MV                                                 :          
SP_NORM     .MV                                                 :SP Normalized
VSH_SP      .V/V                                                :Volume of Shale from SP
~A        DEPTH            ASN           CALI             DT            ILD             SP           SP_1        SP_NORM         VSH_SP
# ...
      2917.0000         1.9617        -999.25        -999.25        -999.25        -999.25        -48.639      -4.736561      0.9170739
      2917.5000         1.9153        -999.25        -999.25        -999.25        -999.25       -48.2583      -4.355862      0.9286103
      2918.0000         1.8851        -999.25        -999.25        -999.25        -999.25       -47.6956      -3.793159      0.9456618
      2918.5000         1.8783        -999.25        -999.25        -999.25        -999.25       -46.8777      -2.975262      0.9704466
      2919.0000         1.8729        -999.25        -999.25        -999.25        -999.25       -46.2607      -2.358261      0.9891436
      2919.5000          1.868        -999.25        -999.25        -999.25        -999.25       -46.2897       -2.38726      0.9882649
      2920.0000         1.8657        -999.25        -999.25        -999.25        -999.25       -46.6996      -2.797161      0.9758436
      2920.5000         1.8634        -999.25        -999.25        -999.25        -999.25       -46.6957      -2.793262      0.9759617
      2921.0000         1.8611        -999.25        -999.25        -999.25        -999.25       -46.1915      -2.289063      0.9912405
      2921.5000         1.8576        -999.25        -999.25        -999.25        -999.25       -45.5591      -1.656662              1
      2922.0000         1.8525        -999.25        -999.25        -999.25        -999.25       -44.7795     -0.8770599              1
      2922.5000         1.8474        -999.25        -999.25        -999.25        -999.25       -44.0751     -0.1726608              1
      2923.0000         1.8423        -999.25        -999.25        -999.25        -999.25       -43.5718      0.3306389              1
      2923.5000         1.8371        -999.25        -999.25        -999.25        -999.25       -43.4811      0.4213409              1
      2924.0000         1.8304        -999.25        -999.25        -999.25        -999.25       -44.0101     -0.1076622              1
      2924.5000         1.8237        -999.25        -999.25        -999.25        -999.25       -44.5961     -0.6936607              1
      2925.0000          1.817        -999.25        -999.25        -999.25        -999.25       -45.0975      -1.195061              1
      2925.5000         1.8101        -999.25        -999.25        -999.25        -999.25       -45.3802       -1.47776              1
      2926.0000         1.8013        -999.25        -999.25        -999.25        -999.25       -45.6469      -1.744461              1
      2926.5000         1.7925        -999.25        -999.25        -999.25        -999.25       -45.9134       -2.01096      0.9996679
      2927.0000         1.7838        -999.25        -999.25        -999.25        -999.25       -46.1801       -2.27766       0.991586
      2927.5000         1.7753        -999.25        -999.25        -999.25        -999.25       -46.4465       -2.54406      0.9835134
      2928.0000         1.7669        -999.25        -999.25        -999.25        -999.25       -46.6502      -2.747761      0.9773406
      2928.5000         1.7591        -999.25        -999.25        -999.25        -999.25       -46.8527       -2.95026      0.9712042
      2929.0000         1.7594        -999.25        -999.25        -999.25        -999.25       -47.0552       -3.15276      0.9650679
      2929.5000         1.7688        -999.25        -999.25        -999.25        -999.25       -46.9774      -3.074963      0.9674253
      2930.0000         1.7781        -999.25        -999.25        -999.25        -999.25       -46.8346      -2.932159      0.9717528
      2930.5000         1.7867        -999.25        -999.25        -999.25        -999.25       -46.6918       -2.78936        0.97608
      2931.0000          1.792        -999.25        -999.25        -999.25        -999.25       -46.5533       -2.65086       0.980277
      2931.5000          1.795        -999.25        -999.25        -999.25        -999.25       -46.5112      -2.608761      0.9815527
      2932.0000         1.7804        -999.25        -999.25        -999.25        -999.25       -46.4691      -2.566662      0.9828284
      2932.5000         1.7452        -999.25        -999.25        -999.25        -999.25       -46.3344      -2.431961      0.9869103
      2933.0000          1.701        -999.25        -999.25        -999.25        -999.25       -46.0936      -2.191162      0.9942072
      2933.5000          1.677        -999.25        -999.25        -999.25        -999.25       -45.7852      -1.882759              1
      2934.0000         1.6652        -999.25        -999.25        -999.25        -999.25       -44.6768     -0.7743607              1
      2934.5000         1.6607        -999.25        -999.25        -999.25        -999.25       -43.6139      0.2885399              1
      2935.0000         1.6568        -999.25        -999.25        -999.25        -999.25       -43.1013      0.8011398              1
      2935.5000          1.653        -999.25        -999.25        -999.25        -999.25       -42.5886       1.313839              1
      2936.0000         1.6492        -999.25        -999.25        -999.25        -999.25       -42.1417       1.760738              1
      2936.5000         1.6429        -999.25        -999.25        -999.25        -999.25       -42.0797       1.822739              1
      2937.0000          1.635        -999.25        -999.25        -999.25        -999.25       -42.4069       1.495541              1
      2937.5000         1.6282        -999.25        -999.25        -999.25        -999.25       -42.7554       1.147038              1
      2938.0000          1.623        -999.25        -999.25        -999.25        -999.25       -43.1039      0.7985382              1
      2938.5000         1.6179        -999.25        -999.25        -999.25        -999.25       -43.4761      0.4263382              1
      2939.0000         1.6136        -999.25        -999.25        -999.25        -999.25       -43.8557     0.04673767              1
      2939.5000         1.6098        -999.25        -999.25        -999.25        -999.25       -44.2352     -0.3327599              1
      2940.0000         1.6059        -999.25        -999.25        -999.25        -999.25       -44.6149     -0.7124596              1
      2940.5000         1.6021        -999.25        -999.25        -999.25        -999.25       -44.8854     -0.9829597              1
      2941.0000          1.597        -999.25        -999.25        -999.25        -999.25       -45.1451      -1.242661              1
      2941.5000         1.5912        -999.25        -999.25        -999.25        -999.25       -44.8358     -0.9333611              1
      2942.0000         1.5855        -999.25        -999.25        -999.25        -999.25       -45.0515      -1.149059              1
      2942.5000         1.5798        -999.25        -999.25        -999.25        -999.25       -45.5764      -1.673962              1
      2943.0000         1.5744        -999.25        -999.25        -999.25        -999.25       -46.0269      -2.124462      0.9962284
      2943.5000         1.5689        -999.25        -999.25        -999.25        -999.25       -46.3873      -2.484859      0.9853073
      2944.0000         1.5702        -999.25        -999.25        -999.25        -999.25       -46.5358      -2.633362      0.9808072
      2944.5000         1.5718        -999.25        -999.25        -999.25        -999.25       -46.5803       -2.67786      0.9794588
      2945.0000         1.5735        -999.25        -999.25        -999.25        -999.25       -46.5828      -2.680363      0.9793829
      2945.5000         1.5751        -999.25        -999.25        -999.25        -999.25        -46.484      -2.581562      0.9823769
      2946.0000         1.5762        -999.25        -999.25        -999.25        -999.25       -46.3185      -2.416061      0.9873921
