#------------------------------------------------------------------------------
# Created by    : vladimir.rabinovich
# Created on    : 09/19/2023 17:20:54
#------------------------------------------------------------------------------
~Version Information Section
VERS.           2.0     :   CWLS log ASCII Standard - VERSION 2.0
WRAP.           NO      :   One line per depth step
~Well Information Section
#MNEM       .UNIT                                         VALUE :DESCRIPTION
#------------------------------------------------------------------------------
STRT        .FT                                            1092 :START DEPTH
STOP        .FT                                            8058 :STOP DEPTH
STEP        .FT                                             0.5 :STEP      
NULL        .                                           -999.25 :NULL      
COMP        .                                    EXXON CO U S A :COMPANY   
WELL        .                               OCS G03029 ST00BP00 :WELL      
FLD         .                                           WILDCAT :FIELD     
LOC         .                                                   :LOCATION  
CNTY        .                        MUSTANG ISLAND LARGE BLOCK :LOCATION  
STAT        .                                             TEXAS :STATE     
CTRY        .                                     UNITED STATES :COUNTRY   
SRVC        .                                                   :SERVICE COMPANY
DATE        .                             9/13/2023 11:19:13 AM :LOG DATE  
API         .                                    42702400190000 :API NUMBER
UWI         .                                    42702400190000 :UNIQUE WELL ID
XCOORD      .                                  486295.566528254 :SURFACE X 
YCOORD      .                                  10047803.1546112 :SURFACE Y 
LAT         .                                         27.643077 :LATITUDE  
LON         .                                        -96.564717 :LONGITUDE 
ELEV        .FT                                              70 :ELEVATION VALUE
ELEV_TYPE   .                                                KB :ELEVATION REFERENCE TYPE
~Curve Information Section
#MNEM       .UNIT                                      API CODE :CURVE DESCRIPTION
#------------------------------------------------------------------------------
DEPT        .FT                                                 :DEPTH     
ASN         .OHMM                                               :          
CALI        .IN                                                 :          
CIL         .MMHO                                               :          
DRHO        .G/C3                                               :          
DT          .US/F                                               :          
GR          .GAPI                                               :          
GR_NORM     .GAPI                                               :GammaRay Normalized
ILD         .OHMM                                               :          
NPHI        .%                                                  :          
RHOB        .G/C3                                               :          
SN          .OHMM                                               :          
SP          .MV                                                 :          
SP_NORM     .MV                                                 :SP Normalized
VSH_GR      .V/V                                                :Volume of Shale from GR
VSH_SP      .V/V                                                :Volume of Shale from SP
~A        DEPTH            ASN           CALI            CIL           DRHO             DT             GR        GR_NORM            ILD           NPHI           RHOB             SN             SP        SP_NORM         VSH_GR         VSH_SP
# ...
      3506.0000         0.7004        -999.25       2181.961        -999.25        -999.25        58.0847       71.04082         0.4006        -999.25        -999.25         0.6979        -91.969       3.391296      0.8093793              1
      3506.5000         0.6943        -999.25       2300.898        -999.25        -999.25        54.3866       64.56445         0.3874        -999.25        -999.25         0.7202       -98.4849      -3.123299      0.6715841      0.9625567
      3507.0000         0.6909        -999.25       2474.152        -999.25        -999.25        52.1481        60.6354         0.3644        -999.25        -999.25         0.7382      -108.6277       -13.2648      0.5879873      0.6245067
      3507.5000         0.6989        -999.25       2620.758        -999.25        -999.25        50.7734       58.21384         0.3431        -999.25        -999.25         0.7509      -118.5083       -23.1441      0.5364648      0.2951968
      3508.0000         0.7141        -999.25       2763.172        -999.25        -999.25        49.1929       55.43315         0.3226        -999.25        -999.25         0.7584      -122.7183      -27.35279       0.477301       0.154907
      3508.5000         0.7294        -999.25       2894.211        -999.25        -999.25        47.5049       52.46483         0.3029        -999.25        -999.25          0.755      -125.7958      -30.42899      0.4141453     0.05236715
      3509.0000         0.7454        -999.25       2988.973        -999.25        -999.25        45.8506       49.55533         0.2873        -999.25        -999.25         0.7516      -127.1018      -31.73368      0.3522411    0.008877309
      3509.5000          0.763        -999.25        3058.98        -999.25        -999.25        44.3899       46.98371         0.2775        -999.25        -999.25         0.7481      -127.8491      -32.47968      0.2975258              0
      3510.0000         0.7806        -999.25       3092.813        -999.25        -999.25        43.3811       45.20073         0.2706        -999.25        -999.25         0.7447      -128.1655      -32.79478      0.2595901              0
      3510.5000         0.7897        -999.25       3085.453        -999.25        -999.25        42.8895       44.32039         0.2653        -999.25        -999.25         0.7415       -128.292      -32.91998      0.2408594              0
      3511.0000         0.7801        -999.25       3059.891        -999.25        -999.25        42.8162       44.17009         0.2655        -999.25        -999.25         0.7413      -128.1882      -32.81487      0.2376614              0
      3511.5000         0.7704        -999.25       3030.539        -999.25        -999.25        42.4528       43.51348         0.2677        -999.25        -999.25         0.7487      -128.1462      -32.77157       0.223691              0
      3512.0000         0.7608        -999.25       2968.613        -999.25        -999.25        41.8691        42.4724         0.2747        -999.25        -999.25         0.7667      -128.2117      -32.83577      0.2015404              0
      3512.5000         0.7563        -999.25       2858.934        -999.25        -999.25        42.3555       43.29889         0.2874        -999.25        -999.25         0.7916      -128.4565      -33.07926      0.2191252              0
      3513.0000         0.7728        -999.25       2744.563        -999.25        -999.25        43.3773       45.05975         0.3014        -999.25        -999.25         0.8284      -128.2776      -32.89906      0.2565905              0
      3513.5000         0.7901        -999.25       2625.551        -999.25        -999.25        44.1577       46.39933         0.3152        -999.25        -999.25         0.8632      -127.8683      -32.48846      0.2850921              0
      3514.0000         0.8138        -999.25       2526.148        -999.25        -999.25        45.7657       49.18324          0.328        -999.25        -999.25         0.8716      -127.2378      -31.85666      0.3443243    0.004778035
      3514.5000         0.8378        -999.25       2447.754        -999.25        -999.25        47.6934       52.52511         0.3434        -999.25        -999.25         0.8472      -126.7672      -31.38475      0.4154279     0.02050832
      3515.0000         0.8631        -999.25       2386.203        -999.25        -999.25        49.1548       55.05317          0.358        -999.25        -999.25         0.8315      -126.4438      -31.06005      0.4692164     0.03133164
      3515.5000         0.8853        -999.25       2358.609        -999.25        -999.25        50.1686       56.80007         0.3614        -999.25        -999.25         0.8272      -126.4504      -31.06535      0.5063845     0.03115514
      3516.0000         0.8819        -999.25       2403.645        -999.25        -999.25        51.3197       58.78661         0.3569        -999.25        -999.25         0.8182      -126.1329      -30.74654      0.5486512     0.04178213
      3516.5000         0.8714        -999.25       2478.043        -999.25        -999.25        52.7573       61.27314         0.3497        -999.25        -999.25         0.7961      -124.7502      -29.36254      0.6015562     0.08791529
      3517.0000         0.8618        -999.25       2539.273        -999.25        -999.25        54.7774       64.77627         0.3414        -999.25        -999.25         0.7681      -123.0466      -27.65764      0.6760908      0.1447454
      3517.5000         0.8517        -999.25       2480.938        -999.25        -999.25        57.6302       69.73264          0.332        -999.25        -999.25         0.7448      -120.5084      -25.11813      0.7815455      0.2293956
      3518.0000         0.8165        -999.25       2367.766        -999.25        -999.25        61.6579       76.73944         0.3503        -999.25        -999.25          0.725      -115.6842      -20.29263      0.9306264      0.3902458
      3518.5000         0.7588        -999.25       2204.094        -999.25        -999.25        64.9177       82.40613         0.3836        -999.25        -999.25         0.7085      -108.5703      -13.17742              1      0.6274193
      3519.0000         0.7377        -999.25        2025.85        -999.25        -999.25        66.5133       85.16838         0.4137        -999.25        -999.25         0.6998       -101.746       -6.35183              1       0.854939
      3519.5000         0.7285        -999.25       1877.547        -999.25        -999.25        66.8604       85.75175          0.444        -999.25        -999.25         0.7026        -92.632       2.763474              1              1
      3520.0000         0.7215        -999.25       1818.416        -999.25        -999.25         61.965       77.18583         0.4677        -999.25        -999.25         0.7133       -88.4244       6.972382       0.940124              1
      3520.5000         0.7195        -999.25       1858.037        -999.25        -999.25          57.78        69.8597         0.4801        -999.25        -999.25         0.7326       -91.8354       3.562683       0.784249              1
      3521.0000         0.7285        -999.25       1980.043        -999.25        -999.25        55.1257       65.20499         0.4574        -999.25        -999.25         0.7504       -98.0903       -2.69091      0.6852125      0.9769697
      3521.5000         0.7434        -999.25       2161.578        -999.25        -999.25        53.0569       61.57208         0.4247        -999.25        -999.25          0.764      -109.7314      -14.33071      0.6079166      0.5889763
      3522.0000         0.7745        -999.25       2304.391        -999.25        -999.25        53.4677       62.26664         0.3891        -999.25        -999.25           0.76      -115.2323      -19.83031      0.6226944      0.4056564
      3522.5000         0.8003        -999.25       2408.883        -999.25        -999.25        57.7875       69.78321          0.358        -999.25        -999.25         0.7405      -117.2449      -21.84161      0.7826215      0.3386131
