#------------------------------------------------------------------------------
# Created by    : vladimir.rabinovich
# Created on    : 09/19/2023 17:19:46
#------------------------------------------------------------------------------
~Version Information Section
VERS.           2.0     :   CWLS log ASCII Standard - VERSION 2.0
WRAP.           NO      :   One line per depth step
~Well Information Section
#MNEM       .UNIT                                         VALUE :DESCRIPTION
#------------------------------------------------------------------------------
STRT        .FT                                            3460 :START DEPTH
STOP        .FT                                           13634 :STOP DEPTH
STEP        .FT                                             0.5 :STEP      
NULL        .                                           -999.25 :NULL      
COMP        .                                SHELL OFFSHORE INC :COMPANY   
WELL        .                               OCS G06107 ST00BP00 :WELL      
FLD         .                                           WILDCAT :FIELD     
LOC         .                                                   :LOCATION  
CNTY        .                             GALVESTON LARGE BLOCK :LOCATION  
STAT        .                                             TEXAS :STATE     
CTRY        .                                     UNITED STATES :COUNTRY   
SRVC        .                                                   :SERVICE COMPANY
DATE        .                             9/13/2023 11:19:27 AM :LOG DATE  
API         .                                    42706401270000 :API NUMBER
UWI         .                                    42706401270000 :UNIQUE WELL ID
XCOORD      .                                  941908.785460496 :SURFACE X 
YCOORD      .                                  10441108.8632451 :SURFACE Y 
LAT         .                                         28.753553 :LATITUDE  
LON         .                                        -95.180411 :LONGITUDE 
ELEV        .FT                                              90 :ELEVATION VALUE
ELEV_TYPE   .                                                KB :ELEVATION REFERENCE TYPE
~Curve Information Section
#MNEM       .UNIT                                      API CODE :CURVE DESCRIPTION
#------------------------------------------------------------------------------
DEPT        .FT                                                 :DEPTH     
ASFL        .OHMM                                               :          
CALI        .IN                                                 :          
CILD        .MMHO                                               :          
DT          .US/F                                               :          
GR          .GAPI                                               :          
GR_1        .GAPI                                               :          
GR_NORM     .GAPI                                               :GammaRay Normalized
ILD         .OHMM                                               :          
ILM         .OHMM                                               :          
RHOB        .G/C3                                               :          
SP          .MV                                                 :          
VSH_GR      .V/V                                                :Volume of Shale from GR
~A        DEPTH           ASFL           CALI           CILD             DT             GR           GR_1        GR_NORM            ILD            ILM           RHOB             SP         VSH_GR
# ...
      6248.0000         0.9297        17.4677       1719.561       119.4568        -999.25        36.8763       77.77341         0.5871         0.5831         2.2418       -28.6629      0.9526259
      6248.5000         0.9704        17.4531        1726.16       118.5198        -999.25        36.7336       77.53721         0.5859         0.5815         2.2337       -28.7066      0.9476002
      6249.0000         0.9415         17.433        1729.91        117.376        -999.25         36.885       77.77876         0.5859         0.5811         2.2292       -29.6427      0.9527395
      6249.5000         0.9342        17.4107       1728.602       117.3839        -999.25        37.5417       78.84115         0.5878         0.5814         2.2373       -30.6738      0.9753436
      6250.0000         0.9323        17.3734       1722.684       118.1161        -999.25        38.0355       79.63889         0.5936          0.584         2.2433        -30.549      0.9923169
      6250.5000         0.9556        17.3255       1715.191       118.6686        -999.25        38.1593       79.83561         0.5988         0.5882         2.2411       -29.6992      0.9965023
      6251.0000         0.9568        17.2884       1707.646       118.7471        -999.25        38.5671       80.49368         0.6009         0.5921          2.239       -29.0848              1
      6251.5000         0.9867        17.2551       1697.529       118.4182        -999.25        39.5103       82.02144         0.6016         0.5961         2.2422       -28.8137              1
      6252.0000         0.9658        17.2386       1691.783       117.7957        -999.25         40.669       83.89928         0.6055         0.6001         2.2456        -28.627              1
      6252.5000         0.9355        17.2346       1680.387       116.9772        -999.25        40.9128       84.29093         0.6093         0.6074         2.2437       -28.6161              1
      6253.0000         0.9372        17.2348       1663.412        116.316        -999.25        41.5942       85.39342          0.619         0.6177         2.2415       -29.4015              1
      6253.5000          0.962        17.2007       1624.695       115.0864        -999.25        43.0662        87.7802         0.6284         0.6306         2.2471       -29.6552              1
      6254.0000         1.0207        17.1563       1574.027       113.7407        -999.25        43.4899       88.46407         0.6445         0.6439           2.26        -29.697              1
      6254.5000         1.0353        17.1163       1532.545       112.2654        -999.25        42.6093       87.02921         0.6606         0.6569         2.2715       -29.4554              1
      6255.0000         1.0394        17.0843       1496.273       110.5752        -999.25        39.9889       82.76817         0.6775         0.6741         2.2802       -28.1798              1
      6255.5000         1.0457         17.076       1479.297       108.8776        -999.25        38.6466       80.58331         0.6891         0.6878         2.2881        -27.524              1
      6256.0000         1.0412        17.1009       1475.129        107.759        -999.25        38.4775       80.30424         0.6952          0.694         2.2904       -27.2908              1
      6256.5000          1.075        17.1205       1477.859       106.5492        -999.25        38.4801       80.30406          0.696         0.6946         2.2892       -27.4759              1
      6257.0000         1.0659        17.1273       1479.742       106.2683        -999.25        37.9755       79.47999         0.6931         0.6929         2.2897       -27.7694      0.9889359
      6257.5000         1.0364        17.1257           1486       108.1245        -999.25        35.5976       75.61286          0.685         0.6896         2.2911       -27.7396      0.9066566
      6258.0000         1.0335        17.0936       1499.422       109.6641        -999.25        33.4058       72.04805         0.6778         0.6842         2.2896       -27.6498      0.8308096
      6258.5000         1.0145        17.0532       1510.668        110.948        -999.25        32.9669        71.3307         0.6718         0.6775         2.2774       -28.1394      0.8155469
      6259.0000         0.9966        17.0228       1524.299       111.6669        -999.25        36.5446       77.13804         0.6669         0.6704         2.2666       -28.5279      0.9391072
      6259.5000         0.9818        16.9994       1536.359       111.7987        -999.25        38.9777       81.08605         0.6614         0.6635         2.2653        -28.423              1
      6260.0000         0.9943        16.9696       1544.645       112.2592        -999.25        41.0931       84.51798         0.6524         0.6551         2.2628       -27.8477              1
      6260.5000         1.0362         16.951       1553.064       113.4659        -999.25        40.4791       83.51619         0.6464         0.6493         2.2542         -28.14              1
      6261.0000         1.0881        16.9442       1564.904       108.9369        -999.25        38.8391       80.84773         0.6399         0.6438         2.2298       -28.7855              1
      6261.5000         1.1397        16.9444       1579.016       105.4257        -999.25        36.7217       77.40378         0.6344         0.6384         2.2097       -29.2404      0.9447612
      6262.0000         1.1916        16.9453       1594.361       102.2726        -999.25        35.6926       75.72769         0.6308          0.633         2.1984       -29.7377      0.9090998
      6262.5000         1.0688        16.9393       1606.719       105.1886        -999.25        36.5934       77.18659         0.6288         0.6288            2.2       -30.0023      0.9401402
      6263.0000         0.9984        16.9357        1621.93       108.0183        -999.25        37.4872       78.63412         0.6274         0.6246         2.2204       -29.5465      0.9709387
      6263.5000         0.9709        16.9394       1639.807       112.0085        -999.25        37.5493       78.73062         0.6253         0.6205         2.2583       -28.7573      0.9729919
      6264.0000         0.9848        16.9432       1653.104       115.2017        -999.25        37.3777       78.44748         0.6209         0.6162         2.2692       -28.5513      0.9669676
      6264.5000         0.9854        16.9472       1662.832       114.3678        -999.25        37.3521       78.40149         0.6171          0.612         2.2741       -28.6072      0.9659891
      6265.0000         0.9765        16.9517         1675.4       113.8502        -999.25        37.1713       78.10341         0.6139         0.6081         2.2607       -28.3713       0.959647
      6265.5000          0.978        16.9648       1686.115        114.748        -999.25        37.0477       77.89824         0.6095         0.6061         2.2532       -28.4156      0.9552817
      6266.0000         1.0005        16.9991       1695.178       116.0814        -999.25        36.9078        77.6666         0.6062         0.6045         2.2436       -28.9857      0.9503531
      6266.5000         1.0073        16.9955       1700.543       116.6278        -999.25        37.8843       79.24847         0.6035         0.6001         2.2344       -29.1886      0.9840101
      6267.0000         0.9922        16.9733       1706.049       116.8766        -999.25        38.7069       80.58034         0.6024         0.5963         2.2299       -29.2483              1
      6267.5000         0.9691        16.9472       1709.014       117.2457        -999.25        39.7861       82.32902         0.6007         0.5932         2.2311       -29.3631              1
      6268.0000         0.9495        16.9642       1711.145       118.0173        -999.25        41.4724       85.06392         0.5984         0.5894          2.239       -29.4288              1
