#------------------------------------------------------------------------------
# Created by    : vladimir.rabinovich
# Created on    : 09/19/2023 17:21:34
#------------------------------------------------------------------------------
~Version Information Section
VERS.           2.0     :   CWLS log ASCII Standard - VERSION 2.0
WRAP.           NO      :   One line per depth step
~Well Information Section
#MNEM       .UNIT                                         VALUE :DESCRIPTION
#------------------------------------------------------------------------------
STRT        .FT                                            4500 :START DEPTH
STOP        .FT                                            8225 :STOP DEPTH
STEP        .FT                                             0.5 :STEP      
NULL        .                                           -999.25 :NULL      
COMP        .                             WALTER OIL & GAS CORP :COMPANY   
WELL        .                               OCS G08132 ST00BP00 :WELL      
FLD         .                              GALVESTON BLOCK 0385 :FIELD     
LOC         .                                                   :LOCATION  
CNTY        .                             GALVESTON LARGE BLOCK :LOCATION  
STAT        .                                             TEXAS :STATE     
CTRY        .                                     UNITED STATES :COUNTRY   
SRVC        .                                                   :SERVICE COMPANY
DATE        .                             9/13/2023 11:19:34 AM :LOG DATE  
API         .                                    42706402490000 :API NUMBER
UWI         .                                    42706402490000 :UNIQUE WELL ID
XCOORD      .                                  1009947.10754335 :SURFACE X 
YCOORD      .                                  10405011.8756564 :SURFACE Y 
LAT         .                                         28.657556 :LATITUDE  
LON         .                                        -94.966279 :LONGITUDE 
ELEV        .FT                                             101 :ELEVATION VALUE
ELEV_TYPE   .                                                KB :ELEVATION REFERENCE TYPE
~Curve Information Section
#MNEM       .UNIT                                      API CODE :CURVE DESCRIPTION
#------------------------------------------------------------------------------
DEPT        .FT                                                 :DEPTH     
CALI        .IN                                                 :          
DPHI        .%                                                  :          
DRHO        .G/C3                                               :          
GR          .GAPI                                               :          
GR_NORM     .GAPI                                               :GammaRay Normalized
ILD         .OHMM                                               :          
ILM         .OHMM                                               :          
NPHI        .%                                                  :          
SFL         .OHMM                                               :          
SP          .MV                                                 :          
SP_NORM     .MV                                                 :SP Normalized
VSH_GR      .V/V                                                :Volume of Shale from GR
VSH_SP      .V/V                                                :Volume of Shale from SP
~A        DEPTH           CALI           DPHI           DRHO             GR        GR_NORM            ILD            ILM           NPHI            SFL             SP        SP_NORM         VSH_GR         VSH_SP
# ...
      6286.0000        10.2676        18.9499        -0.0034        77.7452       70.70681         0.6233          0.678        34.9079         0.7146       -68.6721      -0.600076      0.8022726      0.9899988
      6286.5000        10.2694        19.1142        -0.0054        75.9609       68.84816         0.6128          0.667        36.7626         0.7241       -68.7252     -0.6685956      0.7627268      0.9888567
      6287.0000        10.2561        19.0664        -0.0073         74.832       67.67223         0.6001         0.6556        40.3665         0.7147       -69.1334      -1.151402       0.737707        0.98081
      6287.5000        10.2087         19.022        -0.0093        74.0123       66.81837         0.5877         0.6429        40.4523         0.6932       -69.5413      -1.633851      0.7195397      0.9727691
      6288.0000        10.1585        19.1329        -0.0102        73.2395       66.01337         0.5758         0.6308        39.1833         0.6758       -70.0381      -2.220015      0.7024122      0.9629998
      6288.5000        10.1075        19.7561        -0.0109        71.4115        64.1092         0.5644         0.6198        37.2473         0.6633       -71.3436      -3.749663      0.6618978      0.9375056
      6289.0000        10.0745        20.5381        -0.0115        69.9956       62.63431         0.5547         0.6096        35.7269          0.678       -72.6492      -5.279436      0.6305172      0.9120094
      6289.5000        10.0459        21.3307        -0.0121         69.681        62.3066           0.55         0.6024        34.4307         0.6916       -74.4873       -7.43045      0.6235446      0.8761591
      6290.0000        10.0268        21.5674        -0.0126         69.553       62.17327         0.5453          0.598         33.392          0.702       -76.4419      -9.717392      0.6207078      0.8380435
      6290.5000        10.0156        20.4907        -0.0132        69.2417         61.849         0.5499         0.5978        32.6822         0.7125       -78.4141      -12.02486      0.6138084      0.7995857
      6291.0000        10.0043        19.4731        -0.0135        68.7264       61.31223         0.5549         0.5987        32.0499         0.7144       -79.5931      -13.40693      0.6023878      0.7765512
      6291.5000        10.0042        19.0609        -0.0129        67.6125       60.15192         0.5601         0.6055        31.4869          0.716       -79.7285      -13.57146      0.5777004       0.773809
      6292.0000        10.0102        19.3651        -0.0134        66.4923       58.98504         0.5687         0.6125        31.1057         0.7293       -78.9379      -12.65566      0.5528732      0.7890723
      6292.5000        10.0184        19.7794        -0.0134        65.2494       57.69035         0.5775         0.6221        30.9341          0.744       -78.4316      -12.07155      0.5253265      0.7988074
      6293.0000        10.0482        20.0423        -0.0118        64.0015       56.39046         0.5863         0.6334        31.2355         0.7668        -78.614      -12.29092      0.4976693      0.7951514
      6293.5000         10.078        19.7598        -0.0096        62.3464       54.66639         0.5979         0.6453        31.3107         0.7892       -79.1251      -12.89377      0.4609871      0.7851038
      6294.0000        10.1191        18.6917        -0.0078        60.9656       53.22806         0.6099         0.6584         30.878         0.8038       -79.4763      -13.31008      0.4303842      0.7781654
      6294.5000        10.1628        17.8265        -0.0065        61.0229       53.28775          0.622         0.6716        30.2081         0.8161       -79.8021      -13.69674      0.4316542      0.7717209
      6295.0000        10.2072        17.4276        -0.0051        62.1384       54.44973         0.6341         0.6825        30.0508         0.8107        -79.647      -13.52237      0.4563771      0.7746273
      6295.5000         10.252        17.5984        -0.0042        64.9525       57.38108         0.6465         0.6936        30.8095          0.805       -78.4028      -12.07737      0.5187463      0.7987106
      6296.0000        10.2849        17.8916        -0.0038        68.2126       60.77702         0.6579         0.7034         31.636         0.7923       -76.9481      -10.38677      0.5910003      0.8268871
      6296.5000        10.3139        18.2239        -0.0034         70.295       62.94618          0.668         0.7127         32.202         0.7873        -75.476      -8.675891      0.6371528      0.8554018
      6297.0000        10.3114        18.5566        -0.0034        71.8156       64.53014         0.6783         0.7218        31.7586         0.8025       -74.4159       -7.44568       0.670854      0.8759053
      6297.5000        10.3079        18.9691        -0.0036        71.1157       63.80108         0.6869         0.7298        30.8148          0.802       -73.4374      -6.310665      0.6553421      0.8948222
      6298.0000        10.2907        19.4426        -0.0037        69.6542       62.27868         0.6943          0.738        29.9529         0.7857       -72.5027      -5.226751      0.6229506      0.9128875
      6298.5000        10.2637        20.1384        -0.0039        68.8417       61.43233         0.7018          0.743        31.5117         0.7501       -71.5804        -4.1573      0.6049432      0.9307117
      6299.0000        10.2379        20.5312        -0.0041        68.1156       60.67598         0.7083         0.7478        33.8888         0.7141       -70.9709      -3.452789      0.5888506      0.9424535
      6299.5000        10.2412        20.1249        -0.0043        68.3677       60.93858         0.7146         0.7513         35.611         0.7096       -70.4885      -2.896559      0.5944378       0.951724
      6300.0000        10.2446        19.4196        -0.0044        68.6199       61.20129         0.7209         0.7542        35.7073         0.7324       -70.0947      -2.443696      0.6000274      0.9592717
      6300.5000        10.3039        18.5916        -0.0045        69.0635       61.66337         0.7265         0.7572        33.8361         0.7869       -69.9971      -2.336395      0.6098589      0.9610601
      6301.0000        10.3747        18.3877        -0.0045        69.5345         62.154          0.732         0.7603        32.5173         0.8354       -69.8995      -2.229094      0.6202978      0.9628484
      6301.5000        10.4146         18.298        -0.0044        69.7419       62.37003         0.7375         0.7634        31.7583         0.8705       -69.7924      -2.110711      0.6248943      0.9648215
      6302.0000        10.4546        18.3162        -0.0043        69.3025       61.91233         0.7424         0.7642        32.4556         0.8551        -69.619      -1.914988      0.6151559      0.9680835
      6302.5000        10.4204        18.1581        -0.0041        69.2805       61.88942         0.7474         0.7623        33.7352         0.8234       -69.4458      -1.719488      0.6146684      0.9713418
      6303.0000        10.3848        17.8768        -0.0041        69.4249       62.03983         0.7486         0.7602        34.8191         0.8027        -68.968      -1.168625      0.6178686      0.9805229
      6303.5000        10.3495         18.051        -0.0044        69.7344       62.36222         0.7472         0.7557        35.5154         0.7944       -68.1537     -0.2251765      0.6247281      0.9962471
      6304.0000        10.3143        18.2646        -0.0047        70.5106       63.17076         0.7437         0.7513        35.8141         0.7818       -67.9657    -0.01239904      0.6419312      0.9997934
      6304.5000        10.2877        18.5619         -0.005        71.6934       64.40285         0.7373         0.7408        36.0543         0.7656       -68.4551     -0.5899379      0.6681457      0.9901677
