#------------------------------------------------------------------------------
# Created by    : vladimir.rabinovich
# Created on    : 09/19/2023 17:20:38
#------------------------------------------------------------------------------
~Version Information Section
VERS.           2.0     :   CWLS log ASCII Standard - VERSION 2.0
WRAP.           NO      :   One line per depth step
~Well Information Section
#MNEM       .UNIT                                         VALUE :DESCRIPTION
#------------------------------------------------------------------------------
STRT        .FT                                             495 :START DEPTH
STOP        .FT                                            8683 :STOP DEPTH
STEP        .FT                                             0.5 :STEP      
NULL        .                                           -999.25 :NULL      
COMP        .                                      SHELL OIL CO :COMPANY   
WELL        .                                OCS 00706 ST00BP00 :WELL      
FLD         .                                           WILDCAT :FIELD     
LOC         .                                                   :LOCATION  
CNTY        .                             GALVESTON LARGE BLOCK :LOCATION  
STAT        .                                             TEXAS :STATE     
CTRY        .                                     UNITED STATES :COUNTRY   
SRVC        .                                                   :SERVICE COMPANY
DATE        .                             9/13/2023 11:19:25 AM :LOG DATE  
API         .                                    42706000290000 :API NUMBER
UWI         .                                    42706000290000 :UNIQUE WELL ID
XCOORD      .                                  1097630.70361638 :SURFACE X 
YCOORD      .                                  10500448.3193905 :SURFACE Y 
LAT         .                                          28.92371 :LATITUDE  
LON         .                                        -94.697168 :LONGITUDE 
ELEV        .FT                                              92 :ELEVATION VALUE
ELEV_TYPE   .                                                KB :ELEVATION REFERENCE TYPE
~Curve Information Section
#MNEM       .UNIT                                      API CODE :CURVE DESCRIPTION
#------------------------------------------------------------------------------
DEPT        .FT                                                 :DEPTH     
ASN         .OHMM                                               :          
CILD        .MMHO                                               :          
ILD         .OHMM                                               :          
SP          .MV                                                 :          
SP_NORM     .MV                                                 :SP Normalized
VSH_SP      .V/V                                                :Volume of Shale from SP
~A        DEPTH            ASN           CILD            ILD             SP        SP_NORM         VSH_SP
# ...
      3763.0000          0.955       1297.484         0.9916       -38.2672      -1.681835      0.9893463
      3763.5000         0.9526       1305.648         0.9942       -38.9614      -2.376034      0.9784995
      3764.0000         0.9503       1314.682         0.9969       -39.6561      -3.070736      0.9676448
      3764.5000          0.948       1324.035         0.9996       -39.8345      -3.249134      0.9648573
      3765.0000         0.9457       1333.158         1.0023       -39.9432      -3.357834      0.9631588
      3765.5000         0.9434       1328.957          1.005       -40.0519      -3.466534      0.9614604
      3766.0000         0.9411       1324.309         1.0077       -40.0244      -3.439034      0.9618901
      3766.5000         0.9411       1294.445         1.0104        -39.884      -3.298634      0.9640839
      3767.0000          0.941       1264.119         1.0131       -39.7436      -3.158234      0.9662776
      3767.5000          0.941       1232.846         1.0158       -39.4152      -2.829834      0.9714088
      3768.0000         0.9432       1201.574         1.0278       -38.7281      -2.142735      0.9821448
      3768.5000         0.9511       1174.414         1.0504       -38.0577      -1.472336      0.9926198
      3769.0000          0.959       1147.365         1.0774       -37.4401     -0.8547363              1
      3769.5000         0.9709       1121.305         1.1097       -36.8225      -0.237133              1
      3770.0000         0.9852       1094.322          1.142       -36.4929     0.09246445              1
      3770.5000         1.0061       1063.291         1.1713       -36.2625      0.3228645              1
      3771.0000         1.0334       1033.053          1.188       -36.0318       0.553566              1
      3771.5000         1.0679       1003.629         1.2048       -35.8463      0.7390671              1
      3772.0000         1.1199       973.0166         1.2215       -36.0098      0.5755653              1
      3772.5000         1.1595        944.791         1.2382       -36.8258     -0.2404366              1
      3773.0000         1.1964        922.623          1.255       -38.8021      -2.216736      0.9809885
      3773.5000         1.2175       926.1084         1.2508       -40.1794      -3.594036      0.9594682
      3774.0000         1.2159       945.8467         1.2312       -40.4042      -3.818836      0.9559557
      3774.5000         1.2073       965.5723         1.2117       -40.4206      -3.835236      0.9556994
      3775.0000         1.1962       985.3105         1.1922       -40.2766      -3.691235      0.9579495
      3775.5000         1.1781       1025.664         1.1726       -40.0978      -3.512436      0.9607432
      3776.0000         1.1599       1069.516         1.1531       -39.7394      -3.154034      0.9663432
      3776.5000         1.1417       1136.744         1.1335        -39.381      -2.795635      0.9719432
      3777.0000         1.1204       1191.359         1.1164       -39.0226      -2.437233      0.9775432
      3777.5000         1.0421       1212.646         1.1008       -38.6642      -2.078835      0.9831432
      3778.0000         1.0137       1226.502         1.0853       -38.3311      -1.745735      0.9883479
      3778.5000         1.0001       1227.051         1.0698       -38.0268      -1.441433      0.9931026
      3779.0000         0.9947       1212.131         1.0543       -37.7224      -1.137035      0.9978588
      3779.5000         0.9894       1197.197         1.0387        -37.418      -0.832634              1
      3780.0000         0.9867       1182.277          1.033       -37.1136     -0.5282364              1
      3780.5000         0.9984       1166.156         1.0356       -36.8093     -0.2239342              1
      3781.0000         1.0159        1147.98         1.0382       -36.5406     0.04476547              1
      3781.5000         1.0335       1129.805         1.0407       -36.3292      0.2561646              1
      3782.0000          1.051       1118.975         1.0433       -36.3791      0.2062645              1
      3782.5000          1.061       1109.029         1.0459       -36.7183     -0.1329346              1
      3783.0000         1.0701       1099.088         1.0484       -37.1928     -0.6074333              1
      3783.5000         1.0793       1096.164          1.051       -37.6675      -1.082134      0.9987167
      3784.0000         1.0885        1094.42         1.0535        -38.142      -1.556633      0.9913026
      3784.5000         1.0807        1094.83         1.0565       -38.5732      -1.987835      0.9845651
      3785.0000         1.0721       1095.566         1.0595       -38.8499      -2.264534      0.9802417
      3785.5000         1.0627       1085.229         1.0625       -39.1265      -2.541134      0.9759198
      3786.0000         1.0569       1073.535         1.0656       -39.3777      -2.792336      0.9719948
      3786.5000         1.0669       1061.258         1.0686       -39.4522      -2.866837      0.9708307
      3787.0000         1.0768       1047.238         1.0716       -39.4975      -2.912136      0.9701229
      3787.5000         1.0866       1033.207         1.0746       -39.3867      -2.801334      0.9718542
      3788.0000         1.0963       1021.629         1.0777       -39.2758      -2.690434       0.973587
      3788.5000          1.106       1014.234         1.0807       -39.1505      -2.565136      0.9755448
      3789.0000         1.1156       1018.565         1.0837       -38.9999      -2.414536      0.9778979
      3789.5000         1.1253       1022.781         1.0867       -38.8493      -2.263935       0.980251
      3790.0000         1.1294        1026.58         1.0898       -38.6987      -2.113335      0.9826041
      3790.5000         1.1221       1030.375         1.0928        -38.548      -1.962635      0.9849588
      3791.0000         1.1148       1034.176         1.0958       -38.3975      -1.812134      0.9873104
      3791.5000         1.1074        1037.01         1.0989       -38.2947      -1.709335      0.9889166
      3792.0000         1.1001       1038.816         1.1019       -38.4584      -1.873035      0.9863588
      3792.5000         1.0928       1040.625         1.1039       -38.7075      -2.122135      0.9824666
      3793.0000         1.0929       1044.957         1.1056       -39.0871      -2.501736      0.9765354
      3793.5000         1.0952       1054.473         1.1073       -39.4665      -2.881134      0.9706073
      3794.0000         1.1011       1063.984          1.109       -39.8458      -3.260433      0.9646807
      3794.5000         1.1071       1072.857         1.1107       -40.1626      -3.577236      0.9597307
      3795.0000         1.1023       1081.572         1.1124       -40.3712      -3.785835      0.9564713
      3795.5000         1.0939       1091.402         1.1141       -40.5796      -3.994236      0.9532151
      3796.0000         1.0855       1094.811         1.1158       -40.7881      -4.202736      0.9499573
      3796.5000         1.0759       1083.662         1.1175       -40.9966      -4.411236      0.9466994
      3797.0000         1.0658        1066.15         1.1192       -41.2051      -4.619736      0.9434416
      3797.5000         1.0558       1041.871         1.1209       -41.3041      -4.718735      0.9418948
      3798.0000         1.0563       1020.519         1.1226        -41.307      -4.721634      0.9418495
      3798.5000         1.0816        1004.93         1.1239       -41.3099      -4.724533      0.9418042
      3799.0000          1.107       1010.144         1.1243       -41.3128      -4.727436      0.9417588
      3799.5000         1.1301       1017.423         1.1247       -41.3157      -4.730335      0.9417135
      3800.0000         1.1314       1027.891         1.1251       -41.3186      -4.733234      0.9416682
      3800.5000         1.1256       1038.363         1.1255       -41.1317      -4.546333      0.9445885
