#------------------------------------------------------------------------------
# Created by    : vladimir.rabinovich
# Created on    : 09/19/2023 17:20:45
#------------------------------------------------------------------------------
~Version Information Section
VERS.           2.0     :   CWLS log ASCII Standard - VERSION 2.0
WRAP.           NO      :   One line per depth step
~Well Information Section
#MNEM       .UNIT                                         VALUE :DESCRIPTION
#------------------------------------------------------------------------------
STRT        .FT                                            2010 :START DEPTH
STOP        .FT                                            7000 :STOP DEPTH
STEP        .FT                                             0.5 :STEP      
NULL        .                                           -999.25 :NULL      
COMP        .                                    TEXAS GULF INC :COMPANY   
WELL        .                                ST OF TEX TR 693-L :WELL      
FLD         .                                           WILDCAT :FIELD     
LOC         .                                                   :LOCATION  
CNTY        .                      MATAGORDA ISLAND LARGE BLOCK :LOCATION  
STAT        .                                             TEXAS :STATE     
CTRY        .                                     UNITED STATES :COUNTRY   
SRVC        .                                                   :SERVICE COMPANY
DATE        .                             9/13/2023 11:12:01 AM :LOG DATE  
API         .                                    42703300330000 :API NUMBER
UWI         .                                    42703300330000 :UNIQUE WELL ID
XCOORD      .                                  377893.250269135 :SURFACE X 
YCOORD      .                                  10151490.3803449 :SURFACE Y 
LAT         .                                        27.9187241 :LATITUDE  
LON         .                                       -96.9091122 :LONGITUDE 
ELEV        .FT                                              70 :ELEVATION VALUE
ELEV_TYPE   .                                                KB :ELEVATION REFERENCE TYPE
~Curve Information Section
#MNEM       .UNIT                                      API CODE :CURVE DESCRIPTION
#------------------------------------------------------------------------------
DEPT        .FT                                                 :DEPTH     
ASN         .OHMM                                               :          
CILD        .MMHO                                               :          
ILD         .OHMM                                               :          
SP          .MV                                                 :          
SP_NORM     .MV                                                 :SP Normalized
VSH_SP      .V/V                                                :Volume of Shale from SP
~A        DEPTH            ASN           CILD            ILD             SP        SP_NORM         VSH_SP
      2010.0000         0.0301       188.5288         0.0369       -60.3134        -3.7096      0.9628348
      2010.5000         0.0568       230.1602         0.0544       -61.4642        -4.8604      0.9378174
      2011.0000         0.2073        26.6868         0.0719       -62.6719        -6.0681       0.911563
      2011.5000         0.4298        11.2839         0.1478       -64.3179        -7.7141      0.8757805
      2012.0000         0.5035              0         0.2521       -66.1086        -9.5048      0.8368522
      2012.5000         0.6452         7.4241         0.3564       -65.5488         -8.945      0.8490217
      2013.0000         0.7246        93.3931         0.5162         -64.53        -7.9262      0.8711696
      2013.5000         0.7806        491.896         0.7103       -63.5117        -6.9079      0.8933066
      2014.0000         0.8387       1205.689         0.8899       -62.5634        -5.9596      0.9139217
      2014.5000          1.038       1919.482         0.9776       -61.6541        -5.0503      0.9336891
      2015.0000          1.049       2633.273         0.9863       -62.2388         -5.635      0.9209782
      2015.5000         1.0898        2980.52         0.9731        -63.365        -6.7612      0.8964956
      2016.0000         1.1218       2690.945           0.96       -64.3228         -7.719      0.8756739
      2016.5000         1.1006       1185.934         0.9468       -63.8568         -7.253      0.8858044
      2017.0000         1.0753       951.6611         0.9325       -63.4641        -6.8603      0.8943413
      2017.5000         1.0681       1111.176         0.9157        -64.787        -8.1832      0.8655826
      2018.0000         1.0608       1137.424          0.899       -66.0114        -9.4076      0.8389652
      2018.5000         1.0534       1152.104         0.8823       -67.2355       -10.6317      0.8123544
      2019.0000         1.0456        1165.18         0.8655       -68.6096       -12.0058      0.7824826
      2019.5000         1.0641        1144.85         0.8488       -70.0121       -13.4083      0.7519935
      2020.0000         1.0745       1155.813         0.8321       -72.3976       -15.7938      0.7001348
      2020.5000          1.038       1171.809         0.8153       -74.2374       -17.6336      0.6601391
      2021.0000         1.0148       1193.834         0.7986       -75.5778        -18.974          0.631
      2021.5000         0.9915       1220.568         0.7853       -76.4446       -19.8408      0.6121565
      2022.0000         0.9683       1247.938         0.7735       -75.9098        -19.306      0.6237826
      2022.5000         0.9753       1274.547         0.7618       -75.0269       -18.4231      0.6429761
      2023.0000         1.0038        1303.27         0.7501       -74.1439       -17.5401      0.6621717
      2023.5000         0.9676        1331.33         0.7383       -73.2606       -16.6568       0.681374
      2024.0000         0.9669        1356.91         0.7266       -72.5623       -15.9585      0.6965544
      2024.5000         0.9882       1387.953         0.7149       -71.8827       -15.2789      0.7113283
      2025.0000         0.9474       1426.604          0.707       -71.2032       -14.5994         0.7261
      2025.5000          0.943           1462         0.7029        -70.174       -13.5702      0.7484739
      2026.0000         0.9708       1519.906         0.6987       -69.1841       -12.5803      0.7699935
      2026.5000         0.9986       1511.818         0.6946       -68.1942       -11.5904       0.791513
      2027.0000         1.0354       1508.195         0.6904       -66.5554        -9.9516      0.8271391
      2027.5000          1.039        1473.76         0.6862       -64.3296        -7.7258      0.8755261
      2028.0000         1.0056       1439.324         0.6898       -61.8895        -5.2857      0.9285718
      2028.5000         0.9757       1390.623          0.695       -62.9024        -6.2986      0.9065522
      2029.0000         0.9459       1330.508         0.7003       -65.0188         -8.415      0.8605435
      2029.5000          0.916       1292.656         0.7055       -66.1273        -9.5235      0.8364456
      2030.0000         0.8862       1297.482         0.7108       -64.9772        -8.3734      0.8614478
      2030.5000         0.8543       1367.973         0.7161       -63.6959        -7.0921      0.8893022
      2031.0000         0.8848       1409.504         0.7054       -62.3798         -5.776       0.917913
      2031.5000         0.9866       1451.037          0.691       -61.0644        -4.4606      0.9465087
      2032.0000         0.9697       1492.568         0.6766        -59.853        -3.2492      0.9728435
      2032.5000         0.9531       1524.695         0.6622       -59.4016        -2.7978      0.9826565
      2033.0000         0.9427       1554.441         0.6478       -58.9501        -2.3463      0.9924718
      2033.5000         0.9322       1584.174         0.6338       -58.4986        -1.8948              1
      2034.0000         0.9218       1613.908         0.6331       -58.2738          -1.67              1
      2034.5000         0.9336       1637.299         0.6324         -58.92        -2.3162      0.9931261
      2035.0000         0.9416        1658.98         0.6318       -59.4174        -2.8136       0.982313
      2035.5000         0.9356        1602.77         0.6311       -59.8723        -3.2685      0.9724239
      2036.0000         0.9296       1500.674         0.6304       -60.3271        -3.7233      0.9625369
      2036.5000         0.9905       1378.648         0.6618       -60.7818         -4.178      0.9526522
      2037.0000         1.0564       1248.105         0.6975       -61.1904        -4.5866      0.9437696
      2037.5000         1.1064       1220.842         0.7332       -61.3589        -4.7551      0.9401065
      2038.0000         1.1329       1188.277         0.7689       -60.1171        -3.5133      0.9671022
      2038.5000         1.1592       1119.906         0.8071       -58.8756        -2.2718      0.9940913
      2039.0000          1.175       1069.471         0.8487       -57.6338          -1.03              1
      2039.5000         1.1907       1045.275         0.8902       -55.6199         0.9839              1
      2040.0000         1.2064        1022.95         0.9318       -56.7704        -0.1666              1
      2040.5000         1.2251       1009.007         0.9683       -57.9211        -1.3173              1
      2041.0000         1.2466       996.7559         1.0031       -59.0048         -2.401      0.9912826
      2041.5000         1.2672       986.2266         0.9998       -60.0211        -3.4173      0.9691891
      2042.0000         1.2856       989.2266         0.9749        -61.037        -4.4332      0.9471043
      2042.5000          1.295       1011.183         0.9499       -62.2935        -5.6897      0.9197891
      2043.0000         1.2877       1033.133          0.924       -63.8289        -7.2251      0.8864109
      2043.5000         1.2794       1061.514         0.8749       -65.1759        -8.5721      0.8571283
      2044.0000         1.2637       1119.309         0.8259       -64.5837        -7.9799      0.8700022
      2044.5000         1.2736       1177.104         0.7768       -63.0322        -6.4284      0.9037305
      2045.0000         1.2294       1243.977         0.7277       -61.5182        -4.9144      0.9366435
      2045.5000         1.1968       1310.951         0.6787       -60.5794        -3.9756      0.9570522
      2046.0000         1.1644       1433.127         0.6301        -64.219        -7.6152      0.8779305
      2046.5000         1.1319       1586.232         0.5893       -69.5156       -12.9118      0.7627869
      2047.0000         1.0998       1720.529         0.5485       -74.9265       -18.3227      0.6451587
      2047.5000         1.0717       1814.918         0.5076       -82.5496       -25.9458      0.4794391
