#------------------------------------------------------------------------------
# Created by    : vladimir.rabinovich
# Created on    : 09/19/2023 17:22:51
#------------------------------------------------------------------------------
~Version Information Section
VERS.           2.0     :   CWLS log ASCII Standard - VERSION 2.0
WRAP.           NO      :   One line per depth step
~Well Information Section
#MNEM       .UNIT                                         VALUE :DESCRIPTION
#------------------------------------------------------------------------------
STRT        .FT                                            3080 :START DEPTH
STOP        .FT                                           13004 :STOP DEPTH
STEP        .FT                                             0.5 :STEP      
NULL        .                                           -999.25 :NULL      
COMP        .                                     INEXCO OIL CO :COMPANY   
WELL        .                                     ST TR 00006-L :WELL      
FLD         .                                           WILDCAT :FIELD     
LOC         .                                                   :LOCATION  
CNTY        .                           HIGH ISLAND LARGE BLOCK :LOCATION  
STAT        .                                             TEXAS :STATE     
CTRY        .                                     UNITED STATES :COUNTRY   
SRVC        .                                                   :SERVICE COMPANY
DATE        .                             9/13/2023 11:19:15 AM :LOG DATE  
API         .                                    42708302350000 :API NUMBER
UWI         .                                    42708302350000 :UNIQUE WELL ID
XCOORD      .                                  1306008.37969423 :SURFACE X 
YCOORD      .                                  10751503.0860356 :SURFACE Y 
LAT         .                                          29.62091 :LATITUDE  
LON         .                                         -94.05279 :LONGITUDE 
ELEV        .FT                                              84 :ELEVATION VALUE
ELEV_TYPE   .                                                KB :ELEVATION REFERENCE TYPE
~Curve Information Section
#MNEM       .UNIT                                      API CODE :CURVE DESCRIPTION
#------------------------------------------------------------------------------
DEPT        .FT                                                 :DEPTH     
DT          .US/F                                               :          
GR          .GAPI                                               :          
GR_NORM     .GAPI                                               :GammaRay Normalized
ILD         .OHMM                                               :          
SFL         .OHMM                                               :          
SP          .MV                                                 :          
SP_NORM     .MV                                                 :SP Normalized
VSH_GR      .V/V                                                :Volume of Shale from GR
VSH_SP      .V/V                                                :Volume of Shale from SP
~A        DEPTH             DT             GR        GR_NORM            ILD            SFL             SP        SP_NORM         VSH_GR         VSH_SP
# ...
     10341.0000        -999.25        47.3911       80.64903         0.4262         0.5586       -39.4447      0.5553017              1              1
     10341.5000        -999.25        48.0544        82.0374          0.439         0.5562       -39.7676       0.232399              1              1
     10342.0000        -999.25        47.4851       80.84868          0.444         0.5678       -40.1569     -0.1568985              1              1
     10342.5000        -999.25         46.867       79.55795         0.4432         0.5901       -40.3967     -0.3967018      0.9905947              1
     10343.0000        -999.25        47.3447       80.55827         0.4374          0.571       -40.3347     -0.3347015              1              1
     10343.5000        -999.25        47.9603       81.84687         0.4301         0.5272       -40.2449     -0.2448997              1              1
     10344.0000        -999.25        47.5428       80.97552         0.4211         0.5083       -40.2087     -0.2086983              1              1
     10344.5000        -999.25        46.4658       78.72536         0.4115         0.5168       -40.0121    -0.01210022      0.9728801              1
     10345.0000        -999.25        45.8463       77.43169         0.4021         0.5214       -39.5325      0.4674988      0.9453551              1
     10345.5000        -999.25        46.2689        78.3168          0.393          0.519       -39.1021      0.8978996      0.9641873              1
     10346.0000        -999.25        47.1227       80.10345         0.3871         0.5058       -38.8654       1.134602              1              1
     10346.5000        -999.25        47.9434       81.82089         0.3834          0.496       -38.4457       1.554298              1              1
     10347.0000        -999.25         47.886       81.70243         0.3806         0.4988       -38.1482       1.851799              1              1
     10347.5000        -999.25        47.7588       81.43804         0.3777         0.5018        -37.859       2.140999              1              1
     10348.0000        -999.25        47.3378       80.55937         0.3763         0.5121        -38.278          1.722              1              1
     10348.5000        -999.25        47.3887       80.66737         0.3776         0.5336       -38.9708       1.029202              1              1
     10349.0000        -999.25        49.2017       84.45946          0.379         0.5222       -39.1165      0.8834991              1              1
     10349.5000        -999.25        50.3753       86.91472         0.3815         0.5082       -39.2161      0.7839012              1              1
     10350.0000        -999.25        51.0286       88.28216         0.3842         0.5142       -39.8528      0.1472015              1              1
     10350.5000        -999.25        50.6812       87.55737          0.387         0.5081         -39.73      0.2700005              1              1
     10351.0000        -999.25        49.1139        84.2821         0.3864         0.4907       -39.7682      0.2318001              1              1
     10351.5000        -999.25        46.6965       79.22949         0.3848         0.4913       -40.0409    -0.04090118      0.9836062              1
     10352.0000        -999.25        46.2914       78.38409         0.3828         0.4899         -40.35     -0.3499985      0.9656188              1
     10352.5000        -999.25        47.0814       80.03732         0.3805         0.4882       -40.3641     -0.3641014              1              1
     10353.0000        -999.25        47.9654       81.88712         0.3782         0.4887       -39.9356     0.06439972              1              1
     10353.5000        -999.25         49.238       84.54935         0.3697         0.4881       -39.3544      0.6455994              1              1
     10354.0000        -999.25        50.2054       86.57351         0.3578         0.4821       -39.0228      0.9771996              1              1
     10354.5000        -999.25        51.0599        88.3616         0.3495         0.4772       -38.5469       1.453098              1              1
     10355.0000        -999.25        51.6469       89.59043         0.3473         0.4752       -38.6839       1.316101              1              1
     10355.5000        -999.25        51.0562       88.35698          0.363         0.4685       -38.7394       1.260601              1              1
     10356.0000        -999.25        50.1672       86.49985         0.3807         0.4563       -38.2987       1.701302              1              1
     10356.5000        -999.25        48.3522       82.70671         0.4003         0.4342       -38.1362         1.8638              1              1
     10357.0000        -999.25        48.8431       83.73461         0.4222         0.4085       -38.2037       1.796299              1              1
     10357.5000        -999.25        49.6932       85.51353         0.4428          0.394       -38.4244         1.5756              1              1
     10358.0000        -999.25        50.2499         86.679          0.447         0.4003       -38.7896         1.2104              1              1
     10358.5000        -999.25        48.7804       83.60819         0.4494         0.4702       -39.3369      0.6631012              1              1
     10359.0000        -999.25         48.136       82.26247         0.4437         0.5412       -39.7011      0.2989006              1              1
     10359.5000        -999.25        48.0859       82.15928         0.4381         0.5655       -39.8654      0.1346016              1              1
     10360.0000        -999.25        47.0977       80.09475         0.4129         0.5278       -40.0297    -0.02970123              1              1
     10360.5000        -999.25        45.4213       76.59135         0.3875          0.506       -40.2315     -0.2314987      0.9274756              1
     10361.0000        -999.25        46.1272       78.06879         0.3564         0.4897        -40.439     -0.4389992      0.9589105              1
     10361.5000        -999.25        46.8895       79.66413         0.3287         0.4691        -40.444     -0.4440002      0.9928539              1
     10362.0000        -999.25         47.825       81.62157         0.3088         0.4482       -40.1763        -0.1763              1              1
     10362.5000        -999.25        48.5284       83.09375         0.3015         0.4282       -39.8835      0.1165009              1              1
     10363.0000        -999.25        48.9333       83.94187         0.3045         0.3999       -39.5363      0.4636993              1              1
     10363.5000        -999.25        49.6067       85.35135          0.311         0.3935       -39.0391      0.9608994              1              1
     10364.0000        -999.25        49.9509       86.07256         0.3179          0.416       -38.7952         1.2048              1              1
     10364.5000        -999.25        50.1675       86.52694         0.3259         0.4635       -39.0923      0.9076996              1              1
     10365.0000        -999.25        50.1286       86.44717         0.3337         0.4944       -39.3757      0.6242981              1              1
     10365.5000        -999.25        49.8273        85.8188         0.3415         0.5206       -39.5742      0.4258003              1              1
     10366.0000        -999.25        49.7227       85.60164         0.3472         0.4932       -39.6077      0.3922997              1              1
     10366.5000        -999.25        50.2061       86.61385         0.3524         0.4622       -39.4366      0.5634003              1              1
     10367.0000        -999.25        50.9032       88.07288         0.3536         0.4429       -39.2487      0.7513008              1              1
