#------------------------------------------------------------------------------
# Created by    : vladimir.rabinovich
# Created on    : 09/19/2023 17:22:33
#------------------------------------------------------------------------------
~Version Information Section
VERS.           2.0     :   CWLS log ASCII Standard - VERSION 2.0
WRAP.           NO      :   One line per depth step
~Well Information Section
#MNEM       .UNIT                                         VALUE :DESCRIPTION
#------------------------------------------------------------------------------
STRT        .FT                                            2877 :START DEPTH
STOP        .FT                                            8775 :STOP DEPTH
STEP        .FT                                             0.5 :STEP      
NULL        .                                           -999.25 :NULL      
COMP        .                                       APACHE CORP :COMPANY   
WELL        .                                  HIGH ISLAND 10-L :WELL      
FLD         .                                           WILDCAT :FIELD     
LOC         .                                                   :LOCATION  
CNTY        .                           HIGH ISLAND LARGE BLOCK :LOCATION  
STAT        .                                             TEXAS :STATE     
CTRY        .                                     UNITED STATES :COUNTRY   
SRVC        .                                                   :SERVICE COMPANY
DATE        .                             9/13/2023 11:19:15 AM :LOG DATE  
API         .                                    42708303590000 :API NUMBER
UWI         .                                    42708303590000 :UNIQUE WELL ID
XCOORD      .                                  1323081.96300683 :SURFACE X 
YCOORD      .                                  10736101.4448574 :SURFACE Y 
LAT         .                                        29.5789626 :LATITUDE  
LON         .                                       -93.9986282 :LONGITUDE 
ELEV        .FT                                             100 :ELEVATION VALUE
ELEV_TYPE   .                                                KB :ELEVATION REFERENCE TYPE
~Curve Information Section
#MNEM       .UNIT                                      API CODE :CURVE DESCRIPTION
#------------------------------------------------------------------------------
DEPT        .FT                                                 :DEPTH     
CNCSS       .%                                                  :          
DCAL        .IN                                                 :          
GRR         .GAPI                                               :          
ILD         .OHMM                                               :          
ILM         .OHMM                                               :          
PORZSS      .%                                                  :          
RFOC        .OHMM                                               :          
SP          .MV                                                 :          
SP_NORM     .MV                                                 :SP Normalized
TENR        .LB                                                 :          
VSH_SP      .V/V                                                :Volume of Shale from SP
ZCOR        .G/CM3                                              :          
~A        DEPTH          CNCSS           DCAL            GRR            ILD            ILM         PORZSS           RFOC             SP        SP_NORM           TENR         VSH_SP           ZCOR
# ...
      7592.0000        38.4994         1.5239        69.8028         0.2852         0.3028         33.724         0.7466         -71.33      -62.02768       1256.236       0.293792        -0.0257
      7592.5000        37.1312         1.5931        70.7177         0.2852         0.3227        31.5102         0.6838       -62.5096      -53.20728       1266.385      0.3975615        -0.0277
      7593.0000        34.9828         1.7021        70.1339         0.2852         0.3472        29.6592         0.7163        -52.054      -42.75167       1256.689      0.5205685        -0.0277
      7593.5000        34.5647         1.7914        69.5487         0.3055         0.3735        28.2912         0.7746       -47.2253      -37.92297       1266.849      0.5773768        -0.0277
      7594.0000        36.4174         1.8609        68.9634         0.3472         0.4055        27.1603         0.8036       -43.2077      -33.90537       1267.081      0.6246427        -0.0277
      7594.5000         37.909         1.9702        68.6782         0.3982         0.4381        25.7301            0.8       -40.2003      -30.89797       1267.313      0.6600239        -0.0238
      7595.0000        39.8199           2.01        69.4431         0.4523         0.4734        24.6566          0.789       -36.6337      -27.33138       1267.545      0.7019838        -0.0218
      7595.5000        40.2399         2.0398        70.5079         0.4887         0.5069        24.1792         0.7782       -32.0792      -22.77687       1277.731      0.7555662        -0.0238
      7596.0000        38.0911         2.0795        72.0228         0.4887         0.5046        23.7614         0.7501       -26.5347      -17.23238       1277.969      0.8207956        -0.0099
      7596.5000        35.8211         2.1093        74.4377         0.4843            0.5        23.1652         0.7163       -22.7723      -13.46998       1278.207      0.8650591         0.0079
      7597.0000        36.1794         2.1093        76.3989         0.4649          0.491        22.8677         0.6967       -22.7723      -13.46998       1278.445      0.8650591         0.0277
      7597.5000        38.0344         2.0993        74.9191         0.4482         0.4821        23.2256         0.6967       -25.9406      -16.63828       1278.684       0.827785         0.0257
      7598.0000        39.2327         2.0992        72.2334         0.4302         0.4756             24          0.713       -30.6931      -21.39077       1268.945      0.7718732         0.0238
      7598.5000        38.0963         2.0893        70.1482          0.413         0.4565        24.4792         0.7364       -37.4257      -28.12337       1269.179      0.6926662         0.0119
      7599.0000        36.1798         2.0892         67.763         0.3928         0.4381        25.7378         0.8183       -45.3596      -36.05727       1269.413      0.5993262              0
      7599.5000        35.5838         2.0694        64.4778         0.3718         0.4205        27.8971         0.9596       -52.0969      -42.79457       1259.655      0.5200638        -0.0218
      7600.0000        36.2399         2.0594        61.3426         0.3601         0.3982        29.6986         1.0566       -52.4813      -43.17897       1259.885      0.5155415        -0.0317
      7600.5000             36         2.0495          58.95         0.3552         0.3928           29.7         0.9336       -43.1683      -33.86597        1259.75      0.6251062        -0.0296
      7601.0000        34.9307         2.2279          60.45         0.3552         0.3928           27.6         0.7963       -32.2772      -22.97487        1259.25      0.7532368        -0.0196
      7601.5000        35.4059         2.6444           65.1         0.3668         0.4018          25.38         0.7097       -24.9505      -15.64818        1258.75      0.8394333        -0.0077
      7602.0000        36.6588         2.8629           68.4         0.3874         0.4186          24.24         0.6967       -20.7921      -11.48978        1258.25      0.8883556         0.0103
      7602.5000         37.317         3.0521             69         0.4111         0.4342          24.06          0.713       -18.6107      -9.308375        1267.75      0.9140191         0.0222
      7603.0000        37.6156         3.1124             69         0.4342         0.4544          24.06         0.7097       -17.0215      -7.719174        1267.25      0.9327156         0.0243
      7603.5000        40.2462         3.1428          70.65         0.4565         0.4713        23.9404            0.7       -18.0133      -8.710975        1256.75      0.9210473         0.0442
      7604.0000        41.9776         3.1731          72.75          0.467          0.491        23.8211         0.7196       -22.1782      -12.87587        1256.25      0.8720486          0.072
      7604.5000        41.9746         3.2034          68.25          0.467         0.5046        23.2841          0.764       -27.5248      -18.22247        1255.75      0.8091474         0.0761
      7605.0000         41.255         3.2336          61.65          0.467         0.5046        22.3885         0.8258       -31.6832      -22.38087        1255.25       0.760225         0.0425
      7605.5000        40.0587         3.2639           57.6          0.467         0.5023        21.3128         0.8485       -32.8713      -23.56897        1254.75      0.7462474         0.0129
      7606.0000        38.2073         3.2941          58.35         0.4713            0.5        20.5347         0.8258        -29.901      -20.59867        1254.25      0.7811921        -0.0008
      7606.5000        36.1789         3.4037           60.9         0.4777         0.4977        20.3537         0.7963       -26.7327      -17.43037        1253.75      0.8184662        -0.0007
      7607.0000        36.1788         3.4338           62.1         0.4821         0.4955        20.9499          0.789       -25.3465      -16.04417        1253.25      0.8347744         0.0013
      7607.5000         38.621         3.4639          63.45         0.4887         0.4955        21.7263         0.8036       -25.9406      -16.63828        1252.75       0.827785         0.0014
      7608.0000        42.9711         3.4939          64.35         0.4887         0.4955        22.2639         0.8109       -24.5545      -15.25218        1252.25      0.8440921         0.0035
      7608.5000        44.7655         3.5338           64.8         0.4887         0.4977        22.7422         0.7854       -20.7921      -11.48978        1261.75      0.8883556         0.0135
      7609.0000        45.0036         3.5638          64.35         0.4887         0.4977        22.8614         0.7535        -16.804      -7.501676        1271.25      0.9352744         0.0394
      7609.5000        44.0428         3.5938          64.35         0.4887            0.5        22.9208          0.733       -14.0045      -4.702175        1270.75      0.9682097         0.0711
      7610.0000        43.9208         3.6336           66.9         0.4887            0.5        23.1002          0.733       -12.6018      -3.299475        1270.25      0.9847121          0.097
      7610.5000        44.7593          3.614           70.5         0.4955         0.5023        23.3387         0.7398       -12.3969      -3.094575           1270      0.9871227          0.109
      7611.0000        45.4774         3.6242          70.95            0.5         0.5023        23.0962         0.7535       -12.7904      -3.488074           1260      0.9824932         0.1011
      7611.5000         45.236         3.6245          69.75         0.5069         0.5023        22.9139         0.7675       -13.1835      -3.881175           1280      0.9778686         0.0735
      7612.0000        44.5755         3.6348          69.15         0.5115         0.5046        22.9114         0.7818       -12.3783      -3.075974           1280      0.9873415         0.0677
