#------------------------------------------------------------------------------
# Created by    : vladimir.rabinovich
# Created on    : 09/19/2023 17:20:36
#------------------------------------------------------------------------------
~Version Information Section
VERS.           2.0     :   CWLS log ASCII Standard - VERSION 2.0
WRAP.           NO      :   One line per depth step
~Well Information Section
#MNEM       .UNIT                                         VALUE :DESCRIPTION
#------------------------------------------------------------------------------
STRT        .FT                                             498 :START DEPTH
STOP        .FT                                            9565 :STOP DEPTH
STEP        .FT                                             0.5 :STEP      
NULL        .                                           -999.25 :NULL      
COMP        .                       BLUE DOLPHIN EXPLORATION CO :COMPANY   
WELL        .                                OCS 00714 ST00BP00 :WELL      
FLD         .                              GALVESTON BLOCK 0288 :FIELD     
LOC         .                                                   :LOCATION  
CNTY        .                             GALVESTON LARGE BLOCK :LOCATION  
STAT        .                                             TEXAS :STATE     
CTRY        .                                     UNITED STATES :COUNTRY   
SRVC        .                                                   :SERVICE COMPANY
DATE        .                             9/13/2023 11:19:25 AM :LOG DATE  
API         .                                    42706000390000 :API NUMBER
UWI         .                                    42706000390000 :UNIQUE WELL ID
XCOORD      .                                  1097340.72850425 :SURFACE X 
YCOORD      .                                  10481267.2561277 :SURFACE Y 
LAT         .                                        28.8709496 :LATITUDE  
LON         .                                       -94.6972159 :LONGITUDE 
ELEV        .FT                                              85 :ELEVATION VALUE
ELEV_TYPE   .                                                KB :ELEVATION REFERENCE TYPE
~Curve Information Section
#MNEM       .UNIT                                      API CODE :CURVE DESCRIPTION
#------------------------------------------------------------------------------
DEPT        .FT                                                 :DEPTH     
ASN         .OHMM                                               :          
CALI        .IN                                                 :          
DT          .US/F                                               :          
ILD         .OHMM                                               :          
SP          .MV                                                 :          
SP_1        .MV                                                 :          
SP_NORM     .MV                                                 :SP Normalized
VSH_SP      .V/V                                                :Volume of Shale from SP
~A        DEPTH            ASN           CALI             DT            ILD             SP           SP_1        SP_NORM         VSH_SP
# ...
      2297.5000         1.2613        -999.25        -999.25        -999.25        -999.25       -69.9844      -22.49752      0.3788629
      2298.0000         1.2559        -999.25        -999.25        -999.25        -999.25       -69.8835      -22.39999      0.3818184
      2298.5000         1.2805        -999.25        -999.25        -999.25        -999.25       -70.6368      -23.15667      0.3588889
      2299.0000         1.3002        -999.25        -999.25        -999.25        -999.25       -71.6472      -24.17043      0.3281688
      2299.5000         1.3068        -999.25        -999.25        -999.25        -999.25       -72.7607      -25.28729      0.2943245
      2300.0000         1.2723        -999.25        -999.25        -999.25        -999.25       -71.8846      -24.41456      0.3207709
      2300.5000         1.2536        -999.25        -999.25        -999.25        -999.25       -67.9807      -20.51403      0.4389689
      2301.0000         1.2398        -999.25        -999.25        -999.25        -999.25       -64.9124       -17.4491      0.5318456
      2301.5000         1.2291        -999.25        -999.25        -999.25        -999.25       -58.6945      -11.23456      0.7201648
      2302.0000         1.2192        -999.25        -999.25        -999.25        -999.25       -54.6684       -7.21183      0.8420658
      2302.5000         1.2302        -999.25        -999.25        -999.25        -999.25       -50.8198        -3.3666      0.9585879
      2303.0000         1.2542        -999.25        -999.25        -999.25        -999.25       -46.9713      0.4785385              1
      2303.5000         1.2905        -999.25        -999.25        -999.25        -999.25       -43.9503        3.49617              1
      2304.0000         1.3185        -999.25        -999.25        -999.25        -999.25       -45.0331       2.410004              1
      2304.5000         1.3373        -999.25        -999.25        -999.25        -999.25          -45.8       1.639736              1
      2305.0000         1.3548        -999.25        -999.25        -999.25        -999.25       -46.7002      0.7361679              1
      2305.5000          1.366        -999.25        -999.25        -999.25        -999.25       -47.4133     0.01970291              1
      2306.0000         1.3722        -999.25        -999.25        -999.25        -999.25       -47.4247    0.004932404              1
      2306.5000         1.3703        -999.25        -999.25        -999.25        -999.25       -46.3152       1.111069              1
      2307.0000         1.3683        -999.25        -999.25        -999.25        -999.25       -45.2458       2.177101              1
      2307.5000         1.3663        -999.25        -999.25        -999.25        -999.25       -44.4587       2.960835              1
      2308.0000         1.3649        -999.25        -999.25        -999.25        -999.25       -43.6717       3.744469              1
      2308.5000         1.3728        -999.25        -999.25        -999.25        -999.25       -43.7355       3.677299              1
      2309.0000         1.3804        -999.25        -999.25        -999.25        -999.25        -44.129        3.28043              1
      2309.5000         1.3847        -999.25        -999.25        -999.25        -999.25       -44.5225       2.883568              1
      2310.0000          1.389        -999.25        -999.25        -999.25        -999.25        -44.707       2.695698              1
      2310.5000         1.3933        -999.25        -999.25        -999.25        -999.25       -44.8901       2.509235              1
      2311.0000         1.3924        -999.25        -999.25        -999.25        -999.25       -44.9041       2.491867              1
      2311.5000         1.3911        -999.25        -999.25        -999.25        -999.25       -44.8854       2.507198              1
      2312.0000         1.3899        -999.25        -999.25        -999.25        -999.25       -44.8669       2.522331              1
      2312.5000         1.3923        -999.25        -999.25        -999.25        -999.25       -44.8555       2.530365              1
      2313.0000         1.3973        -999.25        -999.25        -999.25        -999.25        -44.908       2.474499              1
      2313.5000         1.4117        -999.25        -999.25        -999.25        -999.25       -44.9605       2.418633              1
      2314.0000         1.4238        -999.25        -999.25        -999.25        -999.25       -45.2732       2.102562              1
      2314.5000         1.4328        -999.25        -999.25        -999.25        -999.25        -46.067       1.305397              1
      2315.0000         1.4452        -999.25        -999.25        -999.25        -999.25       -46.8071      0.5619316              1
      2315.5000         1.4622        -999.25        -999.25        -999.25        -999.25       -47.5473     -0.1816368              1
      2316.0000         1.4821        -999.25        -999.25        -999.25        -999.25       -48.0543     -0.6920013              1
      2316.5000         1.5004        -999.25        -999.25        -999.25        -999.25       -48.5273      -1.168373              1
      2317.0000         1.5066        -999.25        -999.25        -999.25        -999.25       -48.9567      -1.601135              1
      2317.5000         1.4787        -999.25        -999.25        -999.25        -999.25       -49.1397      -1.787506              1
      2318.0000         1.4516        -999.25        -999.25        -999.25        -999.25       -48.8586      -1.509773              1
      2318.5000          1.425        -999.25        -999.25        -999.25        -999.25       -48.5163      -1.170837              1
      2319.0000         1.4058        -999.25        -999.25        -999.25        -999.25        -48.196     -0.8539047              1
      2319.5000         1.3975        -999.25        -999.25        -999.25        -999.25       -48.2724       -0.93367              1
      2320.0000         1.3924        -999.25        -999.25        -999.25        -999.25       -48.3488      -1.013439              1
      2320.5000         1.3963        -999.25        -999.25        -999.25        -999.25       -48.3966      -1.064606              1
      2321.0000         1.4004        -999.25        -999.25        -999.25        -999.25       -48.4391       -1.11047              1
      2321.5000         1.4054        -999.25        -999.25        -999.25        -999.25       -48.3293       -1.00404              1
      2322.0000         1.4105        -999.25        -999.25        -999.25        -999.25       -47.8461     -0.5242081              1
      2322.5000         1.4143        -999.25        -999.25        -999.25        -999.25       -47.3629    -0.04437256              1
      2323.0000         1.4099        -999.25        -999.25        -999.25        -999.25       -46.7731       0.542057              1
      2323.5000         1.4047        -999.25        -999.25        -999.25        -999.25        -46.139       1.172794              1
      2324.0000          1.396        -999.25        -999.25        -999.25        -999.25        -46.108       1.200424              1
      2324.5000         1.3873        -999.25        -999.25        -999.25        -999.25       -46.6608      0.6442566              1
      2325.0000         1.3774        -999.25        -999.25        -999.25        -999.25       -47.2139     0.08779144              1
      2325.5000         1.3724        -999.25        -999.25        -999.25        -999.25       -46.7686      0.5297241              1
      2326.0000         1.3807        -999.25        -999.25        -999.25        -999.25       -46.3344      0.9605598              1
      2326.5000         1.3824        -999.25        -999.25        -999.25        -999.25       -45.9013       1.390293              1
