#------------------------------------------------------------------------------
# Created by    : vladimir.rabinovich
# Created on    : 09/19/2023 17:20:37
#------------------------------------------------------------------------------
~Version Information Section
VERS.           2.0     :   CWLS log ASCII Standard - VERSION 2.0
WRAP.           NO      :   One line per depth step
~Well Information Section
#MNEM       .UNIT                                         VALUE :DESCRIPTION
#------------------------------------------------------------------------------
STRT        .FT                                             495 :START DEPTH
STOP        .FT                                            7007 :STOP DEPTH
STEP        .FT                                             0.5 :STEP      
NULL        .                                           -999.25 :NULL      
COMP        .                                      SHELL OIL CO :COMPANY   
WELL        .                                OCS 00718 ST00BP00 :WELL      
FLD         .                                           WILDCAT :FIELD     
LOC         .                                                   :LOCATION  
CNTY        .                             GALVESTON LARGE BLOCK :LOCATION  
STAT        .                                             TEXAS :STATE     
CTRY        .                                     UNITED STATES :COUNTRY   
SRVC        .                                                   :SERVICE COMPANY
DATE        .                             9/13/2023 11:19:25 AM :LOG DATE  
API         .                                    42706000330000 :API NUMBER
UWI         .                                    42706000330000 :UNIQUE WELL ID
XCOORD      .                                  1012682.17104467 :SURFACE X 
YCOORD      .                                  10442833.5651685 :SURFACE Y 
LAT         .                                         28.761679 :LATITUDE  
LON         .                                        -94.959691 :LONGITUDE 
ELEV        .FT                                              75 :ELEVATION VALUE
ELEV_TYPE   .                                                KB :ELEVATION REFERENCE TYPE
~Curve Information Section
#MNEM       .UNIT                                      API CODE :CURVE DESCRIPTION
#------------------------------------------------------------------------------
DEPT        .FT                                                 :DEPTH     
ASN         .OHMM                                               :          
CILD        .MMHO                                               :          
DT          .US/F                                               :          
ILD         .OHMM                                               :          
LAT         .OHMM                                               :          
LN          .OHMM                                               :          
SP          .MV                                                 :          
SP_NORM     .MV                                                 :SP Normalized
VSH_SP      .V/V                                                :Volume of Shale from SP
~A        DEPTH            ASN           CILD             DT            ILD            LAT             LN             SP        SP_NORM         VSH_SP
# ...
      5689.0000         0.9923       1476.428        76.0645         0.7389        -999.25        -999.25       -44.6334      -5.373647      0.9173285
      5689.5000         0.9851       1454.051        75.3949         0.7459        -999.25        -999.25       -44.5991      -5.333866      0.9179406
      5690.0000         0.9916       1431.695        74.5524         0.7478        -999.25        -999.25       -44.8004      -5.567328      0.9143488
      5690.5000         0.9814       1409.318        74.3177         0.7624        -999.25        -999.25       -45.2816      -6.125407       0.905763
      5691.0000         1.0004       1388.652        75.2943         0.7802        -999.25        -999.25       -45.1659      -5.991223      0.9078273
      5691.5000         1.0189       1374.031        76.5597          0.791        -999.25        -999.25        -45.212      -6.044689      0.9070048
      5692.0000         1.0403       1359.422        77.5204         0.8159        -999.25        -999.25       -45.3834       -6.24347      0.9039466
      5692.5000         1.0708       1346.848        77.5125         0.8356        -999.25        -999.25        -45.519      -6.400735      0.9015272
      5693.0000         1.0976        1338.42        77.0466         0.8342        -999.25        -999.25       -45.3596      -6.215868      0.9043713
      5693.5000         1.0925       1329.992        76.2714         0.8297        -999.25        -999.25       -44.3801       -5.07988       0.921848
      5694.0000         1.0821       1321.564        75.5696         0.8247        -999.25        -999.25       -43.0419      -3.527885      0.9457248
      5694.5000         1.0851       1314.848        74.7231         0.8161        -999.25        -999.25       -41.6336      -1.894587      0.9708525
      5695.0000         1.0894       1310.377        73.8496         0.8112        -999.25        -999.25       -40.3283     -0.3807509      0.9941423
      5695.5000         1.0913       1305.904        73.8354         0.8012        -999.25        -999.25       -39.5223      0.5540181              1
      5696.0000         1.0831       1313.059        74.0391          0.791        -999.25        -999.25       -39.3943      0.7024703              1
      5696.5000         1.0824         1321.9        74.2174         0.7773        -999.25        -999.25       -39.8845      0.1339543              1
      5697.0000         1.0813       1330.742        74.6237         0.7629        -999.25        -999.25       -40.6917     -0.8022082      0.9876583
      5697.5000         1.0734       1348.402         75.124         0.7502        -999.25        -999.25       -41.5906      -1.844718      0.9716197
      5698.0000         1.0539       1396.018        75.6443         0.7579        -999.25        -999.25       -42.1723      -2.519352      0.9612407
      5698.5000         1.0438       1430.801        76.1685         0.7474        -999.25        -999.25       -42.0947      -2.429356      0.9626253
      5699.0000         1.0515        1450.25         76.713         0.7395        -999.25        -999.25        -41.902       -2.20587      0.9660636
      5699.5000         1.0431       1469.699        77.2892         0.7324        -999.25        -999.25       -41.4989      -1.738371      0.9732558
      5700.0000         1.0371        1489.17         77.579         0.7253        -999.25        -999.25       -41.0602      -1.229581      0.9810834
      5700.5000         1.0197       1511.301        77.9614         0.6653        -999.25        -999.25       -40.6896     -0.7997749      0.9876958
      5701.0000         1.0227       1539.758        77.6013         0.6642        -999.25        -999.25       -40.6401     -0.7423628       0.988579
      5701.5000         1.0336       1568.193        76.2306         0.6606        -999.25        -999.25       -41.2645       -1.46652      0.9774382
      5702.0000         1.0246        1574.85        75.3304         0.6583        -999.25        -999.25       -42.2766      -2.640317      0.9593797
      5702.5000         1.0061       1580.563        74.8772         0.6572        -999.25        -999.25       -43.3453      -3.879755      0.9403115
      5703.0000         0.9875       1586.273        74.5485          0.656        -999.25        -999.25       -44.4423      -5.152015      0.9207382
      5703.5000         1.0145        1591.99        73.7201         0.6549        -999.25        -999.25       -45.3644      -6.221433      0.9042857
      5704.0000          1.025       1591.258        73.0419         0.6538        -999.25        -999.25       -45.6357      -6.536078      0.8994449
      5704.5000         1.0355       1585.682          73.46         0.6595        -999.25        -999.25       -44.1219      -4.780427       0.926455
      5705.0000          1.045       1580.098        73.8842         0.6659        -999.25        -999.25       -42.7739      -3.217066      0.9505067
      5705.5000         1.0443        1574.52        73.6831         0.6728        -999.25        -999.25       -43.4738      -4.028787      0.9380187
      5706.0000         1.0388       1568.943        73.5731           0.68        -999.25        -999.25       -44.4684      -5.182285      0.9202725
      5706.5000          1.035       1563.359        74.4189          0.683        -999.25        -999.25       -44.8405      -5.613834      0.9136333
      5707.0000         1.0325       1557.781        75.5815         0.6818        -999.25        -999.25       -44.8154      -5.584723      0.9140812
      5707.5000         1.0383       1539.223         76.441         0.6785        -999.25        -999.25       -45.3763      -6.235237      0.9040733
      5708.0000          1.044       1519.416        77.2563         0.6976        -999.25        -999.25       -46.2763      -7.279021      0.8880151
      5708.5000         1.0462       1499.609        78.0321         0.7169        -999.25        -999.25       -47.2363      -8.392397      0.8708862
      5709.0000          1.067       1479.826        78.4978         0.7351        -999.25        -999.25       -47.9127       -9.17686      0.8588175
      5709.5000         1.0991       1448.283        78.1667         0.7537        -999.25        -999.25       -48.6447      -10.02581      0.8457568
      5710.0000         1.1144       1409.342        77.6873         0.7689        -999.25        -999.25       -48.0266      -9.308956      0.8567853
      5710.5000         1.1207       1382.359        77.1025         0.7857        -999.25        -999.25       -47.1981      -8.348093      0.8715678
      5711.0000         1.1376       1356.092        75.8699         0.8043        -999.25        -999.25       -47.0175      -8.138641      0.8747901
      5711.5000         1.1591       1329.848        74.5094         0.8236        -999.25        -999.25        -46.973      -8.087029      0.8755842
      5712.0000         1.1676       1304.273        73.3027         0.8508        -999.25        -999.25        -46.822      -7.911904      0.8782784
      5712.5000         1.1686       1279.102        72.6381         0.8768        -999.25        -999.25       -45.3967      -6.258897      0.9037093
      5713.0000         1.1688       1256.691        72.6863           0.89        -999.25        -999.25       -44.1253      -4.784373      0.9263943
      5713.5000         1.1699       1247.225        72.8002         0.8881        -999.25        -999.25       -43.5061      -4.066246      0.9374424
      5714.0000         1.1782       1237.768        72.5233         0.8775        -999.25        -999.25        -43.491      -4.048735      0.9377118
      5714.5000         1.1871       1228.313        72.1168         0.8684        -999.25        -999.25       -43.5027      -4.062304       0.937503
      5715.0000         1.1918       1218.855        71.9633         0.8642        -999.25        -999.25       -43.2386      -3.756011      0.9422152
