#------------------------------------------------------------------------------
# Created by    : vladimir.rabinovich
# Created on    : 09/19/2023 17:20:28
#------------------------------------------------------------------------------
~Version Information Section
VERS.           2.0     :   CWLS log ASCII Standard - VERSION 2.0
WRAP.           NO      :   One line per depth step
~Well Information Section
#MNEM       .UNIT                                         VALUE :DESCRIPTION
#------------------------------------------------------------------------------
STRT        .FT                                            2653 :START DEPTH
STOP        .FT                                           10423 :STOP DEPTH
STEP        .FT                                             0.5 :STEP      
NULL        .                                           -999.25 :NULL      
COMP        .                                       MONSANTO CO :COMPANY   
WELL        .                                     ST TR 00150-L :WELL      
FLD         .                                           WILDCAT :FIELD     
LOC         .                                                   :LOCATION  
CNTY        .                             GALVESTON LARGE BLOCK :LOCATION  
STAT        .                                             TEXAS :STATE     
CTRY        .                                     UNITED STATES :COUNTRY   
SRVC        .                                                   :SERVICE COMPANY
DATE        .                             9/13/2023 11:19:24 AM :LOG DATE  
API         .                                    42706300340000 :API NUMBER
UWI         .                                    42706300340000 :UNIQUE WELL ID
XCOORD      .                                  1113316.22146511 :SURFACE X 
YCOORD      .                                  10612518.3672968 :SURFACE Y 
LAT         .                                         29.232517 :LATITUDE  
LON         .                                       -94.6530532 :LONGITUDE 
ELEV        .FT                                              81 :ELEVATION VALUE
ELEV_TYPE   .                                                KB :ELEVATION REFERENCE TYPE
~Curve Information Section
#MNEM       .UNIT                                      API CODE :CURVE DESCRIPTION
#------------------------------------------------------------------------------
DEPT        .FT                                                 :DEPTH     
ASN         .OHMM                                               :          
CILD        .MMHO                                               :          
ILD         .OHMM                                               :          
SP          .MV                                                 :          
SP_NORM     .MV                                                 :SP Normalized
VSH_SP      .V/V                                                :Volume of Shale from SP
~A        DEPTH            ASN           CILD            ILD             SP        SP_NORM         VSH_SP
# ...
      3185.0000         0.8336       1621.367         0.6483       -69.7035      -9.859421      0.7231431
      3185.5000         0.8379       1589.949         0.6612       -70.5035      -10.67918      0.6975256
      3186.0000         0.8421       1539.846         0.6742       -69.9846      -10.18003      0.7131239
      3186.5000         0.8464       1489.766         0.6838       -69.0607      -9.275894      0.7413783
      3187.0000         0.8507       1439.662         0.6931       -67.4508      -7.685753      0.7910702
      3187.5000         0.8565       1412.152         0.7023       -66.1824      -6.437115      0.8300902
      3188.0000         0.8623       1394.805         0.7115       -65.1501      -5.424572      0.8617321
      3188.5000         0.8681       1377.455          0.718       -64.6648      -4.959034      0.8762802
      3189.0000         0.8684       1360.107         0.7233       -64.2395       -4.55349      0.8889534
      3189.5000         0.8577       1342.746          0.726       -63.9548      -4.288548      0.8972329
      3190.0000         0.8452       1325.877         0.7259       -64.1552      -4.508701      0.8903531
      3190.5000         0.8306       1322.867         0.7258       -64.3557      -4.728962      0.8834699
      3191.0000         0.8361       1356.385         0.7257       -65.1705      -5.563522      0.8573899
      3191.5000         0.8416       1436.639         0.7145       -66.0913      -6.504082      0.8279974
      3192.0000         0.8471       1519.352         0.7017       -68.1385      -8.571033      0.7634052
      3192.5000         0.8526       1652.242         0.6875        -69.709       -10.1613      0.7137095
      3193.0000          0.853       1737.043         0.6597       -71.1958      -11.66785      0.6666296
      3193.5000         0.8449       1805.332         0.6319       -73.3008      -13.79261      0.6002309
      3194.0000         0.8182         1973.5         0.6042       -74.6904      -15.20197      0.5561885
      3194.5000         0.7881         2194.5         0.5707       -75.9761      -16.50743      0.5153929
      3195.0000         0.7666         2415.5         0.5321       -77.3336      -17.88469      0.4723535
      3195.5000           0.75         2636.5         0.4935       -78.7035      -19.27435      0.4289267
      3196.0000         0.7409         2857.5         0.4442       -82.3716       -22.9622      0.3136812
      3196.5000          0.733       3032.906         0.3946       -85.6774      -26.28776      0.2097574
      3197.0000         0.7293       3171.102         0.3491        -88.074      -28.70412      0.1342463
      3197.5000         0.7255        3388.82          0.309       -88.6792      -29.32908      0.1147163
      3198.0000         0.7217       3563.387         0.2766          -89.2      -29.86963     0.09782398
      3198.5000         0.7244        3708.07         0.2652       -89.7203      -30.40969     0.08094704
      3199.0000          0.743       3860.031         0.2617       -89.4586      -30.16776     0.08850765
      3199.5000         0.7635       4000.504         0.2593       -89.1178      -29.84671     0.09854031
      3200.0000         0.7841       4005.184          0.257       -90.0326      -30.78127     0.06933522
      3200.5000         0.7961       4009.863         0.2546       -90.9479      -31.71633     0.04011476
      3201.0000         0.8028       4014.547         0.2522       -91.6064      -32.39459     0.01891911
      3201.5000         0.8004        4032.07          0.251       -91.9915      -32.79945    0.006267309
      3202.0000         0.7899       4048.277         0.2504       -92.1195       -32.9472    0.001649857
      3202.5000         0.7793       4026.422         0.2497       -92.0229      -32.87037    0.004051089
      3203.0000         0.7673       4004.574         0.2491       -91.9296      -32.79683    0.006349206
      3203.5000         0.7538        3983.48         0.2484        -91.859      -32.74598    0.007938147
      3204.0000         0.7395        3963.82         0.2478       -91.7885      -32.69524    0.009523869
      3204.5000         0.7205       3949.668         0.2472       -91.7178      -32.64429     0.01111591
      3205.0000         0.7039       3945.465          0.247       -91.6472      -32.59346     0.01270449
      3205.5000         0.6889       3946.652          0.247       -91.5767      -32.54271      0.1474943
      3206.0000         0.6786       3983.051         0.2469       -91.5161      -32.50187      0.1485981
      3206.5000         0.6729       4069.152         0.2468       -91.5328      -32.53833      0.1476128
      3207.0000         0.6724         4111.5         0.2468       -91.5494      -32.57469        0.14663
      3207.5000         0.6789       4135.359         0.2467       -91.7161      -32.76115      0.1415906
      3208.0000         0.6919       4159.211         0.2466       -92.0188       -33.0836      0.1328756
      3208.5000         0.7048        4183.07         0.2466       -92.3217      -33.40626      0.1241551
      3209.0000         0.7194       4214.969         0.2465       -92.6246      -33.72892      0.1154345
      3209.5000         0.7388       4246.945         0.2469       -92.8964      -34.02048      0.1075547
      3210.0000         0.7028       4264.789         0.2474       -93.0527      -34.19653      0.1027964
      3210.5000         0.6505       4281.758         0.2479       -92.9746       -34.1382      0.1043731
      3211.0000         0.6368       4284.523         0.2484       -92.5905      -33.77385      0.1142202
      3211.5000         0.6232       4263.695         0.2489       -91.9918      -33.19491      0.1298673
      3212.0000         0.6095       4242.867         0.2494       -91.0616      -32.28447      0.1544738
      3212.5000         0.5965         4178.5         0.2499        -90.131      -31.37363      0.1790912
      3213.0000         0.5861       4109.055         0.2637       -89.2009      -30.46328       0.203695
      3213.5000         0.5905       4021.531         0.2775       -88.1145      -29.39665       0.232523
      3214.0000         0.5986           3817         0.2913       -86.2532       -27.5551      0.2822946
      3214.5000         0.6147       3570.855         0.3121       -84.3917      -25.71336      0.3320712
      3215.0000         0.6307           3204         0.3377       -82.1846      -23.52602      0.3911887
      3215.5000         0.6497           2829         0.3633        -78.949      -20.31018      0.4781033
      3216.0000         0.6783        2453.75         0.4009       -75.1991      -16.58003       0.578918
      3216.5000         0.7068        2078.75         0.4587       -68.6318      -10.03249      0.7558786
      3217.0000         0.7465         1703.5         0.5165       -63.8449       -5.26535      0.8847203
      3217.5000         0.7909       1483.475         0.5756       -61.0608      -2.501011      0.9594321
      3218.0000         0.8699       1298.195         0.6376       -60.3838      -1.843769      0.9771954
      3218.5000         0.9381       1173.512         0.6849       -60.5275      -2.007229      0.9727776
      3219.0000         0.9973       1147.439         0.7164       -61.0245      -2.523987      0.9588112
      3219.5000         1.0407       1153.189         0.7478       -61.6528      -3.172047       0.941296
      3220.0000         1.0517       1188.697         0.7745       -62.2812      -3.820202      0.9237784
      3220.5000         1.0363       1224.205         0.7804       -62.8207      -4.379463      0.9086632
      3221.0000         1.0166       1259.764         0.7754       -63.3125      -4.891018      0.8948374
      3221.5000         0.9992       1295.418         0.7704       -63.8043      -5.402576      0.8810114
      3222.0000         0.9827        1309.77         0.7639        -64.296      -5.914032      0.8671883
      3222.5000         0.9661       1301.199         0.7557       -64.7878      -6.425598      0.8533622
