#------------------------------------------------------------------------------
# Created by    : vladimir.rabinovich
# Created on    : 09/19/2023 17:20:23
#------------------------------------------------------------------------------
~Version Information Section
VERS.           2.0     :   CWLS log ASCII Standard - VERSION 2.0
WRAP.           NO      :   One line per depth step
~Well Information Section
#MNEM       .UNIT                                         VALUE :DESCRIPTION
#------------------------------------------------------------------------------
STRT        .FT                                            3532 :START DEPTH
STOP        .FT                                           13690 :STOP DEPTH
STEP        .FT                                             0.5 :STEP      
NULL        .                                           -999.25 :NULL      
COMP        .                              VASTAR RESOURCES INC :COMPANY   
WELL        .                                     ST TR 00023-L :WELL      
FLD         .                          HIGH ISLAND BLOCK 0024-L :FIELD     
LOC         .                                                   :LOCATION  
CNTY        .                           HIGH ISLAND LARGE BLOCK :LOCATION  
STAT        .                                             TEXAS :STATE     
CTRY        .                                     UNITED STATES :COUNTRY   
SRVC        .                                                   :SERVICE COMPANY
DATE        .                             9/13/2023 11:19:15 AM :LOG DATE  
API         .                                    42708300330000 :API NUMBER
UWI         .                                    42708300330000 :UNIQUE WELL ID
XCOORD      .                                  1290562.53578251 :SURFACE X 
YCOORD      .                                  10712997.1214806 :SURFACE Y 
LAT         .                                        29.5146054 :LATITUDE  
LON         .                                       -94.1002609 :LONGITUDE 
ELEV        .FT                                              79 :ELEVATION VALUE
ELEV_TYPE   .                                                KB :ELEVATION REFERENCE TYPE
~Curve Information Section
#MNEM       .UNIT                                      API CODE :CURVE DESCRIPTION
#------------------------------------------------------------------------------
DEPT        .FT                                                 :DEPTH     
ASN         .OHMM                                               :          
CILD        .MMHO                                               :          
ILD         .OHMM                                               :          
SP          .MV                                                 :          
SP_NORM     .MV                                                 :SP Normalized
VSH_SP      .V/V                                                :Volume of Shale from SP
~A        DEPTH            ASN           CILD            ILD             SP        SP_NORM         VSH_SP
# ...
      4862.0000         0.5925       2018.992         0.4875        -68.332       0.827034              1
      4862.5000         0.5972       1991.859         0.4843       -68.5034        0.66082              1
      4863.0000         0.6019       1926.344         0.4814       -68.6748      0.4946136              1
      4863.5000         0.6066       1943.752         0.4854       -68.8463      0.3283081              1
      4864.0000         0.6115       1961.285         0.4894       -69.0177      0.1620941              1
      4864.5000         0.6169       1988.359         0.4934       -69.1892   -0.004707336              1
      4865.0000         0.6224       2004.113         0.4975       -69.3632     -0.1744919              1
      4865.5000         0.6067       2004.752         0.5015       -69.5985     -0.4055786              1
      4866.0000         0.5871       2005.393         0.5055       -69.8337     -0.6365662              1
      4866.5000         0.5675       2006.033         0.5035       -70.0693     -0.8679504              1
      4867.0000         0.5479       2006.674         0.4963       -70.3046      -1.099037      0.9988872
      4867.5000         0.5345       2041.477         0.4892       -71.2303      -2.020523      0.9885334
      4868.0000         0.5317       2091.805         0.4821       -72.2932      -3.079208      0.9766381
      4868.5000         0.5879       2136.125         0.4749       -75.6716      -6.453392      0.9387259
      4869.0000         0.6458       2178.488         0.4568       -79.1635      -9.941078      0.8995385
      4869.5000         0.7037       2226.906         0.4356       -85.8115      -16.58487      0.8248891
      4870.0000         0.7362       2313.961         0.4143      -123.1559      -53.92505      0.4053365
      4870.5000          0.765       2442.809          0.393      -129.1182      -59.88313      0.3383918
      4871.0000         0.7938       2580.789         0.3787      -133.7346      -64.49533      0.2865693
      4871.5000         0.8226       2739.715         0.3698      -138.1631      -68.91962      0.2368582
      4872.0000         0.8271       3049.027         0.3609      -143.2847      -74.03699      0.1793596
      4872.5000         0.8238       3130.527          0.352      -148.1111      -78.85918      0.1251777
      4873.0000         0.8203       3156.316         0.3431      -151.4407      -82.18458     0.08781373
      4873.5000         0.8157        3165.02         0.3342      -154.0623      -84.80196     0.05840499
      4874.0000          0.811       3173.727         0.3302      -156.1292      -86.86464     0.03522877
      4874.5000         0.8063       3182.422         0.3263      -157.5801      -88.31133     0.01897388
      4875.0000         0.8046       3191.129         0.3224      -158.8696      -89.59661    0.004532461
      4875.5000          0.821       3231.777         0.3185      -159.8213      -90.54411              0
      4876.0000         0.8375       3284.141         0.3146      -160.3828      -91.10139              0
      4876.5000          0.854       3437.754         0.3107      -160.9436      -91.65797              0
      4877.0000         0.8705       3543.871         0.3068      -161.5046      -92.21475              0
      4877.5000          0.887       3625.543         0.3029      -161.9714      -92.67735              0
      4878.0000         0.9035       3664.629          0.299      -162.3748      -93.07654              0
      4878.5000         0.9093       3703.738         0.2939      -162.7781      -93.47562              0
      4879.0000         0.9004        3742.23         0.2882      -163.1814       -93.8747              0
      4879.5000         0.8915       3730.328         0.2824      -163.5847       -94.2738              0
      4880.0000         0.8852       3718.418         0.2767      -163.8013      -94.48618              0
      4880.5000         0.8797       3703.551          0.271      -163.8372      -94.51787              0
      4881.0000         0.8742       3688.438         0.2653      -163.7341      -94.41055              0
      4881.5000         0.8687       3673.324         0.2595      -163.6311      -94.30334              0
      4882.0000         0.8633       3658.227         0.2538      -163.5278      -94.19582              0
      4882.5000         0.8578       3646.488         0.2481      -163.4163      -94.08012              0
      4883.0000         0.8523       3683.637         0.2429       -163.293      -93.95259              0
      4883.5000         0.8468       3720.789         0.2381      -163.1697      -93.82507              0
      4884.0000         0.8476       3782.805         0.2333      -163.0464      -93.69757              0
      4884.5000         0.8549       3853.582         0.2285      -162.9231      -93.57005              0
      4885.0000         0.8621       3928.078         0.2237      -162.7998      -93.44254              0
      4885.5000         0.8694       3988.707         0.2189      -162.6765      -93.31503              0
      4886.0000         0.8766       3996.617         0.2142      -161.8765      -92.51081              0
      4886.5000         0.8839       4003.844         0.2116      -160.4949        -91.125              0
      4887.0000         0.8777        4011.07         0.2106       -159.114      -89.73988    0.002922658
      4887.5000         0.8595       4018.297         0.2096      -157.7329      -88.35457       0.018488
      4888.0000         0.8413       4025.523         0.2085      -156.3513      -86.96876      0.0340589
      4888.5000         0.8231       4772.672         0.2075      -155.6226      -86.23585     0.04229385
      4889.0000          0.805       4832.828         0.2065      -154.9551      -85.56413     0.04984129
      4889.5000         0.7973       4881.461         0.2073       -154.927      -85.53181     0.05020433
      4890.0000          0.795       4914.992         0.2085      -155.7622      -86.36281     0.04086732
      4890.5000         0.7928       4846.227         0.2097      -156.5964      -87.19279     0.03154163
      4891.0000          0.794       4696.336         0.2108       -156.627      -87.21917     0.03124529
      4891.5000         0.8046       4525.297          0.212       -153.384      -83.97196     0.06773076
      4892.0000         0.8153       4013.875         0.2498      -149.6782      -80.26196      0.1094162
      4892.5000         0.8371       3909.469         0.2906      -145.3125      -75.89204      0.1585165
      4893.0000         0.8617       3617.426         0.3314      -140.5266      -71.10191       0.212338
      4893.5000         0.8863       3325.188         0.3722      -133.7087       -64.2798       0.288991
      4894.0000         0.9109       3032.945         0.4298      -119.4097      -49.97659      0.4497012
      4894.5000         0.9349       2740.906          0.523      -108.9232      -39.48588      0.5675744
      4895.0000         0.9587       2448.664         0.6162      -102.9941      -33.55257      0.6342408
      4895.5000         0.9787       2156.625         0.7094       -90.5754      -21.12965      0.7738241
      4896.0000         0.9553       2035.719         0.7827       -84.6298      -15.17983      0.8406761
      4896.5000         0.9319       1363.355         0.8297       -81.7352      -12.28102       0.873247
      4897.0000         0.9077       1400.803         0.8081       -80.3387      -10.88031      0.8889853
      4897.5000          0.881       1438.252          0.779       -79.0859      -9.623291      0.9031091
      4898.0000         0.8543       1479.844         0.7499       -77.8333      -8.366478      0.9172306
      4898.5000         0.8276       1534.539         0.7208       -76.9041      -7.433067      0.9277183
      4899.0000         0.8009       1589.236         0.6917       -76.0854      -6.610161      0.9369645
      4899.5000         0.7871       1610.875         0.6711        -75.267      -5.787537      0.9462075
