#------------------------------------------------------------------------------
# Created by    : vladimir.rabinovich
# Created on    : 09/19/2023 17:20:32
#------------------------------------------------------------------------------
~Version Information Section
VERS.           2.0     :   CWLS log ASCII Standard - VERSION 2.0
WRAP.           NO      :   One line per depth step
~Well Information Section
#MNEM       .UNIT                                         VALUE :DESCRIPTION
#------------------------------------------------------------------------------
STRT        .FT                                             502 :START DEPTH
STOP        .FT                                            9122 :STOP DEPTH
STEP        .FT                                             0.5 :STEP      
NULL        .                                           -999.25 :NULL      
COMP        .                       BLUE DOLPHIN EXPLORATION CO :COMPANY   
WELL        .                                OCS 00714 ST00BP00 :WELL      
FLD         .                              GALVESTON BLOCK 0288 :FIELD     
LOC         .                                                   :LOCATION  
CNTY        .                             GALVESTON LARGE BLOCK :LOCATION  
STAT        .                                             TEXAS :STATE     
CTRY        .                                     UNITED STATES :COUNTRY   
SRVC        .                                                   :SERVICE COMPANY
DATE        .                             9/13/2023 11:19:24 AM :LOG DATE  
API         .                                    42706000680000 :API NUMBER
UWI         .                                    42706000680000 :UNIQUE WELL ID
XCOORD      .                                  1088404.51782723 :SURFACE X 
YCOORD      .                                  10474534.8869196 :SURFACE Y 
LAT         .                                        28.8520809 :LATITUDE  
LON         .                                       -94.7248272 :LONGITUDE 
ELEV        .FT                                              85 :ELEVATION VALUE
ELEV_TYPE   .                                                KB :ELEVATION REFERENCE TYPE
~Curve Information Section
#MNEM       .UNIT                                      API CODE :CURVE DESCRIPTION
#------------------------------------------------------------------------------
DEPT        .FT                                                 :DEPTH     
ASN         .OHMM                                               :          
ASN_1       .OHMM                                               :          
DT          .US/F                                               :          
ILD         .OHMM                                               :          
LAT         .OHMM                                               :          
LN          .OHMM                                               :          
SP          .MV                                                 :          
SP_NORM     .MV                                                 :SP Normalized
VSH_SP      .V/V                                                :Volume of Shale from SP
~A        DEPTH            ASN          ASN_1             DT            ILD            LAT             LN             SP        SP_NORM         VSH_SP
# ...
      1217.5000        -999.25         1.3405        -999.25        -999.25         1.7216         1.1904       -36.9455      -4.347927      0.8712336
      1218.0000        -999.25         1.3233        -999.25        -999.25          1.702         1.2058       -36.3408      -3.748627      0.8942836
      1218.5000        -999.25         1.2926        -999.25        -999.25         1.7168         1.2348       -35.4995       -2.91272      0.9264339
      1219.0000        -999.25         1.2763        -999.25        -999.25         1.7513         1.2678       -34.9103      -2.328915      0.9488879
      1219.5000        -999.25         1.2774        -999.25        -999.25         1.8021          1.298       -34.8109      -2.234909      0.9525035
      1220.0000        -999.25         1.2848        -999.25        -999.25         1.7663         1.3277       -35.5873      -3.016705      0.9224344
      1220.5000        -999.25         1.2955        -999.25        -999.25         1.7095         1.3569       -36.3947      -3.829498      0.8911731
      1221.0000        -999.25         1.3091        -999.25        -999.25         1.6431         1.3852       -36.7905      -4.230694      0.8757426
      1221.5000        -999.25         1.3122        -999.25        -999.25          1.576         1.3964       -36.2773      -3.722889      0.8952735
      1222.0000        -999.25         1.3335        -999.25        -999.25         1.5386         1.3998       -35.6982      -3.149181      0.9173392
      1222.5000        -999.25         1.3671        -999.25        -999.25         1.5284         1.3797       -35.2446      -2.700977      0.9345778
      1223.0000        -999.25         1.3923        -999.25        -999.25         1.5416          1.358       -34.8441      -2.305874      0.9497741
      1223.5000        -999.25          1.406        -999.25        -999.25           1.62         1.3307       -34.3503      -1.817467       0.968559
      1224.0000        -999.25         1.4066        -999.25        -999.25         1.6969         1.3025        -33.951      -1.423561      0.9837092
      1224.5000        -999.25         1.4013        -999.25        -999.25         1.7709         1.2708       -33.3016     -0.7795601              1
      1225.0000        -999.25         1.3954        -999.25        -999.25          1.817         1.2385       -33.3603     -0.8436508              1
      1225.5000        -999.25         1.3928        -999.25        -999.25         1.8509         1.2051       -33.5594      -1.048145      0.9981483
      1226.0000        -999.25         1.4021        -999.25        -999.25         1.8627          1.182       -33.7576       -1.25174      0.9903177
      1226.5000        -999.25         1.3955        -999.25        -999.25         1.8758         1.1741       -33.9315      -1.431038      0.9834216
      1227.0000        -999.25          1.365        -999.25        -999.25         1.8909         1.1757       -33.8776      -1.382534      0.9852871
      1227.5000        -999.25         1.3285        -999.25        -999.25         1.9657         1.1875       -33.6116      -1.121925      0.9953105
      1228.0000        -999.25         1.3115        -999.25        -999.25         2.0563          1.212        -33.189     -0.7047195              1
      1228.5000        -999.25         1.3308        -999.25        -999.25         2.1396         1.2412       -32.6141     -0.1352196              1
      1229.0000        -999.25         1.4207        -999.25        -999.25         2.1933         1.2808        -31.808      0.6654873              1
      1229.5000        -999.25         1.5022        -999.25        -999.25         2.1976         1.3227       -31.3574       1.110693              1
      1230.0000        -999.25         1.5688        -999.25        -999.25          2.116         1.3598       -32.4681   -0.005401611              1
      1230.5000        -999.25         1.6215        -999.25        -999.25         2.0017         1.3969       -33.7092        -1.2519      0.9903116
      1231.0000        -999.25         1.6308        -999.25        -999.25         1.8903         1.4354       -34.5422       -2.09029      0.9580657
      1231.5000        -999.25         1.6139        -999.25        -999.25         1.8012         1.4707       -35.1182      -2.671684      0.9357045
      1232.0000        -999.25         1.5828        -999.25        -999.25         1.7358         1.4876       -35.5841      -3.142979      0.9175777
      1232.5000        -999.25         1.5364        -999.25        -999.25         1.6859         1.4962       -35.7604      -3.324673      0.9105895
      1233.0000        -999.25         1.4721        -999.25        -999.25         1.6826         1.4829       -35.3355       -2.90517      0.9267242
      1233.5000        -999.25         1.4193        -999.25        -999.25         1.6932         1.4668       -34.0433      -1.618366      0.9762167
      1234.0000        -999.25         1.3602        -999.25        -999.25         1.7186         1.4446       -33.2142     -0.7946587              1
      1234.5000        -999.25          1.318        -999.25        -999.25         1.7708         1.4233       -32.5218     -0.1076546              1
      1235.0000        -999.25         1.2961        -999.25        -999.25         1.8354         1.4065       -32.1183      0.2904472              1
      1235.5000        -999.25         1.2847        -999.25        -999.25         1.8811         1.3897       -31.9328      0.4705544              1
      1236.0000        -999.25         1.2779        -999.25        -999.25         1.8961         1.3678       -31.9557      0.4422607              1
      1236.5000        -999.25         1.2825        -999.25        -999.25         1.8885         1.3449        -32.412    -0.01943207              1
      1237.0000        -999.25         1.2939        -999.25        -999.25         1.8567         1.3281       -32.8854       -0.49823              1
      1237.5000        -999.25         1.3085        -999.25        -999.25         1.8137         1.3181       -33.3533     -0.9715233              1
      1238.0000        -999.25         1.3091        -999.25        -999.25         1.8161         1.3057       -33.6995       -1.32312      0.9875723
      1238.5000        -999.25         1.3089        -999.25        -999.25         1.8457         1.2869        -33.324     -0.9530144              1
      1239.0000        -999.25         1.3267        -999.25        -999.25         1.8969         1.2635       -32.1462      0.2193909              1
      1239.5000        -999.25         1.3442        -999.25        -999.25         1.9668         1.2299       -32.0088      0.3513947              1
      1240.0000        -999.25          1.359        -999.25        -999.25         2.0407         1.2035       -32.2225      0.1323013              1
      1240.5000        -999.25         1.3624        -999.25        -999.25         2.0713         1.1853       -32.4531     -0.1036911              1
      1241.0000        -999.25         1.3473        -999.25        -999.25         2.0954          1.167       -32.7027     -0.3586922              1
      1241.5000        -999.25         1.3446        -999.25        -999.25         2.1072         1.1589       -32.9078     -0.5691833              1
      1242.0000        -999.25         1.3543        -999.25        -999.25         2.1237         1.1518       -32.8082     -0.4749794              1
      1242.5000        -999.25         1.3587        -999.25        -999.25         2.1556         1.1468       -32.2691     0.05872726              1
      1243.0000        -999.25         1.3559        -999.25        -999.25          2.188         1.1448       -31.4866      0.8358326              1
      1243.5000        -999.25         1.3474        -999.25        -999.25         2.2257         1.1429       -31.2625       1.054535              1
