#------------------------------------------------------------------------------
# Created by    : vladimir.rabinovich
# Created on    : 09/19/2023 17:21:35
#------------------------------------------------------------------------------
~Version Information Section
VERS.           2.0     :   CWLS log ASCII Standard - VERSION 2.0
WRAP.           NO      :   One line per depth step
~Well Information Section
#MNEM       .UNIT                                         VALUE :DESCRIPTION
#------------------------------------------------------------------------------
STRT        .FT                                            3376 :START DEPTH
STOP        .FT                                            7813 :STOP DEPTH
STEP        .FT                                             0.5 :STEP      
NULL        .                                           -999.25 :NULL      
COMP        .                                MARINER ENERGY INC :COMPANY   
WELL        .                               OCS G27491 ST00BP00 :WELL      
FLD         .                                           WILDCAT :FIELD     
LOC         .                                                   :LOCATION  
CNTY        .                             GALVESTON LARGE BLOCK :LOCATION  
STAT        .                                             TEXAS :STATE     
CTRY        .                                     UNITED STATES :COUNTRY   
SRVC        .                                                   :SERVICE COMPANY
DATE        .                             9/13/2023 11:19:33 AM :LOG DATE  
API         .                                    42706404580000 :API NUMBER
UWI         .                                    42706404580000 :UNIQUE WELL ID
XCOORD      .                                  1038987.60828679 :SURFACE X 
YCOORD      .                                  10490484.8642062 :SURFACE Y 
LAT         .                                         28.893877 :LATITUDE  
LON         .                                         -94.87996 :LONGITUDE 
ELEV        .FT                                             110 :ELEVATION VALUE
ELEV_TYPE   .                                                KB :ELEVATION REFERENCE TYPE
~Curve Information Section
#MNEM       .UNIT                                      API CODE :CURVE DESCRIPTION
#------------------------------------------------------------------------------
DEPT        .FT                                                 :DEPTH     
CALI        .IN                                                 :          
DPSS        .%                                                  :          
DRHO        .G/CM3                                              :          
GR          .GAPI                                               :          
GR_NORM     .GAPI                                               :GammaRay Normalized
M2R1        .OHMM                                               :          
M2R2        .OHMM                                               :          
M2R3        .OHMM                                               :          
M2R6        .OHMM                                               :          
M2R9        .OHMM                                               :          
M2RX        .OHMM                                               :          
NPSS        .%                                                  :Neutron Porosity Sandstone
SP          .MV                                                 :          
SP_NORM     .MV                                                 :SP Normalized
TENS        .LB                                                 :          
VSH_GR      .V/V                                                :Volume of Shale from GR
VSH_SP      .V/V                                                :Volume of Shale from SP
~A        DEPTH           CALI           DPSS           DRHO             GR        GR_NORM           M2R1           M2R2           M2R3           M2R6           M2R9           M2RX           NPSS             SP        SP_NORM           TENS         VSH_GR         VSH_SP
# ...
      5791.0000         10.275          19.92          0.076         75.816       73.42751         0.9525         0.9448         0.8239            0.9         0.8739         0.8569          36.84       -43.9935      0.3178787        39.2157      0.8601597              1
      5791.5000         10.275          19.08          0.068         77.826       76.02086         0.8912         0.8569          0.745         0.7859         0.7652         0.7517          36.36       -45.5852      -1.273823        39.2157      0.9153374      0.9787696
      5792.0000         10.235          18.24          0.056         79.836       78.61423         0.8402          0.772          0.669            0.7         0.6812          0.669          35.76       -48.3692      -4.057823        39.2157      0.9705155      0.9323696
      5792.5000         10.195           18.6           0.04         80.246       79.14323         0.7929         0.6937            0.6         0.6165            0.6         0.5892          36.96        -51.946      -7.634621        19.6078      0.9817708      0.8727563
      5793.0000         10.195          21.96           0.02         76.456       74.25324         0.7254          0.611         0.5378         0.5378         0.5233         0.5139          37.44       -59.0933      -14.78192        19.6078      0.8777286      0.7536346
      5793.5000         10.195        25.4694          0.008        68.0916       63.46124         0.6451         0.5428         0.4773         0.4642         0.4514         0.4431          36.48        -68.668      -24.35662        19.6078      0.6481114      0.5940563
      5794.0000         10.195        28.0408          0.004        60.9878       54.29569         0.5838         0.4642          0.419         0.4113         0.4037         0.3962          34.92        -77.848      -33.53662        19.6078      0.4530998      0.4410563
      5794.5000         10.195        28.7755          0.012           54.8       46.31199         0.5281          0.419         0.3887         0.3669         0.3776         0.3705          33.96        -86.628      -42.31662        19.6078      0.2832339       0.294723
      5795.0000         10.275        26.8163           0.02           53.8       45.02177         0.5378          0.419            0.4         0.3669          0.374           0.36          32.88        -91.408      -47.09662        19.6078      0.2557823      0.2150564
      5795.5000         10.315           22.8          0.032             54       45.27981         0.6165         0.4862         0.4431          0.419         0.4349         0.3962          30.72        -92.988      -48.67662        19.6078      0.2612725       0.188723
      5796.0000         10.315          18.24          0.024           55.2       46.82809          0.745         0.5785         0.5139         0.4773         0.5092         0.4642        28.5306        -91.768      -47.45662        19.6078      0.2942146      0.2090563
      5796.5000         10.355        15.2941          0.016           56.4       48.37637            0.9          0.651         0.5946         0.5477         0.5527         0.5233        26.9388        -88.148      -43.83662        19.6078      0.3271568      0.2693896
      5797.0000         10.355             16          0.008           57.2       49.40855         0.9222         0.6812          0.611         0.5629         0.5838         0.5629        27.1837        -83.328      -39.01662        19.6078      0.3491181      0.3497229
      5797.5000         10.355          19.44          0.012           56.6       48.63441         0.8402          0.669         0.5946         0.5527         0.5681         0.5428         28.898        -79.708      -35.39662        19.6078       0.332647      0.4100563
      5798.0000         10.315          22.08           0.02             56       47.86028         0.7652          0.611         0.5578         0.5233         0.5329         0.5092          31.44        -79.288      -34.97662        19.6078      0.3161761      0.4170563
      5798.5000         10.315          23.88          0.024           55.6       47.34418         0.6937         0.5733         0.5233         0.4954            0.5         0.4773          33.48        -81.268      -36.95662        19.6078      0.3051953      0.3840564
      5799.0000         10.315        24.8571          0.032           55.4       47.08614          0.651         0.5477         0.4954         0.4642         0.4729         0.4599          34.68        -82.448      -38.13662        19.6078       0.299705      0.3643897
      5799.5000         10.315        25.8367          0.032           55.6       47.34418         0.6278         0.5281         0.4817         0.4514         0.4556         0.4431          35.04        -83.228      -38.91662        19.6078      0.3051953      0.3513897
      5800.0000         10.275        26.8163          0.024           55.6       47.34418         0.6165         0.5046         0.4599         0.4349          0.439         0.4309           34.2        -84.808      -40.49662        19.6078      0.3051953      0.3250563
      5800.5000         10.275        27.6735         0.0161         55.194       46.82034         0.6055            0.5         0.4514         0.4229         0.4269          0.419        33.5978          -86.8      -42.48862         19.042      0.2940499      0.2918563
      5801.0000         10.275        28.1633         0.0123         53.784       45.00112         0.6222            0.5         0.4514         0.4229         0.4269          0.419        34.4329          -88.4      -44.08862         18.096       0.255343      0.2651896
      5801.5000         10.275         27.551         0.0245         51.374       41.89166         0.6629         0.5139         0.4599         0.4269         0.4309         0.4229        33.9497          -88.8      -44.48862        17.1462      0.1891843      0.2585229
      5802.0000         10.275        24.1224         0.0407        47.5727       36.98711            0.7         0.5378         0.4729          0.439         0.4431         0.4349        30.9566          -89.6      -45.28862        16.1927     0.08483205      0.2451897
      5802.5000         10.275           20.4         0.0409        43.9817       32.35389         0.7384         0.5578         0.4908         0.4514         0.4599         0.4472        27.9184            -92      -47.68862        15.2355              0      0.2051896
      5803.0000         10.275        17.2902         0.0211        42.7844       30.80909         0.7652         0.5785         0.5046         0.4642         0.4729         0.4599        26.9388            -94      -49.68862        14.2744              0      0.1718563
      5803.5000         10.275          18.24         0.0053        43.3777       31.57458          0.772         0.5629         0.5139         0.4773         0.4817         0.4729         28.898            -96      -51.68862        13.3095              0       0.138523
      5804.0000         10.275          22.68         0.0015        43.9698       32.33853         0.7126         0.5477         0.4954         0.4599         0.4642         0.4556        30.9528          -96.8      -52.48862        12.3408              0      0.1251896
      5804.5000         10.275        27.3061         0.0017        44.5608       33.10105         0.6393         0.5092         0.4642         0.4431         0.4431         0.4349        32.6175          -97.2      -52.88862        11.3682    0.002150028       0.118523
      5805.0000         10.275        30.3566         0.0019        44.5563       33.09525         0.5892         0.4773         0.4349         0.4229         0.4229         0.4152        32.9715          -97.2      -52.88862        10.3917    0.002026659       0.118523
      5805.5000         10.315        30.8312         0.0101        44.3538       32.83398         0.5681         0.4685         0.4349          0.419         0.4229         0.4152        32.7311          -96.8      -52.48862         9.4113              0      0.1251896
