#------------------------------------------------------------------------------
# Created by    : vladimir.rabinovich
# Created on    : 09/19/2023 17:22:29
#------------------------------------------------------------------------------
~Version Information Section
VERS.           2.0     :   CWLS log ASCII Standard - VERSION 2.0
WRAP.           NO      :   One line per depth step
~Well Information Section
#MNEM       .UNIT                                         VALUE :DESCRIPTION
#------------------------------------------------------------------------------
STRT        .FT                                             272 :START DEPTH
STOP        .FT                                            9222 :STOP DEPTH
STEP        .FT                                             0.5 :STEP      
NULL        .                                           -999.25 :NULL      
COMP        .                   MCMORAN OFFSHORE EXPLORATION CO :COMPANY   
WELL        .                               OCS G03108 ST00BP00 :WELL      
FLD         .                       MATAGORDA ISLAND BLOCK 0700 :FIELD     
LOC         .                                                   :LOCATION  
CNTY        .                      MATAGORDA ISLAND LARGE BLOCK :LOCATION  
STAT        .                                             TEXAS :STATE     
CTRY        .                                     UNITED STATES :COUNTRY   
SRVC        .                                                   :SERVICE COMPANY
DATE        .                             9/13/2023 11:12:09 AM :LOG DATE  
API         .                                    42703400850000 :API NUMBER
UWI         .                                    42703400850000 :UNIQUE WELL ID
XCOORD      .                                  483045.974763742 :SURFACE X 
YCOORD      .                                  10146137.6323278 :SURFACE Y 
LAT         .                                         27.912878 :LATITUDE  
LON         .                                       -96.5835889 :LONGITUDE 
ELEV        .FT                                              85 :ELEVATION VALUE
ELEV_TYPE   .                                                KB :ELEVATION REFERENCE TYPE
~Curve Information Section
#MNEM       .UNIT                                      API CODE :CURVE DESCRIPTION
#------------------------------------------------------------------------------
DEPT        .FT                                                 :DEPTH     
CILD        .MMHO                                               :          
DT          .US/F                                               :          
GR          .GAPI                                               :          
GR_NORM     .GAPI                                               :GammaRay Normalized
ILD         .OHMM                                               :          
ILM         .OHMM                                               :          
SFL         .OHMM                                               :          
SP          .MV                                                 :          
SP_NORM     .MV                                                 :SP Normalized
VSH_GR      .V/V                                                :Volume of Shale from GR
VSH_SP      .V/V                                                :Volume of Shale from SP
~A        DEPTH           CILD             DT             GR        GR_NORM            ILD            ILM            SFL             SP        SP_NORM         VSH_GR         VSH_SP
# ...
      4457.0000       1261.037       117.3783        -999.25        -999.25         0.7895         0.7894         0.7226       -31.4952        -5.0801        -999.25      0.9468948
      4457.5000       1239.887        117.088        -999.25        -999.25         0.8006         0.7955         0.7067       -31.8441         -5.429        -999.25      0.9408793
      4458.0000       1212.773       116.1952        -999.25        -999.25          0.814         0.8066         0.6959       -33.1533        -6.7382        -999.25      0.9183069
      4458.5000       1194.902       114.0146        -999.25        -999.25         0.8287         0.8178         0.7049       -34.2779        -7.8628        -999.25      0.8989173
      4459.0000       1182.459        112.142        -999.25        -999.25         0.8397         0.8277         0.7628       -34.9467        -8.5316        -999.25      0.8873862
      4459.5000       1174.406       110.6379        -999.25        -999.25         0.8503         0.8354         0.8253       -35.3973        -8.9822        -999.25      0.8796173
      4460.0000       1166.145        110.262        -999.25        -999.25         0.8606         0.8452         0.8775       -35.0941         -8.679        -999.25      0.8848448
      4460.5000        1155.26       111.9788        -999.25        -999.25         0.8672         0.8532         0.8365       -33.7738        -7.3587        -999.25      0.9076086
      4461.0000       1143.504       113.8575        -999.25        -999.25         0.8712         0.8568         0.7777       -32.5018        -6.0867        -999.25      0.9295397
      4461.5000       1135.717       115.3021        -999.25        -999.25         0.8667         0.8553         0.7583       -31.4676        -5.0525        -999.25      0.9473707
      4462.0000       1136.318       115.8134        -999.25        -999.25         0.8577         0.8534          0.755       -28.9669        -2.5518        -999.25      0.9904862
      4462.5000       1153.084       115.3829        -999.25        -999.25         0.8462          0.849         0.7614        -28.069        -1.6539        -999.25              1
      4463.0000       1184.797       114.7573        -999.25        -999.25          0.832         0.8415         0.7724       -30.5697        -4.1546        -999.25      0.9628517
      4463.5000        1210.92       113.7997        -999.25        -999.25          0.816         0.8313         0.7855       -32.6405        -6.2254        -999.25      0.9271483
      4464.0000       1232.057        115.155        -999.25        -999.25         0.8016          0.804         0.7877       -33.7806        -7.3655        -999.25      0.9074914
      4464.5000       1248.605       117.3195        -999.25        -999.25         0.7944           0.79           0.77       -34.3392        -7.9241        -999.25      0.8978603
      4465.0000       1258.191       119.6943        -999.25        -999.25         0.7894         0.7861         0.7328       -34.7455        -8.3304        -999.25      0.8908552
      4465.5000        1263.77       121.6952        -999.25        -999.25         0.7861         0.7829         0.7086       -34.9999        -8.5848        -999.25      0.8864689
      4466.0000       1271.508       120.8223        -999.25        -999.25         0.7861         0.7815         0.6983       -35.1291         -8.714        -999.25      0.8842414
      4466.5000       1291.439       116.3374        -999.25        -999.25         0.7848         0.7824         0.7267        -35.758        -9.3429        -999.25      0.8733982
      4467.0000        1319.07       111.5706        -999.25        -999.25         0.7805         0.7887         0.7948       -36.9656       -10.5505        -999.25      0.8525776
      4467.5000       1343.127       108.2682        -999.25        -999.25         0.7659         0.7914         0.8343       -38.0264       -11.6113        -999.25      0.8342879
      4468.0000       1351.133       106.7963        -999.25        -999.25         0.7486         0.7864         0.8579       -38.7213       -12.3062        -999.25      0.8223069
      4468.5000       1353.178        110.069        -999.25        -999.25         0.7431         0.7703         0.8766       -38.7677       -12.3526        -999.25      0.8215069
      4469.0000       1354.445       112.6837        -999.25        -999.25         0.7436         0.7517         0.8935       -35.5413        -9.1262        -999.25      0.8771345
      4469.5000       1347.389       114.6008        -999.25        -999.25           0.74         0.7377         0.9024       -32.4473        -6.0322        -999.25      0.9304793
      4470.0000        1355.83       116.7902        -999.25        -999.25         0.7356         0.7285         0.8799       -30.3368        -3.9217        -999.25      0.9668673
      4470.5000       1375.768        119.061        -999.25        -999.25         0.7304         0.7206         0.8141       -29.2023        -2.7872        -999.25      0.9864276
      4471.0000       1403.301       121.7054        -999.25        -999.25         0.7241         0.7126         0.7506       -29.6216        -3.2065        -999.25      0.9791983
      4471.5000       1434.717       124.1012        -999.25        -999.25         0.7175         0.7044         0.6916        -30.657        -4.2419        -999.25      0.9613466
      4472.0000       1463.771       126.0122        -999.25        -999.25         0.7088         0.6973         0.6418       -31.4466        -5.0315        -999.25      0.9477327
      4472.5000       1481.014       126.4166        -999.25        -999.25         0.6989         0.6922         0.6092        -31.915        -5.4999        -999.25      0.9396569
      4473.0000       1477.217       124.0703        -999.25        -999.25         0.6997         0.6916         0.5964        -32.311        -5.8959        -999.25      0.9328293
      4473.5000       1455.521       120.6195        -999.25        -999.25         0.7074         0.6959         0.6306       -32.3388        -5.9237        -999.25        0.93235
      4474.0000       1425.268        116.894        -999.25        -999.25         0.7229         0.7112          0.676       -32.1052        -5.6901        -999.25      0.9363776
      4474.5000       1380.988       113.6448        -999.25        -999.25         0.7481         0.7385         0.7181       -31.3413        -4.9262        -999.25      0.9495483
      4475.0000       1331.834       111.7957        -999.25        -999.25         0.7728         0.7676         0.7612       -31.1015        -4.6864        -999.25      0.9536828
      4475.5000       1276.275       110.5032        -999.25        -999.25          0.798         0.7948         0.7953       -31.6757        -5.2606        -999.25      0.9437827
      4476.0000       1232.193       109.6226        -999.25        -999.25         0.8217         0.8205         0.8262       -32.5111         -6.096        -999.25      0.9293793
      4476.5000       1210.227       107.7648        -999.25        -999.25         0.8299         0.8387         0.8519       -33.5087        -7.0936        -999.25      0.9121793
      4477.0000       1223.758       106.4425        -999.25        -999.25         0.8181           0.84          0.867       -34.9158        -8.5007        -999.25      0.8879189
      4477.5000       1266.924       105.4703        -999.25        -999.25         0.7947         0.8215         0.8852       -36.8764       -10.4613        -999.25      0.8541155
      4478.0000       1332.824       105.3949        -999.25        -999.25         0.7684         0.7812         0.8882       -38.6797       -12.2646        -999.25      0.8230242
      4478.5000       1400.703       108.7456        -999.25        -999.25         0.7425         0.7353         0.8415        -40.267       -13.8519        -999.25      0.7956569
      4479.0000       1452.256       111.5173        -999.25        -999.25         0.7227         0.7061         0.7782         -40.52       -14.1049        -999.25      0.7912948
