#------------------------------------------------------------------------------
# Created by    : vladimir.rabinovich
# Created on    : 09/19/2023 17:20:24
#------------------------------------------------------------------------------
~Version Information Section
VERS.           2.0     :   CWLS log ASCII Standard - VERSION 2.0
WRAP.           NO      :   One line per depth step
~Well Information Section
#MNEM       .UNIT                                         VALUE :DESCRIPTION
#------------------------------------------------------------------------------
STRT        .FT                                            2124 :START DEPTH
STOP        .FT                                            8264 :STOP DEPTH
STEP        .FT                                             0.5 :STEP      
NULL        .                                           -999.25 :NULL      
COMP        .                               SUPERIOR OIL CO THE :COMPANY   
WELL        .                                     ST TR 00009-L :WELL      
FLD         .                                           WILDCAT :FIELD     
LOC         .                                                   :LOCATION  
CNTY        .                           HIGH ISLAND LARGE BLOCK :LOCATION  
STAT        .                                             TEXAS :STATE     
CTRY        .                                     UNITED STATES :COUNTRY   
SRVC        .                                                   :SERVICE COMPANY
DATE        .                             9/13/2023 11:19:15 AM :LOG DATE  
API         .                                    42708300270000 :API NUMBER
UWI         .                                    42708300270000 :UNIQUE WELL ID
XCOORD      .                                  1318170.30554107 :SURFACE X 
YCOORD      .                                  10738395.6931535 :SURFACE Y 
LAT         .                                        29.5851559 :LATITUDE  
LON         .                                       -94.0141459 :LONGITUDE 
ELEV        .FT                                              72 :ELEVATION VALUE
ELEV_TYPE   .                                                KB :ELEVATION REFERENCE TYPE
~Curve Information Section
#MNEM       .UNIT                                      API CODE :CURVE DESCRIPTION
#------------------------------------------------------------------------------
DEPT        .FT                                                 :DEPTH     
ASN         .OHMM                                               :          
CILD        .MMHO                                               :          
ILD         .OHMM                                               :          
SN          .OHMM                                               :          
SP          .MV                                                 :          
SP_NORM     .MV                                                 :SP Normalized
VSH_SP      .V/V                                                :Volume of Shale from SP
~A        DEPTH            ASN           CILD            ILD             SN             SP        SP_NORM         VSH_SP
# ...
      5775.5000          0.869       1659.705         0.7069         0.8494       -59.9161      -12.23545      0.8417541
      5776.0000         0.8454       1707.395         0.6883         0.8244       -58.1141       -10.4316      0.8671605
      5776.5000         0.8261       1759.193         0.6714          0.795       -55.9035      -8.219143      0.8983219
      5777.0000         0.8098       1809.287         0.6569         0.7707       -54.0103      -6.324089      0.9250128
      5777.5000         0.7957       1857.629         0.6404         0.7497        -56.492      -8.803936      0.8900854
      5778.0000         0.7871       1899.658         0.6223         0.7436       -58.7831      -11.09318      0.8578426
      5778.5000         0.7862       1915.105         0.6066         0.7424       -60.6694      -12.97762      0.8313011
      5779.0000          0.782       1909.865         0.6018         0.7529       -62.7505      -15.05687       0.802016
      5779.5000         0.7852       1896.828         0.5971         0.7717       -64.5298      -16.83431      0.7769815
      5780.0000         0.7971       1869.527         0.6078          0.786       -64.3639      -16.66656      0.7793443
      5780.5000         0.7884       1834.084         0.6223         0.7775       -60.5612        -12.862      0.8329296
      5781.0000         0.7708       1795.361         0.6447         0.7588       -58.0023      -10.30125      0.8689965
      5781.5000          0.753       1763.375          0.659          0.744       -56.7435      -9.040588      0.8867522
      5782.0000         0.7369       1764.002         0.6641          0.741       -53.7833      -6.078533      0.9284714
      5782.5000         0.7291        1774.07         0.6566         0.7444       -52.3621      -4.655479      0.9485144
      5783.0000         0.7323       1783.639         0.6553         0.7431       -53.2137      -5.505222      0.9365461
      5783.5000         0.7445       1792.137         0.6516         0.7498       -54.3832      -6.672871      0.9201004
      5784.0000         0.7591       1789.301          0.652         0.7636       -55.5941      -7.881916      0.9030716
      5784.5000         0.7696       1774.346          0.659         0.7781       -56.6605      -8.946457      0.8880781
      5785.0000          0.771       1755.385         0.6634          0.782       -57.2507      -9.534805      0.8797915
      5785.5000         0.7725        1733.92         0.6716         0.7725       -57.0503      -9.332546      0.8826402
      5786.0000         0.7773       1709.223         0.6832         0.7806       -56.2304      -8.510792      0.8942142
      5786.5000         0.7772       1689.361         0.6901         0.7711       -54.8334      -7.111938      0.9139163
      5787.0000         0.7743       1695.686         0.6926         0.7559       -53.8959      -6.172581      0.9271467
      5787.5000         0.7695       1718.016         0.6913         0.7416       -53.4792      -5.754025      0.9330419
      5788.0000         0.7664       1742.387         0.6879         0.7307       -53.3506      -5.623569      0.9348793
      5788.5000         0.7651       1765.492         0.6847         0.7276       -53.3746      -5.645714      0.9345674
      5789.0000         0.7605       1781.924         0.6834         0.7367       -54.5353      -6.804562      0.9182456
      5789.5000         0.7623       1785.447         0.6812         0.7624       -57.3647      -9.632103      0.8784211
      5790.0000         0.7803        1780.27         0.6775         0.8055       -60.4984      -12.76395      0.8343105
      5790.5000         0.8062       1773.201         0.6702         0.8319       -63.9464      -16.21009      0.7857734
      5791.0000         0.8195       1764.184          0.661         0.8338        -67.309      -19.57084       0.738439
      5791.5000         0.8075       1754.434         0.6568         0.8087        -67.402      -19.66198      0.7371551
      5792.0000         0.7847       1741.559         0.6555         0.7841       -61.8389      -14.09703      0.8155348
      5792.5000         0.7654       1728.686         0.6542         0.7691       -57.6614      -9.917671       0.874399
      5793.0000         0.7472       1733.369         0.6529         0.7445        -56.812      -9.066414      0.8863885
      5793.5000         0.7279       1757.664         0.6501          0.737       -55.4797      -7.732258      0.9051794
      5794.0000         0.7081       1784.742         0.6465         0.7219        -53.645      -5.895706      0.9310464
      5794.5000         0.6885       1806.006          0.643          0.687       -51.7852      -4.034046      0.9572669
      5795.0000         0.6749       1825.143         0.6393         0.6669       -50.6396      -2.886593      0.9734282
      5795.5000         0.6695       1837.578         0.6333         0.6555       -50.1131      -2.358238      0.9808699
      5796.0000         0.6712       1844.908         0.6311          0.653       -50.4202      -2.663483      0.9765707
      5796.5000         0.6783       1842.238         0.6354         0.6639       -50.5715      -2.812927      0.9744658
      5797.0000         0.6871       1836.189         0.6295         0.6754       -49.9122      -2.151772      0.9837779
      5797.5000         0.6947       1826.332         0.6211         0.6819       -49.2319      -1.469616      0.9933857
      5798.0000         0.7013       1823.664         0.6097         0.6822       -48.6563     -0.8921623              1
      5798.5000         0.6918       1841.123         0.6065         0.6722       -48.6666     -0.9006042              1
      5799.0000         0.6758       1861.813         0.6051         0.6622        -48.981       -1.21315      0.9969979
      5799.5000         0.6594       1891.418         0.5996         0.6543       -49.1179      -1.348194      0.9950958
      5800.0000         0.6486       1924.682         0.5949         0.6505       -49.5336      -1.762039      0.9892671
      5800.5000         0.6496       1944.932         0.5982         0.6465       -49.9285      -2.155087      0.9837312
      5801.0000          0.656       1955.365         0.6033         0.6377       -50.2797      -2.504429      0.9788108
      5801.5000         0.6502       1938.758         0.6149         0.6223       -50.2615      -2.484375      0.9790933
      5802.0000         0.6325       1918.344         0.6257         0.6065        -49.362      -1.583015      0.9917885
      5802.5000         0.6345       1897.529         0.6352         0.6081        -47.682     0.09883881              1
      5803.0000         0.6459       1877.242         0.6411         0.6204        -46.642       1.140694              1
      5803.5000         0.6575        1857.43         0.6423         0.6403       -46.4393       1.345249              1
      5804.0000         0.6653       1838.719         0.6409          0.649       -46.6653       1.121105              1
      5804.5000         0.6725        1823.59          0.638         0.6528       -46.8099       0.978363              1
      5805.0000         0.6713       1811.529          0.634         0.6472       -46.7357       1.054417              1
      5805.5000         0.6647       1816.551         0.6289         0.6336       -46.5281        1.26387              1
      5806.0000         0.6524       1853.521         0.6232         0.6243       -46.7357       1.058128              1
      5806.5000         0.6433       1895.951         0.6171         0.6154       -47.4638      0.3318825              1
      5807.0000         0.6419       1934.625          0.611         0.6071       -48.2321     -0.4345665              1
      5807.5000         0.6449       1977.381         0.5999         0.6029       -48.9413      -1.141907      0.9980013
      5808.0000         0.6472       2000.764         0.5811         0.5981       -49.6588      -1.857552      0.9879218
      5808.5000         0.6386       2028.094          0.562         0.5813       -50.4686      -2.665497      0.9765423
