#------------------------------------------------------------------------------
# Created by    : vladimir.rabinovich
# Created on    : 09/19/2023 17:22:30
#------------------------------------------------------------------------------
~Version Information Section
VERS.           2.0     :   CWLS log ASCII Standard - VERSION 2.0
WRAP.           NO      :   One line per depth step
~Well Information Section
#MNEM       .UNIT                                         VALUE :DESCRIPTION
#------------------------------------------------------------------------------
STRT        .FT                                            1687 :START DEPTH
STOP        .FT                                            6155 :STOP DEPTH
STEP        .FT                                             0.5 :STEP      
NULL        .                                           -999.25 :NULL      
COMP        .                       AMERICAN COASTAL ENERGY INC :COMPANY   
WELL        .                                ST TR 00596-L NE/4 :WELL      
FLD         .                        SHERMAN OFFSHORE SOUTHWEST :FIELD     
LOC         .                                                   :LOCATION  
CNTY        .                      MATAGORDA ISLAND LARGE BLOCK :LOCATION  
STAT        .                                             TEXAS :STATE     
CTRY        .                                     UNITED STATES :COUNTRY   
SRVC        .                                                   :SERVICE COMPANY
DATE        .                             9/13/2023 11:12:01 AM :LOG DATE  
API         .                                    42703302820000 :API NUMBER
UWI         .                                    42703302820000 :UNIQUE WELL ID
XCOORD      .                                  484247.709270029 :SURFACE X 
YCOORD      .                                   10242127.767654 :SURFACE Y 
LAT         .                                        28.1765839 :LATITUDE  
LON         .                                       -96.5886238 :LONGITUDE 
ELEV        .FT                                              79 :ELEVATION VALUE
ELEV_TYPE   .                                                KB :ELEVATION REFERENCE TYPE
~Curve Information Section
#MNEM       .UNIT                                      API CODE :CURVE DESCRIPTION
#------------------------------------------------------------------------------
DEPT        .FT                                                 :DEPTH     
CILD        .MMHO                                               :          
DT          .US/F                                               :          
ILD         .OHMM                                               :          
SN          .OHMM                                               :          
SP          .MV                                                 :          
SP_NORM     .MV                                                 :SP Normalized
VSH_SP      .V/V                                                :Volume of Shale from SP
~A        DEPTH           CILD             DT            ILD             SN             SP        SP_NORM         VSH_SP
# ...
      4936.5000         1063.1        93.3533         0.9842         1.5249       -38.9843       -31.1015      0.5842643
      4937.0000       1170.737        85.8806         0.9028         1.6261       -45.6421       -37.7758      0.4889172
      4937.5000       1218.604        83.8887         0.8662          1.546       -54.7841       -46.9343      0.3580814
      4938.0000       1274.441        88.4732         0.8235         1.3594        -60.846       -53.0127      0.2712471
      4938.5000       1306.365        99.2355         0.7908         1.2344       -61.7409       -53.9241      0.2582272
      4939.0000       1354.231       110.1974         0.7553         1.1736       -55.6811       -47.8808        0.34456
      4939.5000       1441.954       109.6006         0.7082         1.1522       -46.3418        -38.558      0.4777429
      4940.0000       1521.727       108.4021         0.6827         1.1735       -35.2143        -27.447      0.6364715
      4940.5000       1489.872       106.3141         0.6953         1.1789       -29.6503       -21.8995      0.7157214
      4941.0000       1386.269       106.9129         0.7686         1.1259       -23.9872       -16.2529      0.7963871
      4941.5000       1274.709       109.8035         0.8121         1.0271       -19.8145       -12.0967      0.8557614
      4942.0000       1234.891        114.388         0.8424         0.9765       -17.5297        -9.8284      0.8881657
      4942.5000       1274.785       117.5769         0.8309         0.9157       -17.0335        -9.3487      0.8950186
      4943.0000       1354.536        121.962          0.769         0.9114       -16.3385        -8.6702      0.9047114
      4943.5000       1406.402       124.3543         0.7278         0.9156       -15.6442        -7.9924      0.9143943
      4944.0000       1430.353       126.5473         0.7112         0.9542       -14.7505        -7.1152      0.9269257
      4944.5000       1386.535       129.3385         0.7446         0.9808        -12.763        -5.1442      0.9550828
      4945.0000       1338.746       131.5312         0.7796         0.9853       -11.8693         -4.267      0.9676143
      4945.5000       1290.957       133.9234          0.805         0.9852       -11.8699         -4.284      0.9673714
      4946.0000        1259.11       135.3193         0.8237         0.9897       -12.4667        -4.8973        0.95861
      4946.5000       1251.178       134.9216         0.8389         0.9897       -12.3679         -4.815      0.9597857
      4947.0000       1235.274       133.9261         0.8544         0.9942       -12.6666        -5.0854      0.9559228
      4947.5000       1227.341       132.7314         0.8583         0.9942       -12.7666        -5.1334      0.9552372
      4948.0000       1211.437       131.5366         0.8662         1.0033       -12.7672        -5.0821        0.95597
      4948.5000       1195.533       130.7404         0.8863         1.0079       -12.1715        -4.4344      0.9652228
      4949.0000       1167.683       129.5456         0.8986         1.0125       -12.0727        -4.2836      0.9673771
      4949.5000       1140.392       128.3509          0.911         1.0359        -11.676         -3.835      0.9737857
      4950.0000       1111.965        126.957         0.9236         1.0455       -11.3782        -3.4852      0.9787828
      4950.5000       1092.076        124.965         0.9442         1.0648       -11.3788        -3.4339      0.9795157
      4951.0000       1084.143       123.7702         0.9885         1.0796       -11.6775        -3.6806      0.9759914
      4951.5000        1064.25       123.3726         1.0022         1.0895       -11.7775        -3.7286      0.9753057
      4952.0000       1052.322       123.5728         1.0114         1.0894       -11.9769        -3.8761      0.9731986
      4952.5000       1044.389       124.3708          1.016         1.0894       -11.7787        -3.6259      0.9767728
      4953.0000       1036.457       124.7235         1.0206         1.0893       -11.8786        -3.6739      0.9760872
      4953.5000       1028.524       124.9705           1.03         1.0994       -11.9786        -3.7219      0.9754014
      4954.0000       1028.563        123.975         1.0347         1.1197       -12.4761        -4.1674      0.9690371
      4954.5000       1028.601       122.1824         1.0347         1.1352       -12.7749        -4.4143        0.96551
      4955.0000        1028.64       119.5928         1.0394         1.1299        -13.173        -4.7604      0.9605657
      4955.5000       1028.681       117.8002         1.0167         1.1196       -13.4718        -5.0072        0.95704
      4956.0000       1037.335       117.2039         0.9981         1.1144       -13.3732        -4.8567        0.95919
      4956.5000       1052.687       118.5997         0.9844         1.0991       -13.1748        -4.6063      0.9627671
      4957.0000       1076.638       119.7957         0.9525         1.0791        -13.076        -4.4556        0.96492
      4957.5000       1108.542       121.9887         0.9497         1.0643        -13.176        -4.5036      0.9642343
      4958.0000       1124.522       122.7867         0.9437         1.0353       -13.4747        -4.7503        0.96071
      4958.5000       1132.531       123.5847          0.935         1.0305       -13.2766        -4.5003      0.9642814
      4959.0000       1124.599       123.9841         0.9393         1.0496       -13.1778        -4.3495      0.9664357
      4959.5000       1116.666       124.5829         0.9393         1.0739        -13.079        -4.1988      0.9685886
      4960.0000       1116.705       124.5838         0.9523         1.0838       -13.2783        -4.3461      0.9664843
      4960.5000       1076.889       123.1898         0.9887         1.1192       -13.2789        -4.2947      0.9672186
      4961.0000       1045.044       122.7916           1.02         1.1294       -13.3789        -4.3428      0.9665315
      4961.5000        1021.17       120.6011         1.0359         1.1398       -13.6777        -4.5896      0.9630057
      4962.0000       1005.266       120.0042         1.0581         1.1398       -13.9765        -4.8364        0.95948
      4962.5000       997.3341       119.8059         1.0777         1.1345       -13.6789        -4.4869      0.9644728
      4963.0000       997.3726       120.2053         1.0678         1.1241       -13.6795        -4.4355      0.9652072
      4963.5000       1013.353       121.4019         1.0349         1.1189       -13.7795        -4.4836        0.96452
      4964.0000       1037.304       122.3991         1.0068         1.1086       -13.5813        -4.2334      0.9680943
      4964.5000       1069.226       123.9942         0.9794         1.0884       -13.2837        -3.8838      0.9730886
      4965.0000       1085.206       124.3931         0.9704         1.0686       -12.9861        -3.5343      0.9780814
      4965.5000       1093.215       125.7895         0.9659         1.0539       -13.1856        -3.6818      0.9759743
      4966.0000       1093.254       126.1889         0.9748         1.0587       -13.5838        -4.0281      0.9710271
      4966.5000        1069.38       126.5884         0.9883         1.0833       -13.8826        -4.2749      0.9675014
      4967.0000       1045.506       125.9915         1.0065         1.1135       -14.3802        -4.7205      0.9611357
      4967.5000       1013.661       123.9997         1.0299         1.1446       -15.0766         -5.365      0.9519286
      4968.0000       989.7875       121.4101         1.0537         1.1873        -15.276        -5.5124      0.9498228
      4968.5000       949.9724       117.4257         1.0982         1.2093       -15.0778        -5.2622      0.9533972
      4969.0000       918.1281       115.2347         1.1603          1.226        -14.979        -5.1115        0.95555
      4969.5000       894.2546       113.4422         1.1915         1.2373       -15.1785         -5.259      0.9534429
