#------------------------------------------------------------------------------
# Created by    : vladimir.rabinovich
# Created on    : 09/19/2023 17:19:44
#------------------------------------------------------------------------------
~Version Information Section
VERS.           2.0     :   CWLS log ASCII Standard - VERSION 2.0
WRAP.           NO      :   One line per depth step
~Well Information Section
#MNEM       .UNIT                                         VALUE :DESCRIPTION
#------------------------------------------------------------------------------
STRT        .FT                                            2932 :START DEPTH
STOP        .FT                                           14530 :STOP DEPTH
STEP        .FT                                             0.5 :STEP      
NULL        .                                           -999.25 :NULL      
COMP        .                                 MESA PETROLEUM CO :COMPANY   
WELL        .                                 ST TR 00022-L W/2 :WELL      
FLD         .                                           WILDCAT :FIELD     
LOC         .                                                   :LOCATION  
CNTY        .                           HIGH ISLAND LARGE BLOCK :LOCATION  
STAT        .                                             TEXAS :STATE     
CTRY        .                                     UNITED STATES :COUNTRY   
SRVC        .                                                   :SERVICE COMPANY
DATE        .                             9/13/2023 11:19:15 AM :LOG DATE  
API         .                                    42708300770000 :API NUMBER
UWI         .                                    42708300770000 :UNIQUE WELL ID
XCOORD      .                                  1307803.37781852 :SURFACE X 
YCOORD      .                                  10713200.3443699 :SURFACE Y 
LAT         .                                         29.515602 :LATITUDE  
LON         .                                       -94.0460534 :LONGITUDE 
ELEV        .FT                                              85 :ELEVATION VALUE
ELEV_TYPE   .                                                KB :ELEVATION REFERENCE TYPE
~Curve Information Section
#MNEM       .UNIT                                      API CODE :CURVE DESCRIPTION
#------------------------------------------------------------------------------
DEPT        .FT                                                 :DEPTH     
ASFL        .OHMM                                               :          
CILD        .MMHO                                               :          
ILD         .OHMM                                               :          
SP          .MV                                                 :          
SP_NORM     .MV                                                 :SP Normalized
VSH_SP      .V/V                                                :Volume of Shale from SP
~A        DEPTH           ASFL           CILD            ILD             SP        SP_NORM         VSH_SP
# ...
     11406.0000         0.5901         2084.5         0.5805       -44.2227     -0.1975403       0.997178
     11406.5000         0.5809       2181.875         0.5651       -43.9453     0.07985687              1
     11407.0000         0.5718        2209.75          0.553       -44.3086     -0.2834435      0.9959508
     11407.5000         0.5637       2231.688          0.541       -44.6719     -0.6467438      0.9907608
     11408.0000         0.5594       2212.531         0.5289       -44.9814     -0.9562416      0.9863394
     11408.5000         0.5552       2193.344         0.5168        -44.627      -0.601841      0.9914023
     11409.0000         0.5513       2174.188         0.5047       -44.8809     -0.8557434      0.9877751
     11409.5000         0.5682           2155         0.5026       -45.1348      -1.109642       0.984148
     11410.0000         0.5851       2135.844         0.5133       -45.3892       -1.36404      0.9805137
     11410.5000          0.602         2113.5         0.5239       -45.6431      -1.617943      0.9768865
     11411.0000         0.6149       2083.438         0.5346       -45.6846      -1.659443      0.9762937
     11411.5000         0.6248       2053.438         0.5452       -45.5935       -1.56834      0.9775952
     11412.0000         0.6347       2023.438         0.5535       -45.5027      -1.477543      0.9788923
     11412.5000         0.6295       2001.344         0.5602       -45.4288      -1.403641       0.979948
     11413.0000         0.6189       1988.781         0.5668        -45.431      -1.405842      0.9799166
     11413.5000         0.6083        1976.25         0.5735       -45.2734      -1.248241       0.982168
     11414.0000         0.6135       1963.688         0.5802       -44.7617     -0.7365417       0.989478
     11414.5000         0.6198       1949.438         0.5869       -45.1201       -1.09494       0.984358
     11415.0000         0.6261       1934.156         0.5936       -45.4785      -1.453342       0.979238
     11415.5000         0.6196       1919.406         0.5886       -45.5937      -1.568542      0.9775922
     11416.0000         0.6118         1935.5         0.5742       -45.2002      -1.175041      0.9832137
     11416.5000          0.604           1952         0.5599       -45.1122      -1.087044      0.9844708
     11417.0000         0.5962       1986.063         0.5456       -45.1503      -1.125141      0.9839265
     11417.5000         0.5877       2020.188         0.5307       -45.0674      -1.042244      0.9851108
     11418.0000         0.5792        2054.25          0.515       -44.8569     -0.8317413       0.988118
     11418.5000         0.5707           2122         0.4993       -44.6465     -0.6213417      0.9911237
     11419.0000         0.5598           2231         0.4836       -43.3398      0.6853561              1
     11419.5000         0.5478        2333.75         0.4679       -42.9727        1.05246              1
     11420.0000          0.539        2389.25         0.4662       -43.7549       0.270256              1
     11420.5000         0.5337       2444.625         0.4701       -44.1533     -0.1281433      0.9981694
     11421.0000          0.529       2477.125          0.474       -44.1416     -0.1164436      0.9983365
     11421.5000         0.5309         2462.5         0.4903       -43.5508      0.4743576              1
     11422.0000         0.5329        2414.25          0.512       -42.9609       1.064259              1
     11422.5000          0.538        2337.75         0.5337       -42.7715       1.253658              1
     11423.0000         0.5446       2249.625         0.5554       -43.5254      0.4997597              1
     11423.5000         0.5513         2107.5         0.5771       -44.3652     -0.3400421      0.9951423
     11424.0000          0.567        1982.25         0.5988       -45.0918      -1.066643      0.9847623
     11424.5000         0.5945        1908.75         0.6205       -45.8164      -1.791241      0.9744108
     11425.0000         0.6194        1881.25         0.6422       -46.6094      -2.584244      0.9630823
     11425.5000         0.6404        1854.75         0.6477       -47.8496      -3.824444      0.9453651
     11426.0000         0.6598       1848.172         0.6438       -48.9629       -4.93774      0.9294608
     11426.5000         0.6411        1864.25         0.6399       -48.6074      -4.582241      0.9345394
     11427.0000         0.6208       1917.625          0.636       -48.1318      -4.106644      0.9413337
     11427.5000         0.6004           1971          0.628       -47.6562      -3.631042       0.948128
     11428.0000         0.5833           2171         0.6141       -47.1816      -3.156441       0.954908
     11428.5000         0.5673       2203.688         0.6003       -46.6914      -2.666241      0.9619108
     11429.0000         0.5512       2189.906         0.5864       -45.9531       -1.92794       0.972458
     11429.5000         0.5407       2176.125         0.5725       -45.8174      -1.792244      0.9743965
     11430.0000         0.5558       2162.344         0.5587       -46.4336      -2.408443      0.9655936
     11430.5000         0.5709       2148.531         0.5448       -46.8608      -2.835644      0.9594908
     11431.0000          0.586        2134.75         0.5309       -47.0361      -3.010941      0.9569865
     11431.5000         0.5907       2120.969          0.517       -47.2114      -3.186241      0.9544823
     11432.0000         0.5815       2109.516         0.5119       -47.3701       -3.34494      0.9522151
     11432.5000         0.5628       2101.578          0.507       -47.4614      -3.436241      0.9509109
     11433.0000         0.5441       2103.813         0.5022       -47.5525      -3.527344      0.9496094
     11433.5000         0.5377        2148.75         0.4973       -47.6438      -3.618641      0.9483051
     11434.0000          0.542       2186.875         0.4924       -47.6655      -3.640343      0.9479951
     11434.5000         0.5472       2215.125         0.4875       -47.3164      -3.291241      0.9529822
     11435.0000         0.5543       2216.758         0.4826       -47.3887      -3.363541      0.9519494
     11435.5000         0.5575       2212.445         0.4778       -48.1631      -4.137943      0.9408865
     11436.0000         0.5512       2214.844         0.4729        -48.834      -4.808842      0.9313022
     11436.5000         0.5449       2221.563         0.4741       -47.8047      -3.779541      0.9460065
     11437.0000         0.5387       2241.375         0.4776       -46.7803      -2.755142      0.9606408
     11437.5000         0.5324       2310.875         0.4812       -46.2715      -2.246342      0.9679094
     11438.0000         0.5261        2380.25         0.4847       -47.3887      -3.363541      0.9519494
     11438.5000         0.5205       2417.094         0.4883       -47.5293      -3.504143      0.9499408
     11439.0000         0.5167       2436.125         0.4918       -46.6768      -2.651642      0.9621194
     11439.5000         0.5128       2441.453         0.4954       -46.1045      -2.079342      0.9702951
     11440.0000          0.509       2430.156         0.4989       -45.5586      -1.533443      0.9780937
     11440.5000         0.5051       2418.844         0.5025       -45.8457      -1.820541      0.9739923
     11441.0000         0.5069       2407.531          0.506       -46.5254       -2.50024      0.9642823
     11441.5000         0.5115       2396.234         0.5096       -47.2041      -3.178944      0.9545865
     11442.0000         0.5161       2384.656         0.5131       -48.1602       -4.13504       0.940928
     11442.5000         0.5207        2372.25         0.5167       -48.1719      -4.146744      0.9407608
     11443.0000         0.5253       2359.844         0.5146       -47.8901      -3.864941      0.9447865
     11443.5000         0.5267       2347.438         0.5092       -47.6084      -3.583241      0.9488109
