#------------------------------------------------------------------------------
# Created by    : vladimir.rabinovich
# Created on    : 09/19/2023 17:21:46
#------------------------------------------------------------------------------
~Version Information Section
VERS.           2.0     :   CWLS log ASCII Standard - VERSION 2.0
WRAP.           NO      :   One line per depth step
~Well Information Section
#MNEM       .UNIT                                         VALUE :DESCRIPTION
#------------------------------------------------------------------------------
STRT        .FT                                            2869 :START DEPTH
STOP        .FT                                           10002 :STOP DEPTH
STEP        .FT                                             0.5 :STEP      
NULL        .                                           -999.25 :NULL      
COMP        .                          SEAGULL ENERGY E & P INC :COMPANY   
WELL        .                               OCS G06145 ST00BP00 :WELL      
FLD         .                                           WILDCAT :FIELD     
LOC         .                                                   :LOCATION  
CNTY        .                           HIGH ISLAND LARGE BLOCK :LOCATION  
STAT        .                                             TEXAS :STATE     
CTRY        .                                     UNITED STATES :COUNTRY   
SRVC        .                                                   :SERVICE COMPANY
DATE        .                             9/13/2023 11:19:59 AM :LOG DATE  
API         .                                    42708402850000 :API NUMBER
UWI         .                                    42708402850000 :UNIQUE WELL ID
XCOORD      .                                  1277324.30822617 :SURFACE X 
YCOORD      .                                   10672684.104362 :SURFACE Y 
LAT         .                                         29.403374 :LATITUDE  
LON         .                                        -94.140646 :LONGITUDE 
ELEV        .FT                                              88 :ELEVATION VALUE
ELEV_TYPE   .                                                KB :ELEVATION REFERENCE TYPE
~Curve Information Section
#MNEM       .UNIT                                      API CODE :CURVE DESCRIPTION
#------------------------------------------------------------------------------
DEPT        .FT                                                 :DEPTH     
CALI        .IN                                                 :          
DPHI        .%                                                  :          
DRHO        .G/C3                                               :          
GR          .GAPI                                               :          
GR_NORM     .GAPI                                               :GammaRay Normalized
ILD         .OHMM                                               :          
ILM         .OHMM                                               :          
NPHI        .%                                                  :          
SFL         .OHMM                                               :          
SP          .MV                                                 :          
SP_NORM     .MV                                                 :SP Normalized
VSH_GR      .V/V                                                :Volume of Shale from GR
VSH_SP      .V/V                                                :Volume of Shale from SP
~A        DEPTH           CALI           DPHI           DRHO             GR        GR_NORM            ILD            ILM           NPHI            SFL             SP        SP_NORM         VSH_GR         VSH_SP
# ...
      9975.0000         6.6129         20.237        -0.0161        -999.25        -999.25         0.3554         0.3673         35.721         0.4005       -45.0142      -12.91543        -999.25      0.8154938
      9975.5000         6.5254        19.7924        -0.0115        -999.25        -999.25         0.3552         0.3664        35.7784         0.4009       -45.7372      -13.63844        -999.25      0.8051652
      9976.0000         6.4869        19.3951        -0.0067        -999.25        -999.25         0.3539         0.3642        35.8354         0.3946       -46.1934      -14.09464        -999.25      0.7986481
      9976.5000         6.4632        19.0302        -0.0014        -999.25        -999.25         0.3524         0.3625        35.9155         0.3868       -46.2614      -14.16263        -999.25      0.7976767
      9977.0000         6.4511        18.7913         0.0012        -999.25        -999.25          0.351         0.3621        35.9951         0.3767       -45.9753      -13.87653        -999.25      0.8017638
      9977.5000          6.442        19.0813        -0.0014        -999.25        -999.25         0.3508         0.3629        36.0592         0.3782       -45.2399      -13.14113        -999.25      0.8122695
      9978.0000          6.433          19.69        -0.0044        -999.25        -999.25         0.3507         0.3638        36.1232         0.3877       -44.2181      -12.11934        -999.25      0.8268666
      9978.5000          6.427        20.3853        -0.0073        -999.25        -999.25         0.3505         0.3647        36.1873         0.3976       -43.2657      -11.16693        -999.25      0.8404723
      9979.0000         6.4211        20.9398        -0.0095        -999.25        -999.25          0.351         0.3656        36.2025         0.3929       -43.5336      -11.43483        -999.25      0.8366452
      9979.5000         6.4153        21.3216        -0.0118        -999.25        -999.25         0.3516         0.3671        36.2082         0.3783       -44.3694      -12.27063        -999.25      0.8247052
      9980.0000          6.409        21.4844        -0.0137        -999.25        -999.25         0.3529           0.37        36.2136         0.3832       -45.2052      -13.10643        -999.25      0.8127652
      9980.5000         6.4025        -999.25        -999.25        -999.25        -999.25         0.3555         0.3734        -999.25         0.3952       -45.7018      -13.60303        -999.25      0.8056709
      9981.0000          6.396        -999.25        -999.25        -999.25        -999.25         0.3581         0.3747        -999.25         0.3981       -45.9368      -13.83803        -999.25      0.8023138
      9981.5000         6.3894        -999.25        -999.25        -999.25        -999.25         0.3599         0.3743        -999.25          0.396       -44.1957      -12.09694        -999.25      0.8271866
      9982.0000         6.3825        -999.25        -999.25        -999.25        -999.25         0.3614         0.3745        -999.25         0.3952       -43.3649      -11.26613        -999.25      0.8390552
      9982.5000         6.3755        -999.25        -999.25        -999.25        -999.25         0.3629         0.3749        -999.25         0.3961       -44.0197      -11.92093        -999.25      0.8297009
      9983.0000         6.3676        -999.25        -999.25        -999.25        -999.25         0.3649         0.3756        -999.25         0.3996       -44.6445      -12.54573        -999.25      0.8207752
      9983.5000         6.3577        -999.25        -999.25        -999.25        -999.25          0.367         0.3768        -999.25         0.4012       -44.7287      -12.62993        -999.25      0.8195724
      9984.0000         6.3489        -999.25        -999.25        -999.25        -999.25         0.3686         0.3791        -999.25         0.3998       -44.1957      -12.09694        -999.25      0.8271866
      9984.5000         6.3513        -999.25        -999.25        -999.25        -999.25         0.3689         0.3809        -999.25         0.3953       -42.9854      -10.88663        -999.25      0.8444766
      9985.0000         6.3537        -999.25        -999.25        -999.25        -999.25         0.3692         0.3824        -999.25         0.4002       -42.0504      -9.951633        -999.25      0.8578338
      9985.5000         6.3532        -999.25        -999.25        -999.25        -999.25         0.3677         0.3829        -999.25         0.4067       -41.1514      -9.052635        -999.25      0.8706766
      9986.0000         6.3522        -999.25        -999.25        -999.25        -999.25         0.3657         0.3817        -999.25         0.4123       -40.6851      -8.586334        -999.25      0.8773381
      9986.5000         6.3502        -999.25        -999.25        -999.25        -999.25         0.3635         0.3762        -999.25         0.4019       -40.5606      -8.461834        -999.25      0.8791167
      9987.0000         6.3474        -999.25        -999.25        -999.25        -999.25          0.361           0.37        -999.25         0.3866       -40.8389      -8.740135        -999.25      0.8751409
      9987.5000          6.346        -999.25        -999.25        -999.25        -999.25         0.3584         0.3702        -999.25         0.3742       -41.6536      -9.554832        -999.25      0.8635024
      9988.0000         6.3503        -999.25        -999.25        -999.25        -999.25         0.3579         0.3731        -999.25         0.3728       -42.4882      -10.38943        -999.25      0.8515795
      9988.5000         6.3545        -999.25        -999.25        -999.25        -999.25         0.3575         0.3776        -999.25         0.3829       -43.3289      -11.23013        -999.25      0.8395695
      9989.0000         6.3636        -999.25        -999.25        -999.25        -999.25         0.3573         0.3814        -999.25         0.3927       -43.7723      -11.67353        -999.25      0.8332352
      9989.5000         6.3728        -999.25        -999.25        -999.25        -999.25         0.3574         0.3842        -999.25         0.4016       -44.1263      -12.02753        -999.25      0.8281781
      9990.0000         6.3751        -999.25        -999.25        -999.25        -999.25         0.3575         0.3815        -999.25         0.4045       -44.4425      -12.34373        -999.25      0.8236609
      9990.5000          6.374        -999.25        -999.25        -999.25        -999.25         0.3584          0.377        -999.25         0.4002       -45.0576      -12.95883        -999.25      0.8148738
      9991.0000         6.3764        -999.25        -999.25        -999.25        -999.25         0.3598         0.3728        -999.25         0.3951        -45.607      -13.50823        -999.25      0.8070253
      9991.5000         6.3857        -999.25        -999.25        -999.25        -999.25         0.3611         0.3701        -999.25         0.3899       -46.0782      -13.97943        -999.25      0.8002938
      9992.0000         6.3947        -999.25        -999.25        -999.25        -999.25         0.3619         0.3683        -999.25         0.3825       -46.2368      -14.13803        -999.25      0.7980281
      9992.5000         6.3975        -999.25        -999.25        -999.25        -999.25         0.3627         0.3681        -999.25         0.3751       -46.2391      -14.14034        -999.25      0.7979952
      9993.0000         6.3984        -999.25        -999.25        -999.25        -999.25         0.3632         0.3685        -999.25         0.3755       -46.0373      -13.93853        -999.25      0.8008781
      9993.5000         6.3899        -999.25        -999.25        -999.25        -999.25         0.3633         0.3705        -999.25         0.3906       -45.5735      -13.47474        -999.25      0.8075038
