#------------------------------------------------------------------------------
# Created by    : vladimir.rabinovich
# Created on    : 09/19/2023 17:21:04
#------------------------------------------------------------------------------
~Version Information Section
VERS.           2.0     :   CWLS log ASCII Standard - VERSION 2.0
WRAP.           NO      :   One line per depth step
~Well Information Section
#MNEM       .UNIT                                         VALUE :DESCRIPTION
#------------------------------------------------------------------------------
STRT        .FT                                            4500 :START DEPTH
STOP        .FT                                           11014 :STOP DEPTH
STEP        .FT                                             0.5 :STEP      
NULL        .                                           -999.25 :NULL      
COMP        .                              FIELDWOOD ENERGY LLC :COMPANY   
WELL        .                               OCS G06156 ST00BP00 :WELL      
FLD         .                            HIGH ISLAND BLOCK 0116 :FIELD     
LOC         .                                                   :LOCATION  
CNTY        .                           HIGH ISLAND LARGE BLOCK :LOCATION  
STAT        .                                             TEXAS :STATE     
CTRY        .                                     UNITED STATES :COUNTRY   
SRVC        .                                                   :SERVICE COMPANY
DATE        .                             9/13/2023 11:19:57 AM :LOG DATE  
API         .                                    42708404240000 :API NUMBER
UWI         .                                    42708404240000 :UNIQUE WELL ID
XCOORD      .                                  1333979.30181128 :SURFACE X 
YCOORD      .                                  10635798.2403082 :SURFACE Y 
LAT         .                                         29.303317 :LATITUDE  
LON         .                                        -93.961735 :LONGITUDE 
ELEV        .FT                                             101 :ELEVATION VALUE
ELEV_TYPE   .                                                KB :ELEVATION REFERENCE TYPE
~Curve Information Section
#MNEM       .UNIT                                      API CODE :CURVE DESCRIPTION
#------------------------------------------------------------------------------
DEPT        .FT                                                 :DEPTH     
AT10        .OHMM                                               :          
AT20        .OHMM                                               :          
AT30        .OHMM                                               :          
AT60        .OHMM                                               :          
AT90        .OHMM                                               :          
CALI        .IN                                                 :          
DCAL        .IN                                                 :          
DPHI        .DEC                                                :          
DRHO        .G/C3                                               :          
DT2R        .US/F                                               :          
DT4P        .US/F                                               :          
GR          .GAPI                                               :          
GR_NORM     .GAPI                                               :GammaRay Normalized
NPOR        .DEC                                                :          
SP          .MV                                                 :          
SP_NORM     .MV                                                 :SP Normalized
TENS        .LBF                                                :          
VSH_GR      .V/V                                                :Volume of Shale from GR
VSH_SP      .V/V                                                :Volume of Shale from SP
~A        DEPTH           AT10           AT20           AT30           AT60           AT90           CALI           DCAL           DPHI           DRHO           DT2R           DT4P             GR        GR_NORM           NPOR             SP        SP_NORM           TENS         VSH_GR         VSH_SP
# ...
     10561.5000         0.8917         0.6654         0.7599          0.727         0.6202        -999.25        -0.0399         0.2216        -0.0743       203.7915       109.0408         46.995       61.73903         0.2599       -70.4803      -40.87834       3826.348      0.6114686      0.4160237
     10562.0000         0.8983         0.6729          0.751         0.7688         0.6283        -999.25        -0.0038         0.2199        -0.0715       206.1985       108.8418        47.3759       62.21799         0.2678       -68.8234      -38.46203       3828.125      0.6216594      0.4505424
     10562.5000         0.8668          0.661           0.71         0.7428         0.6289        -999.25          0.035         0.2169        -0.0616       209.7949       108.6414         47.371       62.21183         0.2642       -65.6678      -33.86011       3838.594      0.6215284      0.5162841
     10563.0000         0.8154         0.6433         0.6562         0.6907         0.6095        -999.25         0.0739         0.2139        -0.0526       213.7908       108.6414        48.0659       63.08566         0.2571       -62.5075      -29.25134       3869.031      0.6401203      0.5821238
     10563.5000         0.7585         0.6223         0.6247         0.6373         0.5831        -999.25         0.1129         0.2062        -0.0396       215.7866       108.6414         49.265        64.5935         0.2697       -61.4531      -27.71367       3879.508      0.6722021      0.6040905
     10564.0000         0.7158         0.6052         0.6018         0.6012         0.5754        -999.25         0.3117         0.1948        -0.0286       216.9834       108.1418        49.9608       65.46846         0.2793        -61.003      -27.05727        3870.02      0.6908183      0.6134675
     10564.5000         0.7249         0.5895         0.6063         0.5892         0.5816        -999.25         0.4701         0.1817        -0.0207        216.979       107.5419         49.956       65.46244         0.2871        -61.003      -27.05727       3860.531      0.6906902      0.6134675
     10565.0000         0.7483         0.5931         0.6298         0.6165         0.5912        -999.25          0.549         0.1769        -0.0137       219.3884       107.3427        48.8485       64.06977         0.2805        -61.153      -27.27602       3861.027       0.661059      0.6103425
     10565.5000          0.729         0.6013         0.6672         0.6522         0.5793        -999.25         0.6279         0.1758        -0.0158       222.5813       107.3425        46.4398       61.04087         0.2674       -59.0494      -24.20827       3841.563      0.5966144      0.6541675
     10566.0000         0.6725         0.5978         0.6287         0.6342         0.5598        -999.25         0.7466         0.1728        -0.0158       225.7742       107.1427         46.633       61.28382         0.2788       -55.8873      -19.59688       3842.055      0.6017833      0.7200446
     10566.5000         0.6387         0.5781         0.5861         0.5848         0.5627        -999.25         0.8853          0.165        -0.0149       227.3726       106.7432        48.6345       63.80067         0.3052       -53.4775      -16.08259       3842.551      0.6553334      0.7702487
     10567.0000         0.6759         0.6602         0.5873         0.5808         0.5939        -999.25         0.9441         0.1525        -0.0149       225.3682       106.2449        51.4321       67.31859         0.3112       -55.4356      -18.93815       3843.043      0.7301827       0.729455
     10567.5000         0.7684         0.7179         0.6741         0.6537         0.6363        -999.25         0.8233         0.1483         -0.014        220.175       104.9438         51.629       67.56621         0.2992       -58.7498      -23.77136       3863.617      0.7354512      0.6604092
     10568.0000         0.8785         0.7243         0.7455         0.7208         0.6664        -999.25         0.6827         0.1562         -0.014       214.9868       103.3462        50.2219       65.79679         0.2741       -60.1003      -25.74084           3884      0.6978041      0.6322737
     10568.5000         0.8789         0.6973         0.7856          0.745         0.6759        -999.25         0.6019         0.1682        -0.0141       212.1877       102.2477        49.6155       65.03426         0.2424       -58.5938      -23.54386       3884.496      0.6815801      0.6636592
     10569.0000         0.7828         0.6585         0.7148          0.697         0.6442        -999.25         0.7406         0.1712        -0.0131       213.3894       103.0475        50.6107       66.28571         0.2424       -54.8327      -18.05892       3874.898      0.7082065      0.7420154
     10569.5000         0.6973           0.61         0.6369         0.6083         0.5881        -999.25         0.8993         0.1622        -0.0112       220.9873       104.9426        53.5123        69.9344           0.27       -50.7726      -12.13794       3865.398      0.7858384      0.8266008
     10570.0000          0.621         0.5543         0.5485          0.528         0.5369        -999.25          1.058         0.1491        -0.0112       234.1562       106.7429        57.2164       74.59225         0.2874       -48.2181      -8.412631       3846.055      0.8849414      0.8798196
     10570.5000          0.553         0.5117         0.4881         0.4855         0.4902        -999.25         1.1568         0.1407        -0.0092       245.7476       108.3424        58.5135       76.22333         0.3084        -46.259      -5.555607       3846.551      0.9196452      0.9206342
     10571.0000         0.5044           0.48         0.4552         0.4758         0.4481        -999.25         1.2556         0.1378        -0.0053       255.3386       109.7411        58.5086       76.21718         0.3216       -45.0547      -3.799336        3866.98      0.9195144      0.9457238
     10571.5000         0.4912         0.4855         0.4425          0.479         0.4425        -999.25         1.2746         0.1354        -0.0043       265.3335       110.9398         58.603       76.33588         0.3306       -44.1529      -2.484214       3897.441      0.9220399      0.9645112
     10572.0000         0.4893         0.4899         0.4529          0.492          0.456        -999.25         1.2575         0.1317        -0.0042       271.0034       111.3575        59.8189       77.86486         0.3371        -43.701      -1.825192       3906.188      0.9545715      0.9739258
     10572.5000         0.4907         0.4944         0.4645         0.4791          0.467        -999.25         1.2176         0.1287        -0.0042        274.623       111.1627        61.0227        79.3786         0.3455       -44.0004      -2.261817       3896.207      0.9867787      0.9676883
     10573.0000         0.4826          0.488          0.473         0.4699         0.4639        -999.25         1.1976         0.1299        -0.0052       275.8398       110.6687        62.3235       81.01434         0.3575        -44.754      -3.360819       3886.227              1      0.9519883
     10573.5000         0.4956         0.4693         0.4849         0.4916         0.4639        -999.25         1.1577         0.1323        -0.0082       273.4624       109.1743        62.2253       80.89085         0.3563       -45.9589      -5.117963       3866.184              1      0.9268863
     10574.0000         0.5429         0.5164         0.5189         0.5457          0.503        -999.25         1.1377         0.1353        -0.0172       263.4868       105.6855        60.5234       78.75076         0.3509       -47.7638      -7.750111       3846.305      0.9734203      0.8892841
     10574.5000          0.643         0.6183         0.5744         0.6176         0.5583        -999.25         1.0779         0.1365        -0.0293       246.7471       101.6924        57.4132       74.83973         0.3383       -49.8703      -10.82209       3846.375       0.890207      0.8453987
