#------------------------------------------------------------------------------
# Created by    : vladimir.rabinovich
# Created on    : 09/19/2023 17:20:25
#------------------------------------------------------------------------------
~Version Information Section
VERS.           2.0     :   CWLS log ASCII Standard - VERSION 2.0
WRAP.           NO      :   One line per depth step
~Well Information Section
#MNEM       .UNIT                                         VALUE :DESCRIPTION
#------------------------------------------------------------------------------
STRT        .FT                                             396 :START DEPTH
STOP        .FT                                           11006 :STOP DEPTH
STEP        .FT                                             0.5 :STEP      
NULL        .                                           -999.25 :NULL      
COMP        .                                 CALIFORNIA CO THE :COMPANY   
WELL        .                                OCS 00507 ST00BP00 :WELL      
FLD         .                            HIGH ISLAND BLOCK 0052 :FIELD     
LOC         .                                                   :LOCATION  
CNTY        .                           HIGH ISLAND LARGE BLOCK :LOCATION  
STAT        .                                             TEXAS :STATE     
CTRY        .                                     UNITED STATES :COUNTRY   
SRVC        .                                                   :SERVICE COMPANY
DATE        .                             9/13/2023 11:19:15 AM :LOG DATE  
API         .                                    42708000170000 :API NUMBER
UWI         .                                    42708000170000 :UNIQUE WELL ID
XCOORD      .                                  1293108.02889945 :SURFACE X 
YCOORD      .                                   10685731.628563 :SURFACE Y 
LAT         .                                         29.439677 :LATITUDE  
LON         .                                        -94.091453 :LONGITUDE 
ELEV        .FT                                              70 :ELEVATION VALUE
ELEV_TYPE   .                                                KB :ELEVATION REFERENCE TYPE
~Curve Information Section
#MNEM       .UNIT                                      API CODE :CURVE DESCRIPTION
#------------------------------------------------------------------------------
DEPT        .FT                                                 :DEPTH     
ASN         .OHMM                                               :          
CILD        .MMHO                                               :          
ILM         .OHMM                                               :          
SP          .MV                                                 :          
SP_NORM     .MV                                                 :SP Normalized
VSH_SP      .V/V                                                :Volume of Shale from SP
~A        DEPTH            ASN           CILD            ILM             SP        SP_NORM         VSH_SP
# ...
      8832.0000         1.4639       876.1553          1.055       -56.6351       -20.3142      0.7092984
      8832.5000         1.4632       884.7344         1.0529       -56.8254       -20.5006      0.7063397
      8833.0000         1.4625       893.3027         1.0508         -57.03       -20.7013       0.703154
      8833.5000         1.4619       901.3564         1.0488       -57.4019       -21.0694      0.6973111
      8834.0000         1.4612       908.0313         1.0467       -57.7744        -21.438      0.6914603
      8834.5000         1.4605       914.7168         1.0446       -58.1469       -21.8066      0.6856095
      8835.0000         1.4623       921.3926         1.0425       -58.5193       -22.1751      0.6797603
      8835.5000          1.465       928.0674         1.0404       -58.8912       -22.5432      0.6739175
      8836.0000         1.4678       928.5488         1.0384       -59.2636       -22.9117      0.6680683
      8836.5000         1.4706       925.5664         1.0363       -59.6025       -23.2467      0.6627508
      8837.0000         1.4734       922.5791         1.0342       -59.9183       -23.5587      0.6577984
      8837.5000         1.4762       919.5977         1.0297       -60.2346       -23.8711      0.6528397
      8838.0000         1.4931       916.6152          1.024       -60.5504        -24.183      0.6478889
      8838.5000         1.5138       910.0449         1.0184       -60.2446       -23.8734      0.6528032
      8839.0000         1.5429       900.2295         1.0127       -59.3797       -23.0046      0.6665937
      8839.5000         1.6555       890.4141          1.007       -58.5072       -22.1282      0.6805047
      8840.0000         1.7301       880.5986         1.0013       -57.5565       -21.1737      0.6956555
      8840.5000         1.7768       870.7715         0.9957       -57.2848       -20.8981      0.7000301
      8841.0000         1.8062       877.7207           0.99       -57.7788       -21.3882      0.6922508
      8841.5000         1.8021       885.1504         0.9843       -58.2723       -21.8779      0.6844778
      8842.0000         1.7582       892.5693         0.9786       -58.7578       -22.3595      0.6768333
      8842.5000         1.7072       899.8242         0.9733       -58.8853       -22.4831      0.6748714
      8843.0000         1.6485       907.0352         0.9704       -59.0129       -22.6068      0.6729079
      8843.5000         1.5907       914.2354         0.9674       -59.1404       -22.7305      0.6709445
      8844.0000         1.5429       921.4355         0.9645       -59.2679       -22.8541      0.6689826
      8844.5000         1.5177       928.6475         0.9615       -59.3954       -22.9777      0.6670206
      8845.0000         1.5043       935.8477         0.9586       -59.4695        -23.048      0.6659048
      8845.5000         1.4905       941.4912         0.9557       -59.4414        -23.016      0.6664127
      8846.0000          1.476       943.6875         0.9527       -59.4134       -22.9841      0.6669191
      8846.5000         1.4614       945.8838         0.9498       -59.3853       -22.9522      0.6674254
      8847.0000         1.4469       948.0811         0.9458       -59.3573       -22.9203      0.6679317
      8847.5000         1.4316       950.2754         0.9418       -60.3083       -23.8674      0.6528984
      8848.0000         1.4163       952.4717         0.9378       -61.3911       -24.9464      0.6357715
      8848.5000         1.4009        954.668         0.9338        -62.476       -26.0274      0.6186127
      8849.0000         1.3967       958.1699         0.9298       -63.6026       -27.1501      0.6007921
      8849.5000          1.402       966.6943         0.9258       -64.8679       -28.4116      0.5807682
      8850.0000         1.4073       975.2295         0.9218       -66.1333       -29.6731      0.5607445
      8850.5000         1.4371       983.7539         0.9155       -67.4008       -30.9367      0.5406873
      8851.0000         1.4788       992.2891         0.9036       -68.6661       -32.1982      0.5206635
      8851.5000         1.5203       1000.813         0.8917       -69.2866       -32.8148      0.5108762
      8852.0000         1.5615       1009.337         0.8798       -69.7125       -33.2368      0.5041777
      8852.5000         1.5965       1017.873         0.8679       -70.1388       -33.6592       0.497473
      8853.0000         1.6315       1026.396          0.856       -70.5647       -34.0813       0.490773
      8853.5000         1.6665       1045.371         0.8441       -70.8975       -34.4102      0.4855524
      8854.0000         1.6895       1064.674         0.8247       -70.4008       -33.9096      0.4934984
      8854.5000         1.7113       1083.977         0.8007       -69.9045       -33.4095      0.5014365
      8855.0000         1.7041       1103.301         0.7766       -69.4082       -32.9093      0.5093762
      8855.5000         1.6098       1122.713         0.7526       -68.9115       -32.4087      0.5173222
      8856.0000         1.5364       1147.049         0.7288       -68.4054       -31.8988      0.5254159
      8856.5000         1.4965       1171.342         0.7064       -67.6033       -31.0928      0.5382095
      8857.0000         1.4575       1196.771          0.684       -66.8022       -30.2878      0.5509873
      8857.5000         1.3969       1233.715         0.6615       -66.0001       -29.4819      0.5637794
      8858.0000         1.3274       1270.699         0.6391        -65.198       -28.6759       0.576573
      8858.5000         1.2662       1312.281         0.6166        -64.397        -27.871      0.5893492
      8859.0000         1.2202       1360.691         0.5942       -66.3665       -29.8367      0.5581476
      8859.5000         1.1851       1409.102         0.5788        -68.457       -31.9233       0.525027
      8860.0000         1.1631       1529.557         0.5705       -70.5432       -34.0056      0.4919746
      8860.5000         1.1548       1775.896         0.5621       -73.3688       -36.8273      0.4471857
      8861.0000         1.1666       1887.553         0.5538       -76.2603        -39.715      0.4013492
      8861.5000         1.1783       1907.928         0.5454         -81.37       -44.8208      0.3203048
      8862.0000           1.18       1928.303         0.5394        -85.012       -48.4589      0.2625571
      8862.5000         1.1814       1948.766         0.5411       -86.7834       -50.2265         0.2345
      8863.0000         1.1828       1969.447         0.5428        -87.963       -51.4022      0.2158381
      8863.5000          1.184       1986.344         0.5444       -88.3938       -51.8291      0.2090619
      8864.0000         1.1834       1967.564         0.5461       -88.8245        -52.256      0.2022857
      8864.5000         1.1828       1948.766         0.5478       -89.2548       -52.6824      0.1955175
      8865.0000         1.1822       1933.469         0.5495       -89.6854       -53.1091      0.1887444
      8865.5000         1.1816       1919.111         0.5512       -90.1405       -53.5604       0.181581
      8866.0000         1.1811       1904.732         0.5532        -90.717        -54.133      0.1724921
      8866.5000         1.1822       1900.021         0.5552       -91.2936       -54.7057      0.1634016
      8867.0000         1.1843       1896.768         0.5571       -91.8712       -55.2795      0.1542937
      8867.5000         1.1864       1893.512         0.5591       -92.4478       -55.8522      0.1452032
      8868.0000         1.1885       1890.256          0.561       -92.8719       -56.2724      0.1385333
      8868.5000         1.1925           1887         0.5652       -93.1426       -56.5392      0.1342984
      8869.0000         1.2069       1847.504         0.5767       -93.4132        -56.806      0.1300635
      8869.5000         1.2214       1795.941         0.5883        -91.057       -54.4459      0.1675254
