#------------------------------------------------------------------------------
# Created by    : vladimir.rabinovich
# Created on    : 09/19/2023 17:22:45
#------------------------------------------------------------------------------
~Version Information Section
VERS.           2.0     :   CWLS log ASCII Standard - VERSION 2.0
WRAP.           NO      :   One line per depth step
~Well Information Section
#MNEM       .UNIT                                         VALUE :DESCRIPTION
#------------------------------------------------------------------------------
STRT        .FT                                            3370 :START DEPTH
STOP        .FT                                           10136 :STOP DEPTH
STEP        .FT                                             0.5 :STEP      
NULL        .                                           -999.25 :NULL      
COMP        .                                  W&T OFFSHORE INC :COMPANY   
WELL        .                               OCS G04565 ST00BP00 :WELL      
FLD         .                              GALVESTON BLOCK 0303 :FIELD     
LOC         .                                                   :LOCATION  
CNTY        .                             GALVESTON LARGE BLOCK :LOCATION  
STAT        .                                             TEXAS :STATE     
CTRY        .                                     UNITED STATES :COUNTRY   
SRVC        .                                                   :SERVICE COMPANY
DATE        .                             9/13/2023 11:19:27 AM :LOG DATE  
API         .                                    42706401000000 :API NUMBER
UWI         .                                    42706401000000 :UNIQUE WELL ID
XCOORD      .                                  988505.563749319 :SURFACE X 
YCOORD      .                                  10486369.8338556 :SURFACE Y 
LAT         .                                        28.8802688 :LATITUDE  
LON         .                                       -95.0374578 :LONGITUDE 
ELEV        .FT                                              93 :ELEVATION VALUE
ELEV_TYPE   .                                                KB :ELEVATION REFERENCE TYPE
~Curve Information Section
#MNEM       .UNIT                                      API CODE :CURVE DESCRIPTION
#------------------------------------------------------------------------------
DEPT        .FT                                                 :DEPTH     
DPHI        .DEC                                                :          
DRHO        .G/C3                                               :          
DT          .US/F                                               :          
GR          .GAPI                                               :          
GR_1        .GAPI                                               :          
GR_NORM     .GAPI                                               :GammaRay Normalized
ILD         .OHMM                                               :          
NPHI        .DEC                                                :          
RHOB        .G/C3                                               :          
SP          .MV                                                 :          
SP_NORM     .MV                                                 :SP Normalized
VSH_GR      .V/V                                                :Volume of Shale from GR
VSH_SP      .V/V                                                :Volume of Shale from SP
~A        DEPTH           DPHI           DRHO             DT             GR           GR_1        GR_NORM            ILD           NPHI           RHOB             SP        SP_NORM         VSH_GR         VSH_SP
# ...
      6125.0000         0.2879         -0.027        105.046        41.5632        -999.25       34.78859         0.1495         0.3303         2.1565      -114.8394      -76.96552      0.0380551              0
      6125.5000         0.3007        -0.0299       104.6763        40.8066        -999.25       33.83434         0.1493         0.3357         2.1348      -113.8661      -75.98129      0.0177519              0
      6126.0000         0.3129        -0.0435       107.0684        41.8729        -999.25       35.15873         0.1514         0.3509         2.1308      -111.7463      -73.85056     0.04593033              0
      6126.5000         0.3085        -0.0536       111.3029        46.9628        -999.25       41.51261         0.1609         0.3645         2.1526      -108.1622      -70.25552      0.1811194              0
      6127.0000         0.2829        -0.0487       110.9218        51.2775        -999.25       46.89749         0.1747         0.3634         2.1916      -102.6528      -64.73518      0.2956913     0.07521166
      6127.5000         0.2602        -0.0433       109.4766        55.8391        -999.25         52.591         0.1957         0.3525         2.2158        -96.425      -58.49646      0.4168299      0.1643363
      6128.0000         0.2452         -0.039       108.1584        60.6475        -999.25       58.59301         0.2223          0.346          2.235       -90.1973      -52.25782      0.5445321      0.2534597
      6128.5000         0.2526        -0.0361       109.3545        64.4723        -999.25       63.36552         0.2662         0.3587         2.2256       -83.9622      -46.01178      0.6460748      0.3426888
      6129.0000         0.2627        -0.0366       111.3867        63.0814        -999.25       61.61841         0.3189         0.3686          2.208       -80.4336      -42.47226      0.6089023      0.3932535
      6129.5000         0.2696        -0.0379       110.8564        59.0949        -999.25       56.62678          0.382         0.3649         2.1974       -77.5566      -39.58432      0.5026975      0.4345097
      6130.0000         0.2676        -0.0388        109.024        56.6018        -999.25       53.50192         0.4575         0.3514         2.1922       -73.2395      -35.25629      0.4362111      0.4963387
      6130.5000         0.2612        -0.0346       106.3754        56.9067        -999.25       53.87455         0.5017         0.3382         2.2521       -68.3779      -30.38375      0.4441394      0.5659463
      6131.0000         0.2344        -0.0266        105.667        58.1075        -999.25       55.36706         0.5392         0.3384         2.2812       -63.5202      -25.51512      0.4758948      0.6354983
      6131.5000         0.2147        -0.0156       107.3519        59.3084        -999.25        56.8597          0.547         0.3488         2.2962        -60.025      -22.00899      0.5076532      0.6855859
      6132.0000         0.2256        -0.0174       109.8108        58.8061        -999.25       56.22333         0.5246         0.3597         2.2439       -59.3705      -21.34355      0.4941134      0.6950921
      6132.5000         0.2495        -0.0277        110.759        56.6882        -999.25       53.56747         0.5023         0.3652         2.2081       -60.7303      -22.69242      0.4376057      0.6758226
      6133.0000         0.2732         -0.036       110.5125        55.7959        -999.25       52.44359         0.4793         0.3655         2.1865       -63.4813      -25.43249      0.4136934      0.6366788
      6133.5000         0.2785        -0.0403       109.8854        56.3328        -999.25       53.10623         0.4585         0.3601         2.1982       -63.9034      -25.84365      0.4277922       0.630805
      6134.0000         0.2581        -0.0407       109.5745        63.2838        -999.25       61.78648         0.4407         0.3688         2.2384        -60.236      -22.16532      0.6124783      0.6833525
      6134.5000         0.2316        -0.0314       112.5039        69.4448        -999.25       69.47925         0.4283          0.387         2.2694       -56.6556      -18.57399      0.7761542      0.7346573
      6135.0000         0.2224         -0.023       116.1193        71.3998        -999.25       71.91451         0.4196         0.4002         2.2784       -53.0715      -14.97895      0.8279684      0.7860149
      6135.5000         0.2181        -0.0195       118.1903        71.4583        -999.25       71.97913         0.4174         0.4087         2.2853       -49.4911      -11.38762      0.8293433      0.8373197
      6136.0000         0.2128        -0.0174       117.7938         71.484        -999.25       72.00278         0.4351          0.396          2.294        -47.563      -9.448586      0.8298463      0.8650202
      6136.5000         0.2088        -0.0156       113.4164        71.5098        -999.25       72.02653         0.4637         0.3794         2.3015        -51.061      -12.93565      0.8303517      0.8152049
      6137.0000          0.211        -0.0148        113.187        70.2101        -999.25       70.39341         0.4805         0.3764         2.2856       -55.6559      -17.51962      0.7956045      0.7497197
      6137.5000          0.227        -0.0158       115.7469        66.9716        -999.25       66.33681         0.4818         0.3889         2.2482       -60.2619      -22.11469      0.7092938      0.6840759
      6138.0000         0.2411        -0.0178       118.0343        65.2498        -999.25       64.17606         0.4728         0.4047         2.2306       -64.8716      -26.71345      0.6633204      0.6183793
      6138.5000         0.2514        -0.0186       119.2994        65.1017        -999.25       63.98244         0.4494         0.4164         2.2226       -67.8855      -29.71642      0.6592008      0.5754797
      6139.0000         0.2551        -0.0194       119.7357        66.4667        -999.25       65.68019         0.4146         0.4206         2.2228       -67.7354      -29.55539      0.6953232      0.5777802
      6139.5000         0.2521         -0.021       119.9924        67.6626        -999.25       67.16658         0.3692         0.4203         2.2208       -68.6482      -30.45726      0.7269485      0.5648963
      6140.0000          0.267        -0.0284       116.9998        63.6984        -999.25       62.20284         0.3054         0.4039         2.1864       -76.0313      -37.82942       0.621337      0.4595797
      6140.5000         0.2962        -0.0372       116.1809        55.6182        -999.25       52.09409         0.2512         0.3979         2.1452       -90.2491      -52.03629      0.4062573      0.2566245
      6141.0000         0.3174        -0.0437        118.292        55.7725        -999.25       52.27848         0.2199         0.4015         2.1169      -102.7861      -64.56236      0.4101804     0.07768064
      6141.5000         0.3143         -0.046        119.932        59.0283        -999.25       56.33974         0.2114         0.4128         2.1231       -106.322      -68.08732      0.4965901     0.02732402
      6142.0000         0.3027        -0.0463       120.1515        60.5339        -999.25       58.21325         0.2062           0.42         2.1433      -105.8629      -67.61729      0.5364521     0.03403876
      6142.5000         0.2936        -0.0434       117.9468        55.6441        -999.25        52.0925         0.1775         0.4081         2.1563      -105.7375      -67.48096      0.4062234     0.03598633
      6143.0000         0.2946         -0.043       113.6975        53.0375        -999.25       48.82576         0.1609         0.3641         2.1483      -106.8496      -68.58212      0.3367183     0.02025539
      6143.5000         0.3066         -0.046       108.1781        51.4614        -999.25       46.84715         0.1539         0.3404         2.1288      -108.5787      -70.30029      0.2946202              0
