#------------------------------------------------------------------------------
# Created by    : vladimir.rabinovich
# Created on    : 09/19/2023 17:22:51
#------------------------------------------------------------------------------
~Version Information Section
VERS.           2.0     :   CWLS log ASCII Standard - VERSION 2.0
WRAP.           NO      :   One line per depth step
~Well Information Section
#MNEM       .UNIT                                         VALUE :DESCRIPTION
#------------------------------------------------------------------------------
STRT        .FT                                            3080 :START DEPTH
STOP        .FT                                           13004 :STOP DEPTH
STEP        .FT                                             0.5 :STEP      
NULL        .                                           -999.25 :NULL      
COMP        .                                     INEXCO OIL CO :COMPANY   
WELL        .                                     ST TR 00006-L :WELL      
FLD         .                                           WILDCAT :FIELD     
LOC         .                                                   :LOCATION  
CNTY        .                           HIGH ISLAND LARGE BLOCK :LOCATION  
STAT        .                                             TEXAS :STATE     
CTRY        .                                     UNITED STATES :COUNTRY   
SRVC        .                                                   :SERVICE COMPANY
DATE        .                             9/13/2023 11:19:15 AM :LOG DATE  
API         .                                    42708302350000 :API NUMBER
UWI         .                                    42708302350000 :UNIQUE WELL ID
XCOORD      .                                  1306008.37969423 :SURFACE X 
YCOORD      .                                  10751503.0860356 :SURFACE Y 
LAT         .                                          29.62091 :LATITUDE  
LON         .                                         -94.05279 :LONGITUDE 
ELEV        .FT                                              84 :ELEVATION VALUE
ELEV_TYPE   .                                                KB :ELEVATION REFERENCE TYPE
~Curve Information Section
#MNEM       .UNIT                                      API CODE :CURVE DESCRIPTION
#------------------------------------------------------------------------------
DEPT        .FT                                                 :DEPTH     
DT          .US/F                                               :          
GR          .GAPI                                               :          
GR_NORM     .GAPI                                               :GammaRay Normalized
ILD         .OHMM                                               :          
SFL         .OHMM                                               :          
SP          .MV                                                 :          
SP_NORM     .MV                                                 :SP Normalized
VSH_GR      .V/V                                                :Volume of Shale from GR
VSH_SP      .V/V                                                :Volume of Shale from SP
~A        DEPTH             DT             GR        GR_NORM            ILD            SFL             SP        SP_NORM         VSH_GR         VSH_SP
# ...
      7055.0000        74.7134        27.8384       30.02305         0.8802         3.3747       -72.9773      -27.97931              0      0.6354147
      7055.5000        76.0651        27.6183        29.5586         1.3076         3.7315       -68.5151      -23.51909              0      0.6956879
      7056.0000        81.2538        27.3115       28.91293         2.1214         3.8389        -64.533      -19.53898              0      0.7494733
      7056.5000        85.0425        27.3575       29.00483         2.6719         3.8247       -60.9746      -15.98257              0      0.7975329
      7057.0000        88.3545        27.8983       30.13126         3.1643         3.6043       -57.9111      -12.92105              0      0.8389047
      7057.5000        85.2733        28.9313       32.28675         3.0084         3.3171       -55.1738      -10.18574              0      0.8758684
      7058.0000         82.541        30.5724       35.71364         2.6781         2.8929       -52.6428      -7.656727     0.05773699      0.9100443
      7058.5000         84.601        32.6797       40.11523         2.4171         2.5235        -50.123      -5.138912      0.1513878      0.9440687
      7059.0000         86.824        34.0908       43.06123          2.272         2.1924       -47.7888      -2.806698      0.2140688      0.9755852
      7059.5000        88.9153        34.8114       44.56359         2.1833         1.9666       -45.8802     -0.9000854      0.2460338              1
      7060.0000        89.8932        35.2989       45.57857         2.1211         1.8328       -45.1679     -0.1897736      0.2676292              1
      7060.5000        89.4779        35.7466       46.51035         2.0805         1.9078       -45.5001     -0.5239563      0.2874542              1
      7061.0000        88.7245         35.994       47.02335         2.0084           2.17       -46.1427      -1.168545      0.2983691      0.9977224
      7061.5000        87.9668        36.1177        47.2777         1.8437         2.4847       -47.4561      -2.483932      0.3037809      0.9799469
      7062.0000        86.9305        36.6769       48.44262          1.615         2.8063       -48.2038       -3.23362      0.3285664       0.969816
      7062.5000        85.8705        37.9605       51.12204         1.3873          2.935       -47.9988      -3.030602      0.3855753      0.9725595
      7063.0000        91.7869        40.7465       56.94261         1.1975         2.3144       -47.0051      -2.038891      0.5094172       0.985961
      7063.5000       102.7163        43.6113       62.92797         1.0289         1.6913       -46.1559      -1.191677      0.6367652      0.9974098
      7064.0000       110.7603         47.106       70.23026         0.8667         1.0667       -45.3591     -0.3968658      0.7921331              1
      7064.5000       115.1211        48.9163       74.01091         0.7404         0.6774       -45.0214     -0.0611496      0.8725725              1
      7065.0000        116.751        48.7985       73.76035         0.6586         0.6028       -44.7549      0.2033615      0.8672414              1
      7065.5000        116.225        49.1964       74.58802         0.6014         0.6419        -44.267      0.6892776      0.8848515              1
      7066.0000       114.8118        50.2395       76.76461         0.5802         0.7294        -42.783       2.171288      0.9311619              1
      7066.5000       114.3169        51.5869       79.57747         0.5991          0.814       -40.3138       4.638504        0.99101              1
      7067.0000       114.3815         52.808       82.12622         0.6203         0.8728       -39.1017       5.848618              1              1
      7067.5000       114.9806        53.7592       84.11066         0.6403         0.8932       -38.6476       6.300732              1              1
      7068.0000       115.8223        53.8141       84.22122         0.6616         0.8606       -38.3917       6.554642              1              1
      7068.5000       116.6604        52.9355       82.38004         0.6869         0.8122       -38.4373       6.507057              1              1
      7069.0000       117.4557        52.1199       80.67056         0.7105         0.7549         -38.57       6.372372              1              1
      7069.5000       118.1526        51.4844       79.33765          0.733         0.7089       -38.8079       6.132484      0.9859074              1
      7070.0000       116.6766        50.2482        76.7488         0.7563         0.6773       -39.4552       5.483196      0.9308256              1
      7070.5000       110.4041        48.3834       72.84571         0.7748         0.8366       -40.9625       3.973911      0.8477811              1
      7071.0000       103.2181         46.826       69.58532         0.7832         1.1767       -42.4811       2.453327       0.778411              1
      7071.5000        99.4846        46.3876       68.66448         0.7908         1.4345       -43.3361       1.596336      0.7588187              1
      7072.0000        99.8058        49.8907       75.98434         0.8028         1.3095       -42.8374       2.093052      0.9145604              1
      7072.5000        105.396        53.8404       84.23793         0.8239         0.8773       -41.4313       3.497166              1              1
      7073.0000       111.0262        56.1602        89.0838         0.8351         0.7151        -40.671       4.255478              1              1
      7073.5000        115.392        55.9365       88.61186          0.814          0.711       -40.2637       4.660793              1              1
      7074.0000       116.0393        53.7204       83.97431         0.7437          0.752       -40.0804       4.842106              1              1
      7074.5000       113.7411        51.6031       79.54328         0.7166         0.7831       -40.3644       4.556122      0.9902826              1
      7075.0000       111.4403        49.5508       75.24818         0.7063         0.7938       -40.8716       4.046932      0.8988973              1
      7075.5000       109.2373        48.8983       73.87971         0.6794         0.7897       -43.3736       1.542946      0.8697812              1
      7076.0000       107.9928        51.1057       78.49059         0.6333         0.7802       -45.9046     -0.9900398       0.967885              1
      7076.5000       108.0981        54.1129       84.77364         0.5767         0.7325       -49.8868      -4.974224              1      0.9462942
      7077.0000       110.9233         56.134       88.99503         0.5236         0.6863       -54.8514      -9.940811              1      0.8791782
      7077.5000       113.1414        56.5783       89.91969         0.4847         0.6749       -61.8408       -16.9322              1         0.7847
      7078.0000       114.8475        55.9565       88.61537         0.4625          0.697       -70.6525      -25.74588              1      0.6655962
      7078.5000       114.8083        55.2178        87.0667         0.4524         0.7073       -72.3416      -27.43697              1      0.6427436
      7079.0000       113.9204        54.4266       85.40824         0.4497         0.7036       -69.6776      -24.77496              1      0.6787168
      7079.5000       112.8378        53.6154       83.70798         0.4523         0.7118       -66.0667      -21.16605              1      0.7274858
      7080.0000       111.9132        53.1656       82.76331         0.4743         0.7262       -62.6094      -17.71074              1      0.7741793
      7080.5000       110.9974        53.2614       82.95935         0.5094         0.7138       -58.1136      -13.21692              1      0.8349065
      7081.0000       110.3475         53.603       84.41772         0.5632         0.7109        -52.459      -7.564304              1      0.9112932
