#------------------------------------------------------------------------------
# Created by    : vladimir.rabinovich
# Created on    : 09/19/2023 17:20:30
#------------------------------------------------------------------------------
~Version Information Section
VERS.           2.0     :   CWLS log ASCII Standard - VERSION 2.0
WRAP.           NO      :   One line per depth step
~Well Information Section
#MNEM       .UNIT                                         VALUE :DESCRIPTION
#------------------------------------------------------------------------------
STRT        .FT                                             609 :START DEPTH
STOP        .FT                                           12866 :STOP DEPTH
STEP        .FT                                             0.5 :STEP      
NULL        .                                           -999.25 :NULL      
COMP        .                                        SUN OIL CO :COMPANY   
WELL        .                               OCS G01769 ST00BP00 :WELL      
FLD         .                                           WILDCAT :FIELD     
LOC         .                                                   :LOCATION  
CNTY        .                             GALVESTON LARGE BLOCK :LOCATION  
STAT        .                                             TEXAS :STATE     
CTRY        .                                     UNITED STATES :COUNTRY   
SRVC        .                                                   :SERVICE COMPANY
DATE        .                             9/13/2023 11:19:24 AM :LOG DATE  
API         .                                    42706001410000 :API NUMBER
UWI         .                                    42706001410000 :UNIQUE WELL ID
XCOORD      .                                  1110717.91749569 :SURFACE X 
YCOORD      .                                  10538856.4752018 :SURFACE Y 
LAT         .                                         29.029845 :LATITUDE  
LON         .                                        -94.657945 :LONGITUDE 
ELEV        .FT                                              65 :ELEVATION VALUE
ELEV_TYPE   .                                                KB :ELEVATION REFERENCE TYPE
~Curve Information Section
#MNEM       .UNIT                                      API CODE :CURVE DESCRIPTION
#------------------------------------------------------------------------------
DEPT        .FT                                                 :DEPTH     
ASN         .OHMM                                               :          
CALI        .IN                                                 :          
CILD        .MMHO                                               :          
DT          .US/F                                               :          
ILD         .OHMM                                               :          
SP          .MV                                                 :          
SP_NORM     .MV                                                 :SP Normalized
VSH_SP      .V/V                                                :Volume of Shale from SP
~A        DEPTH            ASN           CALI           CILD             DT            ILD             SP        SP_NORM         VSH_SP
# ...
      5506.0000         0.7038        12.2292       1727.744        84.6156         0.4606       -97.3046      -18.62518      0.6895804
      5506.5000         0.6884        12.2371        1820.32        84.0387         0.3674       -99.0437      -20.35946      0.6606757
      5507.0000         0.6729        12.3266       1896.346        86.5829         0.3386       -101.736      -23.04694      0.6158842
      5507.5000         0.6575        12.4345       1957.723        80.5103          0.323      -114.4729      -35.77904      0.4036827
      5508.0000         0.6426        12.5327        2048.75        68.1099         0.3074      -127.2345      -48.53582      0.1910697
      5508.5000         0.6285        12.5366         2407.5        56.4176         0.2924       -130.415       -51.7115      0.1381416
      5509.0000         0.6144         12.509         2766.5        54.3624         0.2778      -132.2927      -53.58439      0.1069269
      5509.5000         0.6004        12.5494       2986.535        59.9882         0.2632      -134.3669      -55.65379     0.07243691
      5510.0000         0.5849        12.5164       2902.551        71.5367         0.2485      -136.6536      -57.93567     0.03440552
      5510.5000         0.5681        12.3994       2818.566        84.0857         0.2339      -137.2722      -58.54946     0.02417564
      5511.0000         0.5512        12.2856       2734.484        87.0719         0.2206      -137.6443      -58.91675      0.0180542
      5511.5000          0.536        12.2521         2650.5        85.2941         0.2083      -137.9077      -59.17534     0.01374435
      5512.0000          0.522        12.2591       2566.516        83.5533         0.1959      -138.1709      -59.43372    0.009437943
      5512.5000          0.508        12.3354       2482.434        80.9757         0.1871      -138.8884      -60.14641              0
      5513.0000         0.4997        12.4596       2398.449        79.9951         0.1794       -140.179       -61.4322              0
      5513.5000         0.4942        12.6535       2314.465        78.1876         0.1718      -139.7593      -61.00768              0
      5514.0000         0.4995        12.8928       2230.387        75.3871         0.1771      -139.0115      -60.25508              0
      5514.5000         0.5069        12.8305       2244.547        73.6538          0.187      -138.2632      -59.50196    0.008300654
      5515.0000         0.5143        12.7141       2418.957        72.7748         0.1969      -137.8472      -59.08115     0.01531423
      5515.5000         0.5217        12.6025       2593.176        74.6765         0.2069      -137.5085      -58.73763     0.02103945
      5516.0000         0.5205        12.5124       2767.395        80.7528          0.222      -137.1694      -58.39373     0.02677116
      5516.5000         0.5157        12.4747       2903.723        84.6998         0.2389      -136.4788      -57.69832     0.03836136
      5517.0000          0.511        12.4275       3010.852        89.0825         0.2557      -135.5962      -56.81091     0.05315157
      5517.5000         0.5062        12.3817        3117.98        95.4659         0.2726       -133.949      -55.15889     0.08068517
      5518.0000         0.5014        12.5645       3225.207       100.9233         0.2918       -132.001      -53.20609      0.1132319
      5518.5000         0.4967        12.5673       3049.621       103.3821         0.3116       -123.541      -44.74126      0.2543122
      5519.0000         0.5139        12.5273        2667.59        98.1823         0.3315      -115.3333      -36.52875      0.3911875
      5519.5000         0.5397        12.6154       2285.953        96.3301         0.3723      -106.1761      -27.36674      0.5438877
      5520.0000         0.5749        12.5656        2160.66         92.663         0.4271       -96.0005      -17.18633      0.7135611
      5520.5000         0.6092        12.4707       2081.559        88.2109         0.4632       -93.4973      -14.67831      0.7553614
      5521.0000         0.6425        12.4098         1978.5        84.6553         0.4768       -92.4009       -13.5771       0.773715
      5521.5000         0.6759        12.4184       1922.506        82.7672         0.4904       -95.3577      -16.52908      0.7245153
      5522.0000         0.7096        12.4197       1909.932        82.4379         0.5039       -100.757      -21.92358       0.634607
      5522.5000          0.746        12.3951       1897.408        83.2272         0.5085       -104.542      -25.70377      0.5716039
      5523.0000         0.7814        12.3205       1887.984         83.679         0.5086      -106.7324      -27.88935      0.5351775
      5523.5000         0.8158        12.2799       1878.572        82.1246         0.5087      -108.9042      -30.05634      0.4990611
      5524.0000         0.8674        12.3645       1869.148         77.004         0.5089      -110.6608      -31.80813      0.4698645
      5524.5000         0.9192        12.5463        1846.98         71.673         0.4971      -113.7881      -34.93062       0.417823
      5525.0000          0.971        12.6444       1824.873        70.1316         0.4795      -116.3851       -37.5228      0.3746199
      5525.5000         0.9374         12.683       1807.809        72.0122         0.4615      -118.1973      -39.33019      0.3444968
      5526.0000         0.8804        12.6707       1893.465        78.5591         0.4423      -119.3191      -40.44717      0.3258804
      5526.5000         0.8234        12.6619       1949.813        88.1119         0.4231      -119.9507      -41.07397      0.3154339
      5527.0000         0.7663         12.528       1980.428        88.8702         0.4048      -119.3766      -40.49506      0.3250824
      5527.5000         0.7089        12.5464       2010.813        89.6112         0.3865        -118.29      -39.40364      0.3432727
      5528.0000         0.6802        12.5828       2052.262        87.0719         0.3683      -117.2047      -38.31352      0.3614413
      5528.5000         0.6747         12.435       2369.152        84.7716           0.35      -116.1008      -37.20482      0.3799197
      5529.0000         0.6833        12.3678       2410.219        82.8811         0.3788      -114.8276       -35.9268      0.4012199
      5529.5000         0.6961        12.3513        2342.98        81.3149         0.4079      -113.1008      -34.19519      0.4300801
      5530.0000         0.7201         12.337         2037.5        83.2191          0.436       -110.641      -31.73058      0.4711571
      5530.5000         0.7418        12.3272       1921.297        87.4236         0.4641      -104.8065      -25.89127      0.5684788
      5531.0000         0.7596        12.3582        1845.32        92.2123         0.4915       -101.066      -22.14596      0.6309007
      5531.5000         0.7481        12.4273        1800.74        95.8151         0.5032       -99.9943      -21.06944      0.6488426
      5532.0000         0.7309        12.6288       1739.561        97.8541         0.5149       -98.9226      -19.99293      0.6667845
      5532.5000         0.7136        12.8684       1711.387        96.7015         0.5266       -96.7372      -17.80272       0.703288
      5533.0000         0.6968        13.1083       1684.457        96.1208         0.5354       -92.9695       -14.0302      0.7661632
      5533.5000         0.6849        12.9696       1660.508        95.4802         0.5426       -90.4429      -11.49879      0.8083534
      5534.0000         0.6729         12.843       1647.287        94.7748         0.5356       -89.3983      -10.44938      0.8258437
      5534.5000         0.6567        12.8022       1642.166         95.295         0.5116       -88.6851      -9.731369      0.8378105
      5535.0000         0.6341        12.9482       1649.459        97.8356         0.4746       -88.5337      -9.575157       0.840414
