#------------------------------------------------------------------------------
# Created by    : vladimir.rabinovich
# Created on    : 09/19/2023 17:22:10
#------------------------------------------------------------------------------
~Version Information Section
VERS.           2.0     :   CWLS log ASCII Standard - VERSION 2.0
WRAP.           NO      :   One line per depth step
~Well Information Section
#MNEM       .UNIT                                         VALUE :DESCRIPTION
#------------------------------------------------------------------------------
STRT        .FT                                            1000 :START DEPTH
STOP        .FT                                            7796 :STOP DEPTH
STEP        .FT                                             0.5 :STEP      
NULL        .                                           -999.25 :NULL      
COMP        .                                SHELL OFFSHORE INC :COMPANY   
WELL        .                               OCS G06060 ST00BP00 :WELL      
FLD         .                                           WILDCAT :FIELD     
LOC         .                                                   :LOCATION  
CNTY        .                                BRAZOS LARGE BLOCK :LOCATION  
STAT        .                                             TEXAS :STATE     
CTRY        .                                     UNITED STATES :COUNTRY   
SRVC        .                                                   :SERVICE COMPANY
DATE        .                             9/13/2023 11:19:08 AM :LOG DATE  
API         .                                    42704401260000 :API NUMBER
UWI         .                                    42704401260000 :UNIQUE WELL ID
XCOORD      .                                   881020.58603234 :SURFACE X 
YCOORD      .                                   10392321.681828 :SURFACE Y 
LAT         .                                         28.616238 :LATITUDE  
LON         .                                        -95.367327 :LONGITUDE 
ELEV        .FT                                              90 :ELEVATION VALUE
ELEV_TYPE   .                                                KB :ELEVATION REFERENCE TYPE
~Curve Information Section
#MNEM       .UNIT                                      API CODE :CURVE DESCRIPTION
#------------------------------------------------------------------------------
DEPT        .FT                                                 :DEPTH     
CALI        .IN                                                 :          
CILD        .MMHO                                               :          
DPHI        .%                                                  :          
DT          .US/F                                               :          
GR          .GAPI                                               :          
GR_NORM     .GAPI                                               :GammaRay Normalized
ILD         .OHMM                                               :          
ILM         .OHMM                                               :          
SFL         .OHMM                                               :          
SP          .MV                                                 :          
SP_NORM     .MV                                                 :SP Normalized
VSH_GR      .V/V                                                :Volume of Shale from GR
VSH_SP      .V/V                                                :Volume of Shale from SP
~A        DEPTH           CALI           CILD           DPHI             DT             GR        GR_NORM            ILD            ILM            SFL             SP        SP_NORM         VSH_GR         VSH_SP
# ...
      3717.0000        26.3474       2856.754        61.0765       124.0706        24.3276       36.83575         0.3495         0.4525         0.6484       -137.376      -56.09029      0.0816118     0.03350361
      3717.5000        26.3473       2753.266        60.8167       124.1428         25.178       38.22523         0.3578         0.4654         0.6707      -137.1113      -55.81568      0.1111752     0.03832138
      3718.0000        26.3472       2653.137        61.3655       122.9272         25.365       38.52641         0.3669         0.4763         0.6914      -136.8857      -55.58018      0.1175831     0.04245303
      3718.5000        26.3472       2562.008        62.3863       121.9641        24.4876       37.08142         0.3801         0.4866         0.7008      -136.8916      -55.57618     0.08683874     0.04252317
      3719.0000        26.3471       2472.809        63.4525       121.6167        23.6746       35.74209         0.3939         0.4971          0.704      -136.8799      -55.55457      0.0583423     0.04290236
      3719.5000         26.347       2395.672        64.6277       121.7928        23.0075        34.6421         0.4085         0.5078         0.7073      -136.7937      -55.45847     0.03493832     0.04458832
      3720.0000         26.347       2332.234        64.2786       123.3177        25.1283       38.11568         0.4216         0.5185         0.7118       -136.575      -55.22986      0.1088442     0.04859897
      3720.5000        26.3469       2288.426        63.1738       125.4424        26.6183       40.55442         0.4325         0.5291         0.7146      -136.5347      -55.17966      0.1607323      0.0494797
      3721.0000        26.3468       2263.406        62.5115       126.3142        26.6158       40.54472         0.4386         0.5384         0.7086       -136.739      -55.37405      0.1605259     0.04606923
      3721.5000        26.3467       2247.645        64.0237       126.3376        25.5637       38.81314         0.4418          0.543         0.7013      -137.2495      -55.87465      0.1236838     0.03728686
      3722.0000        26.3467       2249.906        65.2502       122.7048        24.2479       36.64896         0.4412         0.5459         0.6946       -137.675      -56.29025     0.07763745      0.0299957
      3722.5000        26.3466        2282.27        66.5066        120.031        22.6101       33.95654         0.4366         0.5434         0.6926      -137.8848      -56.49014      0.0203519     0.02648886
      3723.0000        26.3465       2336.387        66.7976       118.9381        21.5684       32.24202         0.4289         0.5394         0.6887      -137.8269      -56.42234              0     0.02767824
      3723.5000        26.3465       2437.703        65.8046       120.3201        21.1164       31.49491          0.415         0.5321         0.6762      -137.8499      -56.43543              0     0.02744855
      3724.0000        26.3464       2540.203        64.4902       123.6069        21.6297       32.33138         0.3947         0.5173         0.6589      -137.9189      -56.49453              0     0.02641176
      3724.5000        26.3463       2674.102        63.4974       126.4921        22.9394       34.47433         0.3764         0.4926         0.6439      -138.2341      -56.79983     0.03136883     0.02105566
      3725.0000        26.3463       2852.602        63.3707       126.9128        24.5569       37.12225         0.3509         0.4689           0.63      -138.3899      -56.94572     0.08770736     0.01849619
      3725.5000        26.3462       3016.762        64.7146       123.6661        24.7546       37.44097         0.3319         0.4427         0.6226      -138.3484      -56.89432     0.09448875     0.01939794
      3726.0000        26.3461       3143.836        65.3733       118.8794        24.1338       36.41694         0.3162         0.4261         0.6153      -138.1091      -56.64511      0.0727009     0.02376998
      3726.5000        26.3461       3248.859        65.7253       117.3318        23.1497       34.79692         0.3035         0.4123         0.6084        -137.71      -56.23611     0.03823227     0.03094536
      3727.0000         26.346       3358.973         66.108       118.1331        22.9458       34.45682         0.2971         0.4016         0.6019      -137.5007      -56.01691      0.0309962     0.03479111
      3727.5000        26.3459        3410.52         66.566       121.2048        23.3536       35.12021         0.2935         0.3952         0.5974      -137.5967        -56.103     0.04511083     0.03328076
      3728.0000        26.3459       3398.777        66.9867       123.6576        23.4997       35.35427         0.2929         0.3937         0.5966      -137.8252      -56.32159     0.05009079     0.02944572
      3728.5000        26.3458       3296.277        66.6498       124.5703        23.1384       34.75596         0.3057         0.3968         0.5958      -137.9502      -56.43668      0.0373609      0.0274266
      3729.0000        26.3457       3193.777        66.4745       125.1263        22.6123       33.88729         0.3212         0.4036         0.6026      -137.5354      -56.01199     0.01887861     0.03487744
      3729.5000        26.3456       3074.215        66.8231       125.6825        22.2404       33.27158         0.3381         0.4181         0.6119      -136.9685      -55.43519    0.005778374      0.0449967
      3730.0000        26.3456        2925.09        67.7866       126.4327        22.0647       32.97774         0.3551         0.4331          0.622      -136.1848      -54.64158              0     0.05891967
      3730.5000        26.3455       2779.074        69.0352       127.2242        22.0669       32.97573         0.3727         0.4529          0.637      -135.8062      -54.25307              0     0.06573553
      3731.0000        26.3454       2680.727        69.5962       125.1267        22.0468       32.93717         0.3876         0.4745         0.6476      -135.7446      -54.18157              0     0.06698997
      3731.5000        26.3454       2585.395        69.6637       120.4536        21.9436       32.76226         0.4026         0.4852         0.6494      -136.0044      -54.43146              0     0.06260601
      3732.0000        26.3453       2508.559        69.6577       117.3978        21.5178       32.05812         0.4106         0.4945         0.6474      -136.0352      -54.45236              0     0.06223926
      3732.5000        26.3452       2453.301        69.6997       115.3356        21.3425       31.76495         0.4175            0.5         0.6438      -136.0271      -54.43436              0     0.06255515
      3733.0000        26.3452       2411.422         69.928       114.5826        21.4543       31.94275         0.4219         0.5041         0.6417      -136.0183      -54.41565              0     0.06288335
      3733.5000        26.3451       2368.355        70.2089       115.5703        22.2594       33.25792         0.4249         0.5052         0.6395      -136.0581      -54.44556    0.005487645     0.06235866
      3734.0000         26.345       2336.098        70.5205       119.5935        23.0884       34.61228         0.4264         0.5047         0.6363      -136.5159      -54.89345     0.03430387     0.05450092
      3734.5000        26.3449       2337.438        70.7213       125.5889        23.1828       34.76154         0.4252         0.5015         0.6308      -136.9019      -55.26954     0.03747964     0.04790283
      3735.0000        26.3449        2364.57        70.8882       129.8467        23.3318       35.00037          0.422         0.5006         0.6234        -137.21      -55.56774     0.04256115      0.0426712
      3735.5000        26.3448       2430.629        71.0215        133.959        23.8303       35.81256         0.4131         0.5023         0.6148      -137.4468      -55.79462      0.0598418      0.0386908
