#------------------------------------------------------------------------------
# Created by    : vladimir.rabinovich
# Created on    : 09/19/2023 17:22:40
#------------------------------------------------------------------------------
~Version Information Section
VERS.           2.0     :   CWLS log ASCII Standard - VERSION 2.0
WRAP.           NO      :   One line per depth step
~Well Information Section
#MNEM       .UNIT                                         VALUE :DESCRIPTION
#------------------------------------------------------------------------------
STRT        .FT                                            3744 :START DEPTH
STOP        .FT                                            9989 :STOP DEPTH
STEP        .FT                                             0.5 :STEP      
NULL        .                                           -999.25 :NULL      
COMP        .                          SEAGULL ENERGY E & P INC :COMPANY   
WELL        .                               OCS G07243 ST00BP00 :WELL      
FLD         .                                           WILDCAT :FIELD     
LOC         .                                                   :LOCATION  
CNTY        .                             GALVESTON LARGE BLOCK :LOCATION  
STAT        .                                             TEXAS :STATE     
CTRY        .                                     UNITED STATES :COUNTRY   
SRVC        .                                                   :SERVICE COMPANY
DATE        .                             9/13/2023 11:19:34 AM :LOG DATE  
API         .                                    42706403030000 :API NUMBER
UWI         .                                    42706403030000 :UNIQUE WELL ID
XCOORD      .                                   1005609.3052046 :SURFACE X 
YCOORD      .                                  10500547.7567395 :SURFACE Y 
LAT         .                                          28.92005 :LATITUDE  
LON         .                                        -94.984771 :LONGITUDE 
ELEV        .FT                                              96 :ELEVATION VALUE
ELEV_TYPE   .                                                KB :ELEVATION REFERENCE TYPE
~Curve Information Section
#MNEM       .UNIT                                      API CODE :CURVE DESCRIPTION
#------------------------------------------------------------------------------
DEPT        .FT                                                 :DEPTH     
DCAL        .IN                                                 :          
DPHI        .%                                                  :          
GR          .GAPI                                               :          
GR_NORM     .GAPI                                               :GammaRay Normalized
ILD         .OHMM                                               :          
ILM         .OHMM                                               :          
NPHI        .%                                                  :          
SFL         .OHMM                                               :          
SP          .MV                                                 :          
SP_NORM     .MV                                                 :SP Normalized
VSH_GR      .V/V                                                :Volume of Shale from GR
VSH_SP      .V/V                                                :Volume of Shale from SP
~A        DEPTH           DCAL           DPHI             GR        GR_NORM            ILD            ILM           NPHI            SFL             SP        SP_NORM         VSH_GR         VSH_SP
# ...
      5876.0000         0.0454         27.458        49.8991       62.49689         0.3189         0.3528        40.0119         0.4219       -69.1324      -34.80782      0.6275935      0.4343479
      5876.5000         0.3037        22.8232        53.8047        67.9509         0.3577         0.3824        40.2674         0.5701       -63.4975      -27.64285      0.7436363       0.557882
      5877.0000         0.5918        19.9778        56.3331       71.48068         0.4078         0.4413        40.4138         0.6903        -59.082      -22.02983      0.8187379      0.6546581
      5877.5000         0.8797        22.3214        58.0244       73.84088         0.4475         0.5004        40.9971         0.6562       -54.4799      -16.17933      0.8689549      0.7555287
      5878.0000         1.1689        26.4764        56.4869       71.68979         0.4829         0.5671        43.0174         0.6138       -51.7557      -12.71888       0.823187      0.8151917
      5878.5000         1.3816        29.7707        54.9927       69.59918         0.4959          0.611        44.5787         0.5604        -51.145      -11.94835       0.778706      0.8284767
      5879.0000         1.4645        30.8104         54.724       69.22085         0.4777         0.6269        45.0167         0.5259       -52.0449      -13.10039      0.7706563       0.808614
      5879.5000         1.0956        30.3393        54.3596       68.70881         0.4445         0.6045        44.5843         0.5033       -54.8427      -16.66795      0.7597619      0.7471043
      5880.0000         0.6169        28.7636        53.0728         66.908         0.4115         0.5627        42.5187         0.4781       -59.1346      -22.13708      0.7214468       0.652809
      5880.5000         0.1279        26.9625        50.7086       63.60182         0.3711         0.5089        39.6279         0.4557       -64.6854      -29.20846      0.6511025      0.5308887
      5881.0000        -0.1322        27.0387        47.0764       58.52401         0.3239         0.4257        37.4598         0.4248       -70.4362      -36.53437      0.5430641      0.4045798
      5881.5000        -0.2449        31.6259        44.1642       54.45216         0.2892         0.3578        35.6618         0.3898       -76.3865      -44.11419       0.456429      0.2738932
      5882.0000        -0.2215        34.0453        42.1944       51.69706         0.2645         0.3103        37.1326          0.344       -80.3105      -49.11509      0.3978098      0.1876708
      5882.5000        -0.1739        33.5672        41.0557       50.10316         0.2497         0.2742        38.1357         0.3089        -83.149      -52.73445       0.363897      0.1252681
      5883.0000        -0.1382        33.8138        41.3605       50.52613         0.2391         0.2539         38.709         0.2914       -84.8823      -54.94718      0.3728963     0.08711756
      5883.5000        -0.1181        33.0522        42.1372       51.60843         0.2333         0.2424        38.6237         0.3021       -85.9829      -56.35466      0.3959241     0.06285062
      5884.0000        -0.0827        30.8618        42.6885       52.37581         0.2293         0.2342        38.0753         0.3157       -86.6091      -57.15836      0.4122513      0.0489938
      5884.5000        -0.0446        29.2219        42.2505       51.76094         0.2251         0.2303        37.2542         0.3211       -86.9141      -57.55326      0.3991689     0.04218522
      5885.0000         0.0088        29.4578        42.0766       51.51506         0.2226         0.2279        36.5767         0.3004       -87.0684      -57.75636      0.3939375     0.03868353
      5885.5000         0.0689        30.7263        42.3176       51.84888         0.2235         0.2284        35.6586         0.2682       -87.0475      -57.73647        0.40104     0.03902633
      5886.0000         0.1414        30.8376         41.624       50.87688          0.227           0.23        34.4602         0.2328       -86.8877      -57.53981      0.3803592       0.042417
      5886.5000         0.2129        31.3661         39.938        48.5183         0.2322         0.2327        34.7263         0.2087       -86.6082       -57.1908      0.3301767     0.04843449
      5887.0000          0.274        32.1039        39.4608       47.84865         0.2408         0.2369        36.0811         0.2043       -85.8469      -56.22859      0.3159288     0.06502428
      5887.5000         0.3337        31.5814        40.0536       48.67402         0.2496         0.2471        35.8302         0.2565       -84.4316      -54.43402      0.3334897     0.09596522
      5888.0000         0.3944        25.2471        41.6832       50.94799         0.2575          0.272        34.4166         0.3422       -82.6234      -52.13938      0.3818721      0.1355279
      5888.5000           0.47        21.2476        43.7332       53.80935         0.2657         0.3108        33.0506         0.4315       -80.3512      -49.25421      0.4427522      0.1852723
      5889.0000          0.546        21.4446        45.3667       56.08878         0.2742         0.3347        31.2065         0.5127       -78.7861      -47.26898      0.4912507      0.2195003
      5889.5000         0.6144        25.0025          47.15       58.57752         0.2785         0.3329        32.2183         0.5404        -77.535       -45.6834      0.5442026       0.246838
      5890.0000         0.6136        28.2776        48.1395       59.95714         0.2826         0.3181        34.2561         0.4541       -77.6271      -45.80732      0.5735561      0.2447014
      5890.5000         0.4409        29.3704        46.4903       57.64998         0.2862         0.2982        36.1066         0.3471       -78.0824      -46.39351      0.5244676      0.2345946
      5891.0000          0.312        32.1182        45.0618       55.65117         0.2888         0.2868        36.5594         0.2859        -78.425      -46.83627      0.4819398      0.2269609
      5891.5000         0.2467        34.9518        44.0645       54.25484          0.292         0.2936        36.4401         0.2602       -78.1855      -46.53817      0.4522307      0.2321005
      5892.0000         0.2128        32.8584        45.2208       55.86752         0.3001         0.3035        36.3317         0.2835       -76.4496      -44.33556      0.4865431      0.2700766
      5892.5000         0.1964        26.6321        50.1672       62.77575         0.3163         0.3198        36.3267         0.3509        -72.218       -38.9566      0.6335265      0.3628172
      5893.0000         0.2152        22.3753        55.9599       70.86642         0.3475         0.3483        36.2459           0.45       -67.0194      -32.34692      0.8056685      0.4767773
      5893.5000         0.2692        21.6602        60.2545       76.86395         0.3817         0.4258        35.5745         0.5588       -62.3411      -26.39943      0.9332754      0.5793202
      5894.0000           0.35        22.1951         63.486        81.3761         0.4078         0.5306        36.5544         0.6147       -59.0084      -22.16453              1      0.6523356
      5894.5000         0.4324        21.1015        62.7684       80.37056         0.4325         0.5799        37.9014         0.6459       -57.6443      -20.43512              1      0.6821532
      5895.0000         0.5109        19.4449        61.9418       79.21274         0.4476          0.594        35.1694         0.6678       -57.1985      -19.87446      0.9832497      0.6918197
      5895.5000         0.5834        18.1257        61.5552       78.66968         0.4423          0.575        34.2712         0.6641       -58.1635      -21.10936      0.9716952      0.6705284
      5896.0000         0.6549        20.2152        59.7604       76.15907         0.4286         0.5363        34.9709         0.6196       -60.3094      -23.84722      0.9182782      0.6233239
