#------------------------------------------------------------------------------
# Created by    : vladimir.rabinovich
# Created on    : 09/19/2023 17:21:33
#------------------------------------------------------------------------------
~Version Information Section
VERS.           2.0     :   CWLS log ASCII Standard - VERSION 2.0
WRAP.           NO      :   One line per depth step
~Well Information Section
#MNEM       .UNIT                                         VALUE :DESCRIPTION
#------------------------------------------------------------------------------
STRT        .FT                                            3683 :START DEPTH
STOP        .FT                                            9328 :STOP DEPTH
STEP        .FT                                             0.5 :STEP      
NULL        .                                           -999.25 :NULL      
COMP        .                                SHELL OFFSHORE INC :COMPANY   
WELL        .                               OCS G11316 ST00BP00 :WELL      
FLD         .                                           WILDCAT :FIELD     
LOC         .                                                   :LOCATION  
CNTY        .                             GALVESTON LARGE BLOCK :LOCATION  
STAT        .                                             TEXAS :STATE     
CTRY        .                                     UNITED STATES :COUNTRY   
SRVC        .                                                   :SERVICE COMPANY
DATE        .                             9/13/2023 11:19:34 AM :LOG DATE  
API         .                                    42706402670000 :API NUMBER
UWI         .                                    42706402670000 :UNIQUE WELL ID
XCOORD      .                                  1097534.45360284 :SURFACE X 
YCOORD      .                                  10461685.9172371 :SURFACE Y 
LAT         .                                         28.817107 :LATITUDE  
LON         .                                        -94.695737 :LONGITUDE 
ELEV        .FT                                              91 :ELEVATION VALUE
ELEV_TYPE   .                                                KB :ELEVATION REFERENCE TYPE
~Curve Information Section
#MNEM       .UNIT                                      API CODE :CURVE DESCRIPTION
#------------------------------------------------------------------------------
DEPT        .FT                                                 :DEPTH     
CALI        .IN                                                 :          
CALI_1      .IN                                                 :          
CILD        .MMHO                                               :          
DRHO        .G/C3                                               :          
DT          .US/F                                               :          
GR          .GAPI                                               :          
GR_1        .GAPI                                               :          
GR_NORM     .GAPI                                               :GammaRay Normalized
ILD         .OHMM                                               :          
ILM         .OHMM                                               :          
NPHI        .%                                                  :          
RHOB        .G/C3                                               :          
SFL         .OHMM                                               :          
SP          .MV                                                 :          
SP_NORM     .MV                                                 :SP Normalized
VSH_GR      .V/V                                                :Volume of Shale from GR
VSH_SP      .V/V                                                :Volume of Shale from SP
~A        DEPTH           CALI         CALI_1           CILD           DRHO             DT             GR           GR_1        GR_NORM            ILD            ILM           NPHI           RHOB            SFL             SP        SP_NORM         VSH_GR         VSH_SP
# ...
      8228.0000        13.3285        13.3683       1452.627         0.0126       105.5463        67.9799        68.9038         82.522         0.7052          0.666        38.6078         2.4193         0.9028        -36.816      -3.310633              1      0.9490672
      8228.5000        13.3239        13.3615       1514.412         0.0042       105.5881         68.401        69.1062       82.83825          0.678         0.6283         39.535         2.4219         0.8767       -36.0607      -2.346877              1      0.9638942
      8229.0000        13.3216        13.3606       1545.748        -0.0041       105.6379        68.8506        69.6006       83.61076         0.6565          0.603        40.0894         2.4185          0.835       -35.5908      -1.746364              1      0.9731328
      8229.5000        13.3346        13.3653       1569.152        -0.0111       105.3689        69.5411        69.9617       84.17497         0.6432         0.5914        39.7684          2.411         0.8292        -35.379      -1.474344              1      0.9773178
      8230.0000         13.351        13.3756       1558.689        -0.0153       104.9396        70.6473        70.9495       85.71841         0.6375         0.5957        38.9377         2.4019         0.8346       -35.2967      -1.367134              1      0.9789672
      8230.5000        13.3639        13.3834       1550.795         -0.016       104.5244        71.6204        71.9767       87.32341          0.638         0.6085        38.1806         2.3951         0.8371       -35.1967      -1.237402              1      0.9809631
      8231.0000        13.3687          13.39       1539.283        -0.0109       104.0458        72.3008         72.589       88.28012         0.6443         0.6198        37.6326         2.3899         0.8379       -35.1639      -1.193192              1      0.9816432
      8231.5000        13.3687        13.3948       1522.801        -0.0042       103.6108        71.9694        72.5417       88.20622         0.6542         0.6235        37.5463         2.3863          0.834        -35.124      -1.139956              1      0.9824622
      8232.0000        13.3656        13.3993       1504.938         0.0042       103.3234        70.1158        71.1456       86.02482         0.6658          0.626        37.8633         2.3865         0.8279       -34.9014     -0.8541863              1      0.9868587
      8232.5000        13.3619        13.4031       1485.494         0.0123       103.5276        68.7778        69.9695       84.18716         0.6778          0.626        38.3322         2.3895         0.8246       -34.8816     -0.8265221              1      0.9872843
      8233.0000        13.3593        13.4026       1460.672         0.0148       103.7993        68.6448        69.3162       83.16638         0.6856         0.6261        38.7222         2.3937         0.8223       -35.1555      -1.172659              1      0.9819591
      8233.5000         13.357        13.4031       1439.674         0.0139       104.0741        68.7375        69.2711       83.09592         0.6927         0.6262         38.837            2.4         0.8214       -35.5316      -1.648879              1      0.9746326
      8234.0000        13.3571         13.405       1423.512         0.0157       104.3113        68.6489        69.3162       83.16638          0.697         0.6278        38.2891         2.4103         0.8209       -35.8738      -2.081941              1      0.9679701
      8234.5000        13.3593        13.4052       1414.543         0.0201       104.5886        68.0071        68.3634       81.67763         0.7012         0.6304         37.526         2.4219         0.8219       -35.9867       -2.22317              1      0.9657974
      8235.0000        13.3636        13.4047       1405.969         0.0231       104.9327        65.2299        65.9017       77.83123         0.7064         0.6369         36.569         2.4282          0.825       -35.5886      -1.714043      0.9538559      0.9736301
      8235.5000        13.3651        13.4021       1394.445          0.024       105.4121        63.6531        64.2908       75.31419         0.7087         0.6407        35.3996         2.4171          0.828       -35.5682      -1.685617       0.900302      0.9740674
      8236.0000        13.3651        13.3998       1384.799         0.0107       106.1807         63.415        63.7589       74.48309         0.7121         0.6439        34.5184         2.3959         0.8309       -35.6304      -1.762322       0.882619      0.9728873
      8236.5000        13.3641        13.3993       1378.986        -0.0055       107.0221        63.5064        63.9955       74.85278          0.717          0.644        34.1525         2.3767         0.8329       -35.7098      -1.860914      0.8904848      0.9713706
      8237.0000        13.3623        13.3994       1371.338        -0.0135       107.1508        64.4183        64.4771       75.60528         0.7238         0.6446        34.1614         2.3638         0.8346       -35.8264      -2.006857      0.9064953      0.9691253
      8237.5000        13.3633        13.4012        1363.75        -0.0156       107.1997        65.5801        65.5986       77.35764         0.7302           0.65        34.3354         2.3579         0.8338       -35.9963      -2.220631      0.9437795      0.9658365
      8238.0000        13.3682         13.403       1357.598        -0.0086       107.1707        66.5913        66.9934         79.537         0.7358         0.6571        34.5656         2.3691         0.8357       -36.2182      -2.500589       0.990149      0.9615294
      8238.5000        13.3731        13.4047       1371.498         0.0032       107.1429         67.392        67.6052       80.49294         0.7335         0.6644        34.9159         2.3887         0.8426       -36.4908      -2.845071              1      0.9562297
      8239.0000         13.375        13.4048        1418.43         0.0147       107.1259        67.5051        67.7909        80.7831         0.7131         0.6657        35.4449         2.4135         0.8414       -36.3665      -2.684416              1      0.9587013
      8239.5000        13.3769        13.4044        1470.59         0.0255       107.0924        67.6068        67.9973       81.10559         0.6941         0.6554        36.6731         2.4326         0.8497       -35.7783      -1.933337              1      0.9702563
      8240.0000        13.3705        13.4019       1527.045         0.0298       106.9233        67.7947        68.2572       81.51169         0.6771         0.6476        38.2185         2.4434         0.8531       -35.2227      -1.223745              1      0.9811732
      8240.5000        13.3625        13.4204       1568.793         0.0309         106.52        68.2759        68.7349        82.2581         0.6605         0.6283        39.1413         2.4466         0.8314         -35.04      -0.988764              1      0.9847882
      8241.0000        13.3574        13.4268       1585.412         0.0292       106.4468         68.948         69.485       83.43013         0.6456          0.618        39.7424         2.4442         0.8254       -35.3503      -1.381228              1      0.9787503
      8241.5000        13.3551        13.4157       1589.865         0.0286       106.9752        69.5763        70.2302       84.59451         0.6315         0.6105        39.8735          2.438         0.8282       -35.6729       -1.78935              1      0.9724715
      8242.0000        13.3614        13.4035       1590.002          0.028       107.5878         70.077        70.8073       85.49622         0.6188          0.603        39.5477         2.4298         0.8291       -36.0064      -2.211343              1      0.9659793
      8242.5000        13.3678        13.3947       1592.186         0.0259       107.8448        70.5173        70.8588        85.5767         0.6139         0.5971        39.0737         2.4206         0.8284       -36.1424      -2.381975              1      0.9633542
