#------------------------------------------------------------------------------
# Created by    : vladimir.rabinovich
# Created on    : 09/19/2023 17:22:17
#------------------------------------------------------------------------------
~Version Information Section
VERS.           2.0     :   CWLS log ASCII Standard - VERSION 2.0
WRAP.           NO      :   One line per depth step
~Well Information Section
#MNEM       .UNIT                                         VALUE :DESCRIPTION
#------------------------------------------------------------------------------
STRT        .FT                                            2222 :START DEPTH
STOP        .FT                                            8603 :STOP DEPTH
STEP        .FT                                             0.5 :STEP      
NULL        .                                           -999.25 :NULL      
COMP        .                                    HRUBETZ OIL CO :COMPANY   
WELL        .                                     ST TR 00028-L :WELL      
FLD         .                                           WILDCAT :FIELD     
LOC         .                                                   :LOCATION  
CNTY        .                           HIGH ISLAND LARGE BLOCK :LOCATION  
STAT        .                                             TEXAS :STATE     
CTRY        .                                     UNITED STATES :COUNTRY   
SRVC        .                                                   :SERVICE COMPANY
DATE        .                             9/13/2023 11:19:15 AM :LOG DATE  
API         .                                    42708303040000 :API NUMBER
UWI         .                                    42708303040000 :UNIQUE WELL ID
XCOORD      .                                  1211101.11829014 :SURFACE X 
YCOORD      .                                  10709910.5532953 :SURFACE Y 
LAT         .                                         29.503814 :LATITUDE  
LON         .                                       -94.3499952 :LONGITUDE 
ELEV        .FT                                              60 :ELEVATION VALUE
ELEV_TYPE   .                                                KB :ELEVATION REFERENCE TYPE
~Curve Information Section
#MNEM       .UNIT                                      API CODE :CURVE DESCRIPTION
#------------------------------------------------------------------------------
DEPT        .FT                                                 :DEPTH     
CALI        .IN                                                 :          
GR          .GAPI                                               :          
GR_NORM     .GAPI                                               :GammaRay Normalized
ILD         .OHMM                                               :          
ILM         .OHMM                                               :          
RHOB        .G/C3                                               :          
SFL         .OHMM                                               :          
SP          .MV                                                 :          
SP_NORM     .MV                                                 :SP Normalized
VSH_GR      .V/V                                                :Volume of Shale from GR
VSH_SP      .V/V                                                :Volume of Shale from SP
~A        DEPTH           CALI             GR        GR_NORM            ILD            ILM           RHOB            SFL             SP        SP_NORM         VSH_GR         VSH_SP
# ...
      7307.0000        14.9975        69.9028       72.78004          0.405         0.4682         2.1843          0.896       -110.713      -10.57776      0.8463839      0.8859791
      7307.5000        15.0836        68.9978       71.56583         0.4077         0.4794          2.184         0.9372      -108.1337      -7.990707      0.8205495      0.9167773
      7308.0000        15.1699        67.9581       70.17248         0.4103         0.4759         2.1829         0.9811      -113.3843      -13.23355      0.7909038      0.8543625
      7308.5000        15.2171        66.9185       68.77927          0.413         0.4725         2.1813         1.0322      -119.0864       -18.9279      0.7612612      0.7865726
      7309.0000        15.2155        65.9962       67.54203         0.4142         0.4654         2.2025         1.0858      -124.0106      -23.84435      0.7349368      0.7280435
      7309.5000        15.1735         65.079       66.31158         0.4147         0.4524         2.2366          1.139      -127.5112      -27.33719      0.7087571       0.686462
      7310.0000        15.0685        64.9041       66.06824         0.4152         0.4397          2.279         1.1935      -129.4412      -29.25943      0.7035795      0.6635782
      7310.5000        15.0023        65.3052       66.59085         0.4156         0.4281         2.2853         1.2202      -128.3882      -28.19868       0.714699      0.6762061
      7311.0000        15.0906        66.4952       68.16252         0.4218         0.4185         2.2657         1.0994      -125.2545      -25.05723      0.7481387      0.7136045
      7311.5000        15.1696        67.7625         69.837         0.4289         0.4158         2.2558         0.9288      -121.9999      -21.79488      0.7837659      0.7524419
      7312.0000        15.2109        68.7175       71.09618          0.436         0.4204          2.247          0.882       -118.092      -17.87923      0.8105571      0.7990568
      7312.5000        15.2522        68.8224       71.22491         0.4432         0.4318         2.2381         0.9042      -115.8583      -15.63776      0.8132961      0.8257409
      7313.0000        15.2467        68.7128       71.06841         0.4505         0.4436         2.2306         0.9271      -116.4207      -16.19241      0.8099661      0.8191379
      7313.5000        15.2292        68.2438       70.43396         0.4578         0.4557         2.2269         0.9467      -116.9609      -16.72485      0.7964672      0.8127993
      7314.0000         15.393        67.9006       69.96681         0.4653         0.4674         2.2231         0.9446      -117.3086       -17.0648      0.7865279      0.8087524
      7314.5000         15.586        68.3141       70.50591         0.4729         0.4685         2.2193         0.9425      -116.6344      -16.38285      0.7979981      0.8168708
      7315.0000        15.6965        68.7274       71.04475         0.4735         0.4696         2.2139         0.9404      -115.8867       -15.6274      0.8094628      0.8258643
      7315.5000        15.7171        68.9727       71.36018         0.4666         0.4707          2.209         0.9332      -115.3987      -15.13164      0.8161741      0.8317662
      7316.0000        15.7376        68.7189       71.01192          0.457         0.4609         2.2062         0.9254      -116.6353      -16.36049      0.8087642      0.8171371
      7316.5000        15.7479        67.4603       69.32747         0.4362         0.4508         2.2033         0.9275      -118.1581      -17.87553      0.7729248      0.7991009
      7317.0000        15.7501        65.6954       66.96976         0.4163          0.441         2.1867         0.9363      -120.6863      -20.39598       0.722761      0.7690955
      7317.5000        15.7523        63.6626       64.25581         0.3973         0.4315          2.168         0.9452      -124.2565      -23.95843      0.6650173      0.7266854
      7318.0000        15.7545        61.6763       61.60368         0.3795         0.4229         2.1466         0.9466      -128.2634      -27.95757       0.608589      0.6790766
      7318.5000        15.8165        59.7462        59.0263         0.3629         0.4145         2.1252         0.9476      -133.3601      -33.04652      0.5537511      0.6184937
      7319.0000        15.8837        58.0595       56.77258          0.347         0.4063         2.0879         0.9748      -139.0034      -38.68207      0.5057997      0.5514039
      7319.5000        15.9509        56.8927       55.21022         0.3318         0.3941         2.0286         1.0467      -145.9385      -45.60941       0.472558      0.4689355
      7320.0000        16.2819        55.9326       53.92271          0.319         0.3797         1.9818         1.1453       -152.991      -52.65415      0.4451641      0.3850696
      7320.5000        16.9111        55.0727       52.76847         0.3085         0.3658          1.935          1.218      -159.9407      -59.59611      0.4206057      0.3024273
      7321.0000        17.7761        53.9119       51.21409         0.2984         0.3528         1.8881         1.1964      -164.9861      -64.63374      0.3875338      0.2424554
      7321.5000        18.3508        54.1884       51.57101         0.2912         0.3426         1.8574         1.1418      -167.8811        -67.521      0.3951279      0.2080834
      7322.0000        18.6979        57.6669        56.1859         0.2898         0.3326         1.8517         1.0789      -167.1914      -66.82355      0.4933171      0.2163863
      7322.5000        18.4173        61.1356       60.78777         0.2884         0.3235         1.9473         1.0119      -155.1411      -54.76548      0.5912291      0.3599347
      7323.0000        17.9854        64.1029       64.72288         0.2965         0.3208         2.0817          0.911      -147.0759      -46.69253      0.6749548      0.4560413
      7323.5000        17.1371        66.3118       67.64948         0.3062         0.3181          2.134          0.823      -134.3728      -33.98168       0.737223       0.607361
      7324.0000         15.361        68.5232       70.57941         0.3225         0.3166         2.1693         0.7889      -124.9207      -24.52182      0.7995619      0.7199783
      7324.5000        15.3706        69.3562       71.67635         0.3488         0.3382         2.1966         0.8125      -122.0302      -21.62357       0.822901      0.7544814
      7325.0000        15.3765        69.6515       72.05827         0.3773         0.3612         2.2184         0.8499      -121.6155      -21.20112      0.8310271      0.7595105
      7325.5000        15.3694         69.583       71.95642         0.4003          0.383         2.2306          0.889      -122.5081      -22.08596        0.82886      0.7489766
      7326.0000        15.3623        69.5145       71.85457          0.419         0.4005         2.2225         0.9299      -122.8309      -22.40101      0.8266929      0.7452261
      7326.5000        15.3551         69.764       72.17557          0.429         0.4188         2.2043         0.9718      -122.1411      -21.70345      0.8335227      0.7535303
      7327.0000         15.348        70.2417       72.80004         0.4174         0.4186         2.1861         0.9165      -121.5137       -21.0683      0.8468094      0.7610917
      7327.5000        15.3424        70.7194       73.42451         0.4061         0.4145         2.1722         0.8741      -122.5997      -22.14655       0.860096      0.7482554
      7328.0000        15.3431        70.5371       73.17133         0.3951         0.4026         2.1649         0.8767      -123.9667      -23.50579      0.8547092      0.7320739
      7328.5000        15.3437        68.7018       70.72001         0.3798         0.3824         2.1743         0.8804      -126.1609      -25.69223      0.8025534      0.7060449
      7329.0000        15.3444        66.1821       67.35857          0.365         0.3633         2.1838         0.8857      -130.1897      -29.71328      0.7310335      0.6581752
