#------------------------------------------------------------------------------
# Created by    : vladimir.rabinovich
# Created on    : 09/19/2023 17:21:52
#------------------------------------------------------------------------------
~Version Information Section
VERS.           2.0     :   CWLS log ASCII Standard - VERSION 2.0
WRAP.           NO      :   One line per depth step
~Well Information Section
#MNEM       .UNIT                                         VALUE :DESCRIPTION
#------------------------------------------------------------------------------
STRT        .FT                                            1924 :START DEPTH
STOP        .FT                                            6497 :STOP DEPTH
STEP        .FT                                             0.5 :STEP      
NULL        .                                           -999.25 :NULL      
COMP        .                                ATP OIL & GAS CORP :COMPANY   
WELL        .                               OCS G12451 ST00BP00 :WELL      
FLD         .                                           WILDCAT :FIELD     
LOC         .                                                   :LOCATION  
CNTY        .                                BRAZOS LARGE BLOCK :LOCATION  
STAT        .                                             TEXAS :STATE     
CTRY        .                                     UNITED STATES :COUNTRY   
SRVC        .                                                   :SERVICE COMPANY
DATE        .                             9/13/2023 11:09:51 AM :LOG DATE  
API         .                                    42704402900000 :API NUMBER
UWI         .                                    42704402900000 :UNIQUE WELL ID
XCOORD      .                                  861130.254262163 :SURFACE X 
YCOORD      .                                  10349158.9913488 :SURFACE Y 
LAT         .                                        28.4964901 :LATITUDE  
LON         .                                       -95.4265639 :LONGITUDE 
ELEV        .FT                                              91 :ELEVATION VALUE
ELEV_TYPE   .                                                KB :ELEVATION REFERENCE TYPE
~Curve Information Section
#MNEM       .UNIT                                      API CODE :CURVE DESCRIPTION
#------------------------------------------------------------------------------
DEPT        .FT                                                 :DEPTH     
CALI        .IN                                                 :          
DPHI        .G/C3                                               :          
DRHO        .G/C3                                               :          
GR          .GAPI                                               :          
GR_NORM     .GAPI                                               :GammaRay Normalized
ILD         .OHMM                                               :          
ILM         .OHMM                                               :          
NPHI        .%                                                  :          
SFL         .OHMM                                               :          
SP          .MV                                                 :          
SP_NORM     .MV                                                 :SP Normalized
VSH_GR      .V/V                                                :Volume of Shale from GR
VSH_SP      .V/V                                                :Volume of Shale from SP
~A        DEPTH           CALI           DPHI           DRHO             GR        GR_NORM            ILD            ILM           NPHI            SFL             SP        SP_NORM         VSH_GR         VSH_SP
# ...
      5572.0000         9.1319        32.3061         0.0117        64.8872       46.90128         0.2857          0.282        33.0811         0.4687      -110.5901      -62.37066       0.295772     0.01015066
      5572.5000         9.1333        32.6031         0.0126        65.2649       47.27821         0.2831         0.2804         33.701         0.5988      -110.3822      -62.15521      0.3037916     0.01362561
      5573.0000           9.13        32.4764         0.0162        63.1467       45.15924         0.2813           0.28         34.334          0.762       -109.975      -61.74046      0.2587072     0.02031517
      5573.5000         9.1266        32.2215         0.0215        60.1741       42.18586         0.2815         0.2783        34.6104         0.7463      -109.9398      -61.69771      0.1954437     0.02100471
      5574.0000         9.1333        31.9627         0.0227        56.7154       38.72639         0.2808         0.2763        34.4744         0.7009      -110.2622      -62.01256       0.121838     0.01592642
      5574.5000         9.1438        31.7024          0.019        53.0734       35.08361         0.2748         0.2751        33.9199         0.7893      -110.7493      -62.49211     0.04433206    0.008191755
      5575.0000         9.1405        31.3848         0.0151        52.2396       34.24903         0.2685          0.271        32.6508          0.855      -111.4728      -63.20807     0.02657513              0
      5575.5000         9.1371        31.1634         0.0095        54.0269       36.03556         0.2593         0.2643        31.5498         0.8384      -111.7653      -63.49302     0.06458639              0
      5576.0000         9.1338        31.3661         0.0022        55.5235       37.53138         0.2546         0.2589        31.3409         0.7569      -111.9623      -63.68247     0.09641233              0
      5576.5000         9.1449        31.6589        -0.0027        54.9598       36.96691         0.2537         0.2573        31.6496         0.7232      -112.1069      -63.81952     0.08440237              0
      5577.0000         9.1547        32.0525        -0.0056        52.4677       34.47403         0.2544         0.2562        32.0568         0.7188      -112.3434      -64.04847     0.03136241              0
      5577.5000         9.1606        32.4641         -0.006        50.1625       32.16806         0.2557         0.2556        32.3121         0.7072      -112.6304      -64.32793              0              0
      5578.0000         9.1655        33.0071        -0.0031        50.4299       32.43468         0.2514         0.2569        32.3503         0.6835      -112.7263      -64.41628              0              0
      5578.5000         9.1697        33.1886         0.0023        52.4976       34.50161         0.2496         0.2594        32.2515         0.7084      -112.7063      -64.38873     0.03194923              0
      5579.0000         9.1754        33.1843         0.0077        54.5317       36.53493         0.2522         0.2613        32.1275         0.7517      -112.5436      -64.21848     0.07521138              0
      5579.5000         9.1823        32.8925         0.0127        53.7422       35.74466         0.2568         0.2632        32.1485         0.7948      -112.3057      -63.97303     0.05839693              0
      5580.0000         9.1876        32.7239         0.0164        53.4478       35.44949         0.2607         0.2664        32.6131         0.8195      -112.0753      -63.73508     0.05211672              0
      5580.5000         9.1876        32.7679         0.0199        54.7392       36.74011         0.2651         0.2678        33.1692         0.8186      -111.7463      -63.39853     0.07957678              0
      5581.0000         9.1877        32.9113         0.0207        56.4686       38.46874         0.2688         0.2684         33.692          0.788      -111.3647      -63.00938      0.1163561              0
      5581.5000         9.1906         33.092         0.0152        57.3132       39.31256         0.2698         0.2682        34.0886          0.745      -111.1843      -62.82143      0.1343098    0.002880096
      5582.0000         9.1938        33.2719         0.0092        57.2753       39.27389         0.2692         0.2677        34.6481         0.7253      -111.3304      -62.95998       0.133487   0.0006454221
      5582.5000          9.194        33.4193         0.0037        56.1882       38.18601          0.267         0.2659        35.1108         0.7206      -111.6165      -63.23854      0.1103407              0
      5583.0000         9.1906        33.3789         0.0025        55.4081       37.40513         0.2608         0.2629        34.9991         0.6977      -111.7318      -63.34628     0.09372622              0
      5583.5000         9.1902         33.239         0.0039        55.6469       37.64316         0.2551           0.26         34.892         0.6456      -111.4908      -63.09774     0.09879068              0
      5584.0000         9.1914        33.3693         0.0055        56.5789       38.57438         0.2493         0.2596        35.0331         0.6756       -111.132      -62.73139      0.1186039    0.004332389
      5584.5000         9.1885        33.3214         0.0063        56.5714       38.56611         0.2449         0.2605        35.4758         0.7358       -110.571      -62.16284      0.1184279     0.01350261
      5585.0000         9.1832        32.9963         0.0069        56.7995       38.79343         0.2427         0.2622         35.465         0.7773       -109.859      -61.44329      0.1232646     0.02510815
      5585.5000         9.1738        32.6934         0.0037        59.1159       41.10906         0.2413          0.264        35.2889         0.7857      -109.6052      -61.18195      0.1725332     0.02932345
      5586.0000         9.1705         32.448         0.0056        60.3688       42.36119         0.2391         0.2682        35.1345         0.7826      -109.5059      -61.07509      0.1991742      0.0310469
      5586.5000         9.1751        32.2564         0.0027        60.2745       42.26611         0.2404         0.2721        35.1741         0.7992      -109.6515      -61.21314      0.1971513     0.02882028
      5587.0000         9.1877        31.7567          0.001        59.5244       41.51524         0.2454         0.2752        35.3024         0.8297       -108.957       -60.5111      0.1811752      0.0401436
      5587.5000         9.1805        31.1107         0.0004         58.899       40.88906         0.2562         0.2838        35.3539          0.871      -107.7679      -59.31445      0.1678523     0.05944443
      5588.0000         9.1664        30.5941         0.0039        58.4045       40.39379          0.271         0.2988        35.1454         0.9003      -106.7123       -58.2513      0.1573146     0.07659192
      5588.5000         9.1897        30.1142         0.0106        58.8729       40.86141         0.2973         0.3221        34.9213         0.9187      -105.1268      -56.65825       0.167264      0.1022862
      5589.0000         9.2074        29.4935         0.0164        60.7873       42.77504         0.3428         0.3612        34.7819         0.8997       -103.433       -54.9569      0.2079796      0.1297274
      5589.5000         9.2105        28.7914         0.0181        63.5767       45.56366          0.391         0.4043        34.8518         0.6887      -101.6407      -53.15705      0.2673119      0.1587572
      5590.0000         9.2075        27.8682         0.0202        68.0712       50.05739          0.465         0.4783        35.0832         0.5024       -90.0569       -41.5657      0.3629231      0.3457144
      5590.5000         9.2042        25.9284         0.0252         72.689       54.67442         0.5336         0.5411        35.4395         0.5515         -78.62      -30.12126      0.4611578      0.5303023
