#------------------------------------------------------------------------------
# Created by    : vladimir.rabinovich
# Created on    : 09/19/2023 17:20:54
#------------------------------------------------------------------------------
~Version Information Section
VERS.           2.0     :   CWLS log ASCII Standard - VERSION 2.0
WRAP.           NO      :   One line per depth step
~Well Information Section
#MNEM       .UNIT                                         VALUE :DESCRIPTION
#------------------------------------------------------------------------------
STRT        .FT                                            1092 :START DEPTH
STOP        .FT                                            8058 :STOP DEPTH
STEP        .FT                                             0.5 :STEP      
NULL        .                                           -999.25 :NULL      
COMP        .                                    EXXON CO U S A :COMPANY   
WELL        .                               OCS G03029 ST00BP00 :WELL      
FLD         .                                           WILDCAT :FIELD     
LOC         .                                                   :LOCATION  
CNTY        .                        MUSTANG ISLAND LARGE BLOCK :LOCATION  
STAT        .                                             TEXAS :STATE     
CTRY        .                                     UNITED STATES :COUNTRY   
SRVC        .                                                   :SERVICE COMPANY
DATE        .                             9/13/2023 11:19:13 AM :LOG DATE  
API         .                                    42702400190000 :API NUMBER
UWI         .                                    42702400190000 :UNIQUE WELL ID
XCOORD      .                                  486295.566528254 :SURFACE X 
YCOORD      .                                  10047803.1546112 :SURFACE Y 
LAT         .                                         27.643077 :LATITUDE  
LON         .                                        -96.564717 :LONGITUDE 
ELEV        .FT                                              70 :ELEVATION VALUE
ELEV_TYPE   .                                                KB :ELEVATION REFERENCE TYPE
~Curve Information Section
#MNEM       .UNIT                                      API CODE :CURVE DESCRIPTION
#------------------------------------------------------------------------------
DEPT        .FT                                                 :DEPTH     
ASN         .OHMM                                               :          
CALI        .IN                                                 :          
CIL         .MMHO                                               :          
DRHO        .G/C3                                               :          
DT          .US/F                                               :          
GR          .GAPI                                               :          
GR_NORM     .GAPI                                               :GammaRay Normalized
ILD         .OHMM                                               :          
NPHI        .%                                                  :          
RHOB        .G/C3                                               :          
SN          .OHMM                                               :          
SP          .MV                                                 :          
SP_NORM     .MV                                                 :SP Normalized
VSH_GR      .V/V                                                :Volume of Shale from GR
VSH_SP      .V/V                                                :Volume of Shale from SP
~A        DEPTH            ASN           CALI            CIL           DRHO             DT             GR        GR_NORM            ILD           NPHI           RHOB             SN             SP        SP_NORM         VSH_GR         VSH_SP
# ...
      6685.0000         0.8814        11.8404       1268.504         0.0347       124.4486        86.5505       81.76789         0.7681        35.0643         2.3839         0.9587       -67.5374      -3.708187              1      0.9602747
      6685.5000         0.8854        11.6551       1266.631         0.0412       124.0306        85.6124       80.82979         0.7716        34.3464         2.3827         0.9477       -68.0507      -4.222733              1      0.9483085
      6686.0000         0.8931        11.9315       1277.609         0.0528       124.1368        86.7238       81.94119         0.7681        33.4924         2.3928         0.9335       -68.2666      -4.439888              1      0.9432584
      6686.5000         0.9075        11.9309       1293.678         0.0482       125.3431        87.1288       82.34619         0.7561        33.8303         2.3831         0.9168       -68.3181      -4.492638              1      0.9420317
      6687.0000         0.9219        11.8045       1316.893         0.0549       127.1287        86.0385       81.25589         0.7402        34.3812         2.3919         0.9126       -68.2863      -4.462086              1      0.9427422
      6687.5000         0.9309        11.6778       1347.604         0.0563       128.3743         84.405       79.62239         0.7225        34.4711         2.3957         0.9158       -68.0956      -4.272633      0.9919658      0.9471481
      6688.0000           0.92        11.7852       1377.965         0.0443        129.012        84.0923       79.30969         0.7123        34.4889         2.3791         0.9241       -67.6552      -3.833481      0.9853126      0.9573609
      6688.5000         0.9091        11.8548       1359.297         0.0311       128.4817        84.0399       79.25729         0.7143        34.2235         2.3672         0.9362       -67.2029      -3.382439      0.9841977      0.9678503
      6689.0000         0.8992        11.7475       1313.768         0.0268       127.5409        83.6376         78.855         0.7289        33.9954          2.367         0.9527       -66.8088      -2.989586      0.9756382      0.9769863
      6689.5000           0.89        11.6485       1266.539         0.0342       127.0686        83.7472       78.96459         0.7518        33.7625         2.3828         0.9696       -66.6265      -2.808537      0.9779701      0.9811968
      6690.0000         0.8968        11.5868       1219.662         0.0486        126.587        84.8013       80.01869         0.7745        33.0797         2.3979         0.9924       -66.5159      -2.699184              1      0.9837399
      6690.5000         0.9092        11.5436       1193.598         0.0529       125.9116        81.9044        77.1218         0.7967         32.288         2.4223         1.0156       -66.7678      -2.952332      0.9387616      0.9778528
      6691.0000         0.9317        11.4691       1169.047         0.0462       124.9584         79.243       74.46039         0.8165        32.7378         2.4284         1.0281       -66.9078      -3.093582      0.8821359      0.9745678
      6691.5000         0.9554        11.4176         1160.6         0.0348       123.7489        79.2499       74.46729         0.8289         32.876          2.434         1.0268       -66.9423      -3.129333      0.8822829      0.9737364
      6692.0000         0.9709        11.5215       1155.953         0.0236        122.327        80.3619       75.57929         0.8387        32.1666         2.4155         1.0131       -66.8727      -3.060986      0.9059424      0.9753259
      6692.5000         0.9853        11.6366       1161.068         0.0187       120.3317        79.8647       75.08209         0.8411        31.8573         2.3899         0.9988         -66.54      -2.729534      0.8953637      0.9830341
      6693.0000         0.9924        11.8064       1169.135         0.0253       121.8273        78.6661       73.88349          0.834        32.6086         2.3799         0.9828       -66.1238      -2.314587      0.8698615       0.992684
      6693.5000         0.9995        11.7842       1186.502         0.0274       123.4766        78.0782       73.29559         0.8204        33.3434         2.3743         0.9738       -66.3538       -2.54583       0.857353      0.9873063
      6694.0000         0.9979        11.6572       1203.594           0.04       124.9983        79.1172       74.33459         0.8077        33.8475         2.3803         0.9771       -66.8575      -3.050781      0.8794594      0.9755632
      6694.5000         0.9876        11.5228        1220.41         0.0482       125.0796        80.8702       76.08759         0.7955        34.3786         2.3999          0.982       -66.6316       -2.82613      0.9167573      0.9807877
      6695.0000         0.9772        11.4883       1236.141         0.0523       124.0889        82.7642       77.98159         0.7905        34.2924         2.4167         0.9881       -65.9619      -2.157681      0.9570551       0.996333
      6695.5000         0.9669        11.5199       1242.248         0.0475       124.0891         84.283       79.50039         0.7892         33.861         2.4207         1.0009       -65.6685      -1.865536        0.98937              1
      6696.0000         0.9549        11.4339       1221.859         0.0372       124.4155        82.9286       78.14599         0.7957        34.3344         2.4202         1.0142       -66.4403       -2.63858      0.9605529      0.9851493
      6696.5000         0.9426         11.357       1200.158         0.0288       124.7828        80.7606       75.97799         0.8092        33.5434         2.4174         1.0286       -67.0806      -3.280128      0.9144253      0.9702296
      6697.0000         0.9465        11.3496       1185.102         0.0255       124.8877        78.8243       74.04169         0.8226        32.6483         2.4044         1.0432       -66.9287      -3.129482      0.8732275      0.9737329
      6697.5000         0.9559        11.3904       1168.459          0.028       124.3499        79.5857       74.80309         0.8376        32.3644         2.3999         1.0621       -66.3612      -2.563229      0.8894275      0.9869016
      6698.0000         0.9652        11.4301       1145.395         0.0518       122.2296        80.7139       75.93129         0.8555         32.205         2.4322         1.0846       -66.1151      -2.318378      0.9134317      0.9925959
      6698.5000         0.9756        11.4059        1112.01         0.0506       119.9431        80.4915       75.70889          0.892        31.9223         2.4542         1.1078       -66.3295      -2.534027      0.9086999      0.9875808
      6699.0000         0.9979        11.2919        1067.43         0.0389       118.3788        78.9191       74.13649         0.9247        31.9608         2.4641          1.134       -66.4889      -2.694679      0.8752444      0.9838447
      6699.5000         1.0302        11.3315       1021.852         0.0253       116.9745        77.3591       72.57649         0.9581        31.7144         2.4377         1.1582       -66.3556      -2.562626      0.8420531      0.9869156
      6700.0000         1.0656        11.5083       987.8916         0.0211       115.5889        77.1997       72.41709         0.9865        31.7577         2.4079          1.174       -66.5525      -2.760777      0.8386615      0.9823075
      6700.5000         1.0914        11.3764       977.7969          0.035       114.2307        78.7247       73.94209         0.9981        32.0318         2.4153         1.1535       -67.0514      -3.260929      0.8711084      0.9706761
      6701.0000          1.109        11.5807       989.7656        -0.0092        113.025        79.7028       74.92019         0.9907        32.1924         2.3993         1.1285       -67.6365      -3.847275      0.8919189      0.9570401
      6701.5000         1.1205        11.7486       1009.457        -0.0104       113.3911        78.7771       73.99449          0.976        31.9588         2.3862         1.1234       -68.2943      -4.506325      0.8722232      0.9417134
