#------------------------------------------------------------------------------
# Created by    : vladimir.rabinovich
# Created on    : 09/19/2023 17:20:36
#------------------------------------------------------------------------------
~Version Information Section
VERS.           2.0     :   CWLS log ASCII Standard - VERSION 2.0
WRAP.           NO      :   One line per depth step
~Well Information Section
#MNEM       .UNIT                                         VALUE :DESCRIPTION
#------------------------------------------------------------------------------
STRT        .FT                                             504 :START DEPTH
STOP        .FT                                            9762 :STOP DEPTH
STEP        .FT                                             0.5 :STEP      
NULL        .                                           -999.25 :NULL      
COMP        .                                      SHELL OIL CO :COMPANY   
WELL        .                                OCS 00703 ST00BP00 :WELL      
FLD         .                                           WILDCAT :FIELD     
LOC         .                                                   :LOCATION  
CNTY        .                             GALVESTON LARGE BLOCK :LOCATION  
STAT        .                                             TEXAS :STATE     
CTRY        .                                     UNITED STATES :COUNTRY   
SRVC        .                                                   :SERVICE COMPANY
DATE        .                             9/13/2023 11:19:25 AM :LOG DATE  
API         .                                    42706000420000 :API NUMBER
UWI         .                                    42706000420000 :UNIQUE WELL ID
XCOORD      .                                  1132503.99790541 :SURFACE X 
YCOORD      .                                  10523078.0194322 :SURFACE Y 
LAT         .                                         28.987276 :LATITUDE  
LON         .                                        -94.589113 :LONGITUDE 
ELEV        .FT                                              83 :ELEVATION VALUE
ELEV_TYPE   .                                                KB :ELEVATION REFERENCE TYPE
~Curve Information Section
#MNEM       .UNIT                                      API CODE :CURVE DESCRIPTION
#------------------------------------------------------------------------------
DEPT        .FT                                                 :DEPTH     
ASN         .OHMM                                               :          
CILD        .MMHO                                               :          
DT          .US/F                                               :          
ILD         .OHMM                                               :          
LAT         .OHMM                                               :          
LN          .OHMM                                               :          
SP          .MV                                                 :          
SP_NORM     .MV                                                 :SP Normalized
VSH_SP      .V/V                                                :Volume of Shale from SP
~A        DEPTH            ASN           CILD             DT            ILD            LAT             LN             SP        SP_NORM         VSH_SP
# ...
      9116.5000         1.7074       2104.918         94.371          0.458        -999.25          0.458      -107.4661      -68.76331     0.01766706
      9117.0000         1.6937       2097.281        94.5349         0.4589        -999.25         0.4589      -107.8184      -69.11729     0.01261008
      9117.5000         1.7092       2095.004        94.6346         0.4598        -999.25         0.4598        -108.17      -69.47058    0.007563128
      9118.0000         1.7343       2094.984        94.6991         0.4608        -999.25         0.4608      -108.4185      -69.72077    0.003988974
      9118.5000         1.7823       2098.473        94.6995         0.4617        -999.25         0.4617      -108.6437      -69.94766   0.0007476807
      9119.0000         1.7879       2103.492        94.6999         0.4629        -999.25         0.4629      -108.8689      -70.17455              0
      9119.5000         1.7769        2108.52        94.7003         0.4644        -999.25         0.4644      -109.0941      -70.40144              0
      9120.0000         1.7659       2111.805        94.7007         0.4659        -999.25         0.4659      -109.3197      -70.62872              0
      9120.5000         1.7549       2109.906        94.6776         0.4675        -999.25         0.4675      -109.2672      -70.57791              0
      9121.0000         1.7437       2108.008        94.4865          0.469        -999.25          0.469       -109.104       -70.4164              0
      9121.5000          1.732       2106.109        94.2955         0.4705        -999.25         0.4705      -108.7859      -70.09998              0
      9122.0000         1.7255       2103.918        94.0229          0.472        -999.25          0.472      -108.1183      -69.43408    0.008084542
      9122.5000         1.7345       2095.926        93.7224         0.4735        -999.25         0.4735       -107.532      -68.84946     0.01643633
      9123.0000         1.7521       2086.465        93.3948         0.4819        -999.25         0.4819      -107.2013      -68.52045     0.02113637
      9123.5000         1.7825       2056.855        93.0695         0.4912        -999.25         0.4912      -106.9213      -68.24214     0.02511226
      9124.0000         1.8129           1964        92.5742         0.5004        -999.25         0.5004      -106.8298      -68.15233     0.02639531
      9124.5000         1.8364        1848.25        91.8905         0.5102        -999.25         0.5102      -106.7385      -68.06272     0.02767541
      9125.0000         1.8541       1759.006        91.2067         0.5297        -999.25         0.5297      -106.6921      -68.01801     0.02831421
      9125.5000         1.8695       1709.465         90.523         0.5492        -999.25         0.5492       -106.813      -68.14059     0.02656294
      9126.0000         1.8867       1660.023        89.8392          0.571        -999.25          0.571      -106.9337      -68.26299      0.0248145
      9126.5000         1.9069       1610.582        89.1554         0.5962        -999.25         0.5962      -107.0546      -68.38557     0.02306322
      9127.0000         1.9282       1561.041        88.8241         0.6074        -999.25         0.6074      -107.1685      -68.50116     0.02141201
      9127.5000         1.9705       1579.939        88.7428         0.5952        -999.25         0.5952      -107.2632      -68.59755     0.02003501
      9128.0000         2.2099       1611.025        88.7807          0.583        -999.25          0.583       -107.358      -68.69404     0.01865659
      9128.5000         2.2857       1635.895        88.8911         0.5677        -999.25         0.5677      -107.4529      -68.79063     0.01727676
      9129.0000         2.3162       1662.861        89.0831         0.5515        -999.25         0.5515       -107.678      -69.01741       0.014037
      9129.5000         2.2015       1683.092        89.3789         0.5354        -999.25         0.5354      -107.9165       -69.2576     0.01060573
      9130.0000          2.097         1917.5        90.0635         0.5175        -999.25         0.5175      -107.7592      -69.10199     0.01282872
      9130.5000         2.0525       2092.309        90.7481         0.4985        -999.25         0.4985      -107.4667      -68.81117     0.01698325
      9131.0000         2.0291       2112.738        91.4327         0.4795        -999.25         0.4795      -106.8372      -68.18336     0.02595193
      9131.5000         2.0244       2113.305        92.1172         0.4605        -999.25         0.4605      -106.0782      -67.42606     0.03677063
      9132.0000         2.0196       2097.098        92.8018         0.4493        -999.25         0.4493      -105.2488      -66.59834      0.0485951
      9132.5000         2.0148       2080.887        93.4038         0.4703        -999.25         0.4703      -104.3812      -65.73244     0.06096518
      9133.0000         1.9807       2040.125        93.8944         0.4912        -999.25         0.4912      -102.7324      -64.08532     0.08449543
      9133.5000          1.957        1944.25        93.7313         0.5237        -999.25         0.5237       -100.116       -61.4706      0.1218485
      9134.0000         1.9383        1848.25        93.6501         0.5654        -999.25         0.5654       -97.1984       -58.5547      0.1635043
      9134.5000         1.9209       1752.375        93.6505         0.6071        -999.25         0.6071       -90.1785      -51.53648      0.2637646
      9135.0000         1.8982       1656.375        93.6509         0.6489        -999.25         0.6489       -84.0151      -45.37477       0.351789
      9135.5000         1.8679         1560.5        93.7331         0.6904        -999.25         0.6904       -82.1293      -43.49066      0.3787048
      9136.0000         1.7002         1464.5        93.7334         0.7319        -999.25         0.7319       -80.3965      -41.75955       0.403435
      9136.5000         1.6563       1369.785        93.9237         0.7735        -999.25         0.7735         -78.96      -40.32474      0.4239323
      9137.0000         1.6148        1304.16        94.3881         0.8151        -999.25         0.8151       -76.5632      -37.92963      0.4581482
      9137.5000         1.5772       1238.631        94.9634         0.8512        -999.25         0.8512       -64.5671      -25.93521      0.6294969
      9138.0000         1.5422       1173.104        95.5388         0.8871        -999.25         0.8871       -57.0709       -18.4407      0.7365614
      9138.5000         1.4528       1133.678        96.1141         0.9225        -999.25         0.9225       -55.5603      -16.93179      0.7581173
      9139.0000         1.4276       1109.451        96.6895         0.9516        -999.25         0.9516       -53.9929      -15.36608      0.7804846
      9139.5000         1.3967       1084.482        97.2648         0.9434        -999.25         0.9434       -52.3737      -13.74857      0.8035919
      9140.0000         1.3411       1072.232          97.74         0.9289        -999.25         0.9289       -49.5795      -10.95605      0.8434849
      9140.5000         1.2814        1082.83        98.2174         0.9022        -999.25         0.9022        -46.035      -7.413242      0.8940966
      9141.0000         1.0852       1111.078        98.7546         0.8691        -999.25         0.8691       -41.6957      -3.075634      0.9560624
      9141.5000         1.0761       1134.049        98.9667          0.836        -999.25          0.836       -40.1802      -1.561817      0.9776883
      9142.0000         1.0713       1170.982         99.539         0.8029        -999.25         0.8029       -39.2903     -0.6736069      0.9903771
      9142.5000         1.0647       1200.982        99.6589           0.77        -999.25           0.77       -39.9346      -1.319599      0.9811486
