#------------------------------------------------------------------------------
# Created by    : vladimir.rabinovich
# Created on    : 09/19/2023 17:19:36
#------------------------------------------------------------------------------
~Version Information Section
VERS.           2.0     :   CWLS log ASCII Standard - VERSION 2.0
WRAP.           NO      :   One line per depth step
~Well Information Section
#MNEM       .UNIT                                         VALUE :DESCRIPTION
#------------------------------------------------------------------------------
STRT        .FT                                            4496 :START DEPTH
STOP        .FT                                            7801 :STOP DEPTH
STEP        .FT                                             0.5 :STEP      
NULL        .                                           -999.25 :NULL      
COMP        .                             HELIS WM G CO LLC THE :COMPANY   
WELL        .                               OCS G12508 ST00BP00 :WELL      
FLD         .                              GALVESTON BLOCK 0395 :FIELD     
LOC         .                                                   :LOCATION  
CNTY        .                             GALVESTON LARGE BLOCK :LOCATION  
STAT        .                                             TEXAS :STATE     
CTRY        .                                     UNITED STATES :COUNTRY   
SRVC        .                                                   :SERVICE COMPANY
DATE        .                             9/13/2023 11:19:03 AM :LOG DATE  
API         .                                    42706404300000 :API NUMBER
UWI         .                                    42706404300000 :UNIQUE WELL ID
XCOORD      .                                  908236.382466376 :SURFACE X 
YCOORD      .                                  10386259.9403327 :SURFACE Y 
LAT         .                                         28.601028 :LATITUDE  
LON         .                                        -95.282181 :LONGITUDE 
ELEV        .FT                                             103 :ELEVATION VALUE
ELEV_TYPE   .                                                KB :ELEVATION REFERENCE TYPE
~Curve Information Section
#MNEM       .UNIT                                      API CODE :CURVE DESCRIPTION
#------------------------------------------------------------------------------
DEPT        .FT                                                 :DEPTH     
AHT10       .OHMM                                               :          
AHT20       .OHMM                                               :          
AHT30       .OHMM                                               :          
AHT60       .OHMM                                               :          
AHT90       .OHMM                                               :          
CPCHM       .MMHO                                               :          
DCAL        .IN                                                 :          
DPHZ        .FRAC                                               :          
GR          .GAPI                                               :          
GR_NORM     .GAPI                                               :GammaRay Normalized
GRAM        .GAPI                                               :          
HDRA        .G/CC                                               :          
NPOR        .FRAC                                               :          
RACHM       .OHMM                                               :          
ROPS        .F/HR                                               :          
RPCHM       .OHMM                                               :          
RWA         .OHMM                                               :          
SP          .MV                                                 :          
SP_NORM     .MV                                                 :SP Normalized
TENS        .LB/F                                               :          
VSH_GR      .V/V                                                :Volume of Shale from GR
VSH_SP      .V/V                                                :Volume of Shale from SP
~A        DEPTH          AHT10          AHT20          AHT30          AHT60          AHT90          CPCHM           DCAL           DPHZ             GR        GR_NORM           GRAM           HDRA           NPOR          RACHM           ROPS          RPCHM            RWA             SP        SP_NORM           TENS         VSH_GR         VSH_SP
# ...
      4508.0000        -999.25        -999.25        -999.25        -999.25        -999.25        784.511        -999.25        -999.25        -999.25        -999.25         56.804        -999.25        -999.25          0.739        106.867          0.556        -999.25        -999.25        -999.25        -999.25        -999.25        -999.25
      4508.5000        -999.25        -999.25        -999.25        -999.25        -999.25       1050.752        -999.25        -999.25        -999.25        -999.25         56.912        -999.25        -999.25          0.872        106.867          0.789        -999.25        -999.25        -999.25        -999.25        -999.25        -999.25
      4509.0000        -999.25        -999.25        -999.25        -999.25        -999.25       1124.387        -999.25        -999.25        -999.25        -999.25         57.884        -999.25        -999.25          0.864        106.867          1.334        -999.25        -999.25        -999.25        -999.25        -999.25        -999.25
      4509.5000        -999.25        -999.25        -999.25        -999.25        -999.25       1198.023        -999.25        -999.25        -999.25        -999.25         58.801        -999.25        -999.25          0.855         97.654          0.825        -999.25        -999.25        -999.25        -999.25        -999.25        -999.25
      4510.0000         0.8293         0.5256          0.427         0.3549         0.3504       1271.658        -0.0143        -1.1609        33.9129       33.96593         60.017         1.7081         0.5978          0.802         97.654          0.627              0         -53.75       -6.59033           2423      0.0205518      0.8986103
      4510.5000         0.8297         0.5256          0.427          0.355         0.3501       1308.691         0.0338        -0.6354        31.9208       30.70276         58.952         0.9955         0.6332          0.729         97.654          0.577              0         -51.25      -3.118774           2422              0      0.9520189
      4511.0000         0.8301         0.5257          0.427         0.3551         0.3496       1423.769         0.0338        -0.0961        36.7649       38.63767         55.393         0.3971         0.9185          0.703         97.654          0.647              0       -47.6875       1.840277           2437      0.1199505              1
      4511.5000         0.8305         0.5256         0.4269         0.3552         0.3488       1538.846         0.7311         0.3644        43.2663       49.28733         50.563         -0.174         0.7179           0.67         77.237          0.746         0.0642        -46.625       3.299333           2433       0.346539              1
      4512.0000         0.8308         0.5252         0.4268         0.3553         0.3477       1653.923         1.0196         0.3435        51.5766       62.90008         46.669        -0.0535         0.4408           0.65         77.237           0.78         0.0564        -47.875       1.520889           2429      0.6361719              1
      4512.5000         0.8316         0.5244         0.4265         0.3548         0.3462       1538.162         1.8131         0.3307        53.0695       65.34553          44.39        -0.0014         0.4174          0.602         77.237          0.806         0.0517       -49.4375       -0.69506           2450      0.6882027      0.9893067
      4513.0000         0.8313         0.5231         0.4261         0.3539         0.3443        1301.02         3.7366         0.3627        52.8817       65.03791          42.08        -0.0239         0.4992          0.459         77.237          0.668         0.0628        -49.625     -0.9860039           2467      0.6816577      0.9848307
      4513.5000         0.8299         0.5215         0.4256         0.3524         0.3419       1440.229         4.5301         0.3654        48.1933       57.35804         40.853        -0.0548         0.4918          0.385         82.143          0.508         0.0633       -49.4375     -0.7519531           2456      0.5182562      0.9884315
      4514.0000         0.8275           0.52         0.4252         0.3502         0.3388       1785.807         4.3257         0.3276        48.1746       57.32742         41.798         -0.056         0.4475          0.311         82.143          0.418         0.0496          -49.5      -0.867897           2442      0.5176046      0.9866477
      4514.5000         0.8236         0.5175         0.4236         0.3474         0.3353       1990.318         2.9672         0.2396        45.9376       53.66308         43.617          -0.01         0.5185          0.309         82.143          0.423         0.0251        -48.875    -0.02134094           2419        0.43964      0.9996717
      4515.0000         0.8178         0.5165         0.4219          0.345         0.3315       2360.594         2.1256            0.2        53.7851       66.51775         47.481         0.0255         0.5042          0.309         82.143          0.418         0.0168        -48.125        1.00021           2442      0.7131435              1
      4515.5000         0.8046         0.5136         0.4221         0.3441         0.3285        2380.86         1.1639         0.2341        55.5076       69.33929         50.493          0.031         0.3251          0.298        206.243          0.407         0.0234       -48.0625       1.059266           2442      0.7731765              1
      4516.0000          0.791         0.5093         0.4207         0.3453         0.3258       2408.375         1.1999         0.3205        58.5871       74.38369          49.78        -0.0054         0.3082          0.282        206.243           0.33         0.0455       -48.5625      0.3308167           2461       0.880504              1
      4516.5000         0.7742         0.5107         0.4215         0.3494         0.3252       2435.888         1.3803         0.3501        52.1689       63.87032         46.828        -0.0302         0.4399          0.296        206.243          0.322         0.0549        -49.375     -0.8351272           2474      0.6568153      0.9871519
      4517.0000         0.7618         0.5157          0.429         0.3576         0.3277       2543.537         2.2459         0.3194        48.3403       57.59884         44.798        -0.0314         0.4708          0.297        206.243          0.327         0.0454            -53      -5.938571           2467      0.5233796      0.9086373
      4517.5000         0.7498         0.5092         0.4405         0.3694         0.3354       2739.649         3.5443         0.2315        45.7594       53.37118         43.732         0.0046         0.4413          0.298        293.015          0.333         0.0233         -58.25      -13.31702           2441      0.4334293      0.7951227
      4518.0000         0.7507         0.5229         0.4538         0.3824          0.342       2935.761         0.5387         0.1763        45.9999       53.76513         47.378         0.0395         0.4389            0.3        293.015          0.334         0.0132       -63.0625      -20.08296           2450      0.4418113      0.6910313
      4518.5000         0.8099          0.551         0.4732         0.3988         0.3632       3052.011         0.2742         0.1785        41.7877       46.86531          49.75         0.0569         0.2518          0.304        293.015          0.337         0.0144       -68.4375      -27.63641           2459      0.2950065      0.5748244
      4519.0000         0.8603         0.5379         0.4706         0.3953         0.3655       2909.179         0.6589         0.2585        42.2693       47.65419          57.09         0.0377         0.2316          0.349        293.015           0.37         0.0322        -71.625      -32.12736           2445      0.3117912       0.505733
      4519.5000         0.7538          0.483         0.4159          0.359         0.3412       2766.347         0.7311         0.3423          44.64       51.53754         68.277         0.0092          0.369          0.433        230.036          0.456         0.0549       -73.6875      -35.04331           2441      0.3944157      0.4608722
