#------------------------------------------------------------------------------
# Created by    : vladimir.rabinovich
# Created on    : 09/19/2023 17:21:40
#------------------------------------------------------------------------------
~Version Information Section
VERS.           2.0     :   CWLS log ASCII Standard - VERSION 2.0
WRAP.           NO      :   One line per depth step
~Well Information Section
#MNEM       .UNIT                                         VALUE :DESCRIPTION
#------------------------------------------------------------------------------
STRT        .FT                                             957 :START DEPTH
STOP        .FT                                           10053 :STOP DEPTH
STEP        .FT                                             0.5 :STEP      
NULL        .                                           -999.25 :NULL      
COMP        .                                    EXXON CO U S A :COMPANY   
WELL        .                               OCS G03237 ST00BP00 :WELL      
FLD         .                                           WILDCAT :FIELD     
LOC         .                                                   :LOCATION  
CNTY        .                           HIGH ISLAND LARGE BLOCK :LOCATION  
STAT        .                                             TEXAS :STATE     
CTRY        .                                     UNITED STATES :COUNTRY   
SRVC        .                                                   :SERVICE COMPANY
DATE        .                             9/13/2023 11:20:04 AM :LOG DATE  
API         .                                    42708400420000 :API NUMBER
UWI         .                                    42708400420000 :UNIQUE WELL ID
XCOORD      .                                  1163347.66403634 :SURFACE X 
YCOORD      .                                  10583934.5995257 :SURFACE Y 
LAT         .                                         29.155753 :LATITUDE  
LON         .                                        -94.495054 :LONGITUDE 
ELEV        .FT                                              94 :ELEVATION VALUE
ELEV_TYPE   .                                                KB :ELEVATION REFERENCE TYPE
~Curve Information Section
#MNEM       .UNIT                                      API CODE :CURVE DESCRIPTION
#------------------------------------------------------------------------------
DEPT        .FT                                                 :DEPTH     
CALI        .IN                                                 :          
DRHO        .G/C3                                               :          
DT          .US/F                                               :          
GR          .GAPI                                               :          
GR_1        .GAPI                                               :          
GR_NORM     .GAPI                                               :GammaRay Normalized
ILD         .OHMM                                               :          
NPHI        .%                                                  :          
RHOB        .G/C3                                               :          
SFL         .OHMM                                               :          
SP          .MV                                                 :          
SP_NORM     .MV                                                 :SP Normalized
VSH_GR      .V/V                                                :Volume of Shale from GR
VSH_SP      .V/V                                                :Volume of Shale from SP
~A        DEPTH           CALI           DRHO             DT             GR           GR_1        GR_NORM            ILD           NPHI           RHOB            SFL             SP        SP_NORM         VSH_GR         VSH_SP
# ...
      2865.0000        -999.25        -999.25        -999.25        -999.25       113.2786       91.43783         0.6934        -999.25        -999.25         0.6178       -55.7101     -0.4965134              1              1
      2865.5000        -999.25        -999.25        -999.25        -999.25       113.3021       91.45421         0.6993        -999.25        -999.25         0.6319       -55.1166      0.0942421              1              1
      2866.0000        -999.25        -999.25        -999.25        -999.25       113.3612       91.49612         0.7047        -999.25        -999.25         0.6383       -54.6254       0.582695              1              1
      2866.5000        -999.25        -999.25        -999.25        -999.25       113.4359       91.54924         0.7077        -999.25        -999.25         0.6408       -54.3083      0.8970528              1              1
      2867.0000        -999.25        -999.25        -999.25        -999.25       111.4674       90.13643         0.7026        -999.25        -999.25         0.6408       -53.9735       1.229111              1              1
      2867.5000        -999.25        -999.25        -999.25        -999.25       106.4868       86.56255         0.6986        -999.25        -999.25         0.6375       -54.1608       1.039063              1              1
      2868.0000        -999.25        -999.25        -999.25        -999.25       101.9004       83.27147         0.6966        -999.25        -999.25         0.6268       -54.4803      0.7168198              1              1
      2868.5000        -999.25        -999.25        -999.25        -999.25        100.271       82.10196         0.6955        -999.25        -999.25         0.6187       -54.5024      0.6919785              1              1
      2869.0000        -999.25        -999.25        -999.25        -999.25       101.1461       82.72932         0.6927        -999.25        -999.25         0.6162       -54.4729      0.7187309              1              1
      2869.5000        -999.25        -999.25        -999.25        -999.25       102.9763       84.04195         0.6861        -999.25        -999.25         0.6092       -54.3453      0.8435898              1              1
      2870.0000        -999.25        -999.25        -999.25        -999.25       102.5809       83.75777          0.683        -999.25        -999.25         0.6061       -54.2795      0.9066429              1              1
      2870.5000        -999.25        -999.25        -999.25        -999.25       100.8102       82.48685         0.6891        -999.25        -999.25         0.6111       -54.0992       1.084198              1              1
      2871.0000        -999.25        -999.25        -999.25        -999.25        99.3444       81.43472          0.696        -999.25        -999.25         0.6216        -53.638       1.542656              1              1
      2871.5000        -999.25        -999.25        -999.25        -999.25        97.8749       80.37994         0.6978        -999.25        -999.25         0.6357       -53.5948       1.583111              1              1
      2872.0000        -999.25        -999.25        -999.25        -999.25        97.8519       80.36294         0.6986        -999.25        -999.25         0.6312       -53.8292       1.345966              1              1
      2872.5000        -999.25        -999.25        -999.25        -999.25        99.6729       81.66896         0.7003        -999.25        -999.25         0.6187        -54.212      0.9604225              1              1
      2873.0000        -999.25        -999.25        -999.25        -999.25        102.416       83.63655         0.7027        -999.25        -999.25         0.6387        -54.574      0.5956764              1              1
      2873.5000        -999.25        -999.25        -999.25        -999.25       105.5447        85.8808         0.7045        -999.25        -999.25         0.6562       -54.9503      0.2166367              1              1
      2874.0000        -999.25        -999.25        -999.25        -999.25       109.1903       88.49591         0.7053        -999.25        -999.25         0.6712       -55.2772     -0.1130104              1              1
      2874.5000        -999.25        -999.25        -999.25        -999.25       109.5529       88.75558         0.6999        -999.25        -999.25         0.6769       -55.3777     -0.2162552              1              1
      2875.0000        -999.25        -999.25        -999.25        -999.25       109.2811       88.56008         0.6927        -999.25        -999.25         0.6614       -55.2703      -0.111599              1              1
      2875.5000        -999.25        -999.25        -999.25        -999.25       108.7911       88.20804         0.6845        -999.25        -999.25         0.6321       -55.0447      0.1112556              1              1
      2876.0000        -999.25        -999.25        -999.25        -999.25       108.1993       87.78296         0.6764        -999.25        -999.25         0.6029       -54.8517      0.3015137              1              1
      2876.5000        -999.25        -999.25        -999.25        -999.25       107.6771       87.40781           0.67        -999.25        -999.25         0.5736        -54.533      0.6174698              1              1
      2877.0000        -999.25        -999.25        -999.25        -999.25       106.2401       86.37634         0.6635        -999.25        -999.25         0.5598       -54.1227       1.025024              1              1
      2877.5000        -999.25        -999.25        -999.25        -999.25       104.6802       85.25668         0.6578        -999.25        -999.25         0.5817       -53.9419       1.203083              1              1
      2878.0000        -999.25        -999.25        -999.25        -999.25       104.7622       85.31503         0.6606        -999.25        -999.25         0.6589       -53.4727       1.669537              1              1
      2878.5000        -999.25        -999.25        -999.25        -999.25       105.5881        85.9071         0.6684        -999.25        -999.25         0.6375       -52.9753       2.164192              1              1
      2879.0000        -999.25        -999.25        -999.25        -999.25       107.7996       87.49329         0.6774        -999.25        -999.25         0.6079       -53.7633       1.373447              1              1
      2879.5000        -999.25        -999.25        -999.25        -999.25       109.4023       88.64268          0.681        -999.25        -999.25         0.6192       -54.6147      0.5193024              1              1
      2880.0000        -999.25        -999.25        -999.25        -999.25       110.7491       89.60847         0.6776        -999.25        -999.25         0.6592       -54.7574      0.3738594              1              1
      2880.5000        -999.25        -999.25        -999.25        -999.25       111.3662       90.05075          0.669        -999.25        -999.25         0.6984        -54.434       0.694519              1              1
      2881.0000        -999.25        -999.25        -999.25        -999.25       111.8033       90.36385         0.6573        -999.25        -999.25         0.6734       -53.9192        1.20657              1              1
      2881.5000        -999.25        -999.25        -999.25        -999.25       112.3584       90.76164         0.6433        -999.25        -999.25         0.6409       -53.7609       1.362129              1              1
      2882.0000        -999.25        -999.25        -999.25        -999.25       112.9209       91.16472         0.6302        -999.25        -999.25         0.5765       -53.8345       1.285782              1              1
      2882.5000        -999.25        -999.25        -999.25        -999.25       111.7736        90.3411         0.6195        -999.25        -999.25         0.5374        -55.068     0.04953766              1              1
