#------------------------------------------------------------------------------
# Created by    : vladimir.rabinovich
# Created on    : 09/19/2023 17:22:34
#------------------------------------------------------------------------------
~Version Information Section
VERS.           2.0     :   CWLS log ASCII Standard - VERSION 2.0
WRAP.           NO      :   One line per depth step
~Well Information Section
#MNEM       .UNIT                                         VALUE :DESCRIPTION
#------------------------------------------------------------------------------
STRT        .FT                                            2432 :START DEPTH
STOP        .FT                                            8088 :STOP DEPTH
STEP        .FT                                             0.5 :STEP      
NULL        .                                           -999.25 :NULL      
COMP        .                                  XTO OFFSHORE INC :COMPANY   
WELL        .                               OCS G23162 ST00BP00 :WELL      
FLD         .                                 BRAZOS BLOCK 0398 :FIELD     
LOC         .                                                   :LOCATION  
CNTY        .                                BRAZOS LARGE BLOCK :LOCATION  
STAT        .                                             TEXAS :STATE     
CTRY        .                                     UNITED STATES :COUNTRY   
SRVC        .                                                   :SERVICE COMPANY
DATE        .                             9/13/2023 11:09:58 AM :LOG DATE  
API         .                                    42704403400000 :API NUMBER
UWI         .                                    42704403400000 :UNIQUE WELL ID
XCOORD      .                                  869002.191083907 :SURFACE X 
YCOORD      .                                  10369331.9113669 :SURFACE Y 
LAT         .                                        28.5523806 :LATITUDE  
LON         .                                       -95.4033279 :LONGITUDE 
ELEV        .FT                                             100 :ELEVATION VALUE
ELEV_TYPE   .                                                KB :ELEVATION REFERENCE TYPE
~Curve Information Section
#MNEM       .UNIT                                      API CODE :CURVE DESCRIPTION
#------------------------------------------------------------------------------
DEPT        .FT                                                 :DEPTH     
CO12        .MMHO                                               :          
DCAL        .IN                                                 :          
DPHI        .FRAC                                               :          
DRHO        .G/CC                                               :          
GR          .GAPI                                               :          
GR_NORM     .GAPI                                               :GammaRay Normalized
HO01        .OHMM                                               :          
HO02        .OHMM                                               :          
HO03        .OHMM                                               :          
HO06        .OHMM                                               :          
HO09        .OHMM                                               :          
HO12        .OHMM                                               :          
NPHI        .FRAC                                               :          
RWA         .OHMM                                               :          
SP          .MV                                                 :          
SP_NORM     .MV                                                 :SP Normalized
TENS        .LB/F                                               :          
VSH_GR      .V/V                                                :Volume of Shale from GR
VSH_SP      .V/V                                                :Volume of Shale from SP
~A        DEPTH           CO12           DCAL           DPHI           DRHO             GR        GR_NORM           HO01           HO02           HO03           HO06           HO09           HO12           NPHI            RWA             SP        SP_NORM           TENS         VSH_GR         VSH_SP
# ...
      5469.5000       1533.138         1.4053         0.2385          0.019        95.7049       89.91068         0.8283         0.6793         0.6284         0.5842         0.6462         0.6454         0.3693         0.0466         60.054      -8.968376       4250.612              1      0.7597111
      5470.0000       1545.048         1.2439         0.2401         0.0202        93.8245       87.78077         0.7699         0.6841         0.6411         0.5913         0.6558         0.6543         0.3707           0.05        59.9146      -9.108562       4241.344              1      0.7548772
      5470.5000        1571.43         1.6436         0.2426         0.0209        91.9573        85.6658         0.6952         0.6614          0.638         0.6057         0.6439         0.6421         0.3608         0.0505        60.2167      -8.807247       4208.568              1      0.7652673
      5471.0000       1591.955         1.4437         0.2424         0.0192        90.1375       83.60447         0.6822         0.6359         0.6073         0.5816         0.6154          0.614         0.3821         0.0486        60.4756      -8.549133       4162.229              1      0.7741678
      5471.5000       1614.558         1.5283         0.2415         0.0134        89.5261       82.91073         0.6996         0.6234         0.5876         0.5556         0.6295          0.629         0.3935         0.0479        60.8109      -8.214619       4116.793              1      0.7857028
      5472.0000       1596.615         1.4822         0.2424         0.0066        89.5705       82.95919         0.7105          0.651         0.6232         0.5699         0.6144         0.6153         0.3871         0.0483         61.684      -7.342308       4077.914              1      0.8157825
      5472.5000       1605.205         1.5129         0.2414         0.0095        92.0061       85.71384         0.7549         0.6601         0.6296         0.5654         0.6325          0.635         0.3857         0.0499        62.5736      -6.453491       4044.685              1      0.8464313
      5473.0000       1597.213         1.5975         0.2361         0.0198        92.7856       86.59423         0.8038         0.6537         0.6263         0.5787         0.6154          0.619         0.4003         0.0449        63.0483      -5.979576       4020.272              1      0.8627732
      5473.5000       1674.116          1.828          0.232         0.0301        91.6663       85.32568         0.7055         0.6516         0.6316         0.5873         0.6204         0.6245         0.4144         0.0386        63.3172      -5.711464       4012.812              1      0.8720185
      5474.0000       1793.452          1.413         0.2368         0.0312        87.0354       80.08293         0.6936         0.6051         0.5842         0.5859         0.5516         0.5539         0.4104         0.0402        62.5969      -6.432549       4027.731              1      0.8471535
      5474.5000       1961.231         1.1286         0.2571         0.0216        81.3432       73.63908         0.7722         0.5603         0.5379         0.5475         0.5076         0.5067         0.4089         0.0449        59.5992      -9.431034       4048.753      0.8646613      0.7437574
      5475.0000       2120.094         1.0825         0.2838         0.0124         73.755       65.04946         0.7735         0.5133         0.4991         0.4636         0.4808         0.4752         0.3989         0.0543        54.4405      -14.59052       4051.692      0.6819034      0.5658441
      5475.5000       2259.235         1.0902         0.3076         0.0049        67.5251       57.99708         0.5495         0.5061          0.485         0.3932         0.4489         0.4382         0.3897         0.0589        49.4975      -19.53431       4029.992      0.5318528      0.3953688
      5476.0000       2530.912         1.1747         0.3229         0.0006        62.0683       51.81963         0.4528         0.4581         0.4222         0.3634         0.4342         0.4182         0.3853         0.0581        46.6493      -22.38329       4008.065      0.4004176      0.2971278
      5476.5000       2672.213         1.6436         0.3327        -0.0021        59.3782       48.77336         0.4617         0.3981         0.3603         0.3333         0.3571         0.3425         0.3804          0.056        45.3314      -23.70198       4026.601      0.3356034       0.251656
      5477.0000       2979.707         1.6974         0.3407        -0.0017        57.6373       46.80132         0.4759         0.3591         0.3367         0.3203         0.3904         0.3695          0.387         0.0551        44.5944      -24.43977       4106.622      0.2936452       0.226215
      5477.5000       3152.796         1.6974         0.3469         0.0055        57.6432       46.80621         0.4387         0.3571         0.3422         0.3223         0.3176         0.3018         0.3717         0.0543          44.06      -24.97495       4212.862      0.2937491      0.2077604
      5478.0000        3337.19          1.436         0.3517         0.0125        58.8693       48.19203         0.4568         0.3428         0.3188         0.2919         0.3068         0.2908         0.3717         0.0538        44.2392      -24.79654       4296.726      0.3232347      0.2139126
      5478.5000       3264.454         1.3284         0.3501         0.0156        63.7859       53.75451         0.3988          0.313         0.2983         0.3099         0.3255         0.3068          0.378         0.0556        45.6766      -23.35992       4334.701      0.4415852       0.263451
      5479.0000       2992.925         1.2746         0.3403         0.0119        73.3884       64.62018         0.3893         0.3053         0.3064         0.3429         0.3436         0.3231         0.4006         0.0538        48.4585      -20.57881       4319.782      0.6727697      0.3593515
      5479.5000       2773.878         1.2516         0.3175         0.0078        82.9892       75.48393         0.4541         0.3053         0.3172         0.3604         0.4066         0.3811         0.4244          0.049        52.0271      -17.01099       4277.286      0.9039134      0.4823795
      5480.0000       2616.125         1.4822         0.2883         0.0085         86.068       78.96652         0.4387         0.3562          0.364         0.3679         0.4042         0.3843         0.4245         0.0398        55.6854      -13.35348       4244.509      0.9780111      0.6085007
      5480.5000       2585.445         2.0048         0.2666         0.0139        81.9173       74.26724         0.5622         0.4367         0.4079         0.3765         0.3936         0.3814         0.4226         0.0323        56.5252      -12.51447        4229.59      0.8780264      0.6374322
      5481.0000       2650.148         1.1132         0.2644         0.0184        75.2294       66.69652         0.8748          0.493         0.4114         0.3861         0.4012         0.3949         0.4114         0.0344        52.6877      -16.35275       4236.145      0.7169472      0.5050775
      5481.5000       2715.969         0.7904         0.2817         0.0213        70.1468       60.94256         0.7341         0.4877         0.4087         0.3505           0.36         0.3576         0.4012         0.0414        47.3265      -21.71474       4244.057      0.5945226      0.3201815
      5482.0000        2740.91         1.1132          0.306         0.0226        65.2297       55.37592         0.5387         0.3965         0.3544         0.3315          0.358         0.3547          0.364           0.05        44.6575      -24.38452       4239.762      0.4760835        0.22812
      5482.5000       2743.934         1.5513         0.3231         0.0253        61.8472       51.54604          0.475         0.3505         0.3312         0.3376         0.3928         0.3836         0.3564         0.0555        44.3222      -24.72061       4229.816      0.3945965      0.2165308
