#------------------------------------------------------------------------------
# Created by    : vladimir.rabinovich
# Created on    : 09/19/2023 17:20:11
#------------------------------------------------------------------------------
~Version Information Section
VERS.           2.0     :   CWLS log ASCII Standard - VERSION 2.0
WRAP.           NO      :   One line per depth step
~Well Information Section
#MNEM       .UNIT                                         VALUE :DESCRIPTION
#------------------------------------------------------------------------------
STRT        .FT                                             984 :START DEPTH
STOP        .FT                                            6595 :STOP DEPTH
STEP        .FT                                             0.5 :STEP      
NULL        .                                           -999.25 :NULL      
COMP        .                   MCMORAN OFFSHORE EXPLORATION CO :COMPANY   
WELL        .                               OCS G03106 ST00BP00 :WELL      
FLD         .                                           WILDCAT :FIELD     
LOC         .                                                   :LOCATION  
CNTY        .                      MATAGORDA ISLAND LARGE BLOCK :LOCATION  
STAT        .                                             TEXAS :STATE     
CTRY        .                                     UNITED STATES :COUNTRY   
SRVC        .                                                   :SERVICE COMPANY
DATE        .                             9/13/2023 11:12:09 AM :LOG DATE  
API         .                                    42703400570000 :API NUMBER
UWI         .                                    42703400570000 :UNIQUE WELL ID
XCOORD      .                                  467986.403229072 :SURFACE X 
YCOORD      .                                  10153243.7887249 :SURFACE Y 
LAT         .                                         27.931172 :LATITUDE  
LON         .                                        -96.630795 :LONGITUDE 
ELEV        .FT                                              95 :ELEVATION VALUE
ELEV_TYPE   .                                                KB :ELEVATION REFERENCE TYPE
~Curve Information Section
#MNEM       .UNIT                                      API CODE :CURVE DESCRIPTION
#------------------------------------------------------------------------------
DEPT        .FT                                                 :DEPTH     
ASFL        .OHMM                                               :          
CILD        .MMHO                                               :          
DT          .US/F                                               :          
GR          .GAPI                                               :          
GR_NORM     .GAPI                                               :GammaRay Normalized
ILD         .OHMM                                               :          
SFL         .OHMM                                               :          
SP          .MV                                                 :          
SP_NORM     .MV                                                 :SP Normalized
VSH_GR      .V/V                                                :Volume of Shale from GR
VSH_SP      .V/V                                                :Volume of Shale from SP
~A        DEPTH           ASFL           CILD             DT             GR        GR_NORM            ILD            SFL             SP        SP_NORM         VSH_GR         VSH_SP
# ...
      2851.5000         1.5071       1039.168       120.3876        -999.25        -999.25         0.7476         0.5643       -65.6379       -25.2557        -999.25      0.2581434
      2852.0000         1.2755       1232.762       119.4547        -999.25        -999.25         0.6632         0.5675       -66.7258       -26.3186        -999.25      0.2227133
      2852.5000          1.044       1429.576       118.6124        -999.25        -999.25         0.5878         0.5646       -67.7236       -27.2913        -999.25        0.19029
      2853.0000         0.8015       1626.488       118.4329        -999.25        -999.25         0.5198         0.5601       -68.3018       -27.8445        -999.25        0.17185
      2853.5000         0.6915         1823.4       118.5011        -999.25        -999.25         0.4518         0.5583       -68.7573       -28.2749        -999.25      0.1575033
      2854.0000         0.6339       2020.314       117.5612        -999.25        -999.25         0.3968         0.5624       -69.0453       -28.5379        -999.25      0.1487366
      2854.5000         0.6151       2217.125       116.2551        -999.25        -999.25         0.3485         0.5727       -69.3334       -28.8009        -999.25        0.13997
      2855.0000         0.6098       2414.039       119.7109        -999.25        -999.25         0.3003          0.584       -69.6215        -29.064        -999.25         0.1312
      2855.5000         0.6045       2621.309       123.9875        -999.25        -999.25         0.2757          0.598       -69.8373       -29.2548        -999.25        0.12484
      2856.0000         0.6093       2753.629       126.7473        -999.25        -999.25         0.2696         0.6306       -70.0461       -29.4385        -999.25      0.1187167
      2856.5000         0.6154       2814.016       127.5129        -999.25        -999.25         0.2635          0.678       -70.2551       -29.6225        -999.25      0.1125834
      2857.0000         0.6215       2822.465       121.9885        -999.25        -999.25         0.2638         0.7329        -70.458       -29.8003        -999.25      0.1066566
      2857.5000         0.6473       2787.281       115.2163        -999.25        -999.25         0.2723         0.7768       -70.1129       -29.4302        -999.25      0.1189933
      2858.0000         0.6823       2724.352       108.4417        -999.25        -999.25         0.2808         0.7808       -69.7677         -29.06        -999.25      0.1313334
      2858.5000         0.7326       2647.699       101.6693        -999.25        -999.25         0.2892         0.7715       -69.4226       -28.6898        -999.25      0.1436733
      2859.0000         0.7708       2569.813        95.3406        -999.25        -999.25            0.3         0.7498       -69.0774       -28.3196        -999.25      0.1560134
      2859.5000         0.8047       2455.227        95.2921        -999.25        -999.25         0.3244          0.711       -68.7371       -27.9542        -999.25      0.1681933
      2860.0000         0.8222        2347.25       101.9989        -999.25        -999.25         0.3487         0.6415       -68.4292       -27.6213        -999.25        0.17929
      2860.5000         0.8175       2250.125       113.2076        -999.25        -999.25         0.3731         0.5591       -68.1213       -27.2883        -999.25        0.19039
      2861.0000         0.8128       2119.754       133.2312        -999.25        -999.25          0.395         0.5189       -67.8441       -26.9861        -999.25      0.2004634
      2861.5000         0.8081        1859.41       147.4856        -999.25        -999.25         0.4068         0.5219       -67.6962       -26.8132        -999.25      0.2062267
      2862.0000         0.7739       1772.645       151.9851        -999.25        -999.25         0.3877         0.5523       -67.5481         -26.64        -999.25          0.212
      2862.5000         0.7288       1856.352         149.47        -999.25        -999.25         0.3685         0.6204        -67.491       -26.5579        -999.25      0.2147367
      2863.0000         0.6811       2030.574       139.8145        -999.25        -999.25         0.3493          0.717       -67.6898       -26.7316        -999.25      0.2089467
      2863.5000         0.6175       2162.324       134.3142        -999.25        -999.25         0.3301         0.7834       -67.8094       -26.8262        -999.25      0.2057933
      2864.0000         0.5851        2265.07       130.2073        -999.25        -999.25         0.3123         0.8036       -67.7534       -26.7452        -999.25      0.2084934
      2864.5000         0.5769       2369.594        126.625        -999.25        -999.25         0.2955         0.7815       -67.6516       -26.6183        -999.25      0.2127233
      2865.0000         0.6557       2477.324       122.7543        -999.25        -999.25         0.2787         0.7372       -67.3136       -26.2553        -999.25      0.2248233
      2865.5000         0.7208       2567.125       118.2087        -999.25        -999.25         0.2619         0.6959       -66.9757       -25.8923        -999.25      0.2369234
      2866.0000         0.7725       2615.613       113.8013        -999.25        -999.25         0.2451         0.6592       -66.6377       -25.5293        -999.25      0.2490233
      2866.5000          0.818       2664.074       111.1202        -999.25        -999.25         0.2283          0.639       -65.1405       -24.0071        -999.25      0.2997634
      2867.0000         0.8654       2713.008       114.5524        -999.25        -999.25         0.2229         0.6492       -61.4838       -20.3253        -999.25        0.42249
      2867.5000         0.8512       2771.707       121.0072        -999.25        -999.25         0.2266         0.6604       -57.5646       -16.3811        -999.25      0.5539634
      2868.0000         0.7663        2830.43       126.5341        -999.25        -999.25         0.2303         0.6711        -55.097       -13.8884        -999.25      0.6370533
      2868.5000         0.7122       2901.238       131.3025        -999.25        -999.25         0.2339         0.6918       -52.4537       -11.2201        -999.25      0.7259967
      2869.0000         0.6775       2732.492       136.5144        -999.25        -999.25         0.2376         0.7369       -49.4453        -8.1866        -999.25      0.8271133
      2869.5000         0.6714       2517.031       142.8528        -999.25        -999.25         0.2413         0.8175       -47.7849        -6.5012        -999.25      0.8832933
      2870.0000         0.6957       2301.672        137.864        -999.25        -999.25         0.2863         0.9496       -46.6225        -5.3138        -999.25      0.9228733
      2870.5000         0.7119       2086.215       108.3423        -999.25        -999.25          0.336         1.1698       -45.7947        -4.4609        -999.25      0.9513034
      2871.0000         0.7213       1870.754        84.0687        -999.25        -999.25         0.3857         1.4644       -45.6107        -4.2519        -999.25        0.95827
      2871.5000         0.7419       1655.295        77.1124        -999.25        -999.25         0.4808         1.6866       -45.4447        -4.0608        -999.25        0.96464
      2872.0000         0.7772       1439.836        87.4464        -999.25        -999.25         0.6127          1.435       -45.2786        -3.8697        -999.25        0.97101
      2872.5000         0.9133       1224.377       116.7355        -999.25        -999.25         0.7485         1.2094       -45.1384        -3.7045        -999.25      0.9765167
      2873.0000         1.0777       1066.777       129.4658        -999.25        -999.25          0.906         1.0717        -45.012         -3.553        -999.25      0.9815667
      2873.5000         1.2421       966.7441       119.3596        -999.25        -999.25         1.0707         1.0175       -44.8856        -3.4016        -999.25      0.9866133
