#------------------------------------------------------------------------------
# Created by    : vladimir.rabinovich
# Created on    : 09/19/2023 17:22:56
#------------------------------------------------------------------------------
~Version Information Section
VERS.           2.0     :   CWLS log ASCII Standard - VERSION 2.0
WRAP.           NO      :   One line per depth step
~Well Information Section
#MNEM       .UNIT                                         VALUE :DESCRIPTION
#------------------------------------------------------------------------------
STRT        .FT                                             890 :START DEPTH
STOP        .FT                                            9495 :STOP DEPTH
STEP        .FT                                             0.5 :STEP      
NULL        .                                           -999.25 :NULL      
COMP        .                                   MARATHON OIL CO :COMPANY   
WELL        .                               OCS G04138 ST00BP00 :WELL      
FLD         .                                           WILDCAT :FIELD     
LOC         .                                                   :LOCATION  
CNTY        .                      MATAGORDA ISLAND LARGE BLOCK :LOCATION  
STAT        .                                             TEXAS :STATE     
CTRY        .                                     UNITED STATES :COUNTRY   
SRVC        .                                                   :SERVICE COMPANY
DATE        .                             9/13/2023 11:12:11 AM :LOG DATE  
API         .                                    42703402070000 :API NUMBER
UWI         .                                    42703402070000 :UNIQUE WELL ID
XCOORD      .                                  590883.400226114 :SURFACE X 
YCOORD      .                                  10259990.6406746 :SURFACE Y 
LAT         .                                         28.233929 :LATITUDE  
LON         .                                        -96.259589 :LONGITUDE 
ELEV        .FT                                              90 :ELEVATION VALUE
ELEV_TYPE   .                                                KB :ELEVATION REFERENCE TYPE
~Curve Information Section
#MNEM       .UNIT                                      API CODE :CURVE DESCRIPTION
#------------------------------------------------------------------------------
DEPT        .FT                                                 :DEPTH     
SP          .MV                                                 :          
SP_NORM     .MV                                                 :SP Normalized
VSH_SP      .V/V                                                :Volume of Shale from SP
~A        DEPTH             SP        SP_NORM         VSH_SP
# ...
      5972.0000        27.4537      -4.035141      0.9221759
      5972.5000        24.9093      -1.493742        0.98734
      5973.0000        23.6115     -0.1989403              1
      5973.5000        22.1978       1.211761              1
      5974.0000        20.8889        2.51766              1
      5974.5000        19.8716       3.531963              1
      5975.0000        19.1495       4.251062              1
      5975.5000        18.6562       4.741364              1
      5976.0000        18.0829       5.311666              1
      5976.5000         17.462       5.929565              1
      5977.0000        17.0198       6.368767              1
      5977.5000        16.5795       6.806067              1
      5978.0000        15.9727       7.409868              1
      5978.5000        17.1003       6.279268              1
      5979.0000        20.0717       3.304871              1
      5979.5000        22.4332      0.9403706              1
      5980.0000         33.538      -10.16743      0.7649378
      5980.5000        47.0823      -23.71473      0.4175711
      5981.0000        50.2183      -26.85373      0.3370839
      5981.5000        44.6525      -21.29093      0.4797198
      5982.0000        41.0054      -17.64683      0.5731583
      5982.5000        38.3804      -15.02483      0.6403891
      5983.0000        35.2529      -11.90032      0.7205046
      5983.5000        32.1425      -8.792925      0.8001814
      5984.0000        29.7079       -6.36132      0.8625302
      5984.5000        27.3171      -3.973522      0.9237558
      5985.0000        25.0557       -1.71512      0.9816636
      5985.5000         23.065      0.2725811              1
      5986.0000        25.7607      -2.426119      0.9634328
      5986.5000        29.0346      -5.703016      0.8794098
      5987.0000        32.6792      -9.350616      0.7858816
      5987.5000        37.0021      -13.67652      0.6749611
      5988.0000        39.2684      -15.94581       0.616774
      5988.5000        45.4771      -22.15751      0.4574996
      5989.0000        51.5125      -28.19591      0.3026689
      5989.5000        55.3987      -32.08511      0.2029458
      5990.0000        57.1295      -33.81891      0.1584894
      5990.5000        58.1956      -34.88801      0.1310767
      5991.0000        58.9305      -35.62591      0.1121562
      5991.5000        59.5831      -36.28151     0.09534591
      5992.0000        60.2168      -36.91821     0.07902028
      5992.5000        60.7452      -37.44961     0.06539467
      5993.0000        59.8606      -36.56801     0.08799978
      5993.5000        57.3113      -34.02171      0.1532896
      5994.0000        56.0586        -32.772      0.1853333
      5994.5000        55.0474      -31.76381      0.2111845
      5995.0000        54.1338       -30.8532      0.2345333
      5995.5000        51.9418       -28.6642      0.2906615
      5996.0000        48.6046         -25.33      0.3761539
      5996.5000        44.1573       -20.8857      0.4901102
      5997.0000        41.8934       -18.6248      0.5480821
      5997.5000        40.1052       -16.8396      0.5938564
      5998.0000        37.9803       -14.7177      0.6482641
      5998.5000        35.2286        -11.969      0.7187437
      5999.0000        31.8486      -8.591997      0.8053334
      5999.5000        31.3799      -8.126295      0.8172745
      6000.0000          31.11      -7.859394      0.8241181
      6000.5000        31.4021      -8.154493      0.8165514
      6001.0000        32.1413      -8.896692      0.7975207
      6001.5000        33.0061      -9.764492      0.7752694
      6002.0000        33.9002      -10.66159      0.7522669
      6002.5000        35.0139      -11.77829      0.7236335
      6003.0000        35.6573      -12.42469      0.7070593
      6003.5000        36.1976      -12.96799      0.6931285
      6004.0000        36.4483      -13.22169      0.6866234
      6004.5000        36.6993      -13.47569      0.6801106
      6005.0000        35.1578      -11.93719      0.7195594
      6005.5000          34.36      -11.14239      0.7399389
      6006.0000         33.835      -10.62038      0.7533236
      6006.5000        33.7477      -10.53608      0.7554851
      6007.0000        35.2176      -12.00898      0.7177184
      6007.5000        36.9021      -13.69648      0.6744492
      6008.0000        38.5463      -15.34368      0.6322134
      6008.5000         39.982      -16.78238      0.5953236
      6009.0000        41.3225      -18.12588      0.5608749
      6009.5000        42.2178      -19.02418      0.5378416
      6010.0000        42.4587      -19.26808      0.5315878
      6010.5000        42.9448      -19.75718      0.5190467
      6011.0000        43.8243      -20.63968      0.4964186
      6011.5000        45.1514      -21.96978      0.4623134
      6012.0000        46.7042      -23.52557      0.4224212
      6012.5000        48.1191      -24.94347      0.3860648
      6013.0000        49.5901      -26.41747        0.34827
      6013.5000        51.1746      -28.00497      0.3075649
      6014.0000        52.9518      -29.78517      0.2619187
      6014.5000         55.223      -32.05937      0.2036058
      6015.0000        56.6721      -33.51147      0.1663726
      6015.5000        56.5574      -33.39977      0.1692368
      6016.0000        48.9656      -25.81097      0.3638214
      6016.5000        43.2668      -20.11517      0.5098675
      6017.0000        36.3605      -13.21187      0.6868752
      6017.5000        32.2352      -9.089563      0.7925753
      6018.0000        29.7762      -6.633562      0.8555497
      6018.5000        26.9817      -3.842064      0.9271266
      6019.0000        25.6839      -2.547262      0.9603266
      6019.5000        24.7458      -1.612162      0.9843035
      6020.0000        23.9835     -0.8528595              1
      6020.5000        23.3022     -0.1745605              1
      6021.0000        22.8406      0.2840424              1
      6021.5000        22.3789      0.7427425              1
      6022.0000         21.951       1.167643              1
      6022.5000        21.5589       1.556744              1
      6023.0000        21.1664       1.946243              1
      6023.5000        20.4675       2.642145              1
      6024.0000        19.6716       3.435047              1
      6024.5000        18.7287       4.374947              1
      6025.0000        17.8853       5.215349              1
      6025.5000        17.8511       5.246548              1
      6026.0000        18.6245        4.47015              1
      6026.5000        19.3691       3.722549              1
      6027.0000        20.0674       3.021252              1
      6027.5000        18.7873       4.298353              1
      6028.0000        17.2052       5.877453              1
      6028.5000        16.1093       6.970354              1
      6029.0000        15.3689       7.707754              1
      6029.5000        14.0936       8.980056              1
      6030.0000        12.9153       10.15536              1
      6030.5000        12.3646       10.70306              1
      6031.0000        12.9043       10.16036              1
      6031.5000        14.3925       8.669159              1
      6032.0000        15.8793        7.17936              1
      6032.5000        17.7492       5.306459              1
      6033.0000        19.4362       3.616463              1
      6033.5000        20.6145       2.435163              1
      6034.0000        21.7928       1.253862              1
      6034.5000        23.4236     -0.3799343              1
      6035.0000        25.3216      -2.280935      0.9671555
      6035.5000        30.7008      -7.663134      0.8291504
      6036.0000        32.7378      -9.703133      0.7768428
      6036.5000        34.3186      -11.28693      0.7362325
      6037.0000        36.0751      -13.04643      0.6911172
      6037.5000        37.4632      -14.43753       0.655448
