#------------------------------------------------------------------------------
# Created by    : vladimir.rabinovich
# Created on    : 09/19/2023 17:19:48
#------------------------------------------------------------------------------
~Version Information Section
VERS.           2.0     :   CWLS log ASCII Standard - VERSION 2.0
WRAP.           NO      :   One line per depth step
~Well Information Section
#MNEM       .UNIT                                         VALUE :DESCRIPTION
#------------------------------------------------------------------------------
STRT        .FT                                             960 :START DEPTH
STOP        .FT                                            9172 :STOP DEPTH
STEP        .FT                                             0.5 :STEP      
NULL        .                                           -999.25 :NULL      
COMP        .                                ODECO OIL & GAS CO :COMPANY   
WELL        .                               OCS G06101 ST00BP00 :WELL      
FLD         .                                           WILDCAT :FIELD     
LOC         .                                                   :LOCATION  
CNTY        .                             GALVESTON LARGE BLOCK :LOCATION  
STAT        .                                             TEXAS :STATE     
CTRY        .                                     UNITED STATES :COUNTRY   
SRVC        .                                                   :SERVICE COMPANY
DATE        .                             9/13/2023 11:19:27 AM :LOG DATE  
API         .                                    42706401070000 :API NUMBER
UWI         .                                    42706401070000 :UNIQUE WELL ID
XCOORD      .                                  1041316.87817256 :SURFACE X 
YCOORD      .                                  10447909.9182991 :SURFACE Y 
LAT         .                                         28.776905 :LATITUDE  
LON         .                                        -94.870587 :LONGITUDE 
ELEV        .FT                                              92 :ELEVATION VALUE
ELEV_TYPE   .                                                KB :ELEVATION REFERENCE TYPE
~Curve Information Section
#MNEM       .UNIT                                      API CODE :CURVE DESCRIPTION
#------------------------------------------------------------------------------
DEPT        .FT                                                 :DEPTH     
ASFL        .OHMM                                               :          
GR          .GAPI                                               :          
GR_NORM     .GAPI                                               :GammaRay Normalized
ILD         .OHMM                                               :          
SP          .MV                                                 :          
SP_NORM     .MV                                                 :SP Normalized
VSH_GR      .V/V                                                :Volume of Shale from GR
VSH_SP      .V/V                                                :Volume of Shale from SP
~A        DEPTH           ASFL             GR        GR_NORM            ILD             SP        SP_NORM         VSH_GR         VSH_SP
# ...
      4234.5000         0.8125        72.5627       83.41771         0.8378       -79.3737      -5.802087              1      0.9032986
      4235.0000         0.8122        73.0001       83.99706         0.8396       -79.3868      -5.820427              1      0.9029929
      4235.5000           0.81        73.0583       84.07483         0.8415          -79.4      -5.838905              1      0.9026849
      4236.0000         0.8058        72.5374        83.3866         0.8433       -79.4132      -5.857384              1      0.9023769
      4236.5000          0.801        72.0161       82.69782         0.8451       -79.4264      -5.875862              1       0.902069
      4237.0000          0.796        71.4952       82.00959          0.847       -79.4396      -5.894341              1       0.901761
      4237.5000          0.791         70.974       81.32095         0.8488       -79.4528      -5.912819              1       0.901453
      4238.0000          0.786        70.4528       80.63231         0.8507       -79.4659      -5.931159              1      0.9011474
      4238.5000          0.781        69.9647       79.98746         0.8511       -79.4813      -5.952724      0.9997332      0.9007879
      4239.0000         0.7781        69.7374       79.68758         0.8491       -79.5311      -6.022439      0.9933527       0.899626
      4239.5000         0.7756          69.51       79.38758         0.8472       -79.5809      -6.092166      0.9869698      0.8984639
      4240.0000         0.7736        69.2826       79.08755         0.8452       -79.6307      -6.161882      0.9805863       0.897302
      4240.5000         0.7778        69.0553       78.78768         0.8432       -79.6805      -6.231598       0.974206        0.89614
      4241.0000          0.792        68.8279       78.48768         0.8412       -79.7303      -6.301324       0.967823      0.8949779
      4241.5000         0.8094        68.6006        78.1878         0.8392       -79.7802      -6.371179      0.9614425      0.8938137
      4242.0000         0.8269        68.3732       77.88778         0.8372       -79.8301      -6.441045      0.9550591      0.8926492
      4242.5000         0.8443        68.1458       77.58777         0.8353       -79.8798      -6.510622      0.9486759      0.8914896
      4243.0000         0.8584        68.1724       77.62374         0.8354       -79.9297      -6.580487      0.9494413      0.8903252
      4243.5000         0.8701        68.6027        78.1937         0.8386       -79.9795      -6.650203       0.961568      0.8891633
      4244.0000         0.8817        69.0333       78.76407         0.8419       -80.0081      -6.690247      0.9737036      0.8884959
      4244.5000         0.8899        69.4722        79.3454         0.8451       -79.9751       -6.64404      0.9860723       0.889266
      4245.0000         0.8839        69.9172       79.93481         0.8483       -79.9421      -6.597844      0.9986131      0.8900359
      4245.5000         0.8777        70.3624       80.52447         0.8516       -79.9091      -6.551648              1      0.8908058
      4246.0000         0.8714        70.8077       81.11428         0.8548       -79.8761      -6.505441              1       0.891576
      4246.5000         0.8651        71.2531       81.70421          0.858       -79.8431      -6.459245              1      0.8923459
      4247.0000         0.8588        71.6591       82.24204         0.8613       -79.8102      -6.413188              1      0.8931136
      4247.5000         0.8526         71.788       82.41332         0.8645       -79.7772      -6.366982              1      0.8938836
      4248.0000         0.8463        71.9167       82.58435         0.8677       -79.7441      -6.320647              1      0.8946559
      4248.5000           0.84        72.0457       82.75576          0.871       -79.7112      -6.274579              1      0.8954237
      4249.0000         0.8337        72.1746       82.92704         0.8729       -79.6791      -6.229643              1      0.8961726
      4249.5000          0.831        72.3033       83.09807         0.8742       -79.6478      -6.185819              1       0.896903
      4250.0000         0.8286        72.3792       83.19925         0.8756       -79.6165      -6.142004              1      0.8976333
      4250.5000         0.8263        72.3485       83.15942         0.8769       -79.5852       -6.09818              1      0.8983636
      4251.0000         0.8239        72.3179       83.11973         0.8782       -79.5538      -6.054227              1      0.8990962
      4251.5000         0.8215        72.2872        83.0799         0.8795       -79.5226      -6.010541              1      0.8998243
      4252.0000         0.8203        72.2566       83.04021         0.8808       -79.4912      -5.966588              1      0.9005569
      4252.5000         0.8196         72.226       83.00051         0.8821         -79.46      -5.922902              1       0.901285
      4253.0000         0.8221        72.1953       82.96069         0.8834       -79.4287      -5.879088              1      0.9020152
      4253.5000         0.8263        72.1647         82.921         0.8847       -79.4159      -5.861165              1      0.9023139
      4254.0000         0.8306        71.8545       82.51146          0.886       -79.4152      -5.860182              1      0.9023303
      4254.5000         0.8299        71.5065       82.05193         0.8838       -79.4143      -5.858922              1      0.9023513
      4255.0000         0.8236        71.1588       81.59279         0.8807       -79.4136      -5.857939              1      0.9023677
      4255.5000         0.8172        70.8108       81.13325         0.8777       -79.4127      -5.856679              1      0.9023887
      4256.0000          0.811        70.4628       80.67372         0.8747        -79.412      -5.855707              1      0.9024049
      4256.5000          0.805        69.9331       79.97383         0.8716       -79.4113      -5.854724      0.9994432      0.9024213
      4257.0000         0.7991        69.2279       79.04182         0.8686       -79.4104      -5.853464      0.9796131      0.9024423
      4257.5000         0.7932        68.5221       78.10901         0.8656       -79.4097      -5.852481      0.9597661      0.9024587
      4258.0000         0.7873        67.8164       77.17632          0.862       -79.4088      -5.851221      0.9399216      0.9024796
      4258.5000          0.782        67.1106       76.24352          0.858       -79.4081      -5.850238      0.9200748       0.902496
      4259.0000         0.7825        66.4049       75.31082          0.854       -79.4133      -5.857522      0.9002302      0.9023746
      4259.5000         0.7863        66.2012       75.04217           0.85       -79.4269      -5.876567      0.8945142      0.9020572
      4260.0000         0.8004        66.0068       74.78579         0.8459       -79.4403      -5.895323      0.8890594      0.9017446
      4260.5000         0.8145        65.8126       74.52971         0.8419       -79.4539      -5.914368      0.8836108      0.9014272
      4261.0000         0.8286        65.6182       74.27335         0.8379       -79.4674      -5.933263      0.8781563      0.9011123
      4261.5000         0.8413        65.4238       74.01698         0.8339       -79.4808      -5.952019      0.8727016      0.9007997
      4262.0000         0.8407        65.5999       74.25071         0.8299       -79.4944      -5.971063      0.8776747      0.9004823
      4262.5000           0.84        65.8813       74.62371         0.8281       -79.5078       -5.98982      0.8856109      0.9001697
      4263.0000         0.8394        66.1628       74.99686         0.8337       -79.5399      -6.034766      0.8935502      0.8994206
      4263.5000         0.8388        66.4443       75.36997         0.8393       -79.6367      -6.170288      0.9014888      0.8971618
