#------------------------------------------------------------------------------
# Created by    : vladimir.rabinovich
# Created on    : 09/19/2023 17:22:10
#------------------------------------------------------------------------------
~Version Information Section
VERS.           2.0     :   CWLS log ASCII Standard - VERSION 2.0
WRAP.           NO      :   One line per depth step
~Well Information Section
#MNEM       .UNIT                                         VALUE :DESCRIPTION
#------------------------------------------------------------------------------
STRT        .FT                                            1000 :START DEPTH
STOP        .FT                                            7796 :STOP DEPTH
STEP        .FT                                             0.5 :STEP      
NULL        .                                           -999.25 :NULL      
COMP        .                                SHELL OFFSHORE INC :COMPANY   
WELL        .                               OCS G06060 ST00BP00 :WELL      
FLD         .                                           WILDCAT :FIELD     
LOC         .                                                   :LOCATION  
CNTY        .                                BRAZOS LARGE BLOCK :LOCATION  
STAT        .                                             TEXAS :STATE     
CTRY        .                                     UNITED STATES :COUNTRY   
SRVC        .                                                   :SERVICE COMPANY
DATE        .                             9/13/2023 11:19:08 AM :LOG DATE  
API         .                                    42704401260000 :API NUMBER
UWI         .                                    42704401260000 :UNIQUE WELL ID
XCOORD      .                                   881020.58603234 :SURFACE X 
YCOORD      .                                   10392321.681828 :SURFACE Y 
LAT         .                                         28.616238 :LATITUDE  
LON         .                                        -95.367327 :LONGITUDE 
ELEV        .FT                                              90 :ELEVATION VALUE
ELEV_TYPE   .                                                KB :ELEVATION REFERENCE TYPE
~Curve Information Section
#MNEM       .UNIT                                      API CODE :CURVE DESCRIPTION
#------------------------------------------------------------------------------
DEPT        .FT                                                 :DEPTH     
CALI        .IN                                                 :          
CILD        .MMHO                                               :          
DPHI        .%                                                  :          
DT          .US/F                                               :          
GR          .GAPI                                               :          
GR_NORM     .GAPI                                               :GammaRay Normalized
ILD         .OHMM                                               :          
ILM         .OHMM                                               :          
SFL         .OHMM                                               :          
SP          .MV                                                 :          
SP_NORM     .MV                                                 :SP Normalized
VSH_GR      .V/V                                                :Volume of Shale from GR
VSH_SP      .V/V                                                :Volume of Shale from SP
~A        DEPTH           CALI           CILD           DPHI             DT             GR        GR_NORM            ILD            ILM            SFL             SP        SP_NORM         VSH_GR         VSH_SP
# ...
      5522.0000        10.8077       3611.172        31.2014       111.4989        43.4714       51.73447         0.2797         0.3352         0.7733      -130.3499       -63.1624      0.3986058      0.1926961
      5522.5000        10.9087       3581.602        33.0814       112.1385          41.85       48.72415         0.2793           0.33         0.7943      -133.8545      -66.65908      0.3345564      0.1472847
      5523.0000        10.9691        3656.68        34.7893       112.7156        40.7308       46.64622         0.2735         0.3196         0.7475      -135.5164      -68.31305      0.2903451      0.1258046
      5523.5000        11.0499       3862.234        36.6055       112.9515        39.6862       44.70681         0.2659         0.2993         0.7239      -134.7969      -67.58563       0.249081      0.1352515
      5524.0000        11.1015       3992.164        37.5922       112.7935        38.7041       42.88343          0.258          0.282         0.6886      -132.0249       -64.8057      0.2102858      0.1713545
      5524.5000        11.1066       4011.359        36.4217       111.8317        38.6392       42.76294         0.2523         0.2786         0.5949        -127.15      -59.92287       0.207722      0.2347679
      5525.0000        11.0521       3811.438        33.0502       110.4785        41.8708       48.76276         0.2576         0.2908         0.5497        -121.79      -54.55495       0.335378      0.3044811
      5525.5000        10.9943       3479.586         29.056       110.1107        46.2254       56.84757         0.2785         0.3157         0.5846      -113.8549      -46.61192      0.5073951      0.4076374
      5526.0000        10.9509       3189.242        25.7512        110.063        49.9824       63.82284         0.3162         0.3673         0.6529      -108.7925       -41.5416      0.6558052      0.4734857
      5526.5000        10.9348       2796.715        23.7645       111.0537        52.4732       68.44732         0.3591          0.414         0.6743      -104.1636      -36.90478      0.7541983      0.5337042
      5527.0000        10.9617       2468.223        23.1433       112.7789        53.3287       70.03567         0.4104         0.4639         0.6896      -105.7102      -38.44345      0.7879929      0.5137214
      5527.5000        10.9941       2344.938         25.173       114.0323        52.5736       68.63373         0.4371         0.4799         0.7116      -111.5258      -44.25113      0.7581644       0.438297
      5528.0000        10.9066       2313.512         27.219       114.6934        48.6648       61.37658         0.4334           0.48          0.718      -118.3956      -51.11301       0.603757      0.3491817
      5528.5000        10.7974       2384.418        29.0545       115.0212        44.1829       53.05543          0.421         0.4515         0.6751      -127.2712      -59.98068      0.4267113      0.2340171
      5529.0000        10.6987       2693.543        30.0308       114.3201        39.4315       44.23392         0.3953         0.4072         0.6375      -133.4871      -66.18866      0.2390197       0.153394
      5529.5000        10.6707       3241.027        30.1404       113.3566        36.4411       38.68191         0.3311         0.3619         0.6691      -136.7659      -69.45953      0.1208917      0.1109151
      5530.0000        10.6791       3774.676        29.9778        113.489        34.8749       35.77407         0.2763         0.3174         0.7828      -138.5625      -71.24821     0.05902286     0.08768562
      5530.5000        10.7223       4326.906        29.7759       113.8854        33.4862        33.1958         0.2403         0.2783         0.8036      -140.1072      -72.78497    0.004166055     0.06772762
      5531.0000        10.7688       4628.711        29.8049       114.3818        32.4359        31.2458         0.2203         0.2588         0.7519      -141.5371      -74.20695              0     0.04926033
      5531.5000        10.8067       4783.172        30.0149       114.7063        32.4871       31.34086         0.2125         0.2505         0.7046      -142.4775      -75.13943              0      0.0371503
      5532.0000        10.8406       4905.617        30.2321       114.9475        32.5356        31.4309         0.2066         0.2492           0.77      -142.7056       -75.3596              0     0.03429086
      5532.5000        10.9063       4980.969        30.5386       114.3671        32.3564        31.0982         0.2027          0.248         0.8491      -142.7729      -75.41899              0      0.0335196
      5533.0000        10.8927       5035.023         31.045       112.6604        32.4407       31.25472            0.2         0.2478         0.8737      -142.5649      -75.20306              0     0.03632394
      5533.5000        10.7924       5058.594        31.4686       110.5215         33.027       32.34325         0.1999         0.2474         0.8184      -141.8137      -74.44394              0     0.04618261
      5534.0000        10.7743       4967.086         31.677       110.4591        34.3409       34.78266         0.2023         0.2461         0.7472      -141.8098      -74.43211     0.03792889     0.04633619
      5534.5000         10.782       4780.508        31.7245       114.5375        34.5681       35.20446         0.2107         0.2453         0.6996      -142.0227      -74.63709     0.04690333     0.04367412
      5535.0000        10.7966       4602.625        31.7744       117.7162        34.5232       35.12111         0.2183          0.248         0.6923      -142.9011      -75.50755     0.04512998     0.03236944
      5535.5000        10.8263       4484.727        31.9315       119.7242        34.4293       34.94678         0.2231         0.2507         0.7406      -143.5708      -76.16934      0.0414208     0.02377478
      5536.0000        10.8526       4412.633        32.0985       118.0693        35.1179       36.22524         0.2238         0.2567         0.7923      -143.7668      -76.35741     0.06862219     0.02133228
      5536.5000        10.8555        4350.82        32.1519       112.6307        35.9341        37.7406         0.2267         0.2631         0.8619      -143.4658      -76.04849      0.1008639     0.02534425
      5537.0000         10.879       4274.523        31.9801       110.0028         36.746       39.24799         0.2319         0.2686         0.8921      -142.9016      -75.47636      0.1329359     0.03277449
      5537.5000        10.9924       4145.656        31.7092       107.5823        38.4959       42.49688         0.2391         0.2736         0.8431      -142.2959      -74.86274      0.2020613     0.04074364
      5538.0000        11.1324       4049.359        31.4102       107.0991        39.7695       44.86147         0.2462         0.2773          0.786      -141.9304      -74.48932      0.2523717     0.04559326
      5538.5000        11.2233       4065.516        31.5038       107.2522        38.7665       42.99928         0.2465         0.2767         0.7487      -141.9561       -74.5071      0.2127506      0.0453624
      5539.0000        11.2448       4298.242        31.7835       107.3965        36.6542       39.07755         0.2366         0.2713         0.7013      -142.0427      -74.58576      0.1293096     0.04434075
      5539.5000        11.1945       4508.742        31.9362       107.8756        34.8467       35.72172         0.2276         0.2631         0.6576       -141.978      -74.51314     0.05790889     0.04528392
      5540.0000        11.0598       4659.344        32.0132       108.6517         33.924       34.00863         0.2198         0.2535         0.6169      -141.3823      -73.90952     0.02146011     0.05312318
      5540.5000        10.9215       4699.992        32.0858       109.6915        33.4681        33.1622         0.2166         0.2475         0.5423      -141.2366       -73.7559    0.003451165     0.05511821
