#------------------------------------------------------------------------------
# Created by    : vladimir.rabinovich
# Created on    : 09/19/2023 17:20:03
#------------------------------------------------------------------------------
~Version Information Section
VERS.           2.0     :   CWLS log ASCII Standard - VERSION 2.0
WRAP.           NO      :   One line per depth step
~Well Information Section
#MNEM       .UNIT                                         VALUE :DESCRIPTION
#------------------------------------------------------------------------------
STRT        .FT                                            3149 :START DEPTH
STOP        .FT                                           10186 :STOP DEPTH
STEP        .FT                                             0.5 :STEP      
NULL        .                                           -999.25 :NULL      
COMP        .                                  SAMEDAN OIL CORP :COMPANY   
WELL        .                                     ST TR 00817-L :WELL      
FLD         .                                           WILDCAT :FIELD     
LOC         .                                                   :LOCATION  
CNTY        .                        MUSTANG ISLAND LARGE BLOCK :LOCATION  
STAT        .                                             TEXAS :STATE     
CTRY        .                                     UNITED STATES :COUNTRY   
SRVC        .                                                   :SERVICE COMPANY
DATE        .                             9/13/2023 11:18:55 AM :LOG DATE  
API         .                                    42702300080000 :API NUMBER
UWI         .                                    42702300080000 :UNIQUE WELL ID
XCOORD      .                                  304914.569303086 :SURFACE X 
YCOORD      .                                  10013906.4088957 :SURFACE Y 
LAT         .                                        27.5345201 :LATITUDE  
LON         .                                       -97.1203623 :LONGITUDE 
ELEV        .FT                                              65 :ELEVATION VALUE
ELEV_TYPE   .                                                KB :ELEVATION REFERENCE TYPE
~Curve Information Section
#MNEM       .UNIT                                      API CODE :CURVE DESCRIPTION
#------------------------------------------------------------------------------
DEPT        .FT                                                 :DEPTH     
ASFL        .OHMM                                               :          
CILD        .MMHO                                               :          
DT          .US/F                                               :          
GR          .GAPI                                               :          
ILD         .OHMM                                               :          
SP          .MV                                                 :          
SP_NORM     .MV                                                 :SP Normalized
VSH_SP      .V/V                                                :Volume of Shale from SP
~A        DEPTH           ASFL           CILD             DT             GR            ILD             SP        SP_NORM         VSH_SP
# ...
      8311.5000         0.5215       3102.078       140.4377        46.5282          0.291       -45.7214     -0.1073685              1
      8312.0000         0.5234       3097.285       140.1443         46.552         0.2903       -45.6599    -0.04586792              1
      8312.5000         0.5254       3095.281       139.5234        46.5757         0.2896       -45.6303    -0.01626587              1
      8313.0000         0.5274       3093.273       138.7017        46.0129          0.289       -45.6351    -0.02106857              1
      8313.5000         0.5293       3091.262       137.7759        45.2686         0.2894       -45.6398    -0.02576828              1
      8314.0000         0.5313       3100.496       136.8162        44.4335         0.2949       -45.6445    -0.03046799              1
      8314.5000         0.5317       3111.051       137.8748        43.5984         0.3003       -45.6493    -0.03526688              1
      8315.0000         0.5319        3121.59       139.0757        43.8522         0.3058       -45.6541    -0.04006577              1
      8315.5000         0.5321       3132.133        139.177        45.3701         0.3113       -45.6588    -0.04476547              1
      8316.0000         0.5323       3141.465       138.7454        46.6909         0.3178       -45.6697    -0.05566788              1
      8316.5000         0.5321       3124.629       138.2588        47.7507         0.3288       -45.6871    -0.07306671              1
      8317.0000         0.5319       3107.793       135.8779        48.8093         0.3398       -45.7044    -0.09036636              1
      8317.5000         0.5317       3061.996       132.8254        49.7205         0.3508       -45.7217      -0.107666              1
      8318.0000         0.5392        2998.75       129.8179         50.593         0.3619        -45.739     -0.1249657              1
      8318.5000          0.562       2932.285       126.0098        51.4667          0.381       -45.7563     -0.1422691              1
      8319.0000         0.5866       2850.988       122.5568        52.3464         0.4058       -45.7755     -0.1614685              1
      8319.5000         0.6476       2769.785       119.7894        53.2527         0.4306       -45.8167     -0.2026672              1
      8320.0000         0.6838       2663.695       117.3248        54.1603         0.4555       -45.8577     -0.2436676              1
      8320.5000         0.7045       2516.516       115.7585        48.7634         0.4741       -45.8988     -0.2847672              1
      8321.0000         0.7137        2333.52       117.0321        42.0129         0.4674       -46.2283     -0.6142654              1
      8321.5000          0.723       2243.289       119.3741        40.2148         0.4607       -47.0223      -1.408268      0.9924395
      8322.0000          0.732       2198.832       122.0464        38.8879         0.4487       -47.8174      -2.203369      0.9777154
      8322.5000         0.7293       2179.996       124.5835        38.0323         0.4362       -48.6126      -2.998566      0.9629895
      8323.0000         0.7083        2177.75       126.8154        39.5792         0.4236       -49.1899      -3.575867      0.9522988
      8323.5000         0.6888        2261.59        128.842        41.0196          0.411       -48.9102      -3.296165      0.9574784
      8324.0000         0.6692        2329.52       130.1731        42.3984         0.3998       -48.6304      -3.016369      0.9626598
      8324.5000         0.6537       2400.375       130.3521        43.5235         0.3927       -48.3506      -2.736568      0.9678413
      8325.0000         0.6419       2503.047          129.3        44.6014         0.3855       -48.1747      -2.560669      0.9710987
      8325.5000         0.6311       2534.305       128.3079        45.3422         0.3784        -48.036      -2.421967      0.9736673
      8326.0000         0.6255       2544.578        127.491         46.083         0.3713       -47.8973      -2.283268      0.9762358
      8326.5000         0.6247       2554.848       127.9727        46.8238         0.3641       -47.7585      -2.144466      0.9788062
      8327.0000          0.624       2565.121       129.6802        46.9066         0.3576       -47.6199      -2.005867      0.9813728
      8327.5000         0.6223       2573.613       131.8621        46.3749         0.3525       -47.4863      -1.872269      0.9838469
      8328.0000         0.6185       2581.613       133.6187        45.8431         0.3475       -47.3856      -1.771568      0.9857117
      8328.5000         0.6147       2589.605       134.3752        45.3114         0.3425        -47.285      -1.670967      0.9875747
      8329.0000         0.6109       2614.699       134.4917        44.7797         0.3375       -47.1842      -1.570168      0.9894413
      8329.5000         0.6027       2642.078       134.7405         44.248         0.3324       -47.0836      -1.469566      0.9913043
      8330.0000         0.5945       2696.684       135.3989        43.8843         0.3238       -46.8951      -1.281067      0.9947951
      8330.5000         0.5863       2762.367       136.2708        44.1978         0.3146       -46.6939      -1.079868       0.998521
      8331.0000         0.5792       2852.547       137.0676        44.4341         0.3055       -46.4927     -0.8786659              1
      8331.5000         0.5745       2930.141       137.7471        44.5823         0.2963       -46.2932     -0.6791687              1
      8332.0000         0.5699       2986.258        138.197        44.7306         0.2901       -46.2028      -0.588768              1
      8332.5000         0.5652       3045.695       138.4573        44.8788         0.2855       -46.1125     -0.4984665              1
      8333.0000         0.5605       3097.422       138.7175        44.9583          0.281       -46.0222     -0.4081688              1
      8333.5000         0.5558       3125.359       138.8928        45.0205         0.2764       -45.9318     -0.3177681              1
      8334.0000         0.5519       3138.172       139.0581        45.0953          0.273       -45.8416     -0.2275658              1
      8334.5000         0.5487       3151.004       139.2236        45.2027         0.2716       -45.7919     -0.1778679              1
      8335.0000         0.5455       3163.816       139.3435        45.3101         0.2701       -45.8036     -0.1895676              1
      8335.5000         0.5422       3176.625       139.3621        45.4173         0.2686       -45.8152     -0.2011681              1
      8336.0000          0.539       3185.301       139.3806        45.5247         0.2671       -45.8766     -0.2625656              1
      8336.5000         0.5372       3191.594       139.3752         45.632         0.2674       -46.0598     -0.4457664              1
      8337.0000         0.5361       3197.879       139.3625        45.7833         0.2746       -46.2429     -0.6288681              1
      8337.5000          0.535       3194.996       139.3364        45.9846         0.2817       -46.4193     -0.8052673              1
      8338.0000         0.5339       3191.492        139.062        46.1857         0.2888         -46.59     -0.9759674              1
      8338.5000         0.5328       3181.773       138.7871         46.387         0.2993        -46.761      -1.146969      0.9972783
      8339.0000         0.5317        3168.84       137.7947        46.9869         0.3156       -46.7873      -1.173267      0.9967914
      8339.5000         0.5324       3136.465       136.2134        47.8389         0.3319       -46.7279      -1.113869      0.9978913
      8340.0000         0.5372       3090.836       134.5518        49.0945         0.3531       -46.6685      -1.054466      0.9989914
      8340.5000          0.542       3014.953       132.6353        51.0957         0.3791        -46.645      -1.030968      0.9994265
