#------------------------------------------------------------------------------
# Created by    : vladimir.rabinovich
# Created on    : 09/19/2023 17:22:25
#------------------------------------------------------------------------------
~Version Information Section
VERS.           2.0     :   CWLS log ASCII Standard - VERSION 2.0
WRAP.           NO      :   One line per depth step
~Well Information Section
#MNEM       .UNIT                                         VALUE :DESCRIPTION
#------------------------------------------------------------------------------
STRT        .FT                                            3984 :START DEPTH
STOP        .FT                                           14348 :STOP DEPTH
STEP        .FT                                             0.5 :STEP      
NULL        .                                           -999.25 :NULL      
COMP        .                                  CNG PRODUCING CO :COMPANY   
WELL        .                               OCS G07292 ST00BP00 :WELL      
FLD         .                                           WILDCAT :FIELD     
LOC         .                                                   :LOCATION  
CNTY        .                           HIGH ISLAND LARGE BLOCK :LOCATION  
STAT        .                                             TEXAS :STATE     
CTRY        .                                     UNITED STATES :COUNTRY   
SRVC        .                                                   :SERVICE COMPANY
DATE        .                             9/13/2023 11:19:59 AM :LOG DATE  
API         .                                    42708402890000 :API NUMBER
UWI         .                                    42708402890000 :UNIQUE WELL ID
XCOORD      .                                  1158246.84135722 :SURFACE X 
YCOORD      .                                  10525039.0147689 :SURFACE Y 
LAT         .                                         28.993597 :LATITUDE  
LON         .                                        -94.508673 :LONGITUDE 
ELEV        .FT                                             101 :ELEVATION VALUE
ELEV_TYPE   .                                                KB :ELEVATION REFERENCE TYPE
~Curve Information Section
#MNEM       .UNIT                                      API CODE :CURVE DESCRIPTION
#------------------------------------------------------------------------------
DEPT        .FT                                                 :DEPTH     
CALX        .IN                                                 :          
DTL         .US/F                                               :          
GR          .GAPI                                               :          
GR_NORM     .GAPI                                               :GammaRay Normalized
ILD         .OHMM                                               :          
ILM         .OHMM                                               :          
LL3         .OHMM                                               :          
SP          .MV                                                 :          
SP_NORM     .MV                                                 :SP Normalized
VSH_GR      .V/V                                                :Volume of Shale from GR
VSH_SP      .V/V                                                :Volume of Shale from SP
~A        DEPTH           CALX            DTL             GR        GR_NORM            ILD            ILM            LL3             SP        SP_NORM         VSH_GR         VSH_SP
      3984.0000        -999.25        -999.25        31.8698       79.58464        -999.25        -999.25        -999.25        -999.25        -999.25      0.9911625        -999.25
      3984.5000        -999.25        -999.25        31.8426       81.13752        -999.25        -999.25        -999.25        -999.25        -999.25              1        -999.25
      3985.0000        -999.25        -999.25        31.9535       78.49778        -999.25        -999.25        -999.25        -999.25        -999.25      0.9680378        -999.25
      3985.5000        -999.25        -999.25        31.9076       82.89124        -999.25        -999.25        -999.25        -999.25        -999.25              1        -999.25
      3986.0000        -999.25        -999.25        31.5877       77.71974        -999.25        -999.25        -999.25        -999.25        -999.25      0.9514838        -999.25
      3986.5000        -999.25        -999.25         31.379       80.30926        -999.25        -999.25        -999.25        -999.25        -999.25              1        -999.25
      3987.0000        -999.25        -999.25        31.2355       76.80254        -999.25        -999.25        -999.25        -999.25        -999.25      0.9319689        -999.25
      3987.5000        -999.25        -999.25        31.2356       79.40382        -999.25        -999.25        -999.25        -999.25        -999.25      0.9873154        -999.25
      3988.0000        -999.25        -999.25        31.3459       76.96186        -999.25        -999.25        -999.25        -999.25        -999.25      0.9353588        -999.25
      3988.5000        -999.25        -999.25        31.0351       82.11869        -999.25        -999.25        -999.25        -999.25        -999.25              1        -999.25
      3989.0000        -999.25        -999.25        30.3518       78.15792        -999.25        -999.25        -999.25        -999.25        -999.25      0.9608068        -999.25
      3989.5000        -999.25        -999.25        30.0025       79.66473        -999.25        -999.25        -999.25        -999.25        -999.25      0.9928667        -999.25
      3990.0000        -999.25        -999.25        30.0785       80.77315        -999.25        -999.25        -999.25        -999.25        -999.25              1        -999.25
      3990.5000        -999.25        -999.25         30.305       76.93726        -999.25        -999.25        -999.25        -999.25        -999.25      0.9348353        -999.25
      3991.0000        -999.25        -999.25        29.4872       82.39046        -999.25        -999.25        -999.25        -999.25        -999.25              1        -999.25
      3991.5000        -999.25        -999.25        28.6078        81.6728        -999.25        -999.25        -999.25        -999.25        -999.25              1        -999.25
      3992.0000        -999.25        -999.25        28.4013       83.00118        -999.25        -999.25        -999.25        -999.25        -999.25              1        -999.25
      3992.5000        -999.25        -999.25        31.2729       78.37162        -999.25        -999.25        -999.25        -999.25        -999.25      0.9653536        -999.25
      3993.0000        -999.25        -999.25        34.2594       79.84402        -999.25        -999.25        -999.25        -999.25        -999.25      0.9966814        -999.25
      3993.5000        -999.25        -999.25        35.5674       78.91183        -999.25        -999.25        -999.25        -999.25        -999.25      0.9768475        -999.25
      3994.0000        16.0217       188.7935        35.5825       81.42857         14.234        19.4644         0.3678       -78.7882      -4.062927              1      0.9419582
      3994.5000        16.0023       171.6758         35.241       79.82715         4.5101         4.4072         0.5208       -74.6833     0.04197693      0.9963223              1
      3995.0000        15.7451       174.2578        35.9692       76.72503         2.1254         1.3431         0.6511       -74.5286     0.02553558      0.9303198              1
      3995.5000        15.9996       174.1265        37.0757       80.08297         1.3209          0.946         0.6851       -71.7604       1.453957              1              1
      3996.0000        16.3227       150.5146        37.3764       78.08189         1.0885         0.8295         0.7714       -66.0665       5.808083      0.9591891              1
      3996.5000        16.0861       145.5703        37.6521       79.60479         1.0722           0.81         0.7612       -65.0786         5.4562      0.9915913              1
      3997.0000         15.944       180.5198        37.5964       80.56708         1.1146         0.8312         0.8069       -70.9448      -1.749786              1      0.9750031
      3997.5000        15.9395       202.0544        37.1368       83.26738         1.1753         0.9041         0.7746       -68.7926     -0.9373627              1      0.9866091
      3998.0000         16.586       198.6016         37.028       78.79128         1.1783         0.9698         0.7794       -64.6973       1.818153      0.9742824              1
      3998.5000        17.1002       173.8767         38.343       81.60161         1.1439          1.032          0.821       -62.8931       2.282574              1              1
      3999.0000         17.096       155.1152        39.5858       78.89077          1.087         1.0837         0.8244        -64.701     -0.8651009      0.9763994      0.9876414
      3999.5000        17.0374       158.2986        40.7922       77.49854         1.0461         1.0957         0.8098       -61.2639       1.232216      0.9467775              1
      4000.0000        16.9546       166.4006        42.2095       82.78153         1.0253         1.0633         0.7969       -60.5355      0.6208382              1              1
      4000.5000        16.8339       178.1448        43.5632       79.98414         1.0503         1.0362         0.8313       -60.3525     -0.5359459      0.9996625      0.9923436
      4001.0000        16.7074       178.0325        44.4663       82.19763         1.1122         1.0713          0.875       -60.0578      -1.581024              1       0.977414
      4001.5000        16.5547       175.4617        45.3593       77.18292         1.1697         1.1261         0.9058       -59.6595      -2.522503      0.9400622      0.9639642
      4002.0000        16.4211        169.167        45.7286       81.30351         1.1999         1.1584         0.9247       -59.4528      -3.655586              1      0.9477773
      4002.5000        16.3488        163.874        46.4122       76.69276         1.2296         1.1821         0.8754        -58.208      -3.750565      0.9296331      0.9464205
      4003.0000        16.3926       159.7625        47.5312       76.88978          1.244         1.2067         0.8914       -55.8633      -2.745647      0.9338251      0.9607764
      4003.5000        16.4037       157.9929        46.1716       78.22726         1.2505          1.218         0.9246       -57.0955      -4.406414      0.9622822      0.9370512
      4004.0000        16.4122       158.8513        44.3038       77.06648         1.2526         1.2166         0.9641        -57.614      -5.005299      0.9375848      0.9284957
      4004.5000        16.5703       159.3367         43.897       77.26912         1.2512         1.2096         0.9484       -55.8142      -3.285889      0.9418961      0.9530587
      4005.0000        16.7492       158.0688        45.1867       77.03177         1.2441          1.196         0.8995       -55.6034      -3.155476      0.9368461      0.9549218
      4005.5000        16.7162       155.8201        46.0054       79.39103         1.2318         1.1801         0.9234       -54.3681      -2.000561      0.9870432      0.9714206
      4006.0000        15.6781       153.7844        45.2572       82.99733          1.215           1.17         0.9391       -52.9767     -0.6895447              1      0.9901494
