#------------------------------------------------------------------------------
# Created by    : vladimir.rabinovich
# Created on    : 09/19/2023 17:22:47
#------------------------------------------------------------------------------
~Version Information Section
VERS.           2.0     :   CWLS log ASCII Standard - VERSION 2.0
WRAP.           NO      :   One line per depth step
~Well Information Section
#MNEM       .UNIT                                         VALUE :DESCRIPTION
#------------------------------------------------------------------------------
STRT        .FT                                            4658 :START DEPTH
STOP        .FT                                           10852 :STOP DEPTH
STEP        .FT                                             0.5 :STEP      
NULL        .                                           -999.25 :NULL      
COMP        .                             WALTER OIL & GAS CORP :COMPANY   
WELL        .                               OCS G04721 ST00BP00 :WELL      
FLD         .                              GALVESTON BLOCK 0350 :FIELD     
LOC         .                                                   :LOCATION  
CNTY        .                             GALVESTON LARGE BLOCK :LOCATION  
STAT        .                                             TEXAS :STATE     
CTRY        .                                     UNITED STATES :COUNTRY   
SRVC        .                                                   :SERVICE COMPANY
DATE        .                             9/13/2023 11:19:36 AM :LOG DATE  
API         .                                    42706401870000 :API NUMBER
UWI         .                                    42706401870000 :UNIQUE WELL ID
XCOORD      .                                  1032064.33467067 :SURFACE X 
YCOORD      .                                   10428906.138822 :SURFACE Y 
LAT         .                                        28.7242451 :LATITUDE  
LON         .                                       -94.8985179 :LONGITUDE 
ELEV        .FT                                              92 :ELEVATION VALUE
ELEV_TYPE   .                                                KB :ELEVATION REFERENCE TYPE
~Curve Information Section
#MNEM       .UNIT                                      API CODE :CURVE DESCRIPTION
#------------------------------------------------------------------------------
DEPT        .FT                                                 :DEPTH     
DT          .US/F                                               :          
GR          .GAPI                                               :          
GR_1        .GAPI                                               :          
GR_NORM     .GAPI                                               :GammaRay Normalized
ILD         .OHMM                                               :          
ILM         .OHMM                                               :          
NPHI        .%                                                  :          
RFOC        .OHMM                                               :          
RHOB        .G/C3                                               :          
SP          .MV                                                 :          
SP_NORM     .MV                                                 :SP Normalized
VSH_GR      .V/V                                                :Volume of Shale from GR
VSH_SP      .V/V                                                :Volume of Shale from SP
~A        DEPTH             DT             GR           GR_1        GR_NORM            ILD            ILM           NPHI           RFOC           RHOB             SP        SP_NORM         VSH_GR         VSH_SP
# ...
      4715.0000        -999.25        60.7335        -999.25       81.35306         0.6988         1.0818        49.4973         0.5725         2.0991       -71.7222      0.3628103              1              1
      4715.5000        -999.25        59.3416        -999.25       78.17088         0.6176         0.5749        48.9844         0.5907         2.0927       -69.3938      -1.153536      0.9610825      0.9822533
      4716.0000        -999.25        58.9404        -999.25       76.15974         0.6923         0.6557        48.1902         0.6185         2.0956       -67.6963     -0.7448739      0.9182924      0.9885404
      4716.5000        -999.25        60.3233        -999.25       76.25747         0.8083         0.7073        47.4261         0.6708         2.1041       -66.4689        2.51297      0.9203717              1
      4717.0000        -999.25        62.3381        -999.25       77.10213         0.8973         0.7382        47.0546         0.7002         2.1117       -65.5978      0.3470498      0.9383431              1
      4717.5000        -999.25        64.8088        -999.25       78.48567         0.9334         0.7614        47.0363         0.7073         2.1202       -64.7893     -0.7373958      0.9677802      0.9886554
      4718.0000        -999.25        65.5961        -999.25       77.87938         0.9307         0.7635        47.2279         0.7111         2.1264       -63.9188      0.8612081      0.9548804              1
      4718.5000        -999.25        65.6381        -999.25       76.39213         0.8692         0.7628        47.2893         0.7166         2.1307        -63.329      0.7772219      0.9232368              1
      4719.0000        -999.25        66.7642        -999.25        76.1863         0.7868         0.7618        47.2833         0.7223         2.1364       -63.0626        2.27937      0.9188575              1
      4719.5000        -999.25        70.7963        -999.25       79.41548         0.7377         0.7604        47.2914         0.7281         2.1451       -62.8665      0.3985785      0.9875634              1
      4720.0000        -999.25        72.2981        -999.25       79.65376          0.747         0.7595        46.6568         0.7487         2.1632       -62.9362       2.488833      0.9926331              1
      4720.5000        -999.25        72.9564        -999.25       78.89498         0.7578         0.7808        44.8168         0.7699         2.1714       -63.0585      0.8095438      0.9764889              1
      4721.0000        -999.25        73.3916        -999.25       78.09823         0.7699         0.8027        43.7762         0.7752         2.1847       -63.2218       3.079926      0.9595368              1
      4721.5000        -999.25        73.7552        -999.25       78.52398         0.7831         0.8114        43.1524          0.778         2.1829       -63.7166       1.882576      0.9685953              1
      4722.0000        -999.25        72.8446        -999.25       77.44359         0.7945         0.8165        42.7668         0.7841         2.1741       -64.2112       1.965497      0.9456083              1
      4722.5000        -999.25        70.4344        -999.25       74.59062         0.8043         0.8185        42.1089         0.7948         2.1604       -64.5377      -0.854603      0.8849068      0.9868523
      4723.0000        -999.25        70.8861        -999.25       75.12051         0.8096          0.812        41.5281         0.8056         2.1555       -64.8317       3.613341      0.8961812              1
      4723.5000        -999.25        72.9276        -999.25       77.52961         0.8094         0.8055        41.8141         0.8103         2.1539        -65.275     -0.1233377      0.9474385      0.9981025
      4724.0000        -999.25        74.0541        -999.25       78.85714         0.8052            0.8        42.9075         0.8047         2.1497       -65.7611     -0.6151614      0.9756838       0.990536
      4724.5000        -999.25         73.947        -999.25       78.72652         0.7984         0.7949         44.132         0.7992         2.1454       -66.2471      0.6911454      0.9729046              1
      4725.0000        -999.25         73.869        -999.25       78.63029         0.7877         0.7898        44.5172         0.7948         2.1485       -66.4336       2.843828      0.9708572              1
      4725.5000        -999.25        73.7917        -999.25       78.53489         0.7776         0.7916        45.1056         0.7925         2.1492       -66.5463        1.57607      0.9688274              1
      4726.0000        -999.25        73.7157        -999.25       78.44102          0.771         0.7934        45.4421         0.7902         2.1465       -66.4978      0.5441768      0.9668301              1
      4726.5000        -999.25        73.0555        -999.25       77.65661         0.7646         0.7888        43.0021         0.7879         2.1535       -66.4791       2.652446      0.9501406              1
      4727.0000        -999.25         73.588        -999.25       78.28201         0.7587         0.7828        40.6514         0.7876         2.1577       -66.8802      -1.167856      0.9634469       0.982033
      4727.5000        -999.25        74.4454        -999.25       79.29145          0.753         0.7789         39.991         0.7874         2.1622       -67.3589       3.578008      0.9849245              1
      4728.0000        -999.25        75.3884        -999.25       80.40208         0.7487         0.7764        40.4623         0.7872          2.167       -67.8691      0.9060695              1              1
      4728.5000        -999.25        77.7886        -999.25       83.23516         0.7445         0.7744        44.4422         0.7887         2.1635       -68.3666       2.886482              1              1
      4729.0000        -999.25        77.1046        -999.25       82.42262         0.7451         0.7774         44.175         0.7907         2.1555       -68.8632       1.356344              1              1
      4729.5000        -999.25        75.9801        -999.25       81.08939         0.7472         0.7804        43.9387         0.7932         2.1438       -69.3597       2.183165              1              1
      4730.0000        -999.25        77.0055        -999.25       82.29742         0.7513         0.7845        43.7613         0.7978         2.1304       -69.7103        3.51935              1              1
      4730.5000        -999.25        77.1282        -999.25       82.43842         0.7604         0.7898        43.9675         0.8024         2.1227       -69.9803      0.9535538              1              1
      4731.0000        -999.25        76.3693        -999.25       81.53735         0.7696         0.7961        44.3892         0.8074         2.1343       -70.3795       2.641567              1              1
      4731.5000        -999.25        76.0905        -999.25       81.20377         0.7857         0.8134        44.4534         0.8158         2.1537       -70.9805      0.4330203              1              1
      4732.0000        -999.25        75.5985        -999.25       80.61819         0.8027          0.831        44.2723         0.8243         2.1682       -71.7079      0.5211231              1              1
      4732.5000        -999.25        76.2125        -999.25       81.33993         0.8207         0.8436        43.4643         0.8341          2.178       -72.1519       2.759234              1              1
      4733.0000        -999.25        73.5769        -999.25       78.22052         0.8392         0.8562        41.7903         0.8464         2.1805       -72.5248      0.5416943      0.9621387              1
      4733.5000        -999.25         70.756        -999.25       74.88209         0.8573         0.8662         40.869         0.8588         2.1858       -72.4607       2.353152      0.8911083              1
