#------------------------------------------------------------------------------
# Created by    : vladimir.rabinovich
# Created on    : 09/19/2023 17:20:02
#------------------------------------------------------------------------------
~Version Information Section
VERS.           2.0     :   CWLS log ASCII Standard - VERSION 2.0
WRAP.           NO      :   One line per depth step
~Well Information Section
#MNEM       .UNIT                                         VALUE :DESCRIPTION
#------------------------------------------------------------------------------
STRT        .FT                                             994 :START DEPTH
STOP        .FT                                           14137 :STOP DEPTH
STEP        .FT                                             0.5 :STEP      
NULL        .                                           -999.25 :NULL      
COMP        .                                   MARATHON OIL CO :COMPANY   
WELL        .                                     ST TR 00841-L :WELL      
FLD         .                                           WILDCAT :FIELD     
LOC         .                                                   :LOCATION  
CNTY        .                        MUSTANG ISLAND LARGE BLOCK :LOCATION  
STAT        .                                             TEXAS :STATE     
CTRY        .                                     UNITED STATES :COUNTRY   
SRVC        .                                                   :SERVICE COMPANY
DATE        .                             9/13/2023 11:18:55 AM :LOG DATE  
API         .                                    42702301400000 :API NUMBER
UWI         .                                    42702301400000 :UNIQUE WELL ID
XCOORD      .                                  272565.632686387 :SURFACE X 
YCOORD      .                                  9953986.84876921 :SURFACE Y 
LAT         .                                         27.367086 :LATITUDE  
LON         .                                       -97.2136853 :LONGITUDE 
ELEV        .FT                                              88 :ELEVATION VALUE
ELEV_TYPE   .                                                KB :ELEVATION REFERENCE TYPE
~Curve Information Section
#MNEM       .UNIT                                      API CODE :CURVE DESCRIPTION
#------------------------------------------------------------------------------
DEPT        .FT                                                 :DEPTH     
ASFL        .OHMM                                               :          
CILD        .MMHO                                               :          
GR          .GAPI                                               :          
GR_NORM     .GAPI                                               :GammaRay Normalized
ILD         .OHMM                                               :          
SP          .MV                                                 :          
SP_NORM     .MV                                                 :SP Normalized
VSH_GR      .V/V                                                :Volume of Shale from GR
VSH_SP      .V/V                                                :Volume of Shale from SP
~A        DEPTH           ASFL           CILD             GR        GR_NORM            ILD             SP        SP_NORM         VSH_GR         VSH_SP
# ...
      3617.5000         0.8591        2755.93         30.214       31.67062         0.4504       -115.741      -61.71819              0              0
      3618.0000         0.8311       2719.063        30.8183       32.72103         0.4617      -116.2634      -62.24281              0              0
      3618.5000         0.8056       2614.625        31.4223        33.7709         0.4799      -115.7549      -61.73652     0.01640222              0
      3619.0000         0.8111       2452.207        32.0262       34.82061         0.4981      -115.2903      -61.27413     0.03873638              0
      3619.5000         0.8368       2289.789        31.8205       34.45739         0.5164      -114.9888      -60.97485     0.03100829              0
      3620.0000         0.8797       2127.469        31.3887       33.69958         0.5346      -114.5038      -60.49206     0.01488462              0
      3620.5000         0.9358       1965.051        30.9572       32.94229         0.5688      -113.7036      -59.69407              0    0.005185273
      3621.0000         0.9913       1802.631        30.4702       32.08815         0.6039      -112.5193      -58.51199              0     0.02522058
      3621.5000         1.2064       1671.025        29.9495       31.17519         0.6479      -111.1827       -57.1776              0     0.04783734
      3622.0000         1.2609       1579.355        30.2633       31.71861         0.6936      -109.9965      -55.99361              0     0.06790497
      3622.5000         1.2378       1521.422        30.5771       32.26203         0.7128      -108.5417      -54.54102              0     0.09252503
      3623.0000         1.2078       1490.486        30.8907        32.8051          0.732      -108.6499      -54.65144              0     0.09065363
      3623.5000         1.1788       1473.543        31.2045       33.34851         0.7513      -109.4109      -55.41464    0.007415203     0.07771793
      3624.0000         1.1501       1464.551        31.6868       34.18602         0.7521      -109.8473      -55.85326     0.02523438     0.07028379
      3624.5000         1.1152       1466.539        32.2883       35.23154         0.7399      -107.7311      -53.73927     0.04747959       0.106114
      3625.0000         1.0928       1558.457        32.8895       36.27654         0.7277      -105.9655      -51.97588     0.06971351       0.136002
      3625.5000         1.2194       1606.896        32.3545       35.33862         0.7155      -103.9003       -49.9129     0.04975786      0.1709679
      3626.0000          1.257       1642.617        31.3051       33.50296         0.7034      -101.8549      -47.86971     0.01070136      0.2055982
      3626.5000         1.2696       1682.354        30.2513       31.65962         0.6912      -100.0707      -46.08772              0      0.2358013
      3627.0000         1.2534       1731.834        29.1721       29.77196          0.686      -101.5465      -47.56573              0      0.2107503
      3627.5000         1.2372       1697.848        28.3558       28.34311         0.6882      -103.0908      -49.11224              0      0.1845382
      3628.0000         1.2198       1663.861        29.0944        29.6279         0.6905       -104.594      -50.61766              0      0.1590227
      3628.5000         1.1971         1629.9        29.8323       30.91147         0.6927      -106.0201      -52.04597              0       0.134814
      3629.0000         1.1744       1582.602        30.5709       32.19626         0.6949      -106.9851      -53.01318              0      0.1184206
      3629.5000         1.1822       1513.738        31.3094       33.48086         0.6971      -104.9186       -50.9489      0.0102311      0.1534085
      3630.0000         1.3144       1445.172        29.6321       30.54939         0.7294      -101.8934      -47.92591              0      0.2046456
      3630.5000         1.4229       1349.684        30.2255       31.58077         0.7905       -96.1304      -42.16512              0      0.3022861
      3631.0000         1.5113       1254.244        30.8009       32.58075         0.8504       -94.6371      -40.67403              0      0.3275588
      3631.5000         1.5997       1158.758        31.3769       33.58176         0.9101       -92.8131      -38.85225      0.0123778      0.3584364
      3632.0000         1.9386        1063.27        32.0253       34.70913         0.9699       -92.1345      -38.17586     0.03636445      0.3699006
      3632.5000        -999.25       976.7061        32.6737        35.8365         1.0263       -92.2433      -38.28688     0.06035111       0.368019
      3633.0000        -999.25       911.6338        33.3756       37.05725         1.0731       -92.6949      -38.74069     0.08632449      0.3603273
      3633.5000        -999.25       913.2822        33.3461       37.00154           1.12       -93.2023       -39.2503     0.08513917      0.3516898
      3634.0000        -999.25       941.0713        32.5093       35.53692         1.1714       -94.1255      -40.17572     0.05397699      0.3360048
      3634.5000        -999.25       1109.725        31.6868       34.09724         1.1798       -95.5243      -41.57673     0.02334554      0.3122589
      3635.0000        -999.25       1292.023        30.8643       32.65758         1.1288      -103.0883      -49.14294              0       0.184018
      3635.5000         1.9684       1386.617        30.0418       31.21791         1.0787      -105.2679      -51.32475              0      0.1470381
      3636.0000         1.7473        1479.08          29.21       29.76201         1.0285      -106.5331      -52.59216              0      0.1255566
      3636.5000         1.7148       1570.158        28.3017       28.17261         0.9784      -107.5906      -53.65187              0      0.1075953
      3637.0000         1.6593       1665.102         27.533       26.82683         0.9325      -108.8328      -54.89629              0     0.08650357
      3637.5000         1.5983       1741.203         28.169       27.93256         0.8937      -110.1979       -56.2636              0     0.06332882
      3638.0000         1.5373       1805.109        28.8053       29.03882         0.8549      -111.9784      -58.04631              0     0.03311332
      3638.5000         1.4763       1861.158        29.4413       30.14454         0.8161      -113.2734      -59.34352              0      0.0111267
      3639.0000         1.4153       1846.855        29.8817       30.90892         0.7773      -114.3558      -60.42813              0              0
      3639.5000         1.3789        1602.73        30.3172       31.66473         0.7372      -115.3517      -61.42625              0              0
      3640.0000         1.4053       1388.057        30.4551       31.90116         0.6909      -114.6082      -60.68496              0              0
      3640.5000         1.8823       1306.699        30.3266       31.67268         0.6446      -113.3182      -59.39717              0     0.01021738
      3641.0000          1.984       1250.031        30.1981       31.44419         0.6504      -112.5811      -58.66229              0     0.02267307
      3641.5000          1.966       1194.453        29.6178       30.42721         0.7692      -112.8191       -58.9025              0     0.01860169
      3642.0000         2.0184         1124.1        29.0338       29.40377         0.8909      -113.0573      -59.14291              0     0.01452695
      3642.5000         2.1506       914.6582        28.4497       28.38017         1.0169      -112.9619      -59.04972              0     0.01610636
      3643.0000         1.9282        926.333        28.8015       28.98991         1.1408      -112.1301      -58.22013              0     0.03016721
      3643.5000         1.8565       968.6738        29.1743        29.6363         1.1481       -111.072      -57.16425              0     0.04806357
