#------------------------------------------------------------------------------
# Created by    : vladimir.rabinovich
# Created on    : 09/19/2023 17:20:33
#------------------------------------------------------------------------------
~Version Information Section
VERS.           2.0     :   CWLS log ASCII Standard - VERSION 2.0
WRAP.           NO      :   One line per depth step
~Well Information Section
#MNEM       .UNIT                                         VALUE :DESCRIPTION
#------------------------------------------------------------------------------
STRT        .FT                                             526 :START DEPTH
STOP        .FT                                            9568 :STOP DEPTH
STEP        .FT                                             0.5 :STEP      
NULL        .                                           -999.25 :NULL      
COMP        .                       BLUE DOLPHIN EXPLORATION CO :COMPANY   
WELL        .                                OCS 00713 ST00BP00 :WELL      
FLD         .                              GALVESTON BLOCK 0288 :FIELD     
LOC         .                                                   :LOCATION  
CNTY        .                             GALVESTON LARGE BLOCK :LOCATION  
STAT        .                                             TEXAS :STATE     
CTRY        .                                     UNITED STATES :COUNTRY   
SRVC        .                                                   :SERVICE COMPANY
DATE        .                             9/13/2023 11:19:25 AM :LOG DATE  
API         .                                    42706000630000 :API NUMBER
UWI         .                                    42706000630000 :UNIQUE WELL ID
XCOORD      .                                  1101981.32688909 :SURFACE X 
YCOORD      .                                  10481575.8265757 :SURFACE Y 
LAT         .                                          28.87198 :LATITUDE  
LON         .                                        -94.682732 :LONGITUDE 
ELEV        .FT                                              58 :ELEVATION VALUE
ELEV_TYPE   .                                                KB :ELEVATION REFERENCE TYPE
~Curve Information Section
#MNEM       .UNIT                                      API CODE :CURVE DESCRIPTION
#------------------------------------------------------------------------------
DEPT        .FT                                                 :DEPTH     
ASN         .OHMM                                               :          
CALI        .IN                                                 :          
DT          .US/F                                               :          
ILD         .OHMM                                               :          
SP          .MV                                                 :          
SP_NORM     .MV                                                 :SP Normalized
VSH_SP      .V/V                                                :Volume of Shale from SP
~A        DEPTH            ASN           CALI             DT            ILD             SP        SP_NORM         VSH_SP
# ...
      4747.0000         0.7477        11.8665       139.8345         0.7739       -40.4451     -0.9102173              1
      4747.5000         0.7709        11.3449        142.303         0.7976        -40.772      -1.237118      0.9918236
      4748.0000         0.7923        11.7643       147.0105         0.8227       -41.0786       -1.54372       0.981251
      4748.5000         0.8163        12.2146       145.8674         0.8586       -41.1986      -1.663719      0.9771131
      4749.0000         0.8426        12.2814       137.7529         0.8976       -41.2592      -1.724319      0.9750234
      4749.5000           0.88        12.2424       133.4368         0.9413       -41.7589      -2.224018      0.9577925
      4750.0000         0.9436        12.1094       134.8691         0.9763       -42.4105      -2.875618      0.9353235
      4750.5000           0.97        12.0311       132.6787         1.0055       -42.8828      -3.347919      0.9190373
      4751.0000         0.9776        11.9444       123.7177         1.0265       -42.6973      -3.162418      0.9254339
      4751.5000         0.9822        11.7776       124.9814         1.0312       -42.3515       -2.81662       0.937358
      4752.0000         0.9771        11.7301       128.4736         1.0296       -42.2338      -2.698917      0.9414166
      4752.5000         0.9684        12.0736       129.0764          1.007       -42.1554      -2.620518        0.94412
      4753.0000         0.9643        12.2455       127.0052         0.9896       -42.0489      -2.514019      0.9477925
      4753.5000         0.9601        12.3184       124.4304         0.9793       -41.6312      -2.096317      0.9621959
      4754.0000         0.9516        12.3383        121.804         0.9691       -41.1633      -1.628418      0.9783304
      4754.5000         0.9376        12.2946       122.2042          0.946       -40.7137      -1.178818      0.9938339
      4755.0000         0.9219        12.1853       125.8112         0.9277       -40.3511     -0.8162193              1
      4755.5000         0.9125        11.9001       128.8469         0.8959       -40.1727     -0.6378174              1
      4756.0000         0.9057        11.4893       126.4813         0.8719       -40.1556     -0.6207199              1
      4756.5000         0.8969        11.5137       126.9412         0.8484       -40.1506     -0.6157188              1
      4757.0000         0.8745        11.8157       127.2909         0.8378       -40.3146     -0.7797203              1
      4757.5000         0.8412        11.7908        126.411         0.8232       -40.6152      -1.080318      0.9972304
      4758.0000         0.8158          11.73       127.8148         0.8027       -40.4781     -0.9432182              1
      4758.5000         0.8024        11.7397       129.3867         0.7893       -40.3658     -0.8309174              1
      4759.0000         0.7942        11.7962       131.5386         0.7821       -40.2813      -0.746418              1
      4759.5000         0.7857         11.712       136.5601         0.7739        -40.194     -0.6591187              1
      4760.0000         0.7727        11.4023       137.3621         0.7631       -40.1152     -0.5803185              1
      4760.5000         0.7762        11.4076       134.8213         0.7694       -40.1101     -0.5752182              1
      4761.0000         0.7785        11.6078       133.5049          0.775       -40.0784     -0.5435181              1
      4761.5000         0.7755        11.7504       137.5081         0.7665       -40.0948     -0.5599174              1
      4762.0000          0.767        11.9858       140.0107         0.7602       -40.3318      -0.796917              1
      4762.5000         0.7516        12.3327       140.5242         0.7581       -40.4786      -0.943718              1
      4763.0000          0.741        11.9008       137.8489         0.7407       -40.4562     -0.9213181              1
      4763.5000         0.7379        12.0944       135.0164         0.7219       -40.4189     -0.8840179              1
      4764.0000         0.7338        11.8529       132.8882         0.6999       -40.1785     -0.6436195              1
      4764.5000         0.7268        11.8576       135.6377          0.683       -40.0838     -0.5489197              1
      4765.0000         0.7176        12.2707       138.8176         0.6748       -40.0104     -0.4755173              1
      4765.5000         0.7162        12.7438       138.9746         0.6755       -40.0087     -0.4738197              1
      4766.0000         0.7076        12.5007       138.3057          0.682       -40.0735       -0.53862              1
      4766.5000         0.6926        12.5618       140.8762          0.695       -40.1503     -0.6154175              1
      4767.0000         0.6867        12.1229       146.8462         0.7197       -40.0084     -0.4735184              1
      4767.5000         0.6988        11.5383       144.2134         0.7383       -40.0781     -0.5432167              1
      4768.0000         0.7238        11.5856       139.6765         0.7601       -40.2852     -0.7503166              1
      4768.5000         0.7672        11.7805        139.792         0.7807       -40.7751      -1.240219      0.9917166
      4769.0000         0.8055        12.2958       141.0259         0.8001       -41.3765      -1.841618      0.9709787
      4769.5000          0.851        12.2215       141.0684         0.8132       -41.1729       -1.63802      0.9779993
      4770.0000         0.8714        12.2982       139.7102         0.8315       -40.3806     -0.8457184              1
      4770.5000         0.8745        12.4976       133.8257         0.8749       -40.5518      -1.016918      0.9994166
      4771.0000         0.8605        12.1156       129.8022         0.8542       -40.8163      -1.281418      0.9902959
      4771.5000         0.8306        11.5341       125.9855         0.8366       -40.9311      -1.396217      0.9863373
      4772.0000          0.786        11.0592       134.7136         0.8161       -40.8857      -1.350819      0.9879028
      4772.5000         0.7693        11.0948       141.7688         0.7901       -40.5983      -1.063419      0.9978131
      4773.0000         0.7668        11.4145       144.2402         0.7672       -40.2689     -0.7340202              1
      4773.5000         0.7606        11.7297       141.6523          0.747       -40.2003     -0.6654167              1
      4774.0000         0.7462        12.1337       140.8203         0.7347       -40.2625     -0.7276192              1
      4774.5000           0.73        12.5425       141.4011         0.7284       -40.2368     -0.7019196              1
      4775.0000         0.7285        12.9941       138.6965          0.729       -40.1441     -0.6092186              1
      4775.5000         0.7422        13.2825       136.9675         0.7295       -40.2665      -0.731617              1
      4776.0000         0.7439         13.348       141.4729         0.7235       -40.1882     -0.6533203              1
      4776.5000         0.7332        13.2917       146.8821         0.7244       -40.5504      -1.015518      0.9994649
      4777.0000         0.7197        12.7998       146.8596         0.7277       -40.7905      -1.255619      0.9911855
      4777.5000         0.7184        12.4639       142.8096         0.7377       -40.8047      -1.269817       0.990696
      4778.0000         0.7295        12.8143       142.1995         0.7437       -40.7388      -1.203918      0.9929683
      4778.5000         0.7423        13.5098       145.3875         0.7529       -40.3442     -0.8093185              1
      4779.0000          0.753        13.3344       144.3052          0.766       -40.0549     -0.5200195              1
      4779.5000         0.7644        12.8172       142.4373         0.7779       -40.3292     -0.7943192              1
      4780.0000         0.7764        13.2715       141.4214         0.7945       -40.4658     -0.9309196              1
