#------------------------------------------------------------------------------
# Created by    : vladimir.rabinovich
# Created on    : 09/19/2023 17:22:17
#------------------------------------------------------------------------------
~Version Information Section
VERS.           2.0     :   CWLS log ASCII Standard - VERSION 2.0
WRAP.           NO      :   One line per depth step
~Well Information Section
#MNEM       .UNIT                                         VALUE :DESCRIPTION
#------------------------------------------------------------------------------
STRT        .FT                                            2222 :START DEPTH
STOP        .FT                                            8603 :STOP DEPTH
STEP        .FT                                             0.5 :STEP      
NULL        .                                           -999.25 :NULL      
COMP        .                                    HRUBETZ OIL CO :COMPANY   
WELL        .                                     ST TR 00028-L :WELL      
FLD         .                                           WILDCAT :FIELD     
LOC         .                                                   :LOCATION  
CNTY        .                           HIGH ISLAND LARGE BLOCK :LOCATION  
STAT        .                                             TEXAS :STATE     
CTRY        .                                     UNITED STATES :COUNTRY   
SRVC        .                                                   :SERVICE COMPANY
DATE        .                             9/13/2023 11:19:15 AM :LOG DATE  
API         .                                    42708303040000 :API NUMBER
UWI         .                                    42708303040000 :UNIQUE WELL ID
XCOORD      .                                  1211101.11829014 :SURFACE X 
YCOORD      .                                  10709910.5532953 :SURFACE Y 
LAT         .                                         29.503814 :LATITUDE  
LON         .                                       -94.3499952 :LONGITUDE 
ELEV        .FT                                              60 :ELEVATION VALUE
ELEV_TYPE   .                                                KB :ELEVATION REFERENCE TYPE
~Curve Information Section
#MNEM       .UNIT                                      API CODE :CURVE DESCRIPTION
#------------------------------------------------------------------------------
DEPT        .FT                                                 :DEPTH     
CALI        .IN                                                 :          
GR          .GAPI                                               :          
GR_NORM     .GAPI                                               :GammaRay Normalized
ILD         .OHMM                                               :          
ILM         .OHMM                                               :          
RHOB        .G/C3                                               :          
SFL         .OHMM                                               :          
SP          .MV                                                 :          
SP_NORM     .MV                                                 :SP Normalized
VSH_GR      .V/V                                                :Volume of Shale from GR
VSH_SP      .V/V                                                :Volume of Shale from SP
~A        DEPTH           CALI             GR        GR_NORM            ILD            ILM           RHOB            SFL             SP        SP_NORM         VSH_GR         VSH_SP
# ...
      3504.5000        17.0233        30.4359       31.28828         0.2989         0.4124            1.8         1.4332      -142.4297      -61.81104              0      0.1169851
      3505.0000         17.024        30.6057       31.51434         0.2828         0.3856         1.7881         1.4265      -144.3638      -63.75348              0     0.08923601
      3505.5000        17.0248        31.2172       32.32776         0.2763         0.3648         1.7812         1.4197      -145.5017      -64.89971              0     0.07286126
      3506.0000        17.0255        31.8286       33.14104         0.2728          0.356         1.7739         1.4094      -146.5527      -65.95906    0.003000787     0.05772771
      3506.5000        17.0263        32.3241       33.80021         0.2751         0.3488         1.7655         1.3985      -147.0684      -66.48311     0.01702564     0.05024131
      3507.0000         17.027        32.8005       34.43398         0.2774         0.3494         1.7709         1.3877      -147.4863      -66.90934     0.03051011     0.04415229
      3507.5000        17.0278        32.5775       34.13769         0.2797         0.3526         1.7822         1.3772      -147.6887      -67.12009     0.02420612     0.04114162
      3508.0000        17.0286        32.1049       33.50949          0.283         0.3557         1.7872         1.3721      -147.8909      -67.33062     0.01084015       0.038134
      3508.5000        17.0243        31.6322       32.88115         0.2876         0.3589         1.7851         1.3671       -148.106      -67.55407              0     0.03494186
      3509.0000        17.0199        31.1504       32.24071         0.2923           0.36         1.7856         1.3912      -148.3218       -67.7782              0     0.03174002
      3509.5000        17.0155        30.6682       31.59975         0.2971         0.3569         1.7879         1.4163      -148.7117      -68.17645              0     0.02605079
      3510.0000        17.0111        30.2924       31.10027         0.2981         0.3539         1.8028         1.4397      -149.1602      -68.63329              0     0.01952449
      3510.5000        17.0068         30.237       31.02686         0.2972         0.3515         1.8191         1.4619      -149.6089      -69.09033              0     0.01299526
      3511.0000        17.0024        30.7695       31.73522         0.2951         0.3503         1.7656         1.4676      -150.0615      -69.55126              0    0.006410544
      3511.5000         16.998        31.4254       32.60768         0.2905         0.3491         1.6936         1.4514      -150.5149        -70.013              0              0
      3512.0000         16.995        32.5361       34.08493          0.286          0.348         1.6683         1.4432      -150.9685      -70.47495     0.02308355              0
      3512.5000        16.9937         33.249        35.0332         0.2816         0.3478          1.677         1.4447       -151.198      -70.71278     0.04325956              0
      3513.0000        16.9925        32.0018       33.37494         0.2802         0.3478         1.6954         1.4463      -151.3447      -70.86783    0.007977506              0
      3513.5000        16.9912        30.3502       31.17892         0.2788         0.3477         1.6698         1.4491      -151.4915      -71.02297              0              0
      3514.0000          16.99        29.5262       30.08343         0.2774          0.348         1.6541         1.4539      -151.5854      -71.12521              0              0
      3514.5000        16.9887         29.877       30.55017         0.2763          0.349         1.7104         1.4587      -151.6174      -71.16555              0              0
      3515.0000        16.9875        30.2279       31.01706         0.2759         0.3499         1.7574          1.455      -151.6494      -71.20589              0              0
      3515.5000        16.9862        30.6951       31.63859         0.2755         0.3483         1.7699         1.4206      -151.6816      -71.24643              0              0
      3516.0000        16.9847        31.1989       32.30878          0.276         0.3459          1.746         1.3807      -151.5874      -71.16058              0              0
      3516.5000        16.9831        31.7029       32.97926         0.2771         0.3431          1.741         1.3217      -151.2661      -70.84761              0              0
      3517.0000        16.9815        32.2067       33.64946         0.2782         0.3404         1.7508         1.2888      -150.9448      -70.53465     0.01381821              0
      3517.5000        16.9799        32.5842       34.15172         0.2812         0.3399         1.7766         1.2934      -150.1721       -69.7703     0.02450464    0.003281403
      3518.0000        16.9784        32.8761       34.54013         0.2843         0.3398         1.8062         1.2975      -148.9014      -68.50793     0.03276874     0.02131522
      3518.5000        16.9768        33.1679       34.92842         0.3049          0.346         1.8066         1.3009      -147.0671      -66.68197     0.04103015     0.04740045
      3519.0000        16.9728         34.514        36.7187         0.3273         0.3717           1.74         1.3043      -144.2346      -63.85783      0.0791212     0.08774534
      3519.5000        16.9688        36.0772       38.79768         0.3572         0.4137         1.7478          1.288      -140.4507      -60.08226      0.1233549       0.141682
      3520.0000        16.9647        39.9196       43.90752         0.3987         0.4713         1.8568         1.2657      -134.8115      -54.45139      0.2320748       0.222123
      3520.5000        16.9607        44.0085       49.34513         0.4459          0.541         1.9664          1.247      -129.3516      -48.99983      0.3477688      0.3000024
      3521.0000        16.9809        48.3998       55.18488         0.5041         0.6073         2.0253         1.2373      -124.0784      -43.73499      0.4720188      0.3752145
      3521.5000        17.0039        50.6748        58.2104         0.5323         0.5686         2.0748         1.1959      -120.3878      -40.05273      0.5363916      0.4278182
      3522.0000         17.027        51.3567       59.11744         0.4726         0.5164         2.1091         1.1814      -117.3212      -36.99446      0.5556901      0.4715077
      3522.5000        17.0501        48.9024         55.854         0.4267         0.4722         2.1224         1.2444      -120.1737       -39.8553      0.4862552      0.4306386
      3523.0000        17.0759         45.304       51.06915         0.3935         0.4384         2.1198         1.3242       -124.792      -44.48194        0.38445      0.3645437
      3523.5000        17.1022        41.6347       46.19002         0.3649         0.4071         2.1077          1.422      -129.3296      -49.02789      0.2806387      0.2996015
      3524.0000        17.1272        37.8826       41.20078         0.3428         0.3851         2.0705         1.5086      -133.7686      -53.47523      0.1744846      0.2360682
      3524.5000        17.1482        34.4048       36.57629          0.322         0.3693              2         1.5376      -138.2039      -57.91887     0.07609136      0.1725876
      3525.0000        17.1691        32.1909       33.63253         0.3046         0.3683         1.8789         1.5469      -140.7371      -60.46041     0.01345817      0.1362798
      3525.5000        17.1708        30.4496       31.31724         0.2895         0.3721         1.8125         1.5539       -142.178      -61.90965              0      0.1155765
      3526.0000        17.1618        30.7274       31.68691         0.2821         0.3759         1.8001         1.5597      -143.5371      -63.27708              0     0.09604165
      3526.5000        17.1527        30.9729       32.01363         0.2808         0.3791         1.7901         1.5645      -144.2415      -63.98983              0     0.08585957
