#------------------------------------------------------------------------------
# Created by    : vladimir.rabinovich
# Created on    : 09/19/2023 17:22:41
#------------------------------------------------------------------------------
~Version Information Section
VERS.           2.0     :   CWLS log ASCII Standard - VERSION 2.0
WRAP.           NO      :   One line per depth step
~Well Information Section
#MNEM       .UNIT                                         VALUE :DESCRIPTION
#------------------------------------------------------------------------------
STRT        .FT                                            4470 :START DEPTH
STOP        .FT                                            9513 :STOP DEPTH
STEP        .FT                                             0.5 :STEP      
NULL        .                                           -999.25 :NULL      
COMP        .                 FAIRWAYS SPEC SALES & SERVICE INC :COMPANY   
WELL        .                               OCS G11315 ST00BP00 :WELL      
FLD         .                              GALVESTON BLOCK 0319 :FIELD     
LOC         .                                                   :LOCATION  
CNTY        .                             GALVESTON LARGE BLOCK :LOCATION  
STAT        .                                             TEXAS :STATE     
CTRY        .                                     UNITED STATES :COUNTRY   
SRVC        .                                                   :SERVICE COMPANY
DATE        .                             9/13/2023 11:19:34 AM :LOG DATE  
API         .                                    42706402650000 :API NUMBER
UWI         .                                    42706402650000 :UNIQUE WELL ID
XCOORD      .                                  1065572.18570413 :SURFACE X 
YCOORD      .                                  10465680.9820926 :SURFACE Y 
LAT         .                                         28.826802 :LATITUDE  
LON         .                                        -94.795723 :LONGITUDE 
ELEV        .FT                                              86 :ELEVATION VALUE
ELEV_TYPE   .                                                KB :ELEVATION REFERENCE TYPE
~Curve Information Section
#MNEM       .UNIT                                      API CODE :CURVE DESCRIPTION
#------------------------------------------------------------------------------
DEPT        .FT                                                 :DEPTH     
DCAL        .IN                                                 :          
DPHI        .%                                                  :          
DRHO        .G/C3                                               :          
GR          .GAPI                                               :          
GR_NORM     .GAPI                                               :GammaRay Normalized
ILD         .OHMM                                               :          
ILM         .OHMM                                               :          
NPHI        .%                                                  :          
SFL         .OHMM                                               :          
SP          .MV                                                 :          
SP_NORM     .MV                                                 :SP Normalized
VSH_GR      .V/V                                                :Volume of Shale from GR
VSH_SP      .V/V                                                :Volume of Shale from SP
~A        DEPTH           DCAL           DPHI           DRHO             GR        GR_NORM            ILD            ILM           NPHI            SFL             SP        SP_NORM         VSH_GR         VSH_SP
# ...
      4565.0000         1.7941        22.8013        -0.0041        77.1742       83.97028         0.3541          0.511        45.1573         1.1509       -49.7062      -1.107296              1      0.9829647
      4565.5000         1.9043        22.5536        -0.0075        80.4222       83.98351         0.3766         0.5333        45.6133         1.2446       -47.8934      0.2527847              1              1
      4566.0000         1.9188        22.9332        -0.0106         83.194       83.55788         0.4538         0.6052        46.4425         1.3258        -46.804      0.8987122              1              1
      4566.5000         1.8043        23.3125        -0.0118         85.526       82.72692          0.641         0.7379        47.4265         1.2328       -45.7302       1.529037              1              1
      4567.0000         1.6994        23.9616        -0.0119         87.557       81.76009         0.7747         0.9152        48.3477          1.017       -44.6702       2.145569              1              1
      4567.5000           1.65        24.6522        -0.0107        88.6115       81.95709         0.8447         1.1713        49.1606         0.9293       -43.9316       2.440701              1              1
      4568.0000         1.6687        24.5508        -0.0071        88.4829       81.06374         0.8927         1.2158        49.7964         0.9081       -43.2745       2.654327              1              1
      4568.5000         1.7793        24.0453        -0.0037         87.684       79.55264         0.9252         1.1185         49.837         0.8863       -42.7534        2.73196      0.9904816              1
      4569.0000         2.0117        23.4677        -0.0002        87.2135        78.3442         0.9599         1.0426        49.3597         0.8635       -42.3518        2.69009      0.9647702              1
      4569.5000         2.5735        23.2762         0.0014        87.6958       78.01385         0.9905         1.0177        48.9745         0.8558       -42.2194       2.379021      0.9577414              1
      4570.0000         2.8283        23.2736         0.0028        88.4672       77.94994         0.9961         1.0136        48.9582         0.8674       -42.1091       2.045845      0.9563818              1
      4570.5000         2.6783        23.5825         0.0024        93.1764       81.51511          0.993         1.0096        48.9239          0.882        -42.264       1.447475              1              1
      4571.0000         2.5549        23.5804         0.0019        96.3276       83.64442         0.9847         1.0038         48.131         0.8742       -42.4186      0.8494072              1              1
      4571.5000         3.0187        23.4651         0.0007        96.2714       82.81779         0.9984         0.9981        46.0315         0.8665        -42.561      0.2635345              1              1
      4572.0000          3.453        23.2441        -0.0006        94.6512       80.54978         0.9987         0.9924        44.9023         0.8589       -42.7025      -0.321434              1      0.9950548
      4572.5000         3.3675        22.9878        -0.0014        93.2716       78.50351         0.9925         0.9871        44.2033         0.8521       -42.6487     -0.7111053      0.9681598      0.9890599
      4573.0000         2.9322        23.0219        -0.0017        93.2235       77.68436          0.985         0.9841        44.4592         0.8651        -42.448     -0.6452217       0.950731      0.9900735
      4573.5000          2.656        23.1434        -0.0021        96.2281       79.67857         0.9802         0.9815        45.0615         0.8865       -42.2473     -0.4517746       0.993161      0.9930496
      4574.0000         2.4875        23.2826        -0.0018        99.1569       82.34651         0.9754         0.9796         45.588         0.8918       -41.9974     -0.2091255              1      0.9967827
      4574.5000         2.4819        23.4714        -0.0013       101.8318       84.81113          0.973         0.9766         46.074         0.8961       -41.6119      0.1691208              1              1
      4575.0000         2.5678        23.6602        -0.0007       102.5955       85.51438         0.9707         0.9725         46.413          0.882       -41.2261      0.5476646              1              1
      4575.5000         2.5896        23.3641         0.0001       100.0625        83.1794         0.9685          0.968         46.588         0.8691       -40.8405      0.9260139              1              1
      4576.0000         2.4801        23.0539         0.0007        97.6572       80.96211         0.9668          0.963        46.3809         0.8627       -40.5423       1.216961              1              1
      4576.5000         2.4089        22.8981        -0.0011        95.5464       79.01623         0.9671         0.9573        46.1973         0.8619       -40.2518       1.500206      0.9790687              1
      4577.0000         2.4027        22.9825         -0.003        93.7444       77.35493         0.9674         0.9534         46.025         0.8732       -40.4962       1.248554       0.943722              1
      4577.5000         2.5358        23.0687        -0.0058        92.4736       76.18319         0.9678         0.9501        45.8817         0.9097       -40.8797      0.8578033      0.9187912              1
      4578.0000         2.6046        23.0034        -0.0086        92.1599       75.89351         0.9676         0.9477        45.7333         0.9197       -41.5682      0.1620483      0.9126279              1
      4578.5000         2.6606        23.0396        -0.0099        93.8687       77.46777         0.9665         0.9455        45.5108         0.9256       -42.2035     -0.4805031      0.9461227      0.9926077
      4579.0000         2.6156        23.1353        -0.0097        95.7766       79.22552         0.9654         0.9458        45.3237         0.9313       -42.6378     -0.9220543      0.9835218      0.9858146
      4579.5000         2.5849        23.3839        -0.0073        97.5996       80.90502         0.9643         0.9492        45.5205         0.9331       -43.0718      -1.363312              1       0.979026
      4580.0000         2.6823        23.6773         -0.004        99.1333       82.31792         0.9633         0.9529        47.3741         0.9241       -43.2151      -1.513863              1      0.9767098
      4580.5000         2.8103        23.3208        -0.0006        97.2411       80.57349         0.9626         0.9613        48.9071         0.8792       -43.3063      -1.612316              1      0.9751951
      4581.0000         2.9529        22.7888         0.0024         95.252       78.73976         0.9618         0.9697         50.066         0.8326       -42.8201      -1.133369      0.9731864      0.9825636
      4581.5000         3.0365        22.2661         0.0026        94.8662       78.38364         0.9611         0.9743        50.5895         0.8075       -41.9034     -0.2239227      0.9656093       0.996555
      4582.0000         3.0577        22.0956         0.0027        96.9806        80.3317         0.9612         0.9776        50.3804         0.8156        -40.865      0.8072243              1              1
      4582.5000         3.0179        22.2425         0.0008        99.7981       82.92774         0.9615          0.974        49.9279         0.8168       -40.8389      0.8260689              1              1
      4583.0000         2.9969        22.6789        -0.0014       101.6696       84.65195         0.9618         0.9686        49.3998         0.8157       -40.9717      0.6860199              1              1
      4583.5000         2.9857        22.9241        -0.0051       101.3372       84.34502         0.9621          0.967        48.7936         0.8192       -41.1063      0.5441628              1              1
