#------------------------------------------------------------------------------
# Created by    : vladimir.rabinovich
# Created on    : 09/19/2023 17:21:54
#------------------------------------------------------------------------------
~Version Information Section
VERS.           2.0     :   CWLS log ASCII Standard - VERSION 2.0
WRAP.           NO      :   One line per depth step
~Well Information Section
#MNEM       .UNIT                                         VALUE :DESCRIPTION
#------------------------------------------------------------------------------
STRT        .FT                                             404 :START DEPTH
STOP        .FT                                            9564 :STOP DEPTH
STEP        .FT                                             0.5 :STEP      
NULL        .                                           -999.25 :NULL      
COMP        .                               AMOCO PRODUCTION CO :COMPANY   
WELL        .                               OCS G03108 ST00BP01 :WELL      
FLD         .                                           WILDCAT :FIELD     
LOC         .                                                   :LOCATION  
CNTY        .                      MATAGORDA ISLAND LARGE BLOCK :LOCATION  
STAT        .                                             TEXAS :STATE     
CTRY        .                                     UNITED STATES :COUNTRY   
SRVC        .                                                   :SERVICE COMPANY
DATE        .                             9/13/2023 11:12:09 AM :LOG DATE  
API         .                                    42703400030000 :API NUMBER
UWI         .                                    42703400030000 :UNIQUE WELL ID
XCOORD      .                                  482242.907024332 :SURFACE X 
YCOORD      .                                  10146341.7942038 :SURFACE Y 
LAT         .                                         27.913374 :LATITUDE  
LON         .                                         -96.58609 :LONGITUDE 
ELEV        .FT                                              95 :ELEVATION VALUE
ELEV_TYPE   .                                                KB :ELEVATION REFERENCE TYPE
~Curve Information Section
#MNEM       .UNIT                                      API CODE :CURVE DESCRIPTION
#------------------------------------------------------------------------------
DEPT        .FT                                                 :DEPTH     
CALI        .IN                                                 :          
CILD        .MMHO                                               :          
GR          .GAPI                                               :          
GR_NORM     .GAPI                                               :GammaRay Normalized
ILD         .OHMM                                               :          
RHOB        .G/C3                                               :          
SFL         .OHMM                                               :          
SP          .MV                                                 :          
SP_NORM     .MV                                                 :SP Normalized
VSH_GR      .V/V                                                :Volume of Shale from GR
VSH_SP      .V/V                                                :Volume of Shale from SP
~A        DEPTH           CALI           CILD             GR        GR_NORM            ILD           RHOB            SFL             SP        SP_NORM         VSH_GR         VSH_SP
# ...
      6366.5000        16.0604        -999.25        64.2646       79.55218         0.7606         2.3101         0.7725       -45.1323        -7.3965      0.9904718      0.9260753
      6367.0000        15.8832        -999.25        64.6077       80.02654         0.7628         2.3205         0.7724       -44.9202        -7.1843              1      0.9289822
      6367.5000        15.7551        -999.25        65.1425       80.76782         0.7805         2.3297         0.7822       -44.7481        -7.0122              1      0.9313397
      6368.0000        15.6309        -999.25        65.6232       81.43377         0.7997         2.3281         0.7929       -44.5832        -6.8473              1      0.9335986
      6368.5000        15.7713        -999.25        63.9261       79.06738         0.8191         2.3266         0.8052       -44.5496        -6.8137      0.9801569      0.9340589
      6369.0000        15.9045        -999.25        62.1241        76.5551         0.8375         2.3257         0.8183       -44.3065        -6.5706      0.9267042       0.937389
      6369.5000        16.0268        -999.25        60.9408       74.90422         0.8522         2.3249         0.8333       -43.6685        -5.9326      0.8915792      0.9461288
      6370.0000        16.1491        -999.25        61.0212       75.01285         0.8648          2.336          0.847       -43.1492        -5.4133      0.8938904      0.9532425
      6370.5000        16.2715        -999.25        61.6085        75.8272         0.8737         2.3509         0.8595       -42.8046        -5.0687       0.911217       0.957963
      6371.0000        16.3937        -999.25        61.5482        75.7399          0.881         2.3563         0.8665       -42.6614        -4.9255      0.9093596      0.9599246
      6371.5000        16.5161        -999.25         61.381       75.50378         0.8849         2.3428         0.8734        -42.491        -4.7551      0.9043357      0.9622589
      6372.0000        16.2839        -999.25        61.5595       75.74894         0.8871         2.3293         0.8793       -42.2853        -4.5494      0.9095519      0.9650767
      6372.5000        16.3697        -999.25        62.2403       76.69336          0.886         2.3223         0.8834       -42.0093        -4.2734       0.929646      0.9688575
      6373.0000        16.4553        -999.25        63.1841       78.00408         0.8849         2.3168         0.8804       -41.7491        -4.0132      0.9575337      0.9724219
      6373.5000        16.5409        -999.25        64.4015       79.69572         0.8838         2.3113         0.8774       -41.5193        -3.7834       0.993526      0.9755698
      6374.0000        16.6226        -999.25        66.0724        82.0188         0.8845         2.3284         0.8744       -41.3202        -3.5844              1      0.9782959
      6374.5000        16.5081        -999.25        67.6646       84.23229         0.8851         2.3441         0.8738       -41.1192        -3.3834              1      0.9810493
      6375.0000        16.5131        -999.25        69.3635       86.59436          0.885         2.3486          0.874        -40.754        -3.0182              1       0.986052
      6375.5000        16.5181        -999.25         70.349       87.96314         0.8847         2.3662         0.8759       -40.3917        -2.6558              1      0.9910164
      6376.0000        16.5266        -999.25        69.9661       87.42667         0.8831         2.3766          0.876       -40.0312        -2.2953              1      0.9959548
      6376.5000        16.5435        -999.25        69.1874       86.33914         0.8737         2.3801         0.8794       -39.6205        -1.8846              1              1
      6377.0000        16.5603        -999.25         69.194       86.34486         0.8625         2.3749         0.8823        -39.284        -1.5481              1              1
      6377.5000        16.5092        -999.25        70.3702       87.97916         0.8448         2.3698         0.8851       -39.1044        -1.3685              1              1
      6378.0000        16.4825        -999.25        71.3971       89.40556         0.8264         2.3646         0.8977       -38.9594        -1.2235              1              1
      6378.5000        16.5062        -999.25         71.962       90.18874          0.807         2.3594         0.9067       -38.7703        -1.0345              1              1
      6379.0000        16.5299        -999.25        71.7485       89.88815         0.7889         2.3543         0.8899        -38.529        -0.7931              1              1
      6379.5000        16.5523        -999.25        72.4326       90.83728         0.7727         2.3509          0.857       -38.1957        -0.4599              1              1
      6380.0000         16.446        -999.25        73.5862        92.4401         0.7572         2.3506         0.8378       -37.8181        -0.0822              1              1
      6380.5000        16.4416        -999.25        74.5544       93.78479         0.7435         2.3502         0.8302       -37.5712         0.1646              1              1
      6381.0000        16.4898        -999.25        75.4546       95.03468         0.7306         2.3497         0.8322       -37.6816         0.0543              1              1
      6381.5000        16.5379        -999.25        75.8845       95.62991         0.7203         2.3445          0.834       -37.9789         -0.243              1              1
      6382.0000        16.5861        -999.25        75.0631       94.48288         0.7115         2.3392         0.8358       -38.0966        -0.3607              1              1
      6382.5000        16.5695        -999.25        73.7366       92.63266         0.7054         2.3348         0.8306       -38.2139        -0.4781              1              1
      6383.0000         16.259        -999.25        73.3535       92.09592         0.7002         2.3322         0.8234       -38.4717        -0.7358              1              1
      6383.5000        16.1731        -999.25        73.7125       92.59244          0.696         2.3296         0.8169        -38.367        -0.6311              1              1
      6384.0000        16.1142        -999.25        74.1613       93.21396         0.6926          2.327         0.8157       -37.8733        -0.1374              1              1
      6384.5000        16.0545        -999.25        74.5544       93.75793         0.6898         2.3244         0.8133        -38.059        -0.3231              1              1
      6385.0000        15.9787        -999.25        74.7722       94.05784         0.6878         2.3217         0.7964       -37.8764        -0.1405              1              1
      6385.5000        15.9028        -999.25         73.969       92.93605         0.6863         2.3181         0.7866       -37.5936         0.1423              1              1
      6386.0000         15.807        -999.25        73.0706       91.68186         0.6859         2.3109         0.7867       -37.3315         0.4044              1              1
      6386.5000        15.6684        -999.25        72.1897       90.45202          0.686         2.3032         0.7882       -37.0874         0.6485              1              1
      6387.0000        15.7436        -999.25        71.5623       89.57515          0.688         2.2955         0.7906       -36.8534         0.8825              1              1
      6387.5000        15.8187        -999.25        71.2317       89.11152         0.6898         2.2878         0.7919        -36.754         0.9818              1              1
      6388.0000        15.8938        -999.25        71.4849       89.46071         0.6911         2.2834         0.7928       -36.6895         1.0464              1              1
      6388.5000        15.9072        -999.25        72.0022        90.1776         0.6913         2.2967         0.7963       -36.6667         1.0692              1              1
