#------------------------------------------------------------------------------
# Created by    : vladimir.rabinovich
# Created on    : 09/19/2023 17:20:36
#------------------------------------------------------------------------------
~Version Information Section
VERS.           2.0     :   CWLS log ASCII Standard - VERSION 2.0
WRAP.           NO      :   One line per depth step
~Well Information Section
#MNEM       .UNIT                                         VALUE :DESCRIPTION
#------------------------------------------------------------------------------
STRT        .FT                                             498 :START DEPTH
STOP        .FT                                            9565 :STOP DEPTH
STEP        .FT                                             0.5 :STEP      
NULL        .                                           -999.25 :NULL      
COMP        .                       BLUE DOLPHIN EXPLORATION CO :COMPANY   
WELL        .                                OCS 00714 ST00BP00 :WELL      
FLD         .                              GALVESTON BLOCK 0288 :FIELD     
LOC         .                                                   :LOCATION  
CNTY        .                             GALVESTON LARGE BLOCK :LOCATION  
STAT        .                                             TEXAS :STATE     
CTRY        .                                     UNITED STATES :COUNTRY   
SRVC        .                                                   :SERVICE COMPANY
DATE        .                             9/13/2023 11:19:25 AM :LOG DATE  
API         .                                    42706000390000 :API NUMBER
UWI         .                                    42706000390000 :UNIQUE WELL ID
XCOORD      .                                  1097340.72850425 :SURFACE X 
YCOORD      .                                  10481267.2561277 :SURFACE Y 
LAT         .                                        28.8709496 :LATITUDE  
LON         .                                       -94.6972159 :LONGITUDE 
ELEV        .FT                                              85 :ELEVATION VALUE
ELEV_TYPE   .                                                KB :ELEVATION REFERENCE TYPE
~Curve Information Section
#MNEM       .UNIT                                      API CODE :CURVE DESCRIPTION
#------------------------------------------------------------------------------
DEPT        .FT                                                 :DEPTH     
ASN         .OHMM                                               :          
CALI        .IN                                                 :          
DT          .US/F                                               :          
ILD         .OHMM                                               :          
SP          .MV                                                 :          
SP_1        .MV                                                 :          
SP_NORM     .MV                                                 :SP Normalized
VSH_SP      .V/V                                                :Volume of Shale from SP
~A        DEPTH            ASN           CALI             DT            ILD             SP           SP_1        SP_NORM         VSH_SP
# ...
      5926.0000         0.7736        10.0183       124.0909          0.786        -62.295        -999.25      -3.791969      0.9430211
      5926.5000         0.7767         9.9849       122.5436         0.7897       -62.0825        -999.25      -3.582691       0.947292
      5927.0000         0.7862         9.9734        120.921         0.7976       -61.3823        -999.25      -2.885712      0.9615161
      5927.5000         0.7981         9.9618       121.5688         0.8056        -60.756        -999.25      -2.262634       0.974232
      5928.0000         0.8099         9.9623       120.0018         0.8135       -60.2791        -999.25      -1.788952      0.9838989
      5928.5000         0.8216         9.9678       118.7703         0.8215       -60.1046        -999.25      -1.617672      0.9873945
      5929.0000         0.8321         9.9818       118.9309         0.8288       -60.1611        -999.25      -1.677395      0.9861756
      5929.5000          0.842        10.0025       119.7957         0.8361       -60.5161        -999.25      -2.035618       0.978865
      5930.0000         0.8513        10.0348       118.7646         0.8433       -60.9601        -999.25      -2.482838       0.969738
      5930.5000         0.8573        10.0761       117.9404         0.8515       -61.6458        -999.25      -3.171761      0.9556783
      5931.0000         0.8625        10.1112       119.5209         0.8618       -62.3499        -999.25      -3.879078      0.9412433
      5931.5000         0.8676        10.1247       123.5966         0.8722       -63.0533        -999.25      -4.585701      0.9268224
      5932.0000         0.8794        10.1212       122.9662         0.8824       -63.6752        -999.25      -5.210823      0.9140648
      5932.5000         0.8861        10.1083        119.876         0.8908       -64.2419        -999.25      -5.780739      0.9024339
      5933.0000         0.8849        10.0974       115.0756         0.8992       -64.4305        -999.25      -5.972561      0.8985192
      5933.5000         0.8814        10.1027       112.4449         0.8947       -64.6538        -999.25      -6.199085      0.8938962
      5934.0000         0.8778        10.1157        113.754         0.8868       -65.5916        -999.25      -7.140106      0.8746917
      5934.5000         0.8743        10.1384       120.0603          0.864       -68.2557        -999.25      -9.807426      0.8202566
      5935.0000         0.8707        10.1843       119.6917         0.8413       -70.0956        -999.25      -11.65054      0.7826419
      5935.5000         0.8672        10.2483       117.6173         0.8092       -70.6752        -999.25      -12.23337      0.7707475
      5936.0000         0.8537        10.3081       116.7473         0.7765       -71.1055        -999.25      -12.66689      0.7619002
      5936.5000         0.8172        10.2682        117.415         0.7441       -71.8761        -999.25      -13.44071       0.746108
      5937.0000         0.7829         10.172       117.7443         0.7117       -73.6288        -999.25      -15.19663      0.7102728
      5937.5000          0.736        10.1353       117.9949         0.6823       -76.0736        -999.25      -17.64465      0.6603132
      5938.0000          0.689        10.1127       117.1914         0.6536       -81.1469        -999.25      -22.72117      0.5567108
      5938.5000         0.6432        10.1217       115.7003         0.6273       -88.4839        -999.25       -30.0614      0.4069102
      5939.0000         0.6058        10.1423       113.0349         0.6012       -95.1677        -999.25      -36.74842      0.2704405
      5939.5000         0.5834        10.1763       111.4609         0.5713      -105.6039        -999.25      -47.18784     0.05739111
      5940.0000         0.5648        10.2021       112.4967         0.5442      -104.5804        -999.25      -46.16756     0.07821313
      5940.5000         0.5441        10.2144       111.1022          0.525       -96.4382        -999.25      -38.02858      0.2443147
      5941.0000         0.5205        10.2074       104.1173         0.5059       -90.1974        -999.25        -31.791      0.3716122
      5941.5000         0.5042        10.1647        99.9911         0.4949       -90.2913        -999.25      -31.88812      0.3696302
      5942.0000         0.4915        10.1185       110.3021         0.4876       -98.7825        -999.25      -40.38255      0.1962746
      5942.5000         0.4996        10.0841       114.6665         0.4842      -108.0521        -999.25      -49.65536    0.007033368
      5943.0000         0.5409        10.0508       110.8325         0.4896      -109.8987        -999.25      -51.50518              0
      5943.5000         0.5612        10.0591        100.863          0.495      -105.1799        -999.25      -46.78961      0.0655182
      5944.0000         0.5602        10.0721        95.7906         0.5153       -93.6108        -999.25      -35.22373      0.3015566
      5944.5000         0.5531        10.0851       100.4764         0.5491       -75.1879        -999.25      -16.80404      0.6774685
      5945.0000          0.546        10.0907       109.6481         0.5979       -64.5269        -999.25      -6.146271      0.8949741
      5945.5000         0.5547        10.0916       110.6302         0.6471       -61.8672        -999.25      -3.489788       0.949188
      5946.0000          0.568        10.0986       109.4717         0.6921       -61.5155        -999.25      -3.141312      0.9562998
      5946.5000          0.615        10.1399       108.9672         0.7359       -61.8966        -999.25      -3.525631      0.9484565
      5947.0000         0.6484        10.2544       111.8932         0.7719       -61.6726        -999.25      -3.304852      0.9529622
      5947.5000         0.6994        10.3895       110.7201          0.808       -60.6637        -999.25      -2.299175      0.9734862
      5948.0000         0.7285         10.488        107.722         0.8523       -59.5945        -999.25      -1.233196      0.9952409
      5948.5000         0.7208        10.5414       110.7426         0.8669       -58.5734        -999.25      -0.215313              1
      5949.0000         0.7131        10.5635       115.6161         0.8702       -57.6042        -999.25      0.7506638              1
      5949.5000         0.7054        10.5758       116.2133         0.8734       -57.2682        -999.25       1.083443              1
      5950.0000         0.6976         10.573       115.2036         0.8767       -57.7468        -999.25      0.6016197              1
      5950.5000         0.6898        10.5312       112.1652         0.8799       -58.9794        -999.25      -0.634201              1
      5951.0000         0.7093        10.4796       111.1016         0.8803       -60.8964        -999.25       -2.55442      0.9682772
      5951.5000         0.7273        10.4415       113.1158         0.8806       -64.4105        -999.25      -6.071743       0.896495
      5952.0000         0.7392        10.4282       115.4182         0.8801       -66.2828        -999.25      -7.947262      0.8582191
      5952.5000         0.7478        10.4202       116.7162         0.8764       -66.7721        -999.25      -8.439785      0.8481677
      5953.0000          0.752        10.3446       120.3615         0.8583       -66.8733        -999.25      -8.544205      0.8460366
      5953.5000         0.7387        10.3231       127.1013         0.8095       -70.1012        -999.25      -11.77532      0.7800955
      5954.0000         0.6747        10.3178       124.2584         0.7554       -76.6462        -999.25      -18.32355      0.6464581
      5954.5000         0.6139        10.2846       120.1299         0.7024       -86.4259        -999.25      -28.10647      0.4468067
      5955.0000         0.5644        10.2416        121.443         0.6498       -93.4945        -999.25      -35.17829      0.3024839
