#------------------------------------------------------------------------------
# Created by    : vladimir.rabinovich
# Created on    : 09/19/2023 17:20:09
#------------------------------------------------------------------------------
~Version Information Section
VERS.           2.0     :   CWLS log ASCII Standard - VERSION 2.0
WRAP.           NO      :   One line per depth step
~Well Information Section
#MNEM       .UNIT                                         VALUE :DESCRIPTION
#------------------------------------------------------------------------------
STRT        .FT                                             880 :START DEPTH
STOP        .FT                                           10998 :STOP DEPTH
STEP        .FT                                             0.5 :STEP      
NULL        .                                           -999.25 :NULL      
COMP        .                        HUGHES TEXAS PETROLEUM LTD :COMPANY   
WELL        .                                ST TR 00564-L NE/4 :WELL      
FLD         .                       MATAGORDA ISLAND BLOCK 0565 :FIELD     
LOC         .                                                   :LOCATION  
CNTY        .                      MATAGORDA ISLAND LARGE BLOCK :LOCATION  
STAT        .                                             TEXAS :STATE     
CTRY        .                                     UNITED STATES :COUNTRY   
SRVC        .                                                   :SERVICE COMPANY
DATE        .                             9/13/2023 11:12:01 AM :LOG DATE  
API         .                                    42703303560000 :API NUMBER
UWI         .                                    42703303560000 :UNIQUE WELL ID
XCOORD      .                                  580856.659723482 :SURFACE X 
YCOORD      .                                  10268633.8274002 :SURFACE Y 
LAT         .                                         28.256926 :LATITUDE  
LON         .                                       -96.2914173 :LONGITUDE 
ELEV        .FT                                              25 :ELEVATION VALUE
ELEV_TYPE   .                                                KB :ELEVATION REFERENCE TYPE
~Curve Information Section
#MNEM       .UNIT                                      API CODE :CURVE DESCRIPTION
#------------------------------------------------------------------------------
DEPT        .FT                                                 :DEPTH     
ASFL        .OHMM                                               :          
GR          .GAPI                                               :          
GR_NORM     .GAPI                                               :GammaRay Normalized
ILD         .OHMM                                               :          
SP          .MV                                                 :          
SP_NORM     .MV                                                 :SP Normalized
VSH_GR      .V/V                                                :Volume of Shale from GR
VSH_SP      .V/V                                                :Volume of Shale from SP
~A        DEPTH           ASFL             GR        GR_NORM            ILD             SP        SP_NORM         VSH_GR         VSH_SP
# ...
     10969.0000         0.7751        34.6042       38.91951         0.5376        -92.533      -50.61683      0.1259471       0.224737
     10969.5000         0.8551        34.3533       38.45369         0.5228       -95.4954      -53.57923      0.1160359      0.1784495
     10970.0000         0.9125        35.3543       40.31216         0.5081        -98.453      -56.53683      0.1555779       0.132237
     10970.5000         1.0658        36.3577       42.17509         0.4965       -99.4492      -57.53304      0.1952147      0.1166713
     10971.0000         1.1533        37.3587       44.03356         0.4889        -97.796      -55.87983      0.2347565      0.1425027
     10971.5000         1.2377        38.3597       45.89202         0.4813       -96.1547      -54.23853      0.2742983      0.1681479
     10972.0000         1.2319        38.6106       46.35785         0.4738       -93.3929      -51.47673      0.2842095      0.2113011
     10972.5000         1.1382         37.907       45.05154         0.4662       -91.0469      -49.13073      0.2564157      0.2479573
     10973.0000         1.0294        37.2034       43.74522         0.4586       -89.5776      -47.66143      0.2286217      0.2709152
     10973.5000         1.0117        36.7388       42.88263         0.4736       -87.6211      -45.70493      0.2102688      0.3014854
     10974.0000         0.9941        36.3912       42.23729         0.4952       -86.7144      -44.79823       0.196538      0.3156526
     10974.5000         0.9818        36.0441       41.59285         0.5168       -85.9559      -44.03973      0.1828267      0.3275042
     10975.0000         0.9721        36.6002       42.62531         0.5384       -85.4506      -43.53443      0.2047939      0.3353995
     10975.5000         0.9624        37.3695       44.05361         0.5377       -84.9537      -43.03753      0.2351831      0.3431636
     10976.0000         0.9537          38.14       45.48412           0.53       -84.2883      -42.37213      0.2656195      0.3535604
     10976.5000         0.9454        38.9092       46.91224         0.5223       -83.1893      -41.27313       0.296005      0.3707323
     10977.0000         0.9372        39.2908       47.62072         0.5146       -82.0498      -40.13363      0.3110791       0.388537
     10977.5000         0.9257         38.917       46.92671          0.514       -81.4382      -39.52203       0.296313      0.3980932
     10978.0000         0.9136        38.5425       46.23142         0.5146       -85.1125      -43.19633      0.2815195      0.3406823
     10978.5000          0.899         38.168       45.53611         0.5151       -91.0087      -49.09253      0.2667258      0.2485542
     10979.0000         0.9662        37.7959       44.84526         0.5157       -92.9963      -51.08013      0.2520269      0.2174979
     10979.5000         1.0395        37.4346       44.17447         0.5162       -95.0748      -53.15863      0.2377547      0.1850214
     10980.0000         1.0818        37.0732        43.5035         0.5158       -96.9479      -55.03173      0.2234787      0.1557542
     10980.5000         1.1269        37.3874       44.08685         0.5134       -96.7902      -54.87403      0.2358903      0.1582183
     10981.0000         1.1961        39.3225       47.67956         0.5111       -92.5472      -50.63103      0.3123311      0.2245151
     10981.5000         1.0307        41.2624       51.28122         0.5088       -82.2839      -40.36773      0.3889621      0.3848792
     10982.0000         0.9859        42.5847       53.73622          0.502       -76.7461      -34.82993      0.4411961      0.4714073
     10982.5000         0.9303        42.2085       53.03774         0.4896       -74.7394      -32.82323      0.4263349       0.502762
     10983.0000          0.861         41.272       51.29905         0.4771       -73.2701      -31.35394      0.3893414      0.5257198
     10983.5000         0.7888        40.3378       49.56459         0.4646       -71.6001      -29.68393      0.3524382      0.5518136
     10984.0000         0.7239        39.4014       47.82606         0.4522       -73.3776      -31.46143      0.3154481      0.5240401
     10984.5000         0.7696        38.4672       46.09161         0.4397       -79.4458      -37.52963       0.278545      0.4292245
     10985.0000         0.8334        37.9598       45.14957         0.4272       -82.9337      -41.01753      0.2585016      0.3747261
     10985.5000         0.9286         37.873       44.98841         0.4198       -85.5234      -43.60723      0.2550726       0.334262
     10986.0000         0.9747        38.5461        46.2381         0.4152       -87.6162      -45.70004      0.2816617       0.301562
     10986.5000         1.0133        39.4778        47.9679         0.4106       -92.3466      -50.43044      0.3184659      0.2276495
     10987.0000         1.0536        40.4095       49.69771          0.406       -95.9098      -53.99363      0.3552705      0.1719745
     10987.5000         1.0926        41.3436       51.43198         0.4013       -95.9612      -54.04503      0.3921699      0.1711714
     10988.0000         1.1436        42.2551       53.12428         0.3967       -95.7826      -53.86643      0.4281761       0.173962
     10988.5000         1.3186        40.6986       50.23446          0.426       -95.8549      -53.93873      0.3666907      0.1728324
     10989.0000         1.4094        36.9338       43.24468         0.4567       -92.4135      -50.49733      0.2179719      0.2266042
     10989.5000          1.548        36.7863       42.97084         0.4914       -89.7091      -47.79293      0.2121455      0.2688605
     10990.0000         1.2532        36.6387       42.69678         0.5265       -62.4645      -20.54833      0.2063146      0.6945573
     10990.5000         0.8932        -999.25        -999.25         0.5617       -56.1312      -14.21503        -999.25      0.7935151
     10991.0000         0.8449        -999.25        -999.25         0.5862       -52.8988      -10.98263        -999.25      0.8440214
     10991.5000         0.8038        -999.25        -999.25         0.5837       -50.3186      -8.402431        -999.25       0.884337
     10992.0000         0.7639        -999.25        -999.25         0.5811       -48.6367      -6.720531        -999.25      0.9106167
     10992.5000         0.7682        -999.25        -999.25         0.5785       -46.8163      -4.900131        -999.25      0.9390604
     10993.0000         0.7909        -999.25        -999.25         0.5788       -44.7139      -2.797733        -999.25      0.9719104
     10993.5000         0.8349        -999.25        -999.25           0.58       -42.1194     -0.2032318        -999.25              1
     10994.0000         0.8714        -999.25        -999.25         0.5812       -41.5317      0.3844681        -999.25              1
     10994.5000         0.9221        -999.25        -999.25         0.5824       -41.0563      0.8598671        -999.25              1
     10995.0000         0.9539        -999.25        -999.25         0.5836       -40.5833       1.332867        -999.25              1
     10995.5000         0.9671        -999.25        -999.25         0.5848       -40.0768       1.839367        -999.25              1
     10996.0000         0.9737        -999.25        -999.25         0.5925       -39.3828       2.533367        -999.25              1
     10996.5000         0.9772        -999.25        -999.25         0.5857       -39.9765       1.939667        -999.25              1
     10997.0000         0.9807        -999.25        -999.25         0.5609       -40.7446        1.17157        -999.25              1
     10997.5000         0.9827        -999.25        -999.25         0.5361       -41.1871      0.7290688        -999.25              1
     10998.0000         0.9842        -999.25        -999.25         0.5121       -41.2925      0.6236687        -999.25              1
