#------------------------------------------------------------------------------
# Created by    : vladimir.rabinovich
# Created on    : 09/19/2023 17:21:23
#------------------------------------------------------------------------------
~Version Information Section
VERS.           2.0     :   CWLS log ASCII Standard - VERSION 2.0
WRAP.           NO      :   One line per depth step
~Well Information Section
#MNEM       .UNIT                                         VALUE :DESCRIPTION
#------------------------------------------------------------------------------
STRT        .FT                                            1005 :START DEPTH
STOP        .FT                                            8973 :STOP DEPTH
STEP        .FT                                             0.5 :STEP      
NULL        .                                           -999.25 :NULL      
COMP        .                            MARITECH RESOURCES INC :COMPANY   
WELL        .                               OCS G06113 ST00BP00 :WELL      
FLD         .                              GALVESTON BLOCK 0343 :FIELD     
LOC         .                                                   :LOCATION  
CNTY        .                             GALVESTON LARGE BLOCK :LOCATION  
STAT        .                                             TEXAS :STATE     
CTRY        .                                     UNITED STATES :COUNTRY   
SRVC        .                                                   :SERVICE COMPANY
DATE        .                             9/13/2023 11:19:36 AM :LOG DATE  
API         .                                    42706402140000 :API NUMBER
UWI         .                                    42706402140000 :UNIQUE WELL ID
XCOORD      .                                  914498.553138379 :SURFACE X 
YCOORD      .                                  10427492.1426863 :SURFACE Y 
LAT         .                                         28.714711 :LATITUDE  
LON         .                                        -95.265111 :LONGITUDE 
ELEV        .FT                                              84 :ELEVATION VALUE
ELEV_TYPE   .                                                KB :ELEVATION REFERENCE TYPE
~Curve Information Section
#MNEM       .UNIT                                      API CODE :CURVE DESCRIPTION
#------------------------------------------------------------------------------
DEPT        .FT                                                 :DEPTH     
CALI        .IN                                                 :          
DPHI        .%                                                  :          
DRHO        .G/C3                                               :          
DT          .US/F                                               :          
GR          .GAPI                                               :          
ILD         .OHMM                                               :          
ILM         .OHMM                                               :          
NPHI        .%                                                  :          
SGRD        .OHMM                                               :          
SP          .MV                                                 :          
SP_NORM     .MV                                                 :SP Normalized
VSH_SP      .V/V                                                :Volume of Shale from SP
~A        DEPTH           CALI           DPHI           DRHO             DT             GR            ILD            ILM           NPHI           SGRD             SP        SP_NORM         VSH_SP
# ...
      2583.5000        -999.25        -999.25        -999.25        -999.25        -999.25         0.7508         0.6423        -999.25         0.5333       -98.6373       1.785667              1
      2584.0000        -999.25        -999.25        -999.25        -999.25        -999.25         0.7436         0.6431        -999.25         0.5351        -98.468       1.949554              1
      2584.5000        -999.25        -999.25        -999.25        -999.25        -999.25         0.7287          0.641        -999.25         0.5269       -98.3936       2.018555              1
      2585.0000        -999.25        -999.25        -999.25        -999.25        -999.25         0.7133         0.6387        -999.25         0.5148        -98.381       2.025749              1
      2585.5000        -999.25        -999.25        -999.25        -999.25        -999.25          0.698         0.6355        -999.25         0.5037       -98.6025       1.798843              1
      2586.0000        -999.25        -999.25        -999.25        -999.25        -999.25         0.6936         0.6291        -999.25         0.5061       -99.1206       1.275337              1
      2586.5000        -999.25        -999.25        -999.25        -999.25        -999.25         0.6897         0.6224        -999.25         0.5097       -99.7292      0.6613312              1
      2587.0000        -999.25        -999.25        -999.25        -999.25        -999.25         0.6863         0.6179        -999.25         0.5172      -100.2561      0.1290207              1
      2587.5000        -999.25        -999.25        -999.25        -999.25        -999.25         0.6851         0.6173        -999.25          0.524      -100.7648     -0.3850784              1
      2588.0000        -999.25        -999.25        -999.25        -999.25        -999.25         0.6853          0.618        -999.25         0.5301      -101.2078     -0.8334885              1
      2588.5000        -999.25        -999.25        -999.25        -999.25        -999.25          0.686          0.623        -999.25          0.535      -101.5796      -1.210686              1
      2589.0000        -999.25        -999.25        -999.25        -999.25        -999.25         0.6869         0.6271        -999.25         0.5352      -101.6959      -1.332397              1
      2589.5000        -999.25        -999.25        -999.25        -999.25        -999.25         0.6868         0.6299        -999.25         0.5277      -101.7961      -1.437996              1
      2590.0000        -999.25        -999.25        -999.25        -999.25        -999.25         0.6864         0.6309        -999.25          0.515      -101.7513      -1.398605              1
      2590.5000        -999.25        -999.25        -999.25        -999.25        -999.25         0.6841         0.6302        -999.25         0.5064      -101.7067      -1.359413              1
      2591.0000        -999.25        -999.25        -999.25        -999.25        -999.25          0.681         0.6294        -999.25         0.5139       -101.583      -1.241119              1
      2591.5000        -999.25        -999.25        -999.25        -999.25        -999.25         0.6814         0.6334        -999.25         0.5287      -101.3477       -1.01123              1
      2592.0000        -999.25        -999.25        -999.25        -999.25        -999.25         0.6824         0.6402        -999.25         0.5361      -101.1124     -0.7813263              1
      2592.5000        -999.25        -999.25        -999.25        -999.25        -999.25         0.6833         0.6476        -999.25         0.5339      -100.7474     -0.4217377              1
      2593.0000        -999.25        -999.25        -999.25        -999.25        -999.25         0.6849         0.6508        -999.25         0.5393      -100.2653     0.05496216              1
      2593.5000        -999.25        -999.25        -999.25        -999.25        -999.25         0.6863         0.6513        -999.25         0.5419       -99.7831      0.5317535              1
      2594.0000        -999.25        -999.25        -999.25        -999.25        -999.25         0.6833         0.6477        -999.25         0.5399       -99.3237      0.9857483              1
      2594.5000        -999.25        -999.25        -999.25        -999.25        -999.25         0.6763         0.6366        -999.25         0.5272       -98.8704        1.43364              1
      2595.0000        -999.25        -999.25        -999.25        -999.25        -999.25         0.6662         0.6216        -999.25         0.5112       -98.4701       1.828537              1
      2595.5000        -999.25        -999.25        -999.25        -999.25        -999.25         0.6518         0.6061        -999.25         0.4996       -98.1362       2.157028              1
      2596.0000        -999.25        -999.25        -999.25        -999.25        -999.25         0.6389         0.5952        -999.25         0.4943       -98.0193       2.268524              1
      2596.5000        -999.25        -999.25        -999.25        -999.25        -999.25         0.6272         0.5886        -999.25         0.4992       -98.0652       2.217216              1
      2597.0000        -999.25        -999.25        -999.25        -999.25        -999.25         0.6158         0.5811        -999.25         0.5047       -98.2744       2.002617              1
      2597.5000        -999.25        -999.25        -999.25        -999.25        -999.25         0.6211          0.574        -999.25         0.5052       -98.5847       1.686905              1
      2598.0000        -999.25        -999.25        -999.25        -999.25        -999.25         0.6321         0.5707        -999.25         0.5017       -98.9207       1.345505              1
      2598.5000        -999.25        -999.25        -999.25        -999.25        -999.25         0.6445          0.574        -999.25         0.4966       -99.2643      0.9964981              1
      2599.0000        -999.25        -999.25        -999.25        -999.25        -999.25         0.6578         0.5834        -999.25         0.4983       -99.8497      0.4056854              1
      2599.5000        -999.25        -999.25        -999.25        -999.25        -999.25         0.6702         0.5977        -999.25         0.5035         -100.5     -0.2500153              1
      2600.0000        -999.25        -999.25        -999.25        -999.25        -999.25         0.6829         0.6096        -999.25         0.5126      -100.8691      -0.624527              1
      2600.5000        -999.25        -999.25        -999.25        -999.25        -999.25         0.6968          0.621        -999.25         0.5186      -101.2374     -0.9982224              1
      2601.0000        -999.25        -999.25        -999.25        -999.25        -999.25         0.7095         0.6319        -999.25          0.522      -101.3047      -1.070938              1
      2601.5000        -999.25        -999.25        -999.25        -999.25        -999.25           0.72         0.6384        -999.25         0.5217      -101.2968      -1.068436              1
      2602.0000        -999.25        -999.25        -999.25        -999.25        -999.25         0.7217         0.6404        -999.25         0.5208      -100.9825     -0.7595444              1
      2602.5000        -999.25        -999.25        -999.25        -999.25        -999.25         0.7184         0.6372        -999.25         0.5204      -100.6478     -0.4302444              1
      2603.0000        -999.25        -999.25        -999.25        -999.25        -999.25         0.7086         0.6301        -999.25         0.5207      -100.2728    -0.06065369              1
      2603.5000        -999.25        -999.25        -999.25        -999.25        -999.25         0.6912         0.6177        -999.25         0.5188       -99.8324      0.3743439              1
