#------------------------------------------------------------------------------
# Created by    : vladimir.rabinovich
# Created on    : 09/19/2023 17:20:25
#------------------------------------------------------------------------------
~Version Information Section
VERS.           2.0     :   CWLS log ASCII Standard - VERSION 2.0
WRAP.           NO      :   One line per depth step
~Well Information Section
#MNEM       .UNIT                                         VALUE :DESCRIPTION
#------------------------------------------------------------------------------
STRT        .FT                                            2998 :START DEPTH
STOP        .FT                                           12526 :STOP DEPTH
STEP        .FT                                             0.5 :STEP      
NULL        .                                           -999.25 :NULL      
COMP        .                                 CALIFORNIA CO THE :COMPANY   
WELL        .                               OCS G01117 ST00BP00 :WELL      
FLD         .                                       HIGH ISLAND :FIELD     
LOC         .                                                   :LOCATION  
CNTY        .                           HIGH ISLAND LARGE BLOCK :LOCATION  
STAT        .                                             TEXAS :STATE     
CTRY        .                                     UNITED STATES :COUNTRY   
SRVC        .                                                   :SERVICE COMPANY
DATE        .                             9/13/2023 11:19:15 AM :LOG DATE  
API         .                                    42708000660000 :API NUMBER
UWI         .                                    42708000660000 :UNIQUE WELL ID
XCOORD      .                                  1214371.69372255 :SURFACE X 
YCOORD      .                                  10618355.5582238 :SURFACE Y 
LAT         .                                         29.252113 :LATITUDE  
LON         .                                        -94.336419 :LONGITUDE 
ELEV        .FT                                              77 :ELEVATION VALUE
ELEV_TYPE   .                                                KB :ELEVATION REFERENCE TYPE
~Curve Information Section
#MNEM       .UNIT                                      API CODE :CURVE DESCRIPTION
#------------------------------------------------------------------------------
DEPT        .FT                                                 :DEPTH     
ASN         .OHMM                                               :          
CILD        .OHMM                                               :          
ILD         .OHMM                                               :          
SP          .MV                                                 :          
SP_NORM     .MV                                                 :SP Normalized
VSH_SP      .V/V                                                :Volume of Shale from SP
~A        DEPTH            ASN           CILD            ILD             SP        SP_NORM         VSH_SP
# ...
     11244.0000         0.4803       3896.309         0.3584       -70.2542      -26.46961      0.6020374
     11244.5000         0.4652       3910.371         0.3516       -70.1713      -26.40686      0.6030177
     11245.0000         0.4501       3924.438         0.3449       -70.0886      -26.34432       0.603995
     11245.5000         0.4349         3864.5         0.3381       -70.0059      -26.28177      0.6049723
     11246.0000         0.4223       3860.996         0.3314       -69.9437      -26.23973      0.6056291
     11246.5000         0.4145       3919.887         0.3246       -69.9297       -26.2459      0.6055329
     11247.0000         0.4068       3970.992         0.3179       -69.9156      -26.25195      0.6054382
     11247.5000         0.3991       4010.684         0.3111       -69.9015        -26.258      0.6053437
     11248.0000         0.3914       4012.137         0.3065       -69.8875      -26.26416      0.6052475
     11248.5000         0.3836       4013.594         0.3045       -69.8733      -26.27012      0.6051544
     11249.0000         0.3759       4015.047         0.3024       -69.8535      -26.27048      0.6051488
     11249.5000         0.3688       4016.496         0.3003       -69.8328      -26.26994      0.6051572
     11250.0000         0.3652       4017.953         0.2983       -69.8121       -26.2694      0.6051657
     11250.5000         0.3616       4019.234         0.2962       -69.7914      -26.26885      0.6051742
     11251.0000          0.358       4020.313         0.2942       -69.7544      -26.25201      0.6054373
     11251.5000         0.3544       4021.391         0.2921       -69.6982      -26.21596      0.6060006
     11252.0000         0.3508       4022.469         0.2901        -69.642      -26.17992      0.6065637
     11252.5000         0.3472       4023.547          0.288       -69.5858      -26.14388      0.6071269
     11253.0000         0.3436       4024.625          0.286       -69.5295      -26.10774      0.6076915
     11253.5000         0.3404       4024.832         0.2839       -69.4734      -26.07179      0.6082532
     11254.0000         0.3432       4019.148         0.2818       -69.4172      -26.03575      0.6088164
     11254.5000          0.346       3961.258         0.2798       -69.5198      -26.15851      0.6068983
     11255.0000         0.3488       3853.793         0.2777       -69.6562      -26.31506      0.6044521
     11255.5000         0.3516       3746.328         0.2757       -69.7926      -26.47163      0.6020058
     11256.0000         0.3545       3638.867         0.2795       -69.9287      -26.62789      0.5995643
     11256.5000         0.3573        3548.34         0.2841       -70.0652      -26.78454      0.5971165
     11257.0000         0.3601       3459.762         0.2886       -70.2797       -27.0192        0.59345
     11257.5000         0.3629       3346.457         0.2931       -70.5389      -27.29856       0.589085
     11258.0000         0.3657        3228.09         0.2976       -70.7977      -27.57751      0.5847264
     11258.5000         0.3681        3131.82         0.3021        -71.057      -27.85697      0.5803599
     11259.0000         0.3706       3683.836         0.3066       -71.3157      -28.13582      0.5760028
     11259.5000          0.373       3900.906         0.3112       -71.4742      -28.31448      0.5732112
     11260.0000         0.3754       3950.355         0.3157       -71.5233      -28.38374       0.572129
     11260.5000         0.3778       3993.965         0.3202       -71.5725       -28.4531      0.5710453
     11261.0000         0.3802       4017.332         0.3247       -71.6217      -28.52245      0.5699617
     11261.5000         0.3826       4016.715         0.3292       -71.6709      -28.59181      0.5688779
     11262.0000         0.3812       4016.457         0.3338       -71.2107      -28.15177      0.5757536
     11262.5000         0.3761       4017.395         0.3383       -70.6785      -27.63972      0.5837543
     11263.0000         0.3709       4018.332         0.3428       -70.1462      -27.12759      0.5917564
     11263.5000         0.3658        4019.27         0.3478       -69.6141      -26.61564      0.5997556
     11264.0000         0.3607       4020.207         0.3533       -68.5424       -25.5641       0.616186
     11264.5000         0.3556       4021.141         0.3587       -67.0479      -24.08976      0.6392226
     11265.0000         0.3504       3994.254         0.3642       -65.5558      -22.61782      0.6622216
     11265.5000         0.3545       4005.961         0.3697       -64.0612      -21.14338      0.6852598
     11266.0000         0.3636        4012.98         0.3752        -61.903      -19.00533      0.7186667
     11266.5000         0.3727       4019.234         0.3807       -59.4645      -16.58699      0.7564533
     11267.0000         0.3819       4022.805         0.3862       -60.2856      -17.42825      0.7433087
     11267.5000         0.3855       4021.039         0.3917       -63.4221       -20.5849      0.6939859
     11268.0000         0.3886       4019.273         0.3972       -66.5537      -23.73666      0.6447396
     11268.5000         0.3916       4017.508         0.4027       -69.2061      -26.40922       0.602981
     11269.0000         0.3947       4013.844         0.4082        -70.767      -27.99027       0.578277
     11269.5000         0.3978       3998.977         0.4137       -72.3279      -29.57134      0.5535728
     11270.0000         0.4009       3955.223         0.4192       -73.0382      -30.30179      0.5421595
     11270.5000         0.4034        3832.77         0.4231       -73.6097      -30.89345      0.5329148
     11271.0000         0.4098       2899.859         0.4214       -73.2841      -30.58801      0.5376874
     11271.5000         0.4281       2789.086         0.4197       -71.0078      -28.33186      0.5729397
     11272.0000         0.4464       2698.754         0.4179       -68.7366      -26.08082      0.6081122
     11272.5000         0.4647        2618.84         0.4162       -66.4603      -23.82468      0.6433644
     11273.0000          0.483        2563.16         0.4145       -64.1841      -21.56863      0.6786151
     11273.5000         0.5011       2510.109         0.4128       -62.7462      -20.15089      0.7007673
     11274.0000         0.5189        2464.75         0.4111       -61.7728      -19.19765      0.7156617
     11274.5000         0.5367       2436.082         0.4094       -60.8018      -18.24681      0.7305186
     11275.0000         0.5546       2432.727         0.4076       -60.0866      -17.55177      0.7413787
     11275.5000         0.5717       2429.367         0.4059       -59.9974      -17.48272      0.7424575
     11276.0000         0.5745       2426.008         0.4042       -59.9081      -17.41358      0.7435378
     11276.5000         0.5772       2418.332         0.4025       -59.6281      -17.15374      0.7475978
     11277.0000           0.58       2409.438         0.4008       -58.8267      -16.37249      0.7598048
     11277.5000         0.5828       2400.555         0.4064       -58.0266      -15.59255      0.7719914
     11278.0000         0.5855       2384.492         0.4134       -57.2252      -14.81131      0.7841983
     11278.5000         0.5878       2352.809         0.4203       -56.4251      -14.03136      0.7963849
     11279.0000         0.5898       2321.125         0.4273       -55.6238      -13.25022      0.8085903
     11279.5000         0.5931       2289.391         0.4343       -54.8396      -12.48618      0.8205284
     11280.0000         0.5983       2243.789         0.4412       -54.0591      -11.72584      0.8324087
     11280.5000         0.6035       2194.242         0.4482       -53.2787       -10.9656      0.8442875
     11281.0000         0.6088       2155.648         0.4552        -52.497      -10.20406      0.8561866
     11281.5000          0.614       2131.555         0.4621       -51.7166       -9.44381      0.8680655
