#------------------------------------------------------------------------------
# Created by    : vladimir.rabinovich
# Created on    : 09/19/2023 17:19:55
#------------------------------------------------------------------------------
~Version Information Section
VERS.           2.0     :   CWLS log ASCII Standard - VERSION 2.0
WRAP.           NO      :   One line per depth step
~Well Information Section
#MNEM       .UNIT                                         VALUE :DESCRIPTION
#------------------------------------------------------------------------------
STRT        .FT                                            1601 :START DEPTH
STOP        .FT                                            6340 :STOP DEPTH
STEP        .FT                                             0.5 :STEP      
NULL        .                                           -999.25 :NULL      
COMP        .                 FAIRWAYS OFFSHORE EXPLORATION INC :COMPANY   
WELL        .                                ST TR 00629-L SE/4 :WELL      
FLD         .                                       BLOCK 630-L :FIELD     
LOC         .                                                   :LOCATION  
CNTY        .                      MATAGORDA ISLAND LARGE BLOCK :LOCATION  
STAT        .                                             TEXAS :STATE     
CTRY        .                                     UNITED STATES :COUNTRY   
SRVC        .                                                   :SERVICE COMPANY
DATE        .                             9/13/2023 11:19:05 AM :LOG DATE  
API         .                                    42703302840100 :API NUMBER
UWI         .                                    42703302840100 :UNIQUE WELL ID
XCOORD      .                                  449566.970470722 :SURFACE X 
YCOORD      .                                  10204940.3648147 :SURFACE Y 
LAT         .                                        28.0716107 :LATITUDE  
LON         .                                       -96.6925833 :LONGITUDE 
ELEV        .FT                                              82 :ELEVATION VALUE
ELEV_TYPE   .                                                KB :ELEVATION REFERENCE TYPE
~Curve Information Section
#MNEM       .UNIT                                      API CODE :CURVE DESCRIPTION
#------------------------------------------------------------------------------
DEPT        .FT                                                 :DEPTH     
ASFL        .OHMM                                               :          
CILD        .MMHO                                               :          
GR          .GAPI                                               :          
GR_NORM     .GAPI                                               :GammaRay Normalized
ILD         .OHMM                                               :          
SP          .MV                                                 :          
SP_NORM     .MV                                                 :SP Normalized
VSH_GR      .V/V                                                :Volume of Shale from GR
VSH_SP      .V/V                                                :Volume of Shale from SP
~A        DEPTH           ASFL           CILD             GR        GR_NORM            ILD             SP        SP_NORM         VSH_GR         VSH_SP
# ...
      2555.0000         1.0513       775.6113        46.8505       52.33457         1.2579       -39.9001      -2.774353      0.4113738      0.9637887
      2555.5000         1.0489       793.8115        47.3066       52.98681         1.2413       -42.0064      -4.880653      0.4252513       0.920803
      2556.0000         1.0465        821.832        46.7253        52.1353         1.2248       -43.5389      -6.413151       0.407134      0.8895276
      2556.5000         1.0519       856.7715        46.1436        51.2832         1.2082        -44.871      -7.745251      0.3890042      0.8623418
      2557.0000         1.0622       893.5762        45.1023       49.76489         1.1917       -46.3369      -9.211151      0.3566999      0.8324255
      2557.5000         1.0823       923.6338          43.74       47.78128         1.1744       -48.2629      -11.13715      0.3144953      0.7931193
      2558.0000         1.1073       942.8701        43.0889       46.82859          1.153       -51.6151      -14.48935      0.2942252      0.7247071
      2558.5000         1.2479       961.4326        42.9683       46.64487         1.1316       -53.2454      -16.11965      0.2903165      0.6914357
      2559.0000         1.3241       977.4238        42.8815       46.51016         1.1102       -54.3062      -17.18045      0.2874503      0.6697868
      2559.5000         1.4169       987.6006        42.7948        46.3756         1.0888       -55.0983      -17.97255      0.2845872      0.6536214
      2560.0000         1.4995        996.207        42.4683       45.89342         1.0618       -55.7512      -18.62545      0.2743281      0.6402969
      2560.5000         1.5406       1006.401        41.6811       44.74345          1.034       -56.3329      -19.20715      0.2498606      0.6284254
      2561.0000         1.5701       1016.602        39.6902       41.84864         1.0063       -56.7773      -19.65155       0.188269       0.619356
      2561.5000          1.595        1025.58         39.484       41.54086          0.983       -57.1744      -20.04865      0.1817203       0.611252
      2562.0000         1.6188       1033.879        39.7335       41.89363         0.9625       -57.5534      -20.42765      0.1892261      0.6035174
      2562.5000         1.6336       1040.998        40.1718       42.52007         0.9485       -57.8798      -20.75405      0.2025547      0.5968561
      2563.0000         1.6289       1046.494          40.61       43.14638         0.9507       -58.2061      -21.08035      0.2158804      0.5901969
      2563.5000         1.6243       1049.115        41.0483       43.77282         0.9529       -58.3353      -21.20955       0.229209      0.5875602
      2564.0000         1.6191       1050.945        41.4672       44.37114         0.9561       -58.3585      -21.23275      0.2419392      0.5870867
      2564.5000         1.6111       1049.176        41.7264       44.73796         0.9652       -58.3154      -21.18965      0.2497438      0.5879663
      2565.0000         1.6159       1047.408        41.4299       44.29928         0.9742       -58.2723      -21.14655      0.2404103      0.5888458
      2565.5000         1.6241       1042.271        41.0847       43.79001         0.9833       -58.1896      -21.06385      0.2295747      0.5905336
      2566.0000         1.6325        1036.23        40.7394       43.28058         0.9951       -57.9953      -20.86955      0.2187357      0.5944989
      2566.5000          1.644       1024.711        40.3942       42.77131         1.0077       -57.8011      -20.67535      0.2079002      0.5984622
      2567.0000           1.66       1008.493        40.0491       42.26218         1.0203       -57.5571      -20.43135      0.1970676      0.6034418
      2567.5000         1.6936       983.4902        39.7039       41.75291         1.0329       -57.1984      -20.07265      0.1862321      0.6107622
      2568.0000         1.7362       945.2256        39.3586       41.24348         1.0377       -56.8397      -19.71395      0.1753932      0.6180826
      2568.5000         1.8088       882.4619        39.0134        40.7342         1.0409       -56.2575      -19.13175      0.1645574      0.6299642
      2569.0000         1.7926        854.208        39.3307       41.18525         1.0441       -55.5856      -18.45985      0.1741542      0.6436765
      2569.5000         1.7626       887.9453        39.9753       46.52104         1.0356       -54.7244      -17.59865      0.2876817       0.661252
      2570.0000         1.6767       926.9707          40.62       47.33893         1.0151       -53.7122      -16.58645      0.3050837      0.6819091
      2570.5000         1.2025       969.1367        42.8213       50.15055         0.9514       -42.6352      -5.509453      0.3649053      0.9079704
      2571.0000         0.9779       1008.616         58.227       69.87464         0.8774       -39.1305      -2.004753      0.7845668      0.9794948
      2571.5000         0.8994       1045.531        62.6412       75.52058         0.8168       -38.6997      -1.573952      0.9046933      0.9882867
      2572.0000         0.7897       1091.463        59.7326       71.78733         0.7839        -38.482      -1.356251      0.8252624      0.9927296
      2572.5000         0.7651       1126.428        54.8295       65.49947         0.7726       -39.0358      -1.910053      0.6914781      0.9814275
      2573.0000         0.7767       1131.457        52.7917       62.88156         0.7725       -39.9789      -2.853153      0.6357778      0.9621806
      2573.5000         0.8085       1063.418        51.2158       60.85526         0.7881       -41.1283      -4.002552      0.5926651      0.9387234
      2574.0000         0.8297       994.2988        49.6253       58.81025         0.8036       -42.2532      -5.127453      0.5491543      0.9157662
      2574.5000         0.8693       929.2031        48.1203       56.87476         0.8469       -42.8798      -5.754051      0.5079736      0.9029785
      2575.0000         0.8991       877.4072        47.0329       55.47414         0.9246       -43.1116      -5.985851      0.4781732       0.898248
      2575.5000         0.9743       838.3945        46.1271       54.30611         1.0001       -43.2053      -6.079552      0.4533216      0.8963357
      2576.0000         1.0202       806.7295        44.7748        52.5662         1.0741       -43.1729      -6.047153      0.4163021      0.8969969
      2576.5000         1.0633       778.8564        43.6591       51.12933         1.1407       -43.0007      -5.874954      0.3857304      0.9005111
      2577.0000         1.1014        753.958        42.8192        50.0457          1.201       -42.5912      -5.465454      0.3626745      0.9088683
      2577.5000         1.1287        738.623        42.1155       49.13654         1.2613       -42.0369      -4.911152      0.3433305      0.9201806
      2578.0000         1.1528       724.2676        41.7257       48.62941         1.2854       -41.3755      -4.249752      0.3325406      0.9336785
      2578.5000         1.1741       720.9629        41.6607        48.5383         1.3033       -41.2747      -4.148952      0.3306022      0.9357356
      2579.0000         1.1855       719.3115        41.8329         48.751         1.3072       -41.3589       -4.23315      0.3351277      0.9340174
      2579.5000          1.176       721.5313        42.6994       49.85298         1.3112       -41.5748      -4.449051      0.3585741      0.9296112
      2580.0000         1.1645        723.751         43.725       51.15873         1.3119       -42.0886      -4.962852      0.3863559      0.9191254
      2580.5000         1.1468       748.6152        45.5795       53.52615         1.3061       -42.7626      -5.636852      0.4367267      0.9053704
      2581.0000         1.1257       780.4883        48.2449        56.9322         1.2938       -43.6043      -6.478554      0.5091957      0.8881928
