#------------------------------------------------------------------------------
# Created by    : vladimir.rabinovich
# Created on    : 09/19/2023 17:21:34
#------------------------------------------------------------------------------
~Version Information Section
VERS.           2.0     :   CWLS log ASCII Standard - VERSION 2.0
WRAP.           NO      :   One line per depth step
~Well Information Section
#MNEM       .UNIT                                         VALUE :DESCRIPTION
#------------------------------------------------------------------------------
STRT        .FT                                            4500 :START DEPTH
STOP        .FT                                            8225 :STOP DEPTH
STEP        .FT                                             0.5 :STEP      
NULL        .                                           -999.25 :NULL      
COMP        .                             WALTER OIL & GAS CORP :COMPANY   
WELL        .                               OCS G08132 ST00BP00 :WELL      
FLD         .                              GALVESTON BLOCK 0385 :FIELD     
LOC         .                                                   :LOCATION  
CNTY        .                             GALVESTON LARGE BLOCK :LOCATION  
STAT        .                                             TEXAS :STATE     
CTRY        .                                     UNITED STATES :COUNTRY   
SRVC        .                                                   :SERVICE COMPANY
DATE        .                             9/13/2023 11:19:34 AM :LOG DATE  
API         .                                    42706402490000 :API NUMBER
UWI         .                                    42706402490000 :UNIQUE WELL ID
XCOORD      .                                  1009947.10754335 :SURFACE X 
YCOORD      .                                  10405011.8756564 :SURFACE Y 
LAT         .                                         28.657556 :LATITUDE  
LON         .                                        -94.966279 :LONGITUDE 
ELEV        .FT                                             101 :ELEVATION VALUE
ELEV_TYPE   .                                                KB :ELEVATION REFERENCE TYPE
~Curve Information Section
#MNEM       .UNIT                                      API CODE :CURVE DESCRIPTION
#------------------------------------------------------------------------------
DEPT        .FT                                                 :DEPTH     
CALI        .IN                                                 :          
DPHI        .%                                                  :          
DRHO        .G/C3                                               :          
GR          .GAPI                                               :          
GR_NORM     .GAPI                                               :GammaRay Normalized
ILD         .OHMM                                               :          
ILM         .OHMM                                               :          
NPHI        .%                                                  :          
SFL         .OHMM                                               :          
SP          .MV                                                 :          
SP_NORM     .MV                                                 :SP Normalized
VSH_GR      .V/V                                                :Volume of Shale from GR
VSH_SP      .V/V                                                :Volume of Shale from SP
~A        DEPTH           CALI           DPHI           DRHO             GR        GR_NORM            ILD            ILM           NPHI            SFL             SP        SP_NORM         VSH_GR         VSH_SP
# ...
      6761.0000         9.8506        21.3443        -0.0181        60.3244       52.56014         0.8232         0.8202        34.3044         0.8681       -73.4572      -13.42122      0.4161732      0.7763131
      6761.5000         9.8955        20.3206        -0.0161        59.9319       52.15129         0.8439         0.8439        34.0671         0.8431       -73.1495      -13.07052      0.4074742       0.782158
      6762.0000         9.9018        18.6948        -0.0104        58.9884       51.16848         0.8595         0.8699        31.9272         0.9526       -72.4691      -12.28501      0.3865633      0.7952498
      6762.5000         9.8861         17.096        -0.0072        56.6003       48.68087          0.847         0.8887         29.338          1.101       -71.8138      -11.52878      0.3336355      0.8078537
      6763.0000         9.8714        15.6079        -0.0058        54.8035        46.8092         0.7917         0.8855        27.5149          1.176       -71.4669      -11.13236      0.2938128      0.8144607
      6763.5000         9.8602        16.5345        -0.0083        58.8481       51.02233         0.7122          0.833        29.3982         1.0579       -71.9774      -11.73623      0.3834538      0.8043962
      6764.0000         9.8489        18.4328        -0.0118        63.2134       55.56952         0.6336         0.7146         32.692         0.9148       -73.7804      -13.84802      0.4802025      0.7691997
      6764.5000         9.8377        21.0944        -0.0175        63.3988       55.76264         0.5544         0.6369        35.1157         0.7904       -77.5643      -18.27085      0.4843115      0.6954858
      6765.0000         9.8236        23.9005        -0.0231        58.3469       50.50025         0.4847          0.547        34.8989         0.7671       -83.4633      -25.16131      0.3723457      0.5806448
      6765.5000         9.8087        26.4024        -0.0275        51.3854       43.24868         0.4358          0.488          32.96         0.8191       -88.6956      -31.27395       0.218057      0.4787675
      6766.0000         9.7938        27.7212        -0.0318        48.6114        40.3591         0.4035         0.4541        32.0055         0.8104       -93.8378      -37.28146      0.1565766      0.3786423
      6766.5000           9.78        27.6399        -0.0321        48.7317       40.48441         0.3877         0.4456        31.4236         0.7571       -98.0615       -42.2174      0.1592428      0.2963767
      6767.0000         9.7745        26.7035        -0.0299        53.2449       45.18566         0.3925         0.4514        31.9724         0.6949       -97.8898      -42.02538      0.2592694      0.2995771
      6767.5000          9.769         25.463        -0.0238        58.1564       50.30181          0.412         0.4676        33.1391         0.6601       -93.4619      -36.86778      0.3681236       0.385537
      6768.0000         9.7706        24.0961        -0.0171        61.4141       53.69525         0.4425         0.4971        34.5421         0.6423       -87.0468      -29.39178      0.4403244       0.510137
      6768.5000         9.7772        22.7864        -0.0125        64.6393       57.05482         0.4758         0.5366        35.5236         0.6566        -80.842      -22.16114      0.5118048      0.6306476
      6769.0000         9.7838        21.8508        -0.0082        66.8945         59.404          0.506         0.5721        35.8353         0.6631       -76.8176      -17.47429      0.5617871      0.7087619
      6769.5000         9.8194        21.5486        -0.0058        68.7365       61.32275         0.5197         0.5852         35.358         0.6635       -75.0359      -15.40393      0.6026117      0.7432679
      6770.0000         9.8604        21.8666        -0.0059        70.4492       63.10681          0.516         0.5809        35.3633         0.6363        -74.343      -14.60384      0.6405705      0.7566027
      6770.5000         9.9015        22.5441        -0.0061        69.4681       62.08483         0.5053         0.5718        36.0219         0.6298       -74.3862      -14.66253      0.6188262      0.7556246
      6771.0000          9.925        23.3705        -0.0072        67.3632       59.89222         0.4926         0.5573        36.7678         0.6325       -75.1561      -15.56903       0.572175      0.7405162
      6771.5000          9.874         24.139        -0.0082        64.3611       56.76504         0.4758         0.5392        36.6768         0.6457       -76.8853      -17.59472      0.5056391      0.7067547
      6772.0000         9.8207        24.6742        -0.0087        61.2387       53.51254         0.4597         0.5184        35.5327         0.6588       -78.5792      -19.57922       0.436437      0.6736796
      6772.5000           9.82        24.6648        -0.0089        60.4193         52.659         0.4454         0.4951        34.7777         0.6338       -80.1335      -21.40086      0.4182765       0.643319
      6773.0000         9.8193        24.2497        -0.0089         62.399       54.72118         0.4412         0.4909        34.3129         0.5798       -80.7494      -22.12769      0.4621528      0.6312051
      6773.5000         9.8543        23.5444        -0.0074        63.7183       56.09546         0.4437         0.5025        33.9686          0.587        -80.765      -22.15418      0.4913927      0.6307636
      6774.0000         9.9055        23.5219        -0.0059        62.1634       54.47577         0.4569         0.5174        32.6077         0.6561       -80.5454      -21.90628      0.4569312      0.6348954
      6774.5000         9.9887        23.6806         -0.004         60.091       52.31702          0.478         0.5364        31.3469         0.7235       -80.1761      -21.48371      0.4110003      0.6419381
      6775.0000         10.113         23.967        -0.0015        61.6146        53.9041          0.504          0.556        31.0424         0.7313       -79.6029      -20.82326      0.4447681      0.6529456
      6775.5000        10.3225        23.9298         0.0011        67.9496       60.50306         0.5326         0.5757        33.4658         0.7167       -78.5416      -19.59338      0.5851715      0.6734437
      6776.0000        10.5182        23.6103         0.0046        75.3069       68.16692         0.5572          0.596        36.2056          0.691        -74.066      -14.38013      0.7482322      0.7603312
      6776.5000        10.5469        22.9844         0.0084        78.1311       71.10879         0.5792         0.6168        38.3914         0.6751       -70.3673      -10.07327      0.8108253      0.8321123
      6777.0000        10.4613        22.0811         0.0116        76.6476       69.56348         0.6001         0.6354        38.6112          0.698        -67.498      -6.734035      0.7779463      0.8877661
      6777.5000        10.3546        21.3345         0.0147        75.1077       67.95941         0.6132         0.6519        36.7836         0.7115       -66.1937      -5.220644      0.7438173      0.9129893
      6778.0000        10.2471        20.6985         0.0151        73.7407       66.53545          0.626         0.6594        35.9816         0.7141       -65.4921      -4.410399      0.7135203      0.9264933
      6778.5000        10.2508        20.5865          0.015        73.3159       66.09296         0.6317         0.6666        36.1698          0.713       -64.9177       -3.74855      0.7041054      0.9375241
      6779.0000        10.2713        20.6008         0.0135        73.6173       66.40691         0.6366          0.667        36.4908         0.7089        -64.812      -3.633514      0.7107854      0.9394414
      6779.5000        10.3941        20.7711         0.0114         74.297       67.11493         0.6381         0.6674        36.6606          0.713       -64.7063      -3.518492      0.7258496      0.9413584
