#------------------------------------------------------------------------------
# Created by    : vladimir.rabinovich
# Created on    : 09/19/2023 17:20:38
#------------------------------------------------------------------------------
~Version Information Section
VERS.           2.0     :   CWLS log ASCII Standard - VERSION 2.0
WRAP.           NO      :   One line per depth step
~Well Information Section
#MNEM       .UNIT                                         VALUE :DESCRIPTION
#------------------------------------------------------------------------------
STRT        .FT                                             510 :START DEPTH
STOP        .FT                                            8711 :STOP DEPTH
STEP        .FT                                             0.5 :STEP      
NULL        .                                           -999.25 :NULL      
COMP        .                                      SHELL OIL CO :COMPANY   
WELL        .                                OCS 00708 ST00BP00 :WELL      
FLD         .                                           WILDCAT :FIELD     
LOC         .                                                   :LOCATION  
CNTY        .                             GALVESTON LARGE BLOCK :LOCATION  
STAT        .                                             TEXAS :STATE     
CTRY        .                                     UNITED STATES :COUNTRY   
SRVC        .                                                   :SERVICE COMPANY
DATE        .                             9/13/2023 11:19:25 AM :LOG DATE  
API         .                                    42706000300000 :API NUMBER
UWI         .                                    42706000300000 :UNIQUE WELL ID
XCOORD      .                                  1082576.09526943 :SURFACE X 
YCOORD      .                                  10493698.2734572 :SURFACE Y 
LAT         .                                         28.904546 :LATITUDE  
LON         .                                        -94.743912 :LONGITUDE 
ELEV        .FT                                              92 :ELEVATION VALUE
ELEV_TYPE   .                                                KB :ELEVATION REFERENCE TYPE
~Curve Information Section
#MNEM       .UNIT                                      API CODE :CURVE DESCRIPTION
#------------------------------------------------------------------------------
DEPT        .FT                                                 :DEPTH     
ASN         .OHMM                                               :          
CILD        .MMHO                                               :          
DT          .US/F                                               :          
ILD         .OHMM                                               :          
SP          .MV                                                 :          
SP_NORM     .MV                                                 :SP Normalized
VSH_SP      .V/V                                                :Volume of Shale from SP
~A        DEPTH            ASN           CILD             DT            ILD             SP        SP_NORM         VSH_SP
# ...
      4865.0000         0.8726       1351.541       130.4153         0.9625       -68.0175      -7.041893      0.8827467
      4865.5000         0.8638       1376.668       132.6181         0.9609       -67.6654      -6.689789      0.8909351
      4866.0000         0.8551       1408.291       133.9044         0.9591       -66.8882       -5.91259      0.9090095
      4866.5000         0.8475       1435.844       133.7634         0.9494       -66.2172      -5.241592      0.9246141
      4867.0000         0.8421       1500.941       135.2697         0.9397       -65.6881      -4.712494      0.9369187
      4867.5000         0.8368       1519.674       136.4325         0.9299       -65.1591      -4.183495      0.9492211
      4868.0000         0.8314       1537.619       139.1253         0.9202       -65.0088      -4.033188      0.9527166
      4868.5000         0.8226       1547.801       142.0829         0.9086       -65.2439      -4.268288      0.9472491
      4869.0000         0.8128       1557.992        141.634         0.8906        -65.479      -4.503387      0.9417817
      4869.5000         0.8035       1567.922       143.3589         0.8727       -65.5551      -4.579491      0.9400119
      4870.0000         0.7951       1577.281       145.8807         0.8649       -65.2429      -4.267288      0.9472724
      4870.5000         0.7867       1583.703       144.8608         0.8707       -64.9564      -3.980789      0.9539351
      4871.0000         0.7959       1584.424       140.9076         0.8766       -64.7231       -3.74749      0.9593607
      4871.5000         0.8048       1560.398        138.123         0.8824        -64.556      -3.580391      0.9632467
      4872.0000         0.8092       1535.047       136.0986         0.8883       -64.7584      -3.782791      0.9585397
      4872.5000         0.8041       1509.111       136.8945         0.8941       -64.9608      -3.985191      0.9538327
      4873.0000         0.8023       1483.107       141.7885            0.9       -65.1631      -4.187492      0.9491281
      4873.5000          0.819       1470.635        144.882         0.9058       -65.3655      -4.389893      0.9444211
      4874.0000         0.8342       1458.959        144.852         0.9103       -65.5679      -4.592293      0.9397141
      4874.5000         0.8417       1453.924       144.6356          0.913       -65.7701      -4.794495      0.9350117
      4875.0000         0.8476       1450.678       141.2125         0.9157       -65.9596      -4.983994      0.9306048
      4875.5000         0.8455       1458.908       142.0771         0.9184       -66.1483      -5.172691      0.9262165
      4876.0000         0.8415       1467.139       136.8648         0.9141       -66.3368      -5.361191      0.9218328
      4876.5000          0.829         1478.5       137.9203         0.9012        -66.421      -5.445389      0.9198747
      4877.0000         0.8165       1513.111        136.376         0.8883       -65.9226      -4.946991      0.9314653
      4877.5000          0.804       1572.938       136.6446         0.8753       -65.5148      -4.539192       0.940949
      4878.0000         0.7915       1592.627        136.286         0.8624       -65.1069      -4.131294       0.950435
      4878.5000         0.7833       1609.504       137.6106         0.8531       -64.6992      -3.723595      0.9599164
      4879.0000         0.7766       1625.742         139.78         0.8484       -64.2914      -3.315788      0.9694003
      4879.5000         0.7699        1641.98       140.3493         0.8436       -64.1028       -3.12719      0.9737863
      4880.0000         0.7623       1658.273       140.4904         0.8389       -64.0293      -3.053688      0.9754956
      4880.5000         0.7666       1672.129       140.1722         0.8386       -63.9557      -2.980091      0.9772072
      4881.0000         0.7716       1671.152       138.7255         0.8408       -63.9493       -2.97369       0.977356
      4881.5000         0.7767       1670.141       136.8578          0.843       -63.9742      -2.998592      0.9767769
      4882.0000         0.7818       1668.963        136.486         0.8452       -63.9992       -3.02359      0.9761956
      4882.5000         0.7811       1667.783        136.804         0.8473       -64.0242      -3.048592      0.9756141
      4883.0000         0.7758       1669.865       138.2695         0.8495       -63.9585      -2.982891      0.9771421
      4883.5000         0.7705       1678.434       138.7644         0.8513        -63.803      -2.827393      0.9807583
      4884.0000         0.7652       1704.887       139.6192         0.8451       -63.6476      -2.671989      0.9843723
      4884.5000         0.7599       1742.711       140.1885          0.839       -63.4923      -2.516689      0.9879839
      4885.0000         0.7543        1793.93       141.1521         0.8328       -63.3368      -2.361191      0.9916002
      4885.5000         0.7488       1812.461       142.2401         0.8267       -63.1815      -2.205891      0.9952118
      4886.0000         0.7433       1827.361       143.3256         0.8205        -63.026      -2.050392      0.9988281
      4886.5000         0.7377       1843.082       143.6855         0.8144       -62.9012      -1.925591              1
      4887.0000         0.7327       1855.623       143.7487         0.8082       -62.7772       -1.80159              1
      4887.5000         0.7283       1839.688        143.604         0.7997       -62.6532      -1.677589              1
      4888.0000         0.7261       1808.111       143.5069         0.7883       -62.5292      -1.553593              1
      4888.5000         0.7385       1719.967       142.5445         0.7833       -62.4053      -1.429691              1
      4889.0000         0.7508       1692.277        139.423         0.7973       -62.2813      -1.305691              1
      4889.5000         0.7632       1671.018       138.9713         0.8113       -62.1566      -1.180992              1
      4890.0000         0.7736        1638.43       139.5265         0.8253       -62.0292      -1.053593              1
      4890.5000         0.7834       1624.775       139.3817         0.8393       -61.9017     -0.9260902              1
      4891.0000         0.7933       1616.611       139.8083         0.8533       -61.7743     -0.7986908              1
      4891.5000         0.7996       1608.447       141.8051         0.8545       -61.6469     -0.6712914              1
      4892.0000         0.7907       1611.432       141.0182         0.8537       -61.2846     -0.3089905              1
      4892.5000          0.783       1616.961       140.0172         0.8528       -61.6617     -0.6860924              1
      4893.0000         0.7763       1622.488       140.2296          0.852       -61.9692     -0.9935913              1
      4893.5000         0.7696       1631.182       139.7193         0.8486       -62.1069       -1.13129              1
      4894.0000         0.7671        1645.34       139.1555         0.8423       -62.2449      -1.269291              1
      4894.5000          0.772        1659.51       139.7743          0.836       -61.9339     -0.9582901              1
      4895.0000         0.7768       1674.805        141.317         0.8297       -61.5286       -0.55299              1
      4895.5000         0.7816       1690.672       142.7246         0.8234       -61.8013     -0.8256912              1
      4896.0000         0.7745         1706.1       142.9557          0.817        -62.074      -1.098392              1
      4896.5000         0.7652       1721.113       143.2929         0.8107        -62.347      -1.371391              1
      4897.0000         0.7604       1732.828       143.3744         0.8048       -62.6198      -1.644192              1
      4897.5000         0.7557        1741.66       143.3907          0.803        -62.655       -1.67939              1
      4898.0000         0.7509       1747.975       142.4469         0.8013       -62.6692      -1.693592              1
