#------------------------------------------------------------------------------
# Created by    : vladimir.rabinovich
# Created on    : 09/19/2023 17:20:10
#------------------------------------------------------------------------------
~Version Information Section
VERS.           2.0     :   CWLS log ASCII Standard - VERSION 2.0
WRAP.           NO      :   One line per depth step
~Well Information Section
#MNEM       .UNIT                                         VALUE :DESCRIPTION
#------------------------------------------------------------------------------
STRT        .FT                                             409 :START DEPTH
STOP        .FT                                           13135 :STOP DEPTH
STEP        .FT                                             0.5 :STEP      
NULL        .                                           -999.25 :NULL      
COMP        .                         ATLANTIC RICHFIELD CO THE :COMPANY   
WELL        .                               OCS G04547 ST00BP00 :WELL      
FLD         .                                           WILDCAT :FIELD     
LOC         .                                                   :LOCATION  
CNTY        .                      MATAGORDA ISLAND LARGE BLOCK :LOCATION  
STAT        .                                             TEXAS :STATE     
CTRY        .                                     UNITED STATES :COUNTRY   
SRVC        .                                                   :SERVICE COMPANY
DATE        .                             9/13/2023 11:12:03 AM :LOG DATE  
API         .                                    42703401300000 :API NUMBER
UWI         .                                    42703401300000 :UNIQUE WELL ID
XCOORD      .                                  517134.995430583 :SURFACE X 
YCOORD      .                                  10172294.5320476 :SURFACE Y 
LAT         .                                         27.987424 :LATITUDE  
LON         .                                        -96.480505 :LONGITUDE 
ELEV        .FT                                              99 :ELEVATION VALUE
ELEV_TYPE   .                                                KB :ELEVATION REFERENCE TYPE
~Curve Information Section
#MNEM       .UNIT                                      API CODE :CURVE DESCRIPTION
#------------------------------------------------------------------------------
DEPT        .FT                                                 :DEPTH     
ASFL        .OHMM                                               :          
CILD        .MMHO                                               :          
GR          .GAPI                                               :          
GR_NORM     .GAPI                                               :GammaRay Normalized
ILD         .OHMM                                               :          
SP          .MV                                                 :          
SP_NORM     .MV                                                 :SP Normalized
VSH_GR      .V/V                                                :Volume of Shale from GR
VSH_SP      .V/V                                                :Volume of Shale from SP
~A        DEPTH           ASFL           CILD             GR        GR_NORM            ILD             SP        SP_NORM         VSH_GR         VSH_SP
# ...
     11406.5000         2.8376       501.0576        29.1088       57.54033         1.8281       -63.7043      -24.18334      0.5221347      0.4345526
     11407.0000           2.83       499.2949        28.4751       55.80037         1.8352       -63.7042      -24.18324      0.4851143      0.4345551
     11407.5000         2.8195       497.5288        27.8415       54.06068         1.8406       -63.6863      -24.16534      0.4480995      0.4349917
     11408.0000         2.8046       495.7632        27.2078        52.3207         1.8457        -63.563      -24.04204      0.4110788       0.437999
     11408.5000         2.7896        491.981        26.5825       50.60339         1.8714       -63.4398      -23.91884      0.3745401      0.4410039
     11409.0000         2.7747       487.5093        25.9596       48.89245         1.9052        -62.915      -23.39404      0.3381373      0.4538038
     11409.5000         2.7598       477.0161        25.4772       47.55971         1.9427       -62.0992      -22.57824       0.309781      0.4737014
     11410.0000         2.8211        456.814        26.3753       49.94217         1.9818       -60.5055      -20.98454      0.3604718      0.5125721
     11410.5000         2.9721       436.9253        27.1364       51.95596         2.0182       -59.1119      -19.59094      0.4033183      0.5465624
     11411.0000         3.0996       431.1396        27.8975       53.96977         2.0528        -57.697      -18.17604      0.4461653      0.5810722
     11411.5000         2.8402       437.7573        28.6586       55.98357         2.0875       -56.1771      -16.65614      0.4890122      0.6181428
     11412.0000          2.457        451.125        30.0891       59.79889         2.0756       -54.1857      -14.66474      0.5701892      0.6667136
     11412.5000         1.5733       469.1572        32.1401       65.28415         2.0084       -52.0131      -12.49214      0.6868968      0.7197039
     11413.0000         1.4825       487.2378        33.7909       69.69234         1.9296       -49.3546      -9.833641       0.780688      0.7845454
     11413.5000         1.3635       521.5664        35.1869       73.41483         1.5945       -46.6437      -7.122742        0.85989      0.8506649
     11414.0000         1.2839       564.1895        39.1436       84.02879         1.4481       -45.8112      -6.290241              1      0.8709697
     11414.5000          1.221       667.9482         40.885        88.6808          1.337       -44.8738       -5.35284              1      0.8938332
     11415.0000         1.1854       867.9443        40.6444       87.99878         1.2492       -43.6183      -4.097343              1       0.924455
     11415.5000         1.1146       931.4922        40.3848        87.2656         1.1729       -43.1146      -3.593643              1      0.9367404
     11416.0000          1.089       962.7832        40.1489       86.59623         1.1019       -42.6096      -3.088642              1      0.9490575
     11416.5000         1.0588       993.7373        39.9208       85.94785         1.0332       -42.3076       -2.78664              1      0.9564234
     11417.0000         1.0424       1024.016        39.6921       85.29783         0.9757       -42.0563      -2.535343              1      0.9625526
     11417.5000         1.0209       1051.113        39.5259       84.81604         0.9478       -41.7752      -2.254242              1      0.9694088
     11418.0000         1.0119       1077.197        39.5119       84.75795         0.9536       -41.4935      -1.972542              1      0.9762795
     11418.5000         1.0036        1108.73        39.4979       84.71056         0.9594       -41.2118      -1.690842              1      0.9831502
     11419.0000         0.9982       1140.408         38.884       83.04872         0.9729        -41.132      -1.611042              1      0.9850965
     11419.5000         1.1682       1055.791        37.8763       80.32709         0.9876       -41.4667      -1.945744              1      0.9769331
     11420.0000          1.235       941.2314        36.8687       77.60569         1.0022       -41.8014      -2.280441      0.9490572      0.9687697
     11420.5000         1.2987        834.001         35.861       74.88403         1.0348       -42.5654      -3.044441      0.8911496      0.9501356
     11421.0000         1.4193       795.8145        32.9977       67.16852         1.0856       -44.5903      -5.069344      0.7269897      0.9007477
     11421.5000         1.5583       763.4141         31.566       63.30576         1.1364       -52.6516      -13.13064      0.6448033      0.7041307
     11422.0000         1.6894       734.8223        30.6024       60.70278         1.2149       -56.0151      -16.49414      0.5894209      0.6220942
     11422.5000         1.9807       708.5449         29.833       58.62243         1.3699       -59.1739      -19.65294      0.5451581      0.5450502
     11423.0000         2.1089       679.2305        28.8861       56.06441         1.5995       -61.7562      -22.23524      0.4907322      0.4820673
     11423.5000         2.2601       637.3799        27.7807       53.07985         1.6389       -64.6481      -25.12714      0.4272308      0.4115331
     11424.0000         2.7801       594.4678        27.2007       51.50923         1.6693       -66.5609      -27.03994      0.3938134      0.3648795
     11424.5000         2.8347       573.2051        26.6528         50.025         1.6921       -67.6495      -28.12854      0.3622341      0.3383283
     11425.0000           2.86        552.376        26.2478       48.92537          1.715       -72.0114      -32.49044      0.3388376      0.2319405
     11425.5000          2.852       539.8643        26.0903       48.49178         1.7141       -72.2388      -32.71784      0.3296123      0.2263941
     11426.0000         2.8224       551.1953        26.3086       49.06963         1.6918       -72.4523      -32.93134      0.3419069      0.2211868
     11426.5000         2.7928        562.502        26.5268       49.64717         1.6695       -72.6387      -33.11774      0.3541951      0.2166404
     11427.0000         2.7681        573.832        26.7451       50.22499         1.6497       -72.8373      -33.31635      0.3664893      0.2117965
     11427.5000         2.7494       585.1387        26.9634       50.80281         1.6301       -73.0625      -33.54154      0.3787833      0.2063038
     11428.0000         2.7516       596.4687        27.1816       51.38039         1.6106       -73.1089      -33.58794      0.3910721      0.2051721
     11428.5000         2.7707       603.0381        27.4609       52.12236         1.5842        -72.698      -33.17704      0.4068588      0.2151942
     11429.0000         2.7898        609.584        27.7545       52.90282         1.5545       -72.2871      -32.76614      0.4234643       0.225216
     11429.5000         2.8088       616.1289        28.0487       53.68493         1.5322       -71.8761      -32.35514      0.4401048      0.2352405
     11430.0000         2.8279       622.6865        28.7193          55.48          1.519        -71.442      -31.92104      0.4782978      0.2458282
     11430.5000         2.7419       628.4111        29.4935       57.55388         1.5112       -70.8179      -31.29694       0.522423      0.2610502
     11431.0000         2.6185       633.1367        30.6584       60.67922         1.5134       -70.1925      -30.67154      0.5889195      0.2763039
     11431.5000         2.4625        637.874         31.778       63.68269         1.5156       -69.4744      -29.95345      0.6528232      0.2938184
     11432.0000          2.411       642.5986        32.8381         66.526         1.5178       -68.6549      -29.13394      0.7133192      0.3138063
     11432.5000         2.3795       646.8779        33.5634       68.46825           1.52        -67.833      -28.31204      0.7546437      0.3338526
