#------------------------------------------------------------------------------
# Created by    : vladimir.rabinovich
# Created on    : 09/19/2023 17:22:48
#------------------------------------------------------------------------------
~Version Information Section
VERS.           2.0     :   CWLS log ASCII Standard - VERSION 2.0
WRAP.           NO      :   One line per depth step
~Well Information Section
#MNEM       .UNIT                                         VALUE :DESCRIPTION
#------------------------------------------------------------------------------
STRT        .FT                                             306 :START DEPTH
STOP        .FT                                           13139 :STOP DEPTH
STEP        .FT                                             0.5 :STEP      
NULL        .                                           -999.25 :NULL      
COMP        .                                    CITIES SERVICE :COMPANY   
WELL        .                                          SL 77337 :WELL      
FLD         .                                           WILDCAT :FIELD     
LOC         .                                                   :LOCATION  
CNTY        .                                BRAZOS LARGE BLOCK :LOCATION  
STAT        .                                             TEXAS :STATE     
CTRY        .                                     UNITED STATES :COUNTRY   
SRVC        .                                                   :SERVICE COMPANY
DATE        .                             9/13/2023 11:18:52 AM :LOG DATE  
API         .                                    42704301950000 :API NUMBER
UWI         .                                    42704301950000 :UNIQUE WELL ID
XCOORD      .                                   673900.18951543 :SURFACE X 
YCOORD      .                                   10333530.060148 :SURFACE Y 
LAT         .                                        28.4418955 :LATITUDE  
LON         .                                       -96.0077528 :LONGITUDE 
ELEV        .FT                                              82 :ELEVATION VALUE
ELEV_TYPE   .                                                KB :ELEVATION REFERENCE TYPE
~Curve Information Section
#MNEM       .UNIT                                      API CODE :CURVE DESCRIPTION
#------------------------------------------------------------------------------
DEPT        .FT                                                 :DEPTH     
DT          .US/F                                               :          
SP          .MV                                                 :          
SP_NORM     .MV                                                 :SP Normalized
VSH_SP      .V/V                                                :Volume of Shale from SP
~A        DEPTH             DT             SP        SP_NORM         VSH_SP
# ...
     13079.0000         84.212       -44.9433      -4.467106      0.8980263
     13079.5000        77.6715       -45.7769      -5.300709      0.8735086
     13080.0000         68.718       -46.7007      -6.224506       0.846338
     13080.5000        64.3062       -47.4929      -7.016708       0.823038
     13081.0000        61.9631        -48.295      -7.818806      0.7994469
     13081.5000        59.9965       -49.1586      -8.682407      0.7740468
     13082.0000        59.6948       -50.3286      -9.852409       0.739635
     13082.5000        61.9332       -51.5989      -11.12271      0.7022733
     13083.0000          64.66       -53.2408      -12.76461      0.6539822
     13083.5000        67.6812       -55.3146      -14.83841       0.592988
     13084.0000        71.1409        -57.544      -17.06781      0.5274175
     13084.5000        74.6853       -60.6622      -20.18601      0.4357056
     13085.0000        76.8788       -64.3025      -23.82631      0.3286381
     13085.5000        76.5049       -68.2593      -27.78311      0.2122615
     13086.0000        74.2516       -71.3673      -30.89111      0.1208497
     13086.5000        72.7062       -72.7795      -32.30331      0.0793144
     13087.0000        71.3801       -72.1118      -31.63561     0.09895269
     13087.5000        71.2605        -70.318      -29.84181      0.1517115
     13088.0000        73.0253        -68.204      -27.72781      0.2138879
     13088.5000        75.0143       -66.2507      -25.77451       0.271338
     13089.0000        76.5398       -63.5042      -23.02801      0.3521174
     13089.5000        77.6091       -60.3157      -19.83951      0.4458968
     13090.0000        78.3245       -56.7004      -16.22421      0.5522292
     13090.5000        79.1047       -52.7939      -12.31771      0.6671262
     13091.0000        79.3265       -48.5661      -8.089909      0.7914733
     13091.5000        78.8601        -45.001      -4.524807      0.8963292
     13092.0000        79.3552        -41.416     -0.9398079              1
     13092.5000        79.5613       -39.5656      0.9105911              1
     13093.0000        78.7034        -38.702       1.774193              1
     13093.5000        76.0063        -38.191       2.285191              1
     13094.0000        71.5596        -38.692       1.784191              1
     13094.5000        66.8635       -39.6987      0.7774925              1
     13095.0000        62.9951        -40.846     -0.3698082              1
     13095.5000        60.2283       -42.3875      -1.911308      0.9731968
     13096.0000        57.6297       -44.0018      -3.525608      0.9257174
     13096.5000        58.2728       -45.3927      -4.916508      0.8848086
     13097.0000         59.134       -46.6179      -6.141708      0.8487733
     13097.5000        60.0089       -47.6648      -7.188606      0.8179822
     13098.0000        61.3076       -48.4808      -8.004608      0.7939821
     13098.5000        62.3968       -49.0224      -8.546207      0.7780527
     13099.0000        62.4517        -49.158      -8.681808      0.7740645
     13099.5000        61.7288       -48.9107      -8.434509       0.781338
     13100.0000        60.5772       -48.3138      -7.837608      0.7988939
     13100.5000        59.7073       -47.6208      -7.144608      0.8192763
     13101.0000        59.2549       -46.7911      -6.314907      0.8436792
     13101.5000        59.3303       -45.7643      -5.288109      0.8738791
     13102.0000        59.4755        -44.755      -4.278809      0.9035645
     13102.5000        59.6387       -43.7784      -3.302208       0.932288
     13103.0000        59.7992       -42.8495      -2.373306      0.9596086
     13103.5000         59.979       -41.9055      -1.429306      0.9873734
     13104.0000        61.2552       -40.8975     -0.4213066              1
     13104.5000        64.0419       -40.3969      0.0792923              1
     13105.0000        68.3092       -40.7343     -0.2581062              1
     13105.5000        73.5636       -41.5114      -1.035206      0.9989645
     13106.0000        76.6682       -42.5909      -2.114708      0.9672145
     13106.5000        77.4487       -43.6227      -3.146507      0.9368674
     13107.0000        77.2577       -44.6295      -4.153309      0.9072556
     13107.5000        76.2058       -45.6664      -5.190208      0.8767586
     13108.0000          74.78       -47.1903      -6.714108       0.831938
     13108.5000        72.9105       -48.8197      -8.343506      0.7840145
     13109.0000        71.4648       -49.8892      -9.413006      0.7525586
     13109.5000        70.6847       -51.1069      -10.63071      0.7167439
     13110.0000        71.2156       -51.5286      -11.05241       0.704341
     13110.5000        74.1818        -51.818      -11.34181      0.6958292
     13111.0000        78.6335       -52.8793      -12.40311      0.6646145
     13111.5000        79.9734       -55.0686      -14.59241      0.6002233
     13112.0000        79.6581        -57.067      -16.59081      0.5414468
     13112.5000        78.0977       -60.9083      -20.43211      0.4284675
     13113.0000        76.4601       -62.7761      -22.29991      0.3735321
     13113.5000        74.7302       -64.1694      -23.69321      0.3325526
     13114.0000        77.2976       -63.9034      -23.42721      0.3403762
     13114.5000         79.511       -62.8891      -22.41291      0.3702086
     13115.0000        81.0839       -61.2949      -20.81871      0.4170969
     13115.5000         82.365       -59.6843      -19.20811      0.4644674
     13116.0000        81.4104       -60.4161      -19.93991      0.4429439
     13116.5000         77.821       -61.8322      -21.35601      0.4012939
     13117.0000        75.2286       -63.9862      -23.51001       0.337941
     13117.5000        73.5114       -67.3102      -26.83401      0.2401761
     13118.0000        73.0477       -68.4852      -28.00901      0.2056175
     13118.5000        74.2241       -69.4644      -28.98821      0.1768174
     13119.0000        75.2711        -69.556      -29.07981      0.1741233
     13119.5000        76.1211       -68.9949      -28.51871      0.1906261
     13120.0000        77.1455       -67.9806      -27.50441      0.2204586
     13120.5000        78.5563       -66.0851      -25.60891      0.2762086
     13121.0000        79.9672       -64.8071      -24.33091      0.3137969
     13121.5000        81.4801       -61.6564      -21.18021      0.4064645
     13122.0000        82.6367       -58.9901      -18.51391       0.484885
     13122.5000        82.6769       -56.6754      -16.19921      0.5529645
     13123.0000        82.6603       -55.7615      -15.28531      0.5798439
     13123.5000        82.5929       -54.8777      -14.40151       0.605838
     13124.0000         82.558       -53.8785      -13.40231      0.6352262
     13124.5000         82.639       -53.0663      -12.59011      0.6591145
     13125.0000        82.7236       -52.7601      -12.28391      0.6681203
     13125.5000        82.8292       -53.1793      -12.70311       0.655791
     13126.0000        82.9346       -53.8108      -13.33461      0.6372175
     13126.5000        82.9395       -53.8284      -13.35221      0.6366998
     13127.0000        82.9241       -53.4166      -12.94041      0.6488116
     13127.5000        82.9321       -53.0463      -12.57011      0.6597028
     13128.0000        82.9553       -54.0794      -13.60321      0.6293175
     13128.5000        82.9075       -56.2536      -15.77741      0.5653703
     13129.0000        82.7971       -58.8445      -18.36831      0.4891674
     13129.5000        82.6919       -61.0689      -20.59271      0.4237439
     13130.0000        82.5929       -62.2853      -21.80911      0.3879674
     13130.5000        82.4948       -62.8075      -22.33131      0.3726086
     13131.0000        82.4141       -62.7937      -22.31751      0.3730145
     13131.5000        82.3815       -61.9777      -21.50151      0.3970145
