#------------------------------------------------------------------------------
# Created by    : vladimir.rabinovich
# Created on    : 09/19/2023 17:20:35
#------------------------------------------------------------------------------
~Version Information Section
VERS.           2.0     :   CWLS log ASCII Standard - VERSION 2.0
WRAP.           NO      :   One line per depth step
~Well Information Section
#MNEM       .UNIT                                         VALUE :DESCRIPTION
#------------------------------------------------------------------------------
STRT        .FT                                             501 :START DEPTH
STOP        .FT                                            8659 :STOP DEPTH
STEP        .FT                                             0.5 :STEP      
NULL        .                                           -999.25 :NULL      
COMP        .                                      SHELL OIL CO :COMPANY   
WELL        .                                OCS 00705 ST00BP00 :WELL      
FLD         .                                           WILDCAT :FIELD     
LOC         .                                                   :LOCATION  
CNTY        .                             GALVESTON LARGE BLOCK :LOCATION  
STAT        .                                             TEXAS :STATE     
CTRY        .                                     UNITED STATES :COUNTRY   
SRVC        .                                                   :SERVICE COMPANY
DATE        .                             9/13/2023 11:19:25 AM :LOG DATE  
API         .                                    42706000440000 :API NUMBER
UWI         .                                    42706000440000 :UNIQUE WELL ID
XCOORD      .                                  1104214.94625617 :SURFACE X 
YCOORD      .                                  10500066.5450575 :SURFACE Y 
LAT         .                                         28.922918 :LATITUDE  
LON         .                                        -94.676571 :LONGITUDE 
ELEV        .FT                                              41 :ELEVATION VALUE
ELEV_TYPE   .                                                KB :ELEVATION REFERENCE TYPE
~Curve Information Section
#MNEM       .UNIT                                      API CODE :CURVE DESCRIPTION
#------------------------------------------------------------------------------
DEPT        .FT                                                 :DEPTH     
ASN         .OHMM                                               :          
CILD        .MMHO                                               :          
DT          .US/F                                               :          
ILD         .OHMM                                               :          
LAT         .OHMM                                               :          
SP          .MV                                                 :          
SP_NORM     .MV                                                 :SP Normalized
VSH_SP      .V/V                                                :Volume of Shale from SP
~A        DEPTH            ASN           CILD             DT            ILD            LAT             SP        SP_NORM         VSH_SP
       501.0000         0.1679        -999.25        -999.25         0.8682        -0.0038       -74.1102       2.577754              1
       501.5000         0.1993        -999.25        -999.25         0.8911        -0.0027       -72.0179       3.602299              1
       502.0000         0.2469        -999.25        -999.25         0.9157        -0.0016       -69.6157     0.09034886              1
       502.5000          0.307        -999.25        -999.25         0.9448        -0.0024       -67.4304       2.970152              1
       503.0000         0.3783        -999.25        -999.25         0.9738        -0.0033       -59.5453      0.3811046              1
       503.5000         0.4391        -999.25        -999.25         1.0131        -0.0041       -56.4037      -0.137061              1
       504.0000         0.4869        -999.25        -999.25         1.0656        -0.0049       -55.5044    -0.06029171              1
       504.5000         0.5303        -999.25        -999.25         1.1181        -0.0056       -54.8105        2.65628              1
       505.0000         0.6084        -999.25        -999.25         1.1705        -0.0063       -54.1816      -1.089266              1
       505.5000          0.655        -999.25        -999.25         1.2237         -0.007       -53.8695       1.073107              1
       506.0000         0.7015        -999.25        -999.25          1.278        -0.0077       -54.1941       3.211888              1
       506.5000         0.7283        -999.25        -999.25         1.3253        -0.0084       -54.5187     -0.1866723              1
       507.0000         0.7442        -999.25        -999.25         1.3657        -0.0091       -54.8699       3.554117              1
       507.5000         0.7601        -999.25        -999.25         1.4094        -0.0097       -55.2267       1.928684              1
       508.0000         0.7754        -999.25        -999.25         1.4568        -0.0104       -55.4476       2.906782              1
       508.5000         0.7874        -999.25        -999.25         1.4988        -0.0107       -55.1906       1.163168              1
       509.0000         0.7993        -999.25        -999.25          1.534        -0.0088       -54.9335       3.730312              1
       509.5000         0.8112        -999.25        -999.25         1.5629        -0.0069       -54.6765      0.2927282              1
       510.0000         0.8232        -999.25        -999.25         1.5336         -0.005       -54.0931       1.734469              1
       510.5000         0.8351        -999.25        -999.25         1.4688        -0.0031       -53.4604       2.022562              1
       511.0000         0.8495        -999.25        -999.25         1.3828        -0.0011       -52.8276      -1.168184              1
       511.5000         0.8645        -999.25        -999.25         1.2945         0.0009        -52.195     -0.9432379              1
       512.0000         0.8796        -999.25        -999.25         1.2214          0.003       -51.8194       2.910679              1
       512.5000         0.8946        -999.25        -999.25         1.1676         0.0041       -51.4547      -1.141154              1
       513.0000         0.9096        -999.25        -999.25         1.1301         0.0042       -51.0899       2.973033              1
       513.5000         0.9354        -999.25        -999.25         1.1106         0.0043       -50.7251       1.005549              1
       514.0000         0.9629        -999.25        -999.25         1.1765         0.0044       -50.5801       3.522403              1
       514.5000         0.9912        -999.25        -999.25         1.2423         0.0045       -50.4807       2.516462              1
       515.0000         1.0249        -999.25        -999.25         1.2933         0.0046       -50.5449     -0.3841906              1
       515.5000         1.0586        -999.25        -999.25         1.3095         0.0047       -50.6968     -0.7895257              1
       516.0000         1.0751        -999.25        -999.25         1.3245         0.0048       -50.8488     -0.1931622              1
       516.5000         1.0912        -999.25        -999.25         1.3274         0.0049       -51.0008       1.506688              1
       517.0000         1.1072        -999.25        -999.25         1.3303         0.0044       -51.2338       2.828315              1
       517.5000         1.1233        -999.25        -999.25         1.3331          0.003       -51.5074       2.734358              1
       518.0000         1.1379        -999.25        -999.25          1.336         0.0017        -51.781        3.17515              1
       518.5000         1.1521        -999.25        -999.25         1.3389         0.0003       -52.0546      0.5152242              1
       519.0000         1.1585        -999.25        -999.25         1.3417         -0.001       -52.3282     0.03653893              1
       519.5000         1.1647        -999.25        -999.25         1.3446        -0.0003       -52.6017     -0.5413656              1
       520.0000         1.1679        -999.25        -999.25         1.3475         0.0029       -52.8607       2.547387              1
       520.5000         1.1655        -999.25        -999.25         1.3508         0.0169       -53.0807      0.7769331              1
       521.0000         1.1602        -999.25        -999.25         1.3606         0.1935       -53.3008     -0.9886674              1
       521.5000         1.1525        -999.25        -999.25         1.3705         0.4597       -53.1772      0.3854128              1
       522.0000         1.1448        -999.25        -999.25         1.3803          0.726       -52.8918        2.66268              1
       522.5000         1.1372        -999.25        -999.25         1.3901         0.9923       -52.6065       3.270835              1
       523.0000         1.1295        -999.25        -999.25            1.4         1.1323       -52.3212       2.365266              1
       523.5000         1.1219        -999.25        -999.25         1.4098         1.2032       -52.0358       2.395757              1
       524.0000         1.1142        -999.25        -999.25         1.4197         1.2531       -51.7504      0.5819684              1
       524.5000         1.1063        -999.25        -999.25         1.4295         1.2827       -51.5032     -0.3374767              1
       525.0000         1.0985        -999.25        -999.25         1.4393         1.2745       -51.2677      0.9922428              1
       525.5000         1.0907        -999.25        -999.25         1.4492         1.2631       -51.0321     -0.1217242              1
       526.0000         1.0829        -999.25        -999.25         1.4619         1.2467       -50.7965       2.581628              1
       526.5000         1.0791        -999.25        -999.25         1.4753         1.2287        -50.561       3.423592              1
       527.0000         1.0791        -999.25        -999.25         1.4887         1.2107       -50.3254     -0.4016966              1
       527.5000         1.0822        -999.25        -999.25         1.5021         1.1928        -50.107     -0.3540886              1
       528.0000         1.0921        -999.25        -999.25         1.5155          1.175       -50.1683       2.055052              1
       528.5000          1.102        -999.25        -999.25         1.5289         1.1579       -50.2296       2.270992              1
       529.0000         1.1118        -999.25        -999.25         1.5423         1.1409       -50.2909     -0.5583797              1
       529.5000         1.1217        -999.25        -999.25         1.5556         1.1238       -50.3522    -0.01849697              1
       530.0000         1.1391        -999.25        -999.25          1.569         1.1099       -50.4136       3.747119              1
