#------------------------------------------------------------------------------
# Created by    : vladimir.rabinovich
# Created on    : 09/19/2023 17:19:48
#------------------------------------------------------------------------------
~Version Information Section
VERS.           2.0     :   CWLS log ASCII Standard - VERSION 2.0
WRAP.           NO      :   One line per depth step
~Well Information Section
#MNEM       .UNIT                                         VALUE :DESCRIPTION
#------------------------------------------------------------------------------
STRT        .FT                                             960 :START DEPTH
STOP        .FT                                            9172 :STOP DEPTH
STEP        .FT                                             0.5 :STEP      
NULL        .                                           -999.25 :NULL      
COMP        .                                ODECO OIL & GAS CO :COMPANY   
WELL        .                               OCS G06101 ST00BP00 :WELL      
FLD         .                                           WILDCAT :FIELD     
LOC         .                                                   :LOCATION  
CNTY        .                             GALVESTON LARGE BLOCK :LOCATION  
STAT        .                                             TEXAS :STATE     
CTRY        .                                     UNITED STATES :COUNTRY   
SRVC        .                                                   :SERVICE COMPANY
DATE        .                             9/13/2023 11:19:27 AM :LOG DATE  
API         .                                    42706401070000 :API NUMBER
UWI         .                                    42706401070000 :UNIQUE WELL ID
XCOORD      .                                  1041316.87817256 :SURFACE X 
YCOORD      .                                  10447909.9182991 :SURFACE Y 
LAT         .                                         28.776905 :LATITUDE  
LON         .                                        -94.870587 :LONGITUDE 
ELEV        .FT                                              92 :ELEVATION VALUE
ELEV_TYPE   .                                                KB :ELEVATION REFERENCE TYPE
~Curve Information Section
#MNEM       .UNIT                                      API CODE :CURVE DESCRIPTION
#------------------------------------------------------------------------------
DEPT        .FT                                                 :DEPTH     
ASFL        .OHMM                                               :          
GR          .GAPI                                               :          
GR_NORM     .GAPI                                               :GammaRay Normalized
ILD         .OHMM                                               :          
SP          .MV                                                 :          
SP_NORM     .MV                                                 :SP Normalized
VSH_GR      .V/V                                                :Volume of Shale from GR
VSH_SP      .V/V                                                :Volume of Shale from SP
~A        DEPTH           ASFL             GR        GR_NORM            ILD             SP        SP_NORM         VSH_GR         VSH_SP
# ...
      5326.0000         0.5887        47.7934       43.42995         0.3796      -100.3126      -36.43196      0.2219138      0.3928007
      5326.5000         0.5986        47.2816       42.75296         0.3905      -100.9216      -37.29221      0.2075098      0.3784632
      5327.0000         0.6042        46.8695       42.20786         0.4014      -101.5677       -38.2044      0.1959118        0.36326
      5327.5000         0.6039         46.507       41.72836         0.4133      -102.2145      -39.11756      0.1857098      0.3480406
      5328.0000         0.6036        46.1441       41.24833         0.4291      -102.5162      -39.54758      0.1754964      0.3408736
      5328.5000         0.6033        46.0521       41.12664          0.445      -102.8114      -39.96853      0.1729072      0.3338579
      5329.0000          0.603        46.0906       41.17756         0.4287      -103.1062       -40.3889      0.1739907      0.3268517
      5329.5000         0.6013        45.8162        40.8146         0.4032      -103.3462      -40.73254      0.1662681      0.3211243
      5330.0000          0.589        45.3038       40.13682         0.3777      -103.5591      -41.03825      0.1518473      0.3160292
      5330.5000         0.5768        44.0711       38.50627         0.3522      -103.6376       -41.1558      0.1171546      0.3140699
      5331.0000         0.5653        42.8384       36.87572         0.3267      -103.5748      -41.07552     0.08246206      0.3154079
      5331.5000         0.5538        41.6993       35.36897         0.3187      -103.4462      -40.90313     0.05040351      0.3182812
      5332.0000         0.5424        40.8521       34.24833          0.314      -103.3176      -40.73074     0.02656019      0.3211544
      5332.5000         0.5327        40.6843       34.02637         0.3094      -103.1891      -40.55849     0.02183776      0.3240251
      5333.0000         0.5288        42.3096       36.17625          0.307      -103.0234      -40.33416     0.06757972      0.3277641
      5333.5000         0.5248        43.7155        38.0359         0.3083      -102.5707      -39.70803      0.1071467      0.3381996
      5334.0000          0.521        44.5093        39.0859         0.3097      -102.1182      -39.08219      0.1294871      0.3486302
      5334.5000         0.5198        45.3026       40.13524          0.311      -101.6716      -38.46459      0.1518136      0.3589235
      5335.0000         0.5187        46.0964       41.18524         0.3124      -101.2797      -37.92358       0.174154      0.3679403
      5335.5000         0.5175        46.8896       42.23444         0.3158      -100.8873      -37.38187      0.1964775      0.3769689
      5336.0000         0.5164          48.49       44.35138         0.3261      -100.4889      -36.83175      0.2415187      0.3861375
      5336.5000         0.5168        47.1795       42.61791         0.3365      -100.0448      -36.21766      0.2046364      0.3963723
      5337.0000         0.5175        45.3342       40.17704         0.3468       -99.6008      -35.60371       0.152703      0.4066048
      5337.5000         0.5181         44.527       39.10931         0.3571       -98.9863      -34.75105      0.1299853      0.4208158
      5338.0000         0.5188        46.6166       41.87333         0.3675       -97.9967      -33.37326      0.1887942       0.443779
      5338.5000         0.5195        48.1995       43.96712         0.3906       -96.8054      -31.71309      0.2333429      0.4714485
      5339.0000         0.5211        49.1476       45.22121         0.4136       -95.4487      -29.82136      0.2600258      0.5029773
      5339.5000         0.5247         49.509       45.69926         0.4367       -94.2428      -28.14075      0.2701969      0.5309876
      5340.0000         0.5284        49.8704        46.1773         0.4598       -93.0564      -26.48744      0.2803681      0.5585426
      5340.5000          0.532        50.2317       46.65521         0.4829       -90.9192      -23.50301      0.2905363      0.6082832
      5341.0000         0.5586        50.7602       47.35429          0.506       -89.2064      -21.11274      0.3054104       0.648121
      5341.5000         0.5833        51.2957       48.06262          0.529       -87.5494      -18.80059      0.3204812      0.6866568
      5342.0000         0.5962        52.7289       49.95839          0.555        -86.663      -17.56728      0.3608167       0.707212
      5342.5000         0.6091        57.8553       56.73934         0.5818       -86.2028      -16.93064      0.5050923      0.7178227
      5343.0000         0.6219        61.4537       61.49913         0.6087       -85.7427      -16.29415      0.6063644      0.7284308
      5343.5000         0.6389        63.5081       64.21658         0.6355       -85.3114      -15.69798      0.6641826       0.738367
      5344.0000         0.6559        64.4879       65.51262         0.6623       -84.9194      -15.15683      0.6917579      0.7473861
      5344.5000         0.6729        65.4617       66.80071         0.6892       -84.5179      -14.60237      0.7191641      0.7566271
      5345.0000         0.6899         65.847       67.31036         0.7082       -84.0869      -14.00662      0.7300078      0.7665563
      5345.5000         0.7179        64.7274       65.82941         0.7257       -83.6558      -13.41074      0.6984982      0.7764876
      5346.0000         0.7553        63.7209       64.49807         0.7431       -83.2961      -12.91481      0.6701717      0.7847533
      5346.5000         0.7828        62.7313       63.18907         0.7597       -83.0291      -12.54866      0.6423207      0.7908558
      5347.0000         0.8046         61.743        61.8818         0.7615       -82.8605      -12.32026      0.6145064      0.7946623
      5347.5000         0.8156        60.7535       60.57294         0.7633       -82.7369      -12.15487      0.5866582      0.7974188
      5348.0000         0.8255        59.7639       59.26394         0.7651       -82.7183      -12.13648      0.5588073      0.7977253
      5348.5000         0.8284        58.7829       57.96632         0.7667       -82.7284      -12.15827      0.5311984      0.7973621
      5349.0000          0.819        57.8019        56.6687          0.755       -82.7386       -12.1802      0.5035894      0.7969967
      5349.5000         0.8066        63.0875       63.66024         0.7432       -82.7695       -12.2311      0.6523455      0.7961482
      5350.0000         0.7943         65.334        66.6318         0.7314       -82.8629      -12.36951      0.7155702      0.7938415
      5350.5000         0.7819        64.7596       65.87201         0.7196       -82.9562      -12.50778      0.6994045       0.791537
      5351.0000         0.7696        64.0594       64.94582         0.7078       -83.0496       -12.6462      0.6796983        0.78923
      5351.5000         0.7623        63.3598       64.02041         0.7057       -83.2341      -12.91215      0.6600087      0.7847975
      5352.0000         0.7673        62.6602       63.09502         0.7039       -83.4246      -13.18649      0.6403195      0.7802252
      5352.5000         0.7723          61.96       62.16883         0.7021       -83.6149      -13.46056      0.6206135      0.7756574
      5353.0000          0.774        61.2604       61.24343         0.7003       -83.8053      -13.73477      0.6009241      0.7710872
      5353.5000         0.7749        60.5608       60.31804         0.7006       -83.9956      -14.00883      0.5812349      0.7665194
      5354.0000         0.7758        59.9411       59.49833         0.7093       -84.1859       -14.2829      0.5637943      0.7619516
      5354.5000         0.7768        60.3192       59.99846         0.7179       -84.2632      -14.39877      0.5744354      0.7600205
      5355.0000         0.7752         60.697        60.4982         0.7266       -84.1902      -14.30422       0.585068      0.7615963
