#------------------------------------------------------------------------------
# Created by    : vladimir.rabinovich
# Created on    : 09/19/2023 17:20:36
#------------------------------------------------------------------------------
~Version Information Section
VERS.           2.0     :   CWLS log ASCII Standard - VERSION 2.0
WRAP.           NO      :   One line per depth step
~Well Information Section
#MNEM       .UNIT                                         VALUE :DESCRIPTION
#------------------------------------------------------------------------------
STRT        .FT                                             498 :START DEPTH
STOP        .FT                                            9565 :STOP DEPTH
STEP        .FT                                             0.5 :STEP      
NULL        .                                           -999.25 :NULL      
COMP        .                       BLUE DOLPHIN EXPLORATION CO :COMPANY   
WELL        .                                OCS 00714 ST00BP00 :WELL      
FLD         .                              GALVESTON BLOCK 0288 :FIELD     
LOC         .                                                   :LOCATION  
CNTY        .                             GALVESTON LARGE BLOCK :LOCATION  
STAT        .                                             TEXAS :STATE     
CTRY        .                                     UNITED STATES :COUNTRY   
SRVC        .                                                   :SERVICE COMPANY
DATE        .                             9/13/2023 11:19:25 AM :LOG DATE  
API         .                                    42706000390000 :API NUMBER
UWI         .                                    42706000390000 :UNIQUE WELL ID
XCOORD      .                                  1097340.72850425 :SURFACE X 
YCOORD      .                                  10481267.2561277 :SURFACE Y 
LAT         .                                        28.8709496 :LATITUDE  
LON         .                                       -94.6972159 :LONGITUDE 
ELEV        .FT                                              85 :ELEVATION VALUE
ELEV_TYPE   .                                                KB :ELEVATION REFERENCE TYPE
~Curve Information Section
#MNEM       .UNIT                                      API CODE :CURVE DESCRIPTION
#------------------------------------------------------------------------------
DEPT        .FT                                                 :DEPTH     
ASN         .OHMM                                               :          
CALI        .IN                                                 :          
DT          .US/F                                               :          
ILD         .OHMM                                               :          
SP          .MV                                                 :          
SP_1        .MV                                                 :          
SP_NORM     .MV                                                 :SP Normalized
VSH_SP      .V/V                                                :Volume of Shale from SP
~A        DEPTH            ASN           CALI             DT            ILD             SP           SP_1        SP_NORM         VSH_SP
# ...
      8315.5000         1.1281        10.4396       102.0557         1.0168       -61.7157        -999.25       -14.2578      0.7294326
      8316.0000         1.1201          10.52         98.988         1.0139       -61.7314        -999.25       -14.1843      0.7309327
      8316.5000          1.115        10.6179        99.7458         1.0111       -63.5515        -999.25      -15.91518      0.6956085
      8317.0000         1.1326        10.8737        102.465         0.9651       -73.2286        -999.25      -25.50307      0.4999373
      8317.5000         1.1471        10.6812       108.0065         0.9117       -87.4963        -999.25      -39.68156      0.2105803
      8318.0000         1.1551        10.5139       117.7582         0.8513        -95.496        -999.25      -47.59206     0.04914171
      8318.5000         1.1351        10.5576       120.0342         0.8037       -99.2026        -999.25      -51.20945              0
      8319.0000         1.1105        10.7206       110.6333         0.7579      -101.4867        -999.25      -53.40434              0
      8319.5000         1.0921        10.9089        97.4271         0.7211      -102.3181        -999.25      -54.14653              0
      8320.0000         1.0789        10.9179        89.7986         0.6859      -102.1202        -999.25      -53.85942              0
      8320.5000         1.0712        10.3678        100.252         0.6538       -100.312        -999.25        -51.962              0
      8321.0000         1.1656         10.352       110.6693         0.6234       -96.9299        -999.25       -48.4907     0.03080205
      8321.5000           1.26        10.3838        94.9263         0.5983       -91.6901        -999.25      -43.16169      0.1395573
      8322.0000         1.3542        10.3592        95.3761         0.5808       -81.4177        -999.25      -32.80008      0.3510188
      8322.5000         1.3779        10.2369       107.6647         0.5707       -68.9177        -999.25      -20.21087      0.6079414
      8323.0000         1.3871        10.1351       108.3528         0.5909       -62.3926        -999.25      -13.59656      0.7429274
      8323.5000         1.3737        10.1121        97.4991         0.6299       -59.1459        -999.25      -10.26065      0.8110071
      8324.0000         1.3504        10.2052        70.3312         0.6741       -57.1572        -999.25      -8.182739      0.8534135
      8324.5000         1.3193        10.2186        93.1091         0.7183       -56.1055        -999.25      -7.041828      0.8766974
      8325.0000         1.2334        10.2435       115.8781         0.7669       -56.1088        -999.25      -6.955917      0.8784507
      8325.5000         1.1468        10.3615       113.1613         0.8405       -57.3984        -999.25      -8.156307      0.8539529
      8326.0000          1.089        10.5107        93.9996         0.9141       -58.4943        -999.25      -9.163002      0.8334081
      8326.5000         1.1186        10.9684        84.7473         0.9785       -59.2665        -999.25      -9.845989      0.8194696
      8327.0000         1.1504        11.1538        91.2019         1.0393       -59.0376        -999.25      -9.527882      0.8259616
      8327.5000         1.1656        11.3436        95.6266         1.0895       -58.2084        -999.25       -8.60947      0.8447047
      8328.0000         1.1781        11.2155        95.6803          1.135       -60.2687        -999.25      -10.58056      0.8044784
      8328.5000         1.1891        10.8904        96.4016         1.1461       -67.5017        -999.25      -17.72435      0.6586866
      8329.0000         1.1982        10.6415        98.0726         1.1192       -80.2814        -999.25      -30.41484      0.3996971
      8329.5000         1.2052        10.6447        99.7009         1.0567       -90.5356        -999.25      -40.57983      0.1922484
      8330.0000         1.1877        10.8077        98.5585         1.0078        -91.176        -999.25      -41.13102      0.1809995
      8330.5000          1.128        10.9689        95.9698         0.9387       -87.5549        -999.25      -37.42071      0.2567202
      8331.0000         1.1103          11.09        99.6177         0.8473       -83.1898        -999.25       -32.9664      0.3476246
      8331.5000         1.0955        11.1855       109.6527         0.7927       -82.8427        -999.25      -32.53009      0.3565288
      8332.0000         1.0855        10.5716        111.344         0.7387       -87.5865        -999.25      -37.18468       0.261537
      8332.5000         1.0971         10.382        104.714         0.7115       -90.8558        -999.25      -40.36477      0.1966374
      8333.0000         1.1183        10.3558       109.8687         0.6843       -93.3743        -999.25      -42.79406        0.14706
      8333.5000         1.1527        10.3896       106.0903          0.679       -90.9596        -999.25      -40.29015      0.1981601
      8334.0000         1.1763        10.4112        96.8154         0.6791       -81.5168        -999.25      -30.75814      0.3926909
      8334.5000         1.1926        10.4518        84.5989         0.6792       -72.9761        -999.25      -22.12823      0.5688116
      8335.0000         1.1946        10.5558        87.0637         0.6793       -65.3192        -999.25      -14.38212      0.7268955
      8335.5000          1.182        10.6162       105.7935         0.6944       -65.8063        -999.25      -14.78001      0.7187753
      8336.0000         1.1656        10.4095        100.027         0.7101       -67.1591        -999.25      -16.04361      0.6929876
      8336.5000          1.149        10.3296       107.9885         0.7257       -62.3069        -999.25       -11.1022      0.7938327
      8337.0000         1.1264        10.3987       106.6571         0.7413       -56.2913        -999.25      -5.132442      0.9156644
      8337.5000         1.0996        10.6158       104.7522         0.7569       -52.0752        -999.25     -0.9890671              1
      8338.0000         1.0779        10.8719        92.1375         0.7882       -49.5635        -999.25       1.449909              1
      8338.5000         1.0649        10.7231        81.8821         0.8208       -47.5613        -999.25       3.379383              1
      8339.0000         1.0515        10.4643        94.4404         0.8534        -48.037        -999.25       2.830959              1
      8339.5000         1.0811        10.7409       103.1666         0.8876       -48.8138        -999.25        1.98143              1
      8340.0000         1.1221        10.8315        95.7224         0.9393       -49.2168        -999.25       1.505707              1
      8340.5000         1.1457        10.7913        76.0526          0.991        -49.272        -999.25       1.377781              1
      8341.0000         1.1702        10.7255        59.3785         1.0442        -49.236        -999.25       1.341057              1
      8341.5000         1.1997        10.6553        58.2765         1.0992       -49.1744        -999.25       1.329929              1
      8342.0000         1.2447        10.6026        78.4995         1.1464       -50.0302        -999.25      0.4014053              1
      8342.5000         1.2702        10.5651        96.5095         1.1908       -51.9805        -999.25       -1.62162      0.9873139
      8343.0000         1.3052        10.5612       107.9165         1.2332       -53.0848        -999.25      -2.798645       0.963293
      8343.5000         1.3531         10.609       116.3728         1.2506       -52.8361        -999.25      -2.622673      0.9668842
      8344.0000         1.3927        10.6795       107.0709         1.2517       -51.8046        -999.25      -1.663895      0.9864511
      8344.5000          1.412        10.7603        91.7596         1.2528       -50.6434        -999.25     -0.5754204              1
