#------------------------------------------------------------------------------
# Created by    : vladimir.rabinovich
# Created on    : 09/19/2023 17:20:58
#------------------------------------------------------------------------------
~Version Information Section
VERS.           2.0     :   CWLS log ASCII Standard - VERSION 2.0
WRAP.           NO      :   One line per depth step
~Well Information Section
#MNEM       .UNIT                                         VALUE :DESCRIPTION
#------------------------------------------------------------------------------
STRT        .FT                                             521 :START DEPTH
STOP        .FT                                           11050 :STOP DEPTH
STEP        .FT                                             0.5 :STEP      
NULL        .                                           -999.25 :NULL      
COMP        .                                      SHELL OIL CO :COMPANY   
WELL        .                                     ST TR 00335-L :WELL      
FLD         .                                           WILDCAT :FIELD     
LOC         .                                                   :LOCATION  
CNTY        .                                BRAZOS LARGE BLOCK :LOCATION  
STAT        .                                             TEXAS :STATE     
CTRY        .                                     UNITED STATES :COUNTRY   
SRVC        .                                                   :SERVICE COMPANY
DATE        .                             9/13/2023 11:18:52 AM :LOG DATE  
API         .                                    42704000130000 :API NUMBER
UWI         .                                    42704000130000 :UNIQUE WELL ID
XCOORD      .                                  903482.990868916 :SURFACE X 
YCOORD      .                                   10450808.276789 :SURFACE Y 
LAT         .                                        28.7782296 :LATITUDE  
LON         .                                       -95.3008656 :LONGITUDE 
ELEV        .FT                                              81 :ELEVATION VALUE
ELEV_TYPE   .                                                DF :ELEVATION REFERENCE TYPE
~Curve Information Section
#MNEM       .UNIT                                      API CODE :CURVE DESCRIPTION
#------------------------------------------------------------------------------
DEPT        .FT                                                 :DEPTH     
ASN         .OHMM                                               :          
CILD        .MMHO                                               :          
ILD         .OHMM                                               :          
SP          .MV                                                 :          
SP_NORM     .MV                                                 :SP Normalized
VSH_SP      .V/V                                                :Volume of Shale from SP
~A        DEPTH            ASN           CILD            ILD             SP        SP_NORM         VSH_SP
# ...
      6107.0000          0.979       1376.191         0.8192       -45.2947      -4.276802      0.9393185
      6107.5000         0.9809       1367.635         0.8191       -45.4658       -4.45068      0.9360985
      6108.0000         0.9812       1359.078          0.819       -45.6367      -4.624355      0.9328823
      6108.5000         0.9802       1351.416         0.8188       -45.8075      -4.797932      0.9296679
      6109.0000          0.978       1344.299         0.8168       -45.7917      -4.784908      0.9299091
      6109.5000         0.9739       1341.613         0.8148       -45.6699      -4.665886      0.9321132
      6110.0000         0.9698        1355.08         0.8129        -45.548      -4.546764      0.9343192
      6110.5000         0.9657       1375.328         0.8109       -45.4262      -4.427742      0.9365233
      6111.0000         0.9616       1389.537          0.813       -45.0612      -4.065517      0.9432312
      6111.5000         0.9632       1395.863         0.8159       -44.6476      -3.654694       0.950839
      6112.0000         0.9774       1390.012         0.8188       -44.2726      -3.282471       0.957732
      6112.5000         1.0001       1367.088          0.822       -43.9587      -2.971348      0.9634936
      6113.0000         1.0284       1344.166         0.8308       -43.7258       -2.74123       0.967755
      6113.5000         1.0399       1317.281         0.8397       -43.9087      -2.926907      0.9643165
      6114.0000         1.0514       1282.033         0.8486       -44.0914      -3.112385      0.9608818
      6114.5000         1.0616       1240.855         0.8603       -44.2976      -3.321362      0.9570118
      6115.0000         1.0695       1191.072         0.8719       -44.5096       -3.53614      0.9530345
      6115.5000         1.0774       1152.107         0.8835       -44.7216      -3.750916      0.9490571
      6116.0000         1.0853       1133.031         0.8969       -44.9338      -3.965893       0.945076
      6116.5000         1.0938       1126.322         0.9125       -45.1458      -4.180672      0.9410987
      6117.0000         1.1075       1118.707         0.9282       -45.3578      -4.395447      0.9371213
      6117.5000         1.1212       1109.057         0.9438       -45.4467      -4.487125      0.9354236
      6118.0000         1.1349       1099.406         0.9548       -45.4199        -4.4631      0.9358685
      6118.5000         1.1471       1091.111         0.9658       -45.3931      -4.439079      0.9363133
      6119.0000         1.1588        1082.98         0.9768       -45.5215      -4.570255      0.9338841
      6119.5000         1.1669        1076.85          0.984       -45.7078      -4.759338      0.9303826
      6120.0000          1.145       1089.781          0.977       -45.8939      -4.948215      0.9268849
      6120.5000         1.1231       1111.512         0.9699       -46.1384      -5.195492      0.9223057
      6121.0000         1.0972       1206.473         0.9609          -46.4      -5.459869      0.9174098
      6121.5000         1.0707       1220.936         0.9494       -46.5776      -5.640244      0.9140696
      6122.0000         1.0442       1235.398         0.9372       -46.4771      -5.542522      0.9158792
      6122.5000          1.024       1254.518         0.9121       -46.3765      -5.444698      0.9176908
      6123.0000         1.0046       1276.262          0.887       -46.2759      -5.346878      0.9195023
      6123.5000         0.9918       1291.283         0.8722       -46.1754      -5.249153       0.921312
      6124.0000         0.9831       1305.758         0.8588       -46.0536      -5.130131      0.9235161
      6124.5000          0.977       1319.383         0.8453       -45.9197      -4.999008      0.9259443
      6125.0000         0.9735       1333.957         0.8328       -45.7857      -4.867786      0.9283744
      6125.5000         0.9749       1348.979         0.8267       -45.6517      -4.736561      0.9308044
      6126.0000         0.9784       1362.299         0.8206       -45.5179      -4.605541      0.9332307
      6126.5000         0.9829       1350.875         0.8192       -45.3839      -4.474319      0.9356608
      6127.0000         0.9981       1311.531         0.8217       -45.2498      -4.342999      0.9380926
      6127.5000         1.0132       1299.439         0.8241       -45.2109      -4.306873      0.9387616
      6128.0000         1.0284       1287.357         0.8295        -45.303      -4.401752      0.9370046
      6128.5000         1.0435       1275.215         0.8373       -45.3951      -4.496628      0.9352477
      6129.0000         1.0532       1263.025          0.845       -45.7504      -4.854706      0.9286166
      6129.5000         1.0608       1250.361         0.8528       -46.1527      -5.259781      0.9211152
      6130.0000         1.0378        1236.25           0.86       -46.5551      -5.664959      0.9136119
      6130.5000         1.0014        1223.33         0.8645       -46.5261      -5.638737      0.9140975
      6131.0000         0.9761       1215.035          0.869       -46.4662      -5.581615      0.9151553
      6131.5000         0.9667       1221.896         0.8735       -46.4063       -5.52449      0.9162132
      6132.0000         0.9827       1232.615          0.878       -46.3595      -5.480469      0.9170284
      6132.5000         0.9947        1242.27         0.8816       -46.3172      -5.440948      0.9177602
      6133.0000         1.0029       1243.586         0.8807       -46.2748      -5.401325       0.918494
      6133.5000         1.0088        1244.17         0.8797       -46.2325      -5.361801      0.9192259
      6134.0000         1.0083       1243.377         0.8788       -46.1902      -5.322281      0.9199578
      6134.5000         1.0077         1245.9         0.8778       -46.1479      -5.282757      0.9206897
      6135.0000         1.0037       1254.201         0.8749       -46.1057      -5.243336      0.9214197
      6135.5000          0.991       1263.305         0.8687       -46.0634      -5.203812      0.9221516
      6136.0000         0.9791       1279.457         0.8625       -46.0211      -5.164288      0.9228836
      6136.5000         0.9718       1295.598         0.8564       -46.0887      -5.234665      0.9215803
      6137.0000         0.9646       1312.832         0.8502       -46.1885      -5.337242      0.9196807
      6137.5000         0.9573       1331.574          0.844       -46.2883      -5.439819      0.9177811
      6138.0000         0.9512       1350.291         0.8369       -46.3881      -5.542397      0.9158816
      6138.5000         0.9456       1368.461         0.8291       -46.4879      -5.644974       0.913982
      6139.0000         0.9401       1384.639         0.8213       -46.6132      -5.773056      0.9116101
      6139.5000         0.9335       1400.803         0.8136       -46.8191      -5.981731      0.9077457
      6140.0000         0.9265        1416.58         0.8058       -47.0251       -6.19051      0.9038795
      6140.5000         0.9194       1431.711         0.7982        -47.231      -6.399185      0.9000151
      6141.0000         0.9124       1446.855         0.7931       -47.4371      -6.608063       0.896147
      6141.5000         0.9054        1460.76         0.7879       -47.6429      -6.816639      0.8922845
      6142.0000         0.8995       1479.586         0.7827        -47.798      -6.974518      0.8893608
      6142.5000         0.8953       1502.557         0.7776       -47.6575      -6.836796      0.8919112
      6143.0000          0.891       1516.668         0.7724       -47.5173      -6.699371      0.8944561
      6143.5000         0.8919       1522.709         0.7702       -47.2175      -6.402348      0.8999565
      6144.0000         0.8934       1513.375         0.7692       -46.9077      -6.095325      0.9056421
      6144.5000         0.8961       1504.053         0.7683       -46.5983      -5.788704      0.9113203
