#------------------------------------------------------------------------------
# Created by    : vladimir.rabinovich
# Created on    : 09/19/2023 17:20:37
#------------------------------------------------------------------------------
~Version Information Section
VERS.           2.0     :   CWLS log ASCII Standard - VERSION 2.0
WRAP.           NO      :   One line per depth step
~Well Information Section
#MNEM       .UNIT                                         VALUE :DESCRIPTION
#------------------------------------------------------------------------------
STRT        .FT                                             254 :START DEPTH
STOP        .FT                                            9030 :STOP DEPTH
STEP        .FT                                             0.5 :STEP      
NULL        .                                           -999.25 :NULL      
COMP        .                                    MOBIL OIL CORP :COMPANY   
WELL        .                                OCS 00724 ST00BP00 :WELL      
FLD         .                                           WILDCAT :FIELD     
LOC         .                                                   :LOCATION  
CNTY        .                             GALVESTON LARGE BLOCK :LOCATION  
STAT        .                                             TEXAS :STATE     
CTRY        .                                     UNITED STATES :COUNTRY   
SRVC        .                                                   :SERVICE COMPANY
DATE        .                             9/13/2023 11:19:25 AM :LOG DATE  
API         .                                    42706000340000 :API NUMBER
UWI         .                                    42706000340000 :UNIQUE WELL ID
XCOORD      .                                  1011870.95166473 :SURFACE X 
YCOORD      .                                   10400634.765487 :SURFACE Y 
LAT         .                                         28.645607 :LATITUDE  
LON         .                                        -94.960058 :LONGITUDE 
ELEV        .FT                                              34 :ELEVATION VALUE
ELEV_TYPE   .                                                KB :ELEVATION REFERENCE TYPE
~Curve Information Section
#MNEM       .UNIT                                      API CODE :CURVE DESCRIPTION
#------------------------------------------------------------------------------
DEPT        .FT                                                 :DEPTH     
ASN         .OHMM                                               :          
CALI        .IN                                                 :          
CILD        .MMHO                                               :          
DT          .US/F                                               :          
ILD         .OHMM                                               :          
SP          .MV                                                 :          
SP_NORM     .MV                                                 :SP Normalized
VSH_SP      .V/V                                                :Volume of Shale from SP
~A        DEPTH            ASN           CALI           CILD             DT            ILD             SP        SP_NORM         VSH_SP
# ...
      2584.5000         0.9782        -999.25       1067.916        -999.25         0.7822       -53.0102      0.6483383              1
      2585.0000         0.9694        -999.25       1066.912        -999.25         0.7812        -53.445      0.2135391              1
      2585.5000         0.9582        -999.25       1066.543        -999.25         0.7771       -53.5892     0.06933975              1
      2586.0000          0.947        -999.25       1066.369        -999.25         0.7731       -53.6495    0.009037018              1
      2586.5000         0.9472        -999.25       1066.193        -999.25         0.7691       -53.7598     -0.1012611              1
      2587.0000         0.9488        -999.25       1066.018        -999.25         0.7653       -53.8702     -0.2116623              1
      2587.5000          0.954        -999.25       1066.094        -999.25         0.7644       -53.9805     -0.3219604              1
      2588.0000         0.9575        -999.25       1067.875        -999.25         0.7636       -54.1609     -0.5023613              1
      2588.5000         0.9182        -999.25       1069.025        -999.25         0.7627       -54.4243     -0.7657623              1
      2589.0000         0.8906        -999.25       1069.576        -999.25         0.7618       -54.6876       -1.02906              1
      2589.5000          0.885        -999.25       1070.127        -999.25         0.7609       -54.9333      -1.274761              1
      2590.0000          0.891        -999.25       1070.678        -999.25           0.76       -55.1581      -1.499561              1
      2590.5000         0.9002        -999.25       1071.309        -999.25         0.7595       -54.7776      -1.119061              1
      2591.0000         0.9102        -999.25       1071.977        -999.25         0.7592       -54.3042     -0.6456604              1
      2591.5000         0.9201        -999.25       1072.645        -999.25         0.7588       -53.8049     -0.1463623              1
      2592.0000         0.9092        -999.25       1073.313        -999.25         0.7584       -53.2993      0.3592377              1
      2592.5000         0.8983        -999.25       1073.828        -999.25          0.758       -52.8098      0.8487396              1
      2593.0000         0.8813        -999.25       1074.152        -999.25         0.7575       -52.7374      0.9211388              1
      2593.5000         0.8857        -999.25       1074.479        -999.25         0.7564       -53.2816      0.3769379              1
      2594.0000         0.9022        -999.25       1074.803        -999.25         0.7552       -54.2031     -0.5445595              1
      2594.5000         0.9036        -999.25        1075.02        -999.25         0.7521       -54.9109      -1.252361              1
      2595.0000         0.8919        -999.25        1074.82        -999.25         0.7479        -55.228      -1.569462              1
      2595.5000         0.8822        -999.25       1074.623        -999.25          0.743        -55.246       -1.58746              1
      2596.0000         0.8757         9.6638       1074.424        167.677         0.7359       -54.8605      -1.201962              1
      2596.5000         0.8805         9.6783       1074.221       167.6667         0.7288       -54.3025     -0.6439629              1
      2597.0000          0.886         9.7022        1073.99       167.6565         0.7217       -53.5149      0.1436386              1
      2597.5000         0.8919         9.7276        1073.76       167.6465         0.7145       -52.5286        1.12994              1
      2598.0000         0.8897         9.7475       1073.529       167.6362          0.731       -52.3436       1.314938              1
      2598.5000         0.8885          9.759       1072.918       167.6262         0.7531       -52.5389        1.11964              1
      2599.0000         0.8896         9.7575       1072.178        167.616         0.7753       -52.7341      0.9244385              1
      2599.5000         0.9044         9.7561       1105.432        167.606          0.821       -52.9293      0.7292404              1
      2600.0000         0.9413         9.6911       1150.988       164.1128         0.8719       -53.1245      0.5340385              1
      2600.5000         0.9878         9.6083       1196.545       158.7327         0.9373       -53.4936      0.1649399              1
      2601.0000         1.0104          9.658       1242.104       153.3525         0.9364       -53.5089      0.1496391              1
      2601.5000         1.0261         9.7139        1287.66       147.9724         0.8986       -53.1609      0.4976387              1
      2602.0000         1.0358         9.7633       1333.217        146.009         0.8355       -52.7102      0.9483376              1
      2602.5000         1.0327         9.8331       1362.355       145.0229         0.7981       -52.2596       1.398937              1
      2603.0000          1.028         9.8766       1338.668       143.2737         0.7738       -52.0387       1.619839              1
      2603.5000         1.0263         9.8501       1302.014       140.3066         0.7753       -52.3478       1.310738              1
      2604.0000         1.0414         9.8155       1254.457       137.3396         0.7768       -52.6569        1.00164              1
      2604.5000         1.0518          9.777        1214.35       139.4148         0.7848       -52.9662       0.692337              1
      2605.0000         1.0622         9.7201       1170.293       141.5024         0.8033       -53.2753      0.3832397              1
      2605.5000         1.0827         9.6643       1137.895       142.4004         0.8218       -53.6068     0.05173874              1
      2606.0000         1.1015         9.6401       1128.078       159.9714         0.8422       -53.9891     -0.3305626              1
      2606.5000         1.1184         9.6936        1117.83       163.9614         0.8622       -54.3716     -0.7130623              1
      2607.0000         1.1355         9.7505       1106.771       174.9636           0.87       -54.7325      -1.073959              1
      2607.5000         1.1537          9.795       1093.547       201.1492         0.8778       -54.9117      -1.253162              1
      2608.0000         1.1755         9.8389       1093.547       206.5125          0.878        -55.091      -1.432461              1
      2608.5000         1.1976          9.862       1108.859       205.3821         0.8741       -55.2701      -1.611561              1
      2609.0000         1.1869         9.8629       1124.172       197.9402         0.8636       -55.3788      -1.720261              1
      2609.5000          1.174         9.8637       1145.152       190.2454         0.8521       -55.4579      -1.799362              1
      2610.0000         1.1602         9.8646       1166.307       188.6521         0.8396       -55.4731       -1.81456              1
      2610.5000         1.1502         9.8432       1190.254       186.5537          0.815       -55.4816      -1.823063              1
      2611.0000         1.1466         9.8197       1216.576       184.8867         0.7904       -55.4899       -1.83136              1
      2611.5000         1.1408         9.7878       1245.986       181.4131         0.7736       -55.5111      -1.852562              1
      2612.0000         1.1266          9.746         1268.9       176.2793         0.7619       -55.6493      -1.990761              1
      2612.5000         1.1131         9.6679       1285.701       171.0461         0.7604       -55.7875       -2.12896      0.9882764
      2613.0000         1.0987         9.6426       1296.166       168.8262         0.7593       -55.9258      -2.267262      0.9757035
      2613.5000         1.0848         9.6816       1305.246       166.8098         0.7608        -56.064       -2.40546        0.96314
