#------------------------------------------------------------------------------
# Created by    : vladimir.rabinovich
# Created on    : 09/19/2023 17:22:53
#------------------------------------------------------------------------------
~Version Information Section
VERS.           2.0     :   CWLS log ASCII Standard - VERSION 2.0
WRAP.           NO      :   One line per depth step
~Well Information Section
#MNEM       .UNIT                                         VALUE :DESCRIPTION
#------------------------------------------------------------------------------
STRT        .FT                                             252 :START DEPTH
STOP        .FT                                           11321 :STOP DEPTH
STEP        .FT                                             0.5 :STEP      
NULL        .                                           -999.25 :NULL      
COMP        .                          HUMBLE OIL & REFINING CO :COMPANY   
WELL        .                                OCS 00615 ST00BP00 :WELL      
FLD         .                                           WILDCAT :FIELD     
LOC         .                                                   :LOCATION  
CNTY        .                             GALVESTON LARGE BLOCK :LOCATION  
STAT        .                                             TEXAS :STATE     
CTRY        .                                     UNITED STATES :COUNTRY   
SRVC        .                                                   :SERVICE COMPANY
DATE        .                             9/13/2023 11:19:42 AM :LOG DATE  
API         .                                    42706000270000 :API NUMBER
UWI         .                                    42706000270000 :UNIQUE WELL ID
XCOORD      .                                  1043929.24471964 :SURFACE X 
YCOORD      .                                  10527500.2798036 :SURFACE Y 
LAT         .                                         28.995876 :LATITUDE  
LON         .                                        -94.866344 :LONGITUDE 
ELEV        .FT                                              67 :ELEVATION VALUE
ELEV_TYPE   .                                                KB :ELEVATION REFERENCE TYPE
~Curve Information Section
#MNEM       .UNIT                                      API CODE :CURVE DESCRIPTION
#------------------------------------------------------------------------------
DEPT        .FT                                                 :DEPTH     
LAT         .OHMM                                               :          
LN          .OHMM                                               :          
SN          .OHMM                                               :          
SP          .MV                                                 :          
SP_NORM     .MV                                                 :SP Normalized
VSH_SP      .V/V                                                :Volume of Shale from SP
~A        DEPTH            LAT             LN             SN             SP        SP_NORM         VSH_SP
       252.0000              0         0.0666         0.0359       -34.6332       23.90339              1
       252.5000              0         0.0752         0.0903       -32.3311       26.20549              1
       253.0000              0         0.0919         0.1447       -27.0942       31.44239              1
       253.5000              0         0.2101         0.2628       -26.8701       31.66649              1
       254.0000              0         0.4141         0.4531       -27.6226       30.91399              1
       254.5000              0         0.7142         0.6409        -28.713       29.82359              1
       255.0000              0         0.9814         0.7881       -30.2704       28.26619              1
       255.5000              0         1.3621         0.9464       -31.9937       26.54289              1
       256.0000              0         1.7275          1.297       -34.0712       24.46539              1
       256.5000              0         2.1863         1.5624       -42.1488       16.38779              1
       257.0000              0         2.4537         1.6992       -57.5859      0.9506874              1
       257.5000              0         2.8653         1.8354       -62.6237      -4.015892      0.8324504
       258.0000              0         3.0723          1.909        -63.882      -4.159073       0.824496
       258.5000              0         3.2463         1.9827        -64.396      -3.557953      0.8578915
       259.0000              0         3.3483         2.0553         -64.91      -2.956833      0.8912871
       259.5000              0         3.4504         2.0742       -65.5526      -2.484303      0.9175388
       260.0000              0         3.5524         2.0932        -66.423      -2.239578      0.9311345
       260.5000              0         3.6401         2.1121       -67.3135      -2.014961      0.9436133
       261.0000              0         3.6965         2.1311       -68.2482       -2.05854      0.9411922
       261.5000              0         3.7528         2.1472       -69.1827      -2.323967      0.9264463
       262.0000              0         3.8092         2.1598       -70.1174      -2.589592      0.9116893
       262.5000              0         3.8656         2.1724       -70.7181      -2.521225      0.9154875
       263.0000              0          3.922         2.1849       -71.1117       -2.24575      0.9307916
       263.5000              0         3.9544         2.1975       -71.5054      -1.970375      0.9460903
       264.0000              0         3.9851         2.2175       -71.9082      -1.704109      0.9608828
       264.5000              0         4.0158         2.2554       -72.3494      -1.476234      0.9735425
       265.0000              0         4.0465         2.2934       -72.8229      -1.280655      0.9844081
       265.5000              0         4.0773         2.3313       -73.3486      -1.137283      0.9923732
       266.0000              0         4.0738         2.3693       -73.8745     -0.9941101              1
       266.5000              0         4.0601         2.4072       -73.8069      -0.344841              1
       267.0000              0         4.0464         2.4452       -73.4639      0.5128326              1
       267.5000              0         4.0328         2.4807       -72.9885       1.502907              1
       268.0000              0         4.0169         2.5154       -73.2255       1.780579              1
       268.5000              0         4.0005         2.5191       -73.8988       1.621948              1
       269.0000              0         3.9842         2.4963       -74.5721       1.463326              1
       269.5000              0         3.9678         2.4603       -75.3257       1.224396              1
       270.0000              0         3.9515         2.5167       -76.4911      0.5736694              1
       270.5000         0.0113         3.9389         2.6096       -77.6565    -0.07706451              1
       271.0000         0.0247         3.9806         2.7275       -78.1736    -0.07949066              1
       271.5000         0.0382         4.0165         2.8455       -78.6069    0.001876831              1
       272.0000         0.0516         3.9799         2.9164       -79.0361     0.08734894              1
       272.5000         0.1031         3.9434         2.9858       -79.2915      0.3466263              1
       273.0000         0.2555         3.9068         3.0047       -79.0701       1.082695              1
       273.5000         0.7005         3.8827         2.9864       -79.1392       1.528267              1
       274.0000         1.1364         3.8597         2.9682       -79.4491        1.73304              1
       274.5000         1.9279         3.8368         2.9499       -80.0137       1.683105              1
       275.0000         2.6603         3.8138         2.9317       -80.5784        1.63308              1
       275.5000         2.8947         3.7909         2.9134       -81.1429       1.583252              1
       276.0000         3.2405         3.7679         2.8952       -81.8571        1.38372              1
       276.5000         3.5122          3.745         2.8769       -83.0626       0.692894              1
       277.0000         3.7377         3.7414         2.8588       -85.2806      -1.010437      0.9994202
       277.5000         4.2943         3.7382         2.8429       -86.2996      -1.514763       0.971402
       278.0000         4.4007          3.735         2.8271       -87.1676      -1.868088      0.9517729
       278.5000         4.5062         3.7449         2.8112       -87.7471      -1.932915      0.9481714
       279.0000         4.6147          3.763         2.7953        -88.166      -1.837143       0.953492
       279.5000          4.614         3.7812         2.7795       -88.3711      -1.527573      0.9706904
       280.0000         4.5368         3.7994         2.7636       -88.5763      -1.218102      0.9878833
       280.5000          4.469         3.7931         2.7477       -88.7815     -0.9643478              1
       281.0000         4.4011         3.7732         2.7319       -89.1659      -1.255821      0.9857877
       281.5000         4.3333         3.7532          2.716       -89.5828      -1.579796      0.9677891
       282.0000          4.282         3.7333         2.6938       -90.0476      -1.951668      0.9471295
       282.5000         4.2378         3.7133         2.6714       -90.6748      -2.485931      0.9174483
       283.0000         4.1937         3.6934         2.6489       -91.3268      -3.045006      0.8863885
       283.5000         4.1464         3.6734         2.6264       -92.0796       -3.70488      0.8497289
       284.0000         4.0928         3.6535          2.604        -92.683      -4.215355      0.8213692
       284.5000         4.0393          3.635         2.5808       -93.0228      -4.462227      0.8076541
       285.0000         3.9939         3.6267         2.5575       -93.0532      -4.399704      0.8111275
       285.5000         3.9548         3.6185         2.5342       -92.9833      -4.236877      0.8201735
       286.0000         3.9157         3.6102         2.5096       -92.9471       -4.10775      0.8273472
       286.5000         3.8781          3.602         2.4812        -93.064      -4.131729      0.8260151
       287.0000         3.8777         3.5937         2.4528       -93.1807      -4.155495      0.8246948
       287.5000         3.9012         3.5855         2.4244       -93.2974      -4.179268       0.823374
       288.0000         3.9246         3.5772         2.4008       -93.4141      -4.203041      0.8220533
       288.5000         3.9481         3.5689         2.3795       -93.6552      -4.351212      0.8138216
       289.0000         3.9522          3.583         2.3677       -93.9277      -4.530785      0.8038453
       289.5000         3.9334         3.6025         2.3775       -94.2003      -4.710464      0.7938631
