#------------------------------------------------------------------------------
# Created by    : vladimir.rabinovich
# Created on    : 09/19/2023 17:20:40
#------------------------------------------------------------------------------
~Version Information Section
VERS.           2.0     :   CWLS log ASCII Standard - VERSION 2.0
WRAP.           NO      :   One line per depth step
~Well Information Section
#MNEM       .UNIT                                         VALUE :DESCRIPTION
#------------------------------------------------------------------------------
STRT        .FT                                             546 :START DEPTH
STOP        .FT                                            8737 :STOP DEPTH
STEP        .FT                                             0.5 :STEP      
NULL        .                                           -999.25 :NULL      
COMP        .                                      SHELL OIL CO :COMPANY   
WELL        .                                OCS 00702 ST00BP00 :WELL      
FLD         .                                           WILDCAT :FIELD     
LOC         .                                                   :LOCATION  
CNTY        .                             GALVESTON LARGE BLOCK :LOCATION  
STAT        .                                             TEXAS :STATE     
CTRY        .                                     UNITED STATES :COUNTRY   
SRVC        .                                                   :SERVICE COMPANY
DATE        .                             9/13/2023 11:19:42 AM :LOG DATE  
API         .                                    42706000140000 :API NUMBER
UWI         .                                    42706000140000 :UNIQUE WELL ID
XCOORD      .                                  1138683.88536091 :SURFACE X 
YCOORD      .                                  10533063.1188688 :SURFACE Y 
LAT         .                                         29.014964 :LATITUDE  
LON         .                                        -94.570199 :LONGITUDE 
ELEV        .FT                                              72 :ELEVATION VALUE
ELEV_TYPE   .                                                KB :ELEVATION REFERENCE TYPE
~Curve Information Section
#MNEM       .UNIT                                      API CODE :CURVE DESCRIPTION
#------------------------------------------------------------------------------
DEPT        .FT                                                 :DEPTH     
ASN         .OHMM                                               :          
CILD        .MMHO                                               :          
ILD         .OHMM                                               :          
SP          .MV                                                 :          
SP_NORM     .MV                                                 :SP Normalized
VSH_SP      .V/V                                                :Volume of Shale from SP
~A        DEPTH            ASN           CILD            ILD             SP        SP_NORM         VSH_SP
# ...
      4346.0000         0.7128       1374.293         0.8594       -44.9555      -3.492088      0.9846222
      4346.5000         0.7107       1383.033         0.8535       -44.6909      -3.227486      0.9928911
      4347.0000         0.7077       1391.768          0.848       -44.6402      -3.176788      0.9944754
      4347.5000         0.6954       1393.406         0.8433       -44.8922      -3.428787      0.9866004
      4348.0000         0.6831        1389.35         0.8385       -45.1257      -3.662289      0.9793035
      4348.5000           0.67       1385.291         0.8338       -44.4704      -3.006989      0.9997816
      4349.0000         0.6566       1379.963         0.8291       -43.8151      -2.351688              1
      4349.5000         0.6471       1372.566         0.8243       -43.1797      -1.716286              1
      4350.0000         0.6507       1365.164         0.8196       -42.7401      -1.276688              1
      4350.5000          0.653       1357.768         0.8149       -42.3003     -0.8368874              1
      4351.0000         0.6546       1361.395         0.8075       -41.8606     -0.3971863              1
      4351.5000         0.6503       1371.723         0.7996       -41.4206     0.04281235              1
      4352.0000         0.6389       1382.045         0.7916        -41.284      0.1794128              1
      4352.5000         0.6293       1391.078         0.7837       -41.1554      0.3080139              1
      4353.0000         0.6207       1400.113         0.7757       -41.0269       0.436512              1
      4353.5000         0.6121       1409.146         0.7681       -40.8984      0.5650139              1
      4354.0000         0.6035       1417.027          0.761       -40.7698       0.693615              1
      4354.5000          0.595       1423.223         0.7538       -40.6715      0.7919121              1
      4355.0000         0.5933       1408.098         0.7497       -40.6115      0.8519135              1
      4355.5000         0.5917       1387.809         0.7497       -40.5516      0.9118118              1
      4356.0000         0.5901       1364.266         0.7497       -40.4916      0.9718132              1
      4356.5000         0.5953       1336.879         0.7496       -40.4316       1.031815              1
      4357.0000         0.6005       1305.162         0.7576       -40.3716       1.091812              1
      4357.5000         0.6184        1241.33         0.7755       -40.3116       1.151814              1
      4358.0000         0.6387       1201.883         0.7934       -40.2516       1.211815              1
      4358.5000         0.6529       1162.904         0.8113        -40.252       1.211414              1
      4359.0000         0.6646       1129.898         0.8296       -40.2757       1.187714              1
      4359.5000         0.6885       1099.871          0.852       -40.2994       1.164013              1
      4360.0000         0.7253       1081.092         0.8744       -40.6577      0.8057137              1
      4360.5000         0.7558       1066.621         0.8968        -41.142      0.3214149              1
      4361.0000         0.7781       1052.139         0.9192       -41.6356     -0.1721878              1
      4361.5000         0.8045       1043.127         0.9408       -42.1292     -0.6657867              1
      4362.0000         0.8346       1035.727         0.9606        -42.623      -1.144413              1
      4362.5000         0.8495       1028.324         0.9805       -43.0793      -1.582729              1
      4363.0000          0.864       1020.976         1.0004       -43.5224      -2.007851              1
      4363.5000         0.8753       1017.009         1.0203       -43.9652      -2.432667              1
      4364.0000         0.8767       1013.383         1.0402       -44.0032       -2.45269              1
      4364.5000         0.8675       1021.234          1.054        -43.678      -2.109509              1
      4365.0000         0.8612       1031.629         1.0677       -43.3529       -1.76643              1
      4365.5000         0.8602       1042.018         1.0813       -43.0277      -1.423244              1
      4366.0000         0.8592       1052.412         1.0754       -42.7026      -1.080166              1
      4366.5000         0.8575       1067.232          1.057       -42.5066     -0.8661842              1
      4367.0000          0.855       1084.811         1.0385       -42.3929     -0.7345047              1
      4367.5000         0.8474       1109.332           1.02       -42.2793     -0.6029243              1
      4368.0000         0.8332       1144.535         1.0015       -42.1657     -0.4713402              1
      4368.5000         0.8123       1168.168          0.979       -41.9953     -0.2829628              1
      4369.0000         0.7907       1191.334         0.9504       -41.8151    -0.08478165              1
      4369.5000         0.7708       1213.721         0.9219        -41.635      0.1133003              1
      4370.0000         0.7448       1234.521         0.8933        -41.455      0.3112793              1
      4370.5000         0.6948       1255.311         0.8607       -41.2748      0.5094604              1
      4371.0000         0.6772       1272.225          0.827       -41.0988      0.7034416              1
      4371.5000          0.671       1283.273         0.8231       -40.9306      0.8896217              1
      4372.0000         0.6649       1291.158         0.8276       -40.7625       1.075703              1
      4372.5000         0.6595       1302.863          0.832       -40.6494       1.206783              1
      4373.0000         0.6568       1314.559         0.8364       -40.6313       1.242863              1
      4373.5000         0.6606        1326.84         0.8413       -40.6155       1.276642              1
      4374.0000         0.6644       1346.508         0.8462       -40.6034       1.306725              1
      4374.5000         0.6685       1366.164         0.8511       -40.5912       1.336903              1
      4375.0000         0.6719       1385.598         0.8496       -40.5748       1.371288              1
      4375.5000         0.6585       1399.701         0.8255       -40.5522       1.411865              1
      4376.0000         0.6451       1413.795         0.8014       -40.5296        1.45245              1
      4376.5000          0.625       1406.965         0.7726        -40.507       1.493031              1
      4377.0000         0.6011       1395.727          0.757       -40.4844       1.533607              1
      4377.5000         0.5882       1384.498         0.7699       -40.4682       1.567791              1
      4378.0000          0.588        1373.26         0.7828       -40.4552        1.59877              1
      4378.5000         0.6043       1362.033         0.7957       -40.4423       1.629654              1
      4379.0000         0.6205       1348.852           0.81       -40.5588       1.531132              1
      4379.5000         0.6368       1333.725         0.8247       -40.8047       1.303215              1
      4380.0000          0.653         1318.6         0.8393       -41.3207       0.805191              1
      4380.5000         0.6638       1306.617         0.8539       -41.8367      0.3071747              1
      4381.0000          0.662       1311.334         0.8549       -42.2462    -0.08434677              1
      4381.5000         0.6602       1325.396         0.8404       -42.6418     -0.4619637              1
      4382.0000         0.6584       1339.867         0.8259       -43.0208     -0.8229866              1
      4382.5000         0.6554       1354.326         0.8136       -43.3585      -1.142704              1
      4383.0000         0.6518       1367.969          0.807       -43.6733      -1.439526              1
      4383.5000         0.6483       1376.225         0.8019       -43.9322      -1.680443              1
