#------------------------------------------------------------------------------
# Created by    : vladimir.rabinovich
# Created on    : 09/19/2023 17:20:31
#------------------------------------------------------------------------------
~Version Information Section
VERS.           2.0     :   CWLS log ASCII Standard - VERSION 2.0
WRAP.           NO      :   One line per depth step
~Well Information Section
#MNEM       .UNIT                                         VALUE :DESCRIPTION
#------------------------------------------------------------------------------
STRT        .FT                                            2377 :START DEPTH
STOP        .FT                                            9500 :STOP DEPTH
STEP        .FT                                             0.5 :STEP      
NULL        .                                           -999.25 :NULL      
COMP        .                                     SKELLY OIL CO :COMPANY   
WELL        .                                     ST TR 00146-L :WELL      
FLD         .                                           WILDCAT :FIELD     
LOC         .                                                   :LOCATION  
CNTY        .                             GALVESTON LARGE BLOCK :LOCATION  
STAT        .                                             TEXAS :STATE     
CTRY        .                                     UNITED STATES :COUNTRY   
SRVC        .                                                   :SERVICE COMPANY
DATE        .                             9/13/2023 11:19:24 AM :LOG DATE  
API         .                                    42706001330000 :API NUMBER
UWI         .                                    42706001330000 :UNIQUE WELL ID
XCOORD      .                                  1116482.89093459 :SURFACE X 
YCOORD      .                                  10631825.2810539 :SURFACE Y 
LAT         .                                         29.285733 :LATITUDE  
LON         .                                       -94.6439746 :LONGITUDE 
ELEV        .FT                                              61 :ELEVATION VALUE
ELEV_TYPE   .                                                KB :ELEVATION REFERENCE TYPE
~Curve Information Section
#MNEM       .UNIT                                      API CODE :CURVE DESCRIPTION
#------------------------------------------------------------------------------
DEPT        .FT                                                 :DEPTH     
ASN         .OHMM                                               :          
CALI        .IN                                                 :          
CILD        .MMHO                                               :          
DT          .US/F                                               :          
ILD         .OHMM                                               :          
SP          .MV                                                 :          
SP_NORM     .MV                                                 :SP Normalized
VSH_SP      .V/V                                                :Volume of Shale from SP
~A        DEPTH            ASN           CALI           CILD             DT            ILD             SP        SP_NORM         VSH_SP
# ...
      6625.0000         0.5028         9.8719       5140.578       106.2098         0.1921      -134.8582       -77.8885      0.0267278
      6625.5000         0.5028         9.8872       4857.938       105.3118         0.2082      -134.6526      -77.68291     0.02933029
      6626.0000         0.5027         9.9345       4620.852       103.2288         0.2279      -134.4468       -77.4771     0.03193549
      6626.5000         0.5018        10.0728       3963.777       103.0094         0.2482      -133.1311      -76.16141     0.04858978
      6627.0000         0.5025        10.3725       3491.066        104.365         0.2701      -129.7607        -72.791     0.09125316
      6627.5000         0.5064        10.9591        3456.16       105.5984         0.2809       -125.208       -68.2383      0.1488822
      6628.0000         0.5103        11.3788       3295.004       106.8406         0.2783      -120.2588       -63.2891      0.2115304
      6628.5000         0.5155         11.455         3299.5       106.6311         0.2758      -115.2842      -58.31451      0.2744999
      6629.0000         0.5176        11.4216       3312.773       106.7894         0.2697      -117.2278       -60.2581      0.2498974
      6629.5000         0.4823        11.3689       3457.621       107.1821         0.2533      -123.6887        -66.719      0.1681139
      6630.0000         0.4632        11.3786       3890.535        107.907         0.2368      -128.4956      -71.52591       0.107267
      6630.5000         0.4504        11.4463       4078.074       107.7729         0.2203      -132.2861      -75.31641       0.059286
      6631.0000          0.439         11.494       4130.234       107.2413         0.2086      -133.5095      -76.53981     0.04379987
      6631.5000         0.4257        11.4393       4886.188       107.5791         0.1977      -134.1321       -77.1624       0.035919
      6632.0000         0.4195        11.4202       5085.289       108.2897          0.192      -134.6235      -77.65381     0.02969863
      6632.5000         0.4134        11.4736       5118.977       109.2869          0.189      -134.9285       -77.9588     0.02583796
      6633.0000         0.4095        11.5773       5107.086       110.0422         0.1861      -135.0696       -78.0999     0.02405191
      6633.5000         0.4077         11.579        5065.57       109.3499         0.2024      -134.6274       -77.6577     0.02964937
      6634.0000         0.4058        11.4176           4568       108.6125         0.2221      -133.7305       -76.7608     0.04100249
      6634.5000         0.4045        10.9396       3901.129       108.1127         0.2436      -132.1858      -75.21611     0.06055557
      6635.0000          0.408        10.7175       3750.602       107.7533         0.2653      -130.6411       -73.6714     0.08010884
      6635.5000         0.4121         10.653       3517.348       107.7098         0.2801      -129.0647        -72.095      0.1000633
      6636.0000         0.4177        10.8043        3482.02       108.2286         0.2949      -127.3422      -70.37251       0.121867
      6636.5000         0.4321        10.9059        3478.48       108.6475         0.3097      -124.8549       -67.8852      0.1533519
      6637.0000         0.4527        10.6861        3377.82       106.7178         0.2948      -122.3218       -65.3521      0.1854164
      6637.5000         0.4808        10.2633       3311.738       105.1097         0.2733       -119.959       -62.9893      0.2153253
      6638.0000         0.4845        10.2247       3419.488       104.2646         0.2449      -128.8538      -71.88411      0.1027328
      6638.5000         0.4787        10.3091       4026.684       106.7228         0.1926      -131.2026      -74.23291     0.07300114
      6639.0000         0.4614        10.3827       4042.637       107.8933         0.1833      -132.1223       -75.1526     0.06135945
      6639.5000         0.4534        10.4209       4077.266       107.9652          0.174      -132.5308      -75.56111     0.05618846
      6640.0000         0.4503        10.4555       5049.727        108.231         0.1757      -132.1912       -75.2215     0.06048739
      6640.5000         0.4483        10.4667       5062.336       107.8571         0.1923      -131.8518      -74.88211     0.06478341
      6641.0000         0.4483        10.4433       4875.695       106.6592         0.2089      -131.3437      -74.37401     0.07121509
      6641.5000         0.4513        10.3837       4766.938       105.2955         0.2255      -130.7231       -73.7534     0.07907085
      6642.0000         0.4543        10.3142       4427.148       103.7174         0.2406      -129.6008       -72.6311     0.09327717
      6642.5000         0.4604        10.3447       4229.203       103.6034         0.2546      -126.4427      -69.47301      0.1332531
      6643.0000         0.4674        10.3989       4000.996       105.1647         0.2687      -122.2202       -65.2505      0.1867025
      6643.5000         0.4746         10.313       3968.004       108.0042         0.2645       -119.776       -62.8063      0.2176417
      6644.0000         0.4818        10.3029       3972.242       108.0023         0.2556      -120.3293       -63.3596      0.2106379
      6644.5000         0.4945        10.3758       3976.477       107.5287         0.2585       -123.399      -66.42931      0.1717809
      6645.0000         0.5121        10.3926       3980.715       106.6617         0.2615      -126.9357        -69.966      0.1270126
      6645.5000          0.559         10.286       3984.953       105.2817         0.2696      -128.2148       -71.2451      0.1108215
      6646.0000         0.5937         10.095       3964.586       102.9608         0.2861      -127.3536       -70.3839      0.1217227
      6646.5000         0.6367        10.0362       3822.434        99.0217         0.3025      -126.4935       -69.5238      0.1326101
      6647.0000         0.7019         9.9885       3136.797        95.0404         0.3414      -123.8259       -66.8562      0.1663772
      6647.5000         0.7534          9.948       3024.406        93.8107          0.387      -120.2283      -63.25861      0.2119164
      6648.0000          0.807         9.9124       2683.605         94.359         0.4433      -116.1632       -59.1935      0.2633734
      6648.5000         0.8779         9.8836       1936.541        94.3875         0.4909      -112.9264       -55.9567      0.3043455
      6649.0000         1.0793          9.867       1690.877        93.6841         0.5382      -112.5403       -55.5706      0.3092329
      6649.5000         1.1367         9.8546       1587.215        92.0961         0.5886      -114.2043       -57.2346      0.2881696
      6650.0000         1.2322           9.85       1517.752        90.5378          0.654      -111.4275       -54.4578       0.323319
      6650.5000         1.3275         9.8485       1407.783        89.9526         0.7325      -107.7715       -50.8018      0.3695974
      6651.0000         1.5639         9.8454       1337.566         90.766         0.8142       -104.588       -47.6183      0.4098949
      6651.5000         1.7427         9.8516       1138.311        89.5781         0.8971      -101.7424      -44.77271      0.4459151
      6652.0000         1.8835         9.9272       1060.729        84.7815         0.9762       -98.9783      -42.00861      0.4809037
      6652.5000           1.98        10.0603       1013.588        77.6813         1.0604       -95.5153       -38.5456      0.5247392
      6653.0000         2.0529        10.2088       983.9521        75.1022         1.0632       -92.3979      -35.42821      0.5641999
      6653.5000         2.0611        10.2627       937.9473        75.0757         1.0232       -89.0594      -32.08971      0.6064594
      6654.0000         2.0114        10.0398       939.4102        77.2823         0.9812        -85.406       -28.4363       0.652705
