#------------------------------------------------------------------------------
# Created by    : vladimir.rabinovich
# Created on    : 09/19/2023 17:21:35
#------------------------------------------------------------------------------
~Version Information Section
VERS.           2.0     :   CWLS log ASCII Standard - VERSION 2.0
WRAP.           NO      :   One line per depth step
~Well Information Section
#MNEM       .UNIT                                         VALUE :DESCRIPTION
#------------------------------------------------------------------------------
STRT        .FT                                            4200 :START DEPTH
STOP        .FT                                            8641 :STOP DEPTH
STEP        .FT                                             0.5 :STEP      
NULL        .                                           -999.25 :NULL      
COMP        .                                       HUNT OIL CO :COMPANY   
WELL        .                               OCS G25526 ST00BP00 :WELL      
FLD         .                                           WILDCAT :FIELD     
LOC         .                                                   :LOCATION  
CNTY        .                             GALVESTON LARGE BLOCK :LOCATION  
STAT        .                                             TEXAS :STATE     
CTRY        .                                     UNITED STATES :COUNTRY   
SRVC        .                                                   :SERVICE COMPANY
DATE        .                             9/13/2023 11:19:33 AM :LOG DATE  
API         .                                    42706404520000 :API NUMBER
UWI         .                                    42706404520000 :UNIQUE WELL ID
XCOORD      .                                  1090250.84236946 :SURFACE X 
YCOORD      .                                  10532258.5226608 :SURFACE Y 
LAT         .                                         29.010895 :LATITUDE  
LON         .                                        -94.721682 :LONGITUDE 
ELEV        .FT                                             108 :ELEVATION VALUE
ELEV_TYPE   .                                                KB :ELEVATION REFERENCE TYPE
~Curve Information Section
#MNEM       .UNIT                                      API CODE :CURVE DESCRIPTION
#------------------------------------------------------------------------------
DEPT        .FT                                                 :DEPTH     
CALI        .IN                                                 :          
DCAL        .IN                                                 :          
DFL         .OHMM                                               :          
DLOD        .LB                                                 :          
DPHI        .DEC                                                :          
DRHO        .G/C3                                               :          
GR          .GAPI                                               :          
GR_NORM     .GAPI                                               :GammaRay Normalized
HDCN        .MMHO                                               :          
HO24        .OHMM                                               :          
HO30        .OHMM                                               :          
HO40        .OHMM                                               :          
HO60        .OHMM                                               :          
HO90        .OHMM                                               :          
HT24        .OHMM                                               :          
HT30        .OHMM                                               :          
HT40        .OHMM                                               :          
HT60        .OHMM                                               :          
HT90        .OHMM                                               :          
NPHI        .DEC                                                :          
RHOB        .G/C3                                               :          
RWA         .OHMM                                               :          
SP_NORM     .MV                                                 :SP Normalized
SPA         .MV                                                 :          
TENS        .LBS                                                :          
VSH_GR      .V/V                                                :Volume of Shale from GR
VSH_SP      .V/V                                                :Volume of Shale from SP
~A        DEPTH           CALI           DCAL            DFL           DLOD           DPHI           DRHO             GR        GR_NORM           HDCN           HO24           HO30           HO40           HO60           HO90           HT24           HT30           HT40           HT60           HT90           NPHI           RHOB            RWA        SP_NORM            SPA           TENS         VSH_GR         VSH_SP
# ...
      7150.0000        12.9646         0.7146         0.7648       1451.058         0.2282         0.0264        82.4609       82.74293       1487.778         0.6521         0.6563         0.6595         0.6638         0.6691         0.6666          0.668         0.6691         0.6704         0.6721         0.4109         2.2735          0.083      -6.783327        148.609       3663.886              1      0.9336258
      7150.5000        13.0044         0.7544         0.7134       1457.173         0.2417         0.0257        83.8429        84.2833       1534.918         0.6109         0.6141         0.6166         0.6199         0.6239         0.6418         0.6442         0.6461         0.6485         0.6515         0.4079         2.2512          0.089      -5.994236       149.1296       3676.341              1      0.9474695
      7151.0000        12.9085         0.6585         0.7207       1463.288         0.2438         0.0302        83.0033       83.34748       1507.704         0.6371         0.6398         0.6418         0.6445         0.6479         0.6561         0.6579         0.6593         0.6611         0.6633         0.4068         2.2477         0.0865       -5.64209       149.3604       3682.142              1      0.9536476
      7151.5000        12.9017         0.6517         0.7694       1467.365          0.235          0.033        80.3592       80.40037       1434.823         0.7157          0.716         0.7163         0.7166          0.717         0.6993         0.6987         0.6982         0.6977          0.697         0.4073         2.2622         0.0838      -5.673631       149.3367       3679.924              1      0.9530942
      7152.0000        12.8349         0.5849         0.8216       1475.518         0.2282         0.0244        79.0294       78.91816       1388.342         0.7862         0.7762         0.7686          0.759         0.7476         0.7373         0.7329         0.7296         0.7254         0.7203         0.4079         2.2735         0.0901      -5.517791       149.4373       3671.393      0.9769821      0.9558282
      7152.5000        12.8339         0.5839         0.8037       1438.829         0.2238         0.0201        81.8664        82.0803       1380.495         0.7462         0.7374         0.7307         0.7222         0.7121         0.7497         0.7432         0.7382         0.7319         0.7244         0.4046         2.2807         0.0883      -5.031891       149.7568       3657.403              1      0.9643528
      7153.0000        12.8405         0.5905         0.8256       1444.944          0.212         0.0259        84.1767       84.65535       1359.495         0.7351         0.7316         0.7289         0.7255         0.7213          0.759          0.753         0.7484         0.7426         0.7356         0.4045         2.3002         0.0854      -4.537133       150.0822       3652.115              1      0.9730328
      7153.5000        12.7855         0.5355         0.8766       1444.944         0.2029         0.0323        81.9551       82.17915       1315.263         0.8054         0.7979         0.7922          0.785         0.7764         0.7777         0.7733         0.7699         0.7655         0.7603         0.4034         2.3152         0.0875      -4.470532       150.1236       3652.967              1      0.9742012
      7154.0000        12.7732         0.5232         0.9223       1451.058         0.2022         0.0333        80.6252       80.69685       1296.854         0.8287         0.8244         0.8211         0.8169         0.8117         0.7752         0.7742         0.7734         0.7723         0.7711         0.3928         2.3164         0.0807      -4.323733       150.2182       3654.162              1      0.9767766
      7154.5000        12.7362         0.4862         0.8397       1453.097         0.2133         0.0265        81.3814       81.53971       1337.654         0.7411         0.7457         0.7493          0.754         0.7598           0.74         0.7419         0.7434         0.7452         0.7476         0.3888          2.298         0.0802      -4.060826       150.3898       3652.115              1       0.981389
      7155.0000        12.7027         0.4527         0.7653       1446.982         0.2247         0.0201        83.1598       83.52191       1396.818         0.6813         0.6842         0.6864         0.6893          0.693         0.7085         0.7104         0.7118         0.7136         0.7159         0.3968         2.2792         0.0873      -3.842572       150.5318       3644.095              1       0.985218
      7155.5000        12.6686         0.4186         0.7494       1451.058         0.2318         0.0115        84.2497       84.73672       1413.946         0.6957         0.6952         0.6948         0.6943         0.6937         0.7049         0.7055         0.7059         0.7065         0.7072         0.3979         2.2675         0.0884      -3.677807       150.6383       3637.783              1      0.9881086
      7156.0000        12.6731         0.4231         0.7837       1432.714         0.2273         0.0149        84.5313       85.05059       1389.235           0.73         0.7281         0.7267         0.7248         0.7226         0.7209         0.7206         0.7204         0.7201         0.7198         0.3951          2.275         0.0817      -3.718273       150.6087        3642.56              1      0.9873987
      7156.5000         12.705          0.455         0.7997       1434.753         0.2202          0.029        86.0489       86.74211       1360.857         0.7545         0.7529         0.7516           0.75         0.7481         0.7334         0.7337          0.734         0.7344         0.7348         0.3979         2.2866         0.0817      -4.222486       150.2715       3648.702              1      0.9785529
      7157.0000        13.1218         0.8718          0.802       1444.944         0.2192         0.0413        85.6108       86.25381       1355.269         0.7429          0.745         0.7467         0.7489         0.7516         0.7277         0.7302         0.7322         0.7347         0.7379         0.3961         2.2883         0.0852      -4.771353       149.9047       3651.261              1      0.9689236
      7157.5000        13.9013         1.6513         0.7928       1451.058         0.2283         0.0417        82.0541       82.28951       1364.953         0.7052         0.7109         0.7153         0.7211         0.7283         0.7125         0.7174         0.7213         0.7264         0.7326         0.3929         2.2734         0.0871      -5.025887       149.7331        3648.19              1      0.9644581
      7158.0000        13.2887         1.0387         0.8031       1451.058         0.2343         0.0388        79.7334       79.70285       1355.169         0.6892         0.6976         0.7043          0.713          0.724         0.7071         0.7146         0.7205         0.7282         0.7379         0.3975         2.2633         0.0904      -5.155592       149.6443       3644.095      0.9936777      0.9621826
      7158.5000        13.1224         0.8724         0.8209       1444.944          0.237         0.0395        81.5379       81.71415       1314.212         0.7169         0.7273         0.7355         0.7464         0.7602          0.722         0.7313         0.7388         0.7486         0.7609         0.4059          2.259         0.0978      -5.383301       149.4905       3643.243              1      0.9581877
      7159.0000        13.1983         0.9483         0.8395       1432.714         0.2364         0.0431        83.2171       83.58578       1273.114         0.7679         0.7778         0.7857         0.7961         0.8092         0.7472         0.7564         0.7637         0.7734         0.7855         0.4085         2.2599          0.098      -5.486182       149.4195       3645.802              1      0.9563828
      7159.5000        12.9842         0.7342         0.8391       1463.288         0.2362         0.0456        81.8143       82.02222       1263.384         0.7774         0.7855         0.7918         0.8002         0.8106         0.7626         0.7697         0.7752         0.7825         0.7915         0.4065         2.2603         0.0972      -5.544408       149.3781       3644.266              1      0.9553612
