#------------------------------------------------------------------------------
# Created by    : vladimir.rabinovich
# Created on    : 09/19/2023 17:22:15
#------------------------------------------------------------------------------
~Version Information Section
VERS.           2.0     :   CWLS log ASCII Standard - VERSION 2.0
WRAP.           NO      :   One line per depth step
~Well Information Section
#MNEM       .UNIT                                         VALUE :DESCRIPTION
#------------------------------------------------------------------------------
STRT        .FT                                             712 :START DEPTH
STOP        .FT                                            8940 :STOP DEPTH
STEP        .FT                                             0.5 :STEP      
NULL        .                                           -999.25 :NULL      
COMP        .                                      SHELL OIL CO :COMPANY   
WELL        .                               OCS G03086 ST00BP00 :WELL      
FLD         .                                           WILDCAT :FIELD     
LOC         .                                                   :LOCATION  
CNTY        .                      MATAGORDA ISLAND LARGE BLOCK :LOCATION  
STAT        .                                             TEXAS :STATE     
CTRY        .                                     UNITED STATES :COUNTRY   
SRVC        .                                                   :SERVICE COMPANY
DATE        .                             9/13/2023 11:19:05 AM :LOG DATE  
API         .                                    42703400050000 :API NUMBER
UWI         .                                    42703400050000 :UNIQUE WELL ID
XCOORD      .                                  597395.628989583 :SURFACE X 
YCOORD      .                                    10217429.66268 :SURFACE Y 
LAT         .                                         28.117488 :LATITUDE  
LON         .                                        -96.235866 :LONGITUDE 
ELEV        .FT                                              93 :ELEVATION VALUE
ELEV_TYPE   .                                                KB :ELEVATION REFERENCE TYPE
~Curve Information Section
#MNEM       .UNIT                                      API CODE :CURVE DESCRIPTION
#------------------------------------------------------------------------------
DEPT        .FT                                                 :DEPTH     
CALI        .IN                                                 :          
DRHO        .G/C3                                               :          
DT          .US/F                                               :          
GR          .GAPI                                               :          
GR_1        .GAPI                                               :          
GR_NORM     .GAPI                                               :GammaRay Normalized
ILD         .OHMM                                               :          
NPHI        .%                                                  :          
RHOB        .G/C3                                               :          
SFL         .OHMM                                               :          
SP          .MV                                                 :          
SP_NORM     .MV                                                 :SP Normalized
VSH_GR      .V/V                                                :Volume of Shale from GR
VSH_SP      .V/V                                                :Volume of Shale from SP
~A        DEPTH           CALI           DRHO             DT             GR           GR_1        GR_NORM            ILD           NPHI           RHOB            SFL             SP        SP_NORM         VSH_GR         VSH_SP
# ...
      6742.0000        11.4829         0.0429        -999.25        60.8671        53.7239       79.67236         0.7398        40.7961         2.3393         0.7796       -46.2913    -0.09838486      0.9930288              1
      6742.5000        11.4879         0.0418        -999.25         59.684        53.3162       78.60239         0.7683        39.0911         2.3501         0.8126       -46.2966     -0.1081429      0.9702635              1
      6743.0000        11.4939         0.0333        -999.25        59.3503        52.3307       76.01225         0.7836        38.8675         2.3578         0.8673       -46.5543     -0.3703003      0.9151542              1
      6743.5000        11.5071          0.033        -999.25        57.7473        50.8803       72.19892         0.7975        38.1578         2.3746         0.9054       -46.6906     -0.5110588      0.8340196              1
      6744.0000        11.5213         0.0296        -999.25        57.9232        49.0475       67.37957         0.8046         37.085         2.3808         0.9382       -46.8348     -0.6597176      0.7314802              1
      6744.5000         11.519         0.0203        -999.25        58.1083        48.7462       66.58952         0.8085        36.3569          2.389         0.9071       -46.8713      -0.700676      0.7146707              1
      6745.0000        11.5175         0.0259        -999.25        58.8501        48.9745       67.19287         0.8081        35.8854         2.3892         0.8719       -46.7704     -0.6042328      0.7275079              1
      6745.5000        11.5149         0.0288        -999.25         60.379        48.9965       67.25343         0.8072        36.1472          2.392         0.8347       -46.7235     -0.5617905      0.7287963              1
      6746.0000        11.5144         0.0371        -999.25        62.2814        48.4272       65.75826          0.806        36.0004         2.3917         0.8423       -46.7058     -0.5485458      0.6969842              1
      6746.5000        11.5099         0.0416        -999.25        62.9077        47.8599       64.26842         0.8048        35.8241         2.3977         0.8901       -46.9139     -0.7611046      0.6652855              1
      6747.0000        11.5359         0.0391        -999.25        62.0386         46.999       62.00605         0.8036        35.9517         2.4011         0.9409       -47.6853      -1.536964        0.61715      0.9877962
      6747.5000        11.6197           0.03        -999.25        60.4802        47.3333       62.88829         0.8014        35.1224         2.3978         1.0335       -48.8366      -2.692722       0.635921       0.961529
      6748.0000        11.6989          0.032        -999.25        61.2356        49.3732       68.25787         0.7986        33.3013         2.4014         1.0584       -49.8381      -3.698681      0.7501674      0.9386663
      6748.5000        11.7328         0.0433        -999.25        63.7618        51.5031        73.8643         0.7933        31.8564         2.4027         0.9116       -50.2217      -4.086739      0.8694533      0.9298468
      6749.0000         11.519         0.0464        -999.25         64.937        53.2755       78.53014         0.7896        32.1155         2.3694         0.8366       -49.4397      -3.309196      0.9687263      0.9475183
      6749.5000        11.4655         0.0424        -999.25        66.2101        53.8589       80.06775          0.792        33.6736         2.3265         0.8139       -48.8489      -2.722855              1      0.9608442
      6750.0000         11.353         0.0385        -999.25        66.5718        53.1521       78.21082         0.7943        35.2168          2.319         0.8245       -48.4244      -2.302811      0.9619322      0.9703907
      6750.5000        11.1768           0.04        -999.25        65.2993        52.0101       75.20898         0.7967        38.1143         2.3193         0.8418       -48.1647      -2.047569      0.8980635      0.9761916
      6751.0000        11.1957         0.0405        -999.25        62.5677        51.3009       73.34571         0.8146        39.2919         2.3196         0.8536       -48.0302       -1.91753      0.8584194       0.979147
      6751.5000        11.3723          0.035        -999.25        60.9194          51.09       72.79349         0.8423        40.3871         2.3245         0.8704        -47.872      -1.763786        0.84667      0.9826412
      6752.0000        11.5036          0.029        -999.25        59.2983        50.6275       71.57935          0.881          40.85         2.3307         0.9093       -47.7092      -1.605446      0.8208373      0.9862399
      6752.5000        11.5781         0.0257        -999.25        56.9974        49.6346       68.96975          0.942        41.6149         2.3407          0.963       -47.7012      -1.601898      0.7653138      0.9863205
      6753.0000        11.5979         0.0291        -999.25        56.6208        48.3409        65.5687          1.012        42.2351         2.3705         1.0267       -47.6317      -1.536858      0.6929511      0.9877987
      6753.5000        11.5961         0.0285        -999.25        57.2402         47.168        62.4855         1.0945        41.0298         2.3893         1.0996       -47.7436      -1.653217       0.627351      0.9851542
      6754.0000        11.5786         0.0309        -999.25         56.782        46.0123       59.44755         1.1709        35.6243         2.4183         1.1707        -48.627      -2.541073      0.5627139      0.9649756
      6754.5000        11.5496         0.0294        -999.25        56.2355        46.9127       61.81918         1.2386        30.6143         2.4413         1.2399       -50.0626      -3.981133      0.6131741       0.932247
      6755.0000        11.4782         0.0245        -999.25        56.0861         48.114       64.98242         1.2882        29.3684         2.4492         1.2776       -51.3613      -5.284294      0.6804771      0.9026297
      6755.5000         11.195          0.018        -999.25        56.4453        48.7411       66.63501         1.3039        30.4488         2.4432         1.3065       -52.5662      -6.493649      0.7156385      0.8751444
      6756.0000        11.0438         0.0137        -999.25          55.58        48.2854       65.43873         1.2917         30.454         2.4528         1.5809       -53.2643      -7.196209      0.6901857      0.8591771
      6756.5000         10.907         0.0174        -999.25        55.6432        47.8223         64.223         1.2553        28.9536         2.4763         1.8418       -52.7586      -6.694962      0.6643192      0.8705691
      6757.0000        10.8338         0.0364        -999.25        55.8776        47.6356       63.73452         1.2103        28.0101         2.5143         1.7331       -52.0229      -5.963722      0.6539259      0.8871881
      6757.5000        11.1161         0.0518        -999.25        58.8451        48.2805       65.43388         1.1546        27.8412          2.459         1.2477       -51.4405       -5.38578      0.6900825      0.9003232
      6758.0000        11.2888         0.0494        -999.25        62.9936        50.1995       70.48547         1.1052         29.203         2.4136         1.1328       -51.1161      -5.065838      0.7975631      0.9075946
      6758.5000        11.3633         0.0646        -999.25        64.3544        51.9557       75.10867         1.0664        30.9155         2.4099         1.0922       -50.8223      -4.776497       0.895929      0.9141705
      6759.0000        11.2601         0.0686        -999.25        64.1184        53.1225       78.18113         1.0356        33.0534          2.407         1.0302       -50.3795      -4.338158      0.9613006      0.9241328
      6759.5000        11.1472         0.0615        -999.25        64.3594        53.7194       79.75426         1.0205        35.9929         2.3968          0.985       -50.0145      -3.977612      0.9947714       0.932327
