#------------------------------------------------------------------------------
# Created by    : vladimir.rabinovich
# Created on    : 09/19/2023 17:22:52
#------------------------------------------------------------------------------
~Version Information Section
VERS.           2.0     :   CWLS log ASCII Standard - VERSION 2.0
WRAP.           NO      :   One line per depth step
~Well Information Section
#MNEM       .UNIT                                         VALUE :DESCRIPTION
#------------------------------------------------------------------------------
STRT        .FT                                            1126 :START DEPTH
STOP        .FT                                            9906 :STOP DEPTH
STEP        .FT                                             0.5 :STEP      
NULL        .                                           -999.25 :NULL      
COMP        .                                        EXXON CORP :COMPANY   
WELL        .                               OCS G06053 ST00BP00 :WELL      
FLD         .                                           WILDCAT :FIELD     
LOC         .                                                   :LOCATION  
CNTY        .                      MATAGORDA ISLAND LARGE BLOCK :LOCATION  
STAT        .                                             TEXAS :STATE     
CTRY        .                                     UNITED STATES :COUNTRY   
SRVC        .                                                   :SERVICE COMPANY
DATE        .                             9/13/2023 11:12:11 AM :LOG DATE  
API         .                                    42703402640000 :API NUMBER
UWI         .                                    42703402640000 :UNIQUE WELL ID
XCOORD      .                                  440255.018680432 :SURFACE X 
YCOORD      .                                  10152284.9344853 :SURFACE Y 
LAT         .                                         27.926249 :LATITUDE  
LON         .                                        -96.716438 :LONGITUDE 
ELEV        .FT                                              94 :ELEVATION VALUE
ELEV_TYPE   .                                                KB :ELEVATION REFERENCE TYPE
~Curve Information Section
#MNEM       .UNIT                                      API CODE :CURVE DESCRIPTION
#------------------------------------------------------------------------------
DEPT        .FT                                                 :DEPTH     
GR          .GAPI                                               :          
GR_NORM     .GAPI                                               :GammaRay Normalized
ILD         .OHMM                                               :          
SP          .MV                                                 :          
SP_NORM     .MV                                                 :SP Normalized
VSH_GR      .V/V                                                :Volume of Shale from GR
VSH_SP      .V/V                                                :Volume of Shale from SP
~A        DEPTH             GR        GR_NORM            ILD             SP        SP_NORM         VSH_GR         VSH_SP
# ...
      4610.0000        40.5686       56.18103         0.9783        -101.38      -46.69249      0.4932135      0.3377901
      4610.5000         40.855       56.70736         1.0419       -98.3379      -43.64926      0.5044118      0.3818948
      4611.0000         41.899       58.64025         1.1164       -97.9371      -43.24734      0.5455374      0.3877196
      4611.5000        42.7202       60.15952         1.1649       -98.7502      -44.05932      0.5778621      0.3759519
      4612.0000        43.1509       60.95375         1.2136       -97.7943      -43.10229      0.5947607      0.3898219
      4612.5000        41.9624       58.74174         1.2716       -95.2648      -40.57167      0.5476967      0.4264975
      4613.0000        40.1968       55.45831         1.3301       -93.3787      -38.68445      0.4778365      0.4538485
      4613.5000        39.1129       53.44053         1.3736       -92.2036      -37.50823       0.434905      0.4708952
      4614.0000         38.601       52.48472         1.4103       -91.7189      -37.02241      0.4145685      0.4779361
      4614.5000        38.7108       52.68317         1.4408          -92.2      -37.50238      0.4187908        0.47098
      4615.0000        38.9831       53.18333         1.4799        -93.225      -38.52626      0.4294326      0.4561411
      4615.5000        39.2402       53.65528         1.5134       -93.4144      -38.71454       0.439474      0.4534125
      4616.0000        39.2389       53.64746          1.535       -93.2101      -38.50911      0.4393077      0.4563897
      4616.5000        38.5732       52.40611         1.5153       -93.0416       -38.3395      0.4128959      0.4588479
      4617.0000        38.0593       51.44659         1.3811       -92.8282      -38.12497      0.3924806      0.4619569
      4617.5000        37.5992       50.58694         1.1313       -90.8354      -36.13105      0.3741903      0.4908544
      4618.0000        37.1411       49.73104         0.9443       -84.7075      -30.00202      0.3559796      0.5796809
      4618.5000        38.0333        51.3821         0.7863        -77.313      -22.60641      0.3911085      0.6868637
      4619.0000        46.3137        66.7502         0.7049       -71.7854      -17.07768      0.7180893      0.7669901
      4619.5000        53.1519       79.44071         0.6578       -67.4913      -12.78246      0.9881002      0.8292397
      4620.0000        58.7966       89.91528         0.6281       -65.4149      -10.70494              1      0.8593487
      4620.5000        62.8135       97.36774         0.6056       -64.6315      -9.920414              1      0.8707187
      4621.0000        63.2787       98.22603         0.5999       -65.2932      -10.58099              1      0.8611451
      4621.5000        61.6714       95.23649         0.6191       -67.0558      -12.34247              1      0.8356164
      4622.0000        58.6941        89.7034          0.663       -68.7708      -14.05634              1      0.8107777
      4622.5000        54.5941       82.08588         0.7134       -67.0686      -12.35303              1      0.8354633
      4623.0000        50.7724       74.98505         0.7693       -65.2767         -10.56       0.893299      0.8614492
      4623.5000        47.9183       69.68069          0.828       -65.6482      -10.93038      0.7804402      0.8560815
      4624.0000        46.5187       67.07679         0.8891       -72.1587      -17.43975      0.7250381      0.7617427
      4624.5000        45.5944       65.35529          0.854       -86.3181      -31.59803      0.6884105      0.5565503
      4625.0000        45.0325       64.30666         0.7961       -98.8596       -44.1384      0.6660993      0.3748057
      4625.5000        42.7665       60.09417         0.7376      -111.7524      -57.03009      0.5764717      0.1879697
      4626.0000        40.6519       56.16277         0.6866      -118.0488      -63.32536      0.4928248     0.09673387
      4626.5000        38.1895       51.58565         0.6506      -121.6619      -66.93735      0.3954393     0.04438627
      4627.0000        36.6203       48.66684         0.6262       -125.198      -70.47232      0.3333371              0
      4627.5000        35.5477       46.67004          0.608      -128.5457      -73.81889      0.2908519              0
      4628.0000        35.0428       45.72723         0.6002      -130.4666      -75.73867      0.2707922              0
      4628.5000        34.8226       45.31301         0.6054      -131.9539      -77.22485       0.261979              0
      4629.0000        33.7857       43.38248         0.6125      -132.7454      -78.01524      0.2209039              0
      4629.5000        31.0976       38.38632         0.6242       -132.739      -78.00771      0.1146025              0
      4630.0000         30.288       36.87779         0.6361      -131.9299      -77.19748     0.08250622              0
      4630.5000        29.8026        35.9712         0.6468      -130.6523      -75.91876       0.063217              0
      4631.0000        29.3582       35.14071         0.6575      -128.6462      -73.91153       0.045547              0
      4631.5000        28.8704       34.22965         0.6703      -127.0586      -72.32281     0.02616282              0
      4632.0000        28.5641       33.65556         0.6868      -125.9443      -71.20739     0.01394816              0
      4632.5000        28.5169       33.56253          0.705      -125.6748      -70.93677     0.01196873              0
      4633.0000         28.698       33.89336         0.7286      -125.8763      -71.13715     0.01900766              0
      4633.5000        29.0083       34.46407         0.7526      -124.4147      -69.67442     0.03115049    0.004718504
      4634.0000        29.2688       34.94231         0.7744      -122.4049       -67.6635     0.04132575     0.03386235
      4634.5000        29.4536       35.28001         0.7945      -120.1061      -65.36359     0.04851077      0.0671944
      4635.0000        29.1562       34.72245         0.8061      -117.8364      -63.09276      0.0366478      0.1001049
      4635.5000        28.6102       33.70333         0.8088      -117.7445      -62.99973     0.01496449      0.1014531
      4636.0000        27.8256       32.24123         0.8049      -116.8152      -62.06931              0      0.1149375
      4636.5000        27.3826       31.41335         0.7809      -113.2313      -58.48429              0      0.1668943
      4637.0000        27.3795       31.40219         0.7396      -109.7062      -54.95807              0      0.2179991
      4637.5000        27.8591       32.28721         0.6992      -108.2345      -53.48524              0      0.2393443
      4638.0000        28.8792       34.17574         0.6636      -108.6547      -53.90432     0.02501581      0.2332707
      4638.5000        30.3057       36.81879         0.6282      -108.5812       -53.8297     0.08125094      0.2343522
      4639.0000        31.9249       39.81961         0.5961      -108.2977      -53.54507      0.1450982      0.2384772
      4639.5000        34.1384       43.92384         0.5704      -107.8521      -53.09835      0.2324221      0.2449514
      4640.0000         36.303       47.93727          0.553      -108.6492      -53.89433      0.3178142      0.2334155
      4640.5000        37.7853       50.68392           0.54      -110.0758      -55.31981      0.3762536      0.2127564
      4641.0000         38.246       51.53384         0.5345      -111.9932      -57.23609      0.3943371      0.1849842
      4641.5000        38.2031       51.44879         0.5374      -112.8707      -58.11246      0.3925274      0.1722832
      4642.0000        38.1646       51.37192         0.5502      -112.2704      -57.51104      0.3908919      0.1809994
      4642.5000         38.062       51.17603         0.5775       -110.678      -55.91752       0.386724      0.2040939
      4643.0000        37.1072       49.39793         0.6114      -109.4969       -54.7353      0.3488922      0.2212276
