#------------------------------------------------------------------------------
# Created by    : vladimir.rabinovich
# Created on    : 09/19/2023 17:20:32
#------------------------------------------------------------------------------
~Version Information Section
VERS.           2.0     :   CWLS log ASCII Standard - VERSION 2.0
WRAP.           NO      :   One line per depth step
~Well Information Section
#MNEM       .UNIT                                         VALUE :DESCRIPTION
#------------------------------------------------------------------------------
STRT        .FT                                             530 :START DEPTH
STOP        .FT                                           15895 :STOP DEPTH
STEP        .FT                                             0.5 :STEP      
NULL        .                                           -999.25 :NULL      
COMP        .                                      SHELL OIL CO :COMPANY   
WELL        .                                OCS 00708 ST00BP00 :WELL      
FLD         .                                FEDERAL BLOCK 0288 :FIELD     
LOC         .                                                   :LOCATION  
CNTY        .                             GALVESTON LARGE BLOCK :LOCATION  
STAT        .                                             TEXAS :STATE     
CTRY        .                                     UNITED STATES :COUNTRY   
SRVC        .                                                   :SERVICE COMPANY
DATE        .                             9/13/2023 11:19:24 AM :LOG DATE  
API         .                                    42706000930000 :API NUMBER
UWI         .                                    42706000930000 :UNIQUE WELL ID
XCOORD      .                                  1077631.85251343 :SURFACE X 
YCOORD      .                                  10490946.9562601 :SURFACE Y 
LAT         .                                         28.896779 :LATITUDE  
LON         .                                        -94.759235 :LONGITUDE 
ELEV        .FT                                              76 :ELEVATION VALUE
ELEV_TYPE   .                                                KB :ELEVATION REFERENCE TYPE
~Curve Information Section
#MNEM       .UNIT                                      API CODE :CURVE DESCRIPTION
#------------------------------------------------------------------------------
DEPT        .FT                                                 :DEPTH     
ASN         .OHMM                                               :          
CILD        .MMHO                                               :          
SP          .MV                                                 :          
SP_NORM     .MV                                                 :SP Normalized
VSH_SP      .V/V                                                :Volume of Shale from SP
~A        DEPTH            ASN           CILD             SP        SP_NORM         VSH_SP
# ...
      2554.0000         0.9953       1088.875       -71.5386      -7.021271      0.6137484
      2554.5000         0.9805       1181.438       -71.8011      -7.285683       0.593409
      2555.0000         0.9657       1241.859       -72.0637      -7.550194       0.573062
      2555.5000         0.9494       1268.281       -72.3263      -7.814705       0.552715
      2556.0000         0.9303       1294.703        -72.589      -8.079308       0.532361
      2556.5000         0.9113       1321.125       -72.3502      -7.842422      0.5505829
      2557.0000         0.8922       1342.289       -72.0771      -7.571236      0.5714434
      2557.5000         0.8732       1363.008       -71.5923      -7.088348      0.6085886
      2558.0000         0.8554       1383.633       -71.0337      -6.531654      0.6514112
      2558.5000         0.8404       1404.094       -70.4753      -5.975166       0.694218
      2559.0000         0.8254       1425.781        -69.917      -5.418777      0.7370171
      2559.5000         0.8103       1455.875       -69.3586      -4.862282      0.7798245
      2560.0000         0.7953       1450.828       -68.8344      -4.339996      0.8200003
      2560.5000          0.784       1413.516       -68.4908      -3.998306      0.8462842
      2561.0000         0.7821       1376.203       -68.7166      -4.226013      0.8287682
      2561.5000         0.7936       1346.719       -69.1187      -4.630028      0.7976902
      2562.0000          0.805       1320.344       -69.5205      -5.033737      0.7666356
      2562.5000         0.8164       1293.969       -69.9224      -5.437546      0.7355734
      2563.0000         0.8276       1267.594       -70.3214      -5.838463      0.7047336
      2563.5000         0.8355       1240.359       -70.7157      -6.234665      0.6742566
      2564.0000         0.8433       1210.344       -71.1099      -6.630783      0.6437859
      2564.5000         0.8512       1180.344       -71.5042      -7.026993      0.6133083
      2565.0000         0.8591           1151       -71.8984      -7.423096      0.5828388
      2565.5000          0.867       1124.547       -72.1783       -7.70491      0.5611607
      2566.0000         0.8749       1098.078       -71.9783      -7.506821      0.5763984
      2566.5000         0.8827        1077.68       -71.7782      -7.308632      0.5916437
      2567.0000         0.8897       1059.313       -71.5781      -7.110443       0.606889
      2567.5000         0.8927       1042.957       -71.4254      -6.959648      0.6184886
      2568.0000         0.8958       1030.898       -71.2843      -6.820465       0.629195
      2568.5000         0.8989       1018.844       -71.1433      -6.681374      0.6398944
      2569.0000         0.8992       1006.785       -71.0022      -6.542175      0.6506019
      2569.5000         0.8971        997.043       -70.8612      -6.403091      0.6613007
      2570.0000         0.8929       1026.188       -70.7201      -6.263901      0.6720076
      2570.5000         0.8886       1073.266       -70.5829      -6.128616      0.6824141
      2571.0000         0.8843       1120.328       -70.6085       -6.15612      0.6802984
      2571.5000         0.8801       1162.766       -70.6342      -6.183731      0.6781746
      2572.0000         0.8756       1201.281       -70.6599      -6.211342      0.6760506
      2572.5000         0.8701       1242.094       -70.8904      -6.443756      0.6581726
      2573.0000         0.8645       1293.313       -71.1619      -6.717163      0.6371413
      2573.5000          0.859       1383.875       -71.4333      -6.990471      0.6161176
      2574.0000         0.8535       1549.625       -71.7048      -7.263885      0.5950857
      2574.5000         0.8456       1794.125       -72.2183      -7.779297      0.5554387
      2575.0000         0.8174       1957.188       -72.7764      -8.339302      0.5123614
      2575.5000         0.7892       1996.594       -73.3342       -8.89901      0.4693069
      2576.0000         0.7654       2133.391       -73.9062      -9.472923      0.4251598
      2576.5000         0.7457       2174.891       -74.5188      -10.08743      0.3778898
      2577.0000          0.726       2231.859       -75.1316      -10.70215       0.330604
      2577.5000         0.7064       2178.531       -75.7444      -11.31686      0.2833187
      2578.0000         0.6871       2085.844       -76.3142      -11.88857      0.2393412
      2578.5000         0.6689        2027.25        -75.895      -11.47128      0.2714404
      2579.0000         0.6506       1977.719       -74.4907      -10.06889      0.3793165
      2579.5000         0.6416           1843       -73.0864      -8.666496      0.4871926
      2580.0000         0.6545       1630.984       -71.5918      -7.173805       0.602015
      2580.5000         0.6675       1608.602       -70.9133      -6.497215      0.6540604
      2581.0000         0.6797       1577.734       -71.1609      -6.746727      0.6348671
      2581.5000         0.6912       1568.695       -71.4084       -6.99614      0.6156816
      2582.0000         0.7026       1575.461       -71.5824      -7.172043      0.6021506
      2582.5000          0.714       1583.289       -71.7472       -7.33876      0.5893261
      2583.0000         0.7251       1601.031        -71.912       -7.50547      0.5765023
      2583.5000         0.7189       1618.781       -72.0768      -7.672173       0.563679
      2584.0000         0.7126       1636.523       -71.9996      -7.596893      0.5694697
      2584.5000         0.7063       1660.625       -71.6825        -7.2817      0.5937154
      2585.0000         0.7001       1698.359       -71.3654      -6.966515      0.6179604
      2585.5000          0.694       1736.109       -71.0482      -6.651222      0.6422137
      2586.0000         0.6888       1773.469       -70.7311      -6.336029      0.6664593
      2586.5000         0.6836       1808.891       -70.8716      -6.478439      0.6555046
      2587.0000         0.6784       1844.297       -71.1934      -6.802147      0.6306041
      2587.5000         0.6732       1868.008        -71.515      -7.125664      0.6057182
      2588.0000          0.668       1888.859        -71.949      -7.561569       0.572187
      2588.5000         0.6628       1909.711        -72.425      -8.039482      0.5354245
      2589.0000         0.6576        1924.82       -72.9014      -8.517792      0.4986314
      2589.5000         0.6523         1936.5       -73.3777      -8.996002       0.461846
      2590.0000         0.6531       1940.906       -73.8538      -9.474007      0.4250764
      2590.5000         0.6542       1921.398       -74.0991      -9.721222      0.4060599
      2591.0000         0.6553       1901.898        -73.899      -9.523033      0.4213051
      2591.5000         0.6563       1882.398        -73.699      -9.324944      0.4365428
      2592.0000         0.6574       1862.891       -73.5647      -9.192551      0.4467269
      2592.5000         0.6585       1842.039       -73.7994      -9.429161      0.4285261
      2593.0000         0.6596       1818.914       -74.0342      -9.665878      0.4103171
      2593.5000         0.6606       1795.797       -74.3087      -9.942284      0.3890551
      2594.0000         0.6617       1772.672       -74.5959       -10.2314      0.3668154
      2594.5000         0.6628       1732.406       -74.8833      -10.52071      0.3445611
      2595.0000         0.6639       1685.406       -74.6715      -10.31081      0.3607066
      2595.5000          0.665       1662.391       -74.4092      -10.05043      0.3807361
      2596.0000          0.666       1642.969       -74.1217      -9.764832      0.4027053
      2596.5000         0.6687       1623.547       -73.8342       -9.47924      0.4246738
      2597.0000         0.6722       1608.773       -73.5468      -9.193756      0.4466341
      2597.5000         0.6757       1596.746       -73.2593      -8.908165      0.4686027
