#------------------------------------------------------------------------------
# Created by    : vladimir.rabinovich
# Created on    : 09/19/2023 17:20:28
#------------------------------------------------------------------------------
~Version Information Section
VERS.           2.0     :   CWLS log ASCII Standard - VERSION 2.0
WRAP.           NO      :   One line per depth step
~Well Information Section
#MNEM       .UNIT                                         VALUE :DESCRIPTION
#------------------------------------------------------------------------------
STRT        .FT                                            2653 :START DEPTH
STOP        .FT                                           10423 :STOP DEPTH
STEP        .FT                                             0.5 :STEP      
NULL        .                                           -999.25 :NULL      
COMP        .                                       MONSANTO CO :COMPANY   
WELL        .                                     ST TR 00150-L :WELL      
FLD         .                                           WILDCAT :FIELD     
LOC         .                                                   :LOCATION  
CNTY        .                             GALVESTON LARGE BLOCK :LOCATION  
STAT        .                                             TEXAS :STATE     
CTRY        .                                     UNITED STATES :COUNTRY   
SRVC        .                                                   :SERVICE COMPANY
DATE        .                             9/13/2023 11:19:24 AM :LOG DATE  
API         .                                    42706300340000 :API NUMBER
UWI         .                                    42706300340000 :UNIQUE WELL ID
XCOORD      .                                  1113316.22146511 :SURFACE X 
YCOORD      .                                  10612518.3672968 :SURFACE Y 
LAT         .                                         29.232517 :LATITUDE  
LON         .                                       -94.6530532 :LONGITUDE 
ELEV        .FT                                              81 :ELEVATION VALUE
ELEV_TYPE   .                                                KB :ELEVATION REFERENCE TYPE
~Curve Information Section
#MNEM       .UNIT                                      API CODE :CURVE DESCRIPTION
#------------------------------------------------------------------------------
DEPT        .FT                                                 :DEPTH     
ASN         .OHMM                                               :          
CILD        .MMHO                                               :          
ILD         .OHMM                                               :          
SP          .MV                                                 :          
SP_NORM     .MV                                                 :SP Normalized
VSH_SP      .V/V                                                :Volume of Shale from SP
~A        DEPTH            ASN           CILD            ILD             SP        SP_NORM         VSH_SP
      2653.0000         0.0797       1950.463         0.3967       -95.5448      -21.60541      0.1414413
      2653.5000         0.0807       1951.666         0.4041       -93.7258      -19.78641       0.217233
      2654.0000         0.0818       1951.764         0.4082       -90.5038      -16.56441       0.351483
      2654.5000         0.0828       1951.861         0.4089        -84.842      -10.90261      0.5873912
      2655.0000         0.0837       1951.527         0.4096       -80.3342      -6.394806      0.7752164
      2655.5000         0.1512       1950.152         0.4104       -77.1393      -3.199905      0.9083373
      2656.0000         0.6763       2189.504         0.4118       -75.5913      -1.664017      0.9723327
      2656.5000         0.7013       2489.711         0.4149       -75.0078      -1.217209      0.9909496
      2657.0000         0.8843       2519.082          0.418       -74.8767      -1.222816       0.990716
      2657.5000         0.9165       2526.215         0.4213        -75.809      -2.291809      0.9461746
      2658.0000         0.9507       2488.277         0.4245        -76.759       -3.37851      0.9008954
      2658.5000         0.9016       2448.602         0.4278       -78.9785      -5.734703      0.8027207
      2659.0000         0.8786        2408.93         0.4299       -80.8596      -7.752502      0.7186458
      2659.5000         0.8635       2361.387         0.4312       -78.5541      -5.583702      0.8090124
      2660.0000         0.8603        2310.34         0.4325       -76.6256      -3.791901      0.8836708
      2660.5000         1.0508       2236.797         0.4304       -77.0396      -4.342598      0.8607251
      2661.0000          1.148       2288.113          0.429       -82.4479      -9.887596      0.6296835
      2661.5000         1.1701       2673.445         0.4385       -87.0504      -14.62679       0.432217
      2662.0000         1.1517       2754.266         0.4129       -89.2673       -16.9804        0.33415
      2662.5000          1.142       2846.848         0.3889       -90.2328       -18.0826      0.2882252
      2663.0000         1.1354        2929.41         0.3711       -90.8123      -18.79879      0.2583838
      2663.5000         1.1277       2954.809         0.3601       -91.3651      -19.48828       0.229655
      2664.0000         1.1161       2919.719         0.3492       -91.7589      -20.01879      0.2075504
      2664.5000         1.1027       2884.625         0.3516       -92.1528      -20.54939      0.1854423
      2665.0000         1.0707       2782.422         0.3553       -92.4784      -21.01168        0.16618
      2665.5000         1.0216       2726.156         0.3768       -90.9916      -19.66158       0.222434
      2666.0000         0.9823       2650.285         0.3997       -89.5048      -18.31148      0.2786884
      2666.5000         0.9466       2055.676         0.4386        -87.465      -16.40837      0.3579845
      2667.0000         0.9055           1984         0.4837        -84.201      -13.28107      0.4882889
      2667.5000         0.8843       1829.875         0.5283       -76.2091      -5.425873      0.8155887
      2668.0000          0.864       1744.672         0.5718       -72.7428      -2.096268      0.9543222
      2668.5000         0.8474       1707.215         0.6153       -71.3009      -0.791069              1
      2669.0000         0.8442       1671.301         0.6481       -70.5127     -0.1395721              1
      2669.5000         0.8566       1635.389         0.6791       -70.2469    -0.01046753              1
      2670.0000         0.8732       1599.486         0.6965       -70.4224     -0.3226624              1
      2670.5000         0.8897       1456.018         0.7113       -70.7816     -0.8185577              1
      2671.0000         0.9063       1409.652         0.7261       -71.1252      -1.298859      0.9875476
      2671.5000          0.927       1384.865         0.7355       -71.3739      -1.684258      0.9714893
      2672.0000         0.9539       1365.695         0.7382       -71.6223      -2.069351      0.9554437
      2672.5000         0.9808        1350.85          0.741       -71.8708      -2.454552      0.9393937
      2673.0000         1.0462           1336         0.7437       -72.1194      -2.839851      0.9233395
      2673.5000         1.0948       1320.549          0.741       -72.3079      -3.165047      0.9097897
      2674.0000         1.1635       1342.457         0.7324       -72.5477      -3.465759        0.89726
      2674.5000         1.1978       1364.365         0.7237       -72.9546      -3.887131      0.8797029
      2675.0000         1.2253       1393.539         0.7135       -73.7548      -4.701813      0.8457578
      2675.5000         1.2481       1423.008         0.7033       -74.7083      -5.669785      0.8054256
      2676.0000         1.2491       1452.477         0.6931       -76.1833      -7.159256      0.7433643
      2676.5000         1.2308       1481.945         0.6824       -77.7747      -8.765129      0.6764529
      2677.0000         1.2093        1522.33         0.6712       -79.0449       -10.0498      0.6229248
      2677.5000         1.1854       1569.725           0.66       -80.3029      -11.32228       0.569905
      2678.0000         1.1604       1631.088         0.6488        -80.728      -11.76185      0.5515897
      2678.5000         1.1283        1693.32         0.6349       -81.0526      -12.10092      0.5374616
      2679.0000         1.1012       1729.539         0.6194       -81.0546      -12.11741      0.5367746
      2679.5000         1.0821       1775.746         0.6039       -81.0377      -12.11497       0.536876
      2680.0000         1.1029       1862.625         0.5874       -80.7311      -11.82285      0.5490478
      2680.5000         1.1335       2090.105         0.5686       -81.0066      -12.11282      0.5369657
      2681.0000         1.1545       2252.727         0.5498       -81.7844       -12.9051      0.5039542
      2681.5000         1.1509       2415.348         0.5242       -83.8147      -14.94987      0.4187555
      2682.0000          1.131       2577.871         0.4926       -88.6393      -19.78894      0.2171275
      2682.5000         1.0814       2740.492         0.4487       -89.8234      -20.98752      0.1671867
      2683.0000         1.0568       2910.098         0.4022       -90.7852       -21.9638      0.1265084
      2683.5000         0.9996       2991.727         0.3574       -91.4594      -22.65247     0.09781393
      2684.0000         0.9197        3135.48         0.3304       -92.1335      -23.34104     0.06912327
      2684.5000         0.8586        2937.52         0.3372       -92.6525      -23.87451     0.04689534
      2685.0000         0.7946       2828.176         0.3571       -91.2321      -22.46859      0.1054754
      2685.5000         0.7713       2763.922         0.3863       -87.3494      -18.60036      0.2666515
      2686.0000         0.7671       2694.668         0.4154       -83.8037      -15.06914      0.4137859
      2686.5000         0.8839       2633.402         0.4445       -80.8135      -12.09341      0.5377747
      2687.0000         0.9724       2578.215         0.4756       -79.3137      -10.60809      0.5996631
      2687.5000         1.0241       2459.262         0.5069        -78.384      -9.692863      0.6377974
      2688.0000         1.0508        2265.52         0.5277       -79.7535      -11.07684      0.5801318
      2688.5000         1.0719       2119.613         0.5183       -81.7454      -13.08321      0.4965331
      2689.0000         1.0878       1890.531         0.5089       -83.6031      -14.95538      0.4185257
      2689.5000         1.0751       2079.813         0.4934       -85.4529      -16.81966      0.3408476
      2690.0000         0.9689       2154.141         0.4752       -86.8978      -18.27902      0.2800407
      2690.5000         0.8338       2225.086         0.4571       -88.3434       -19.7391      0.2192043
