#------------------------------------------------------------------------------
# Created by    : vladimir.rabinovich
# Created on    : 09/19/2023 17:19:48
#------------------------------------------------------------------------------
~Version Information Section
VERS.           2.0     :   CWLS log ASCII Standard - VERSION 2.0
WRAP.           NO      :   One line per depth step
~Well Information Section
#MNEM       .UNIT                                         VALUE :DESCRIPTION
#------------------------------------------------------------------------------
STRT        .FT                                             960 :START DEPTH
STOP        .FT                                            9172 :STOP DEPTH
STEP        .FT                                             0.5 :STEP      
NULL        .                                           -999.25 :NULL      
COMP        .                                ODECO OIL & GAS CO :COMPANY   
WELL        .                               OCS G06101 ST00BP00 :WELL      
FLD         .                                           WILDCAT :FIELD     
LOC         .                                                   :LOCATION  
CNTY        .                             GALVESTON LARGE BLOCK :LOCATION  
STAT        .                                             TEXAS :STATE     
CTRY        .                                     UNITED STATES :COUNTRY   
SRVC        .                                                   :SERVICE COMPANY
DATE        .                             9/13/2023 11:19:27 AM :LOG DATE  
API         .                                    42706401070000 :API NUMBER
UWI         .                                    42706401070000 :UNIQUE WELL ID
XCOORD      .                                  1041316.87817256 :SURFACE X 
YCOORD      .                                  10447909.9182991 :SURFACE Y 
LAT         .                                         28.776905 :LATITUDE  
LON         .                                        -94.870587 :LONGITUDE 
ELEV        .FT                                              92 :ELEVATION VALUE
ELEV_TYPE   .                                                KB :ELEVATION REFERENCE TYPE
~Curve Information Section
#MNEM       .UNIT                                      API CODE :CURVE DESCRIPTION
#------------------------------------------------------------------------------
DEPT        .FT                                                 :DEPTH     
ASFL        .OHMM                                               :          
GR          .GAPI                                               :          
GR_NORM     .GAPI                                               :GammaRay Normalized
ILD         .OHMM                                               :          
SP          .MV                                                 :          
SP_NORM     .MV                                                 :SP Normalized
VSH_GR      .V/V                                                :Volume of Shale from GR
VSH_SP      .V/V                                                :Volume of Shale from SP
~A        DEPTH           ASFL             GR        GR_NORM            ILD             SP        SP_NORM         VSH_GR         VSH_SP
# ...
      6417.5000         0.7039        71.6603       74.99992         0.7575       -70.0051      -8.098877      0.8936154      0.8650187
      6418.0000         0.7148        69.6617       72.35626          0.773       -70.3362      -8.562418      0.8373673       0.857293
      6418.5000         0.7256        69.1731       71.70998         0.7885       -70.6345       -8.98004      0.8236165      0.8503327
      6419.0000         0.7344        71.1959       74.38563         0.8002         -70.88      -9.323738      0.8805453      0.8446044
      6419.5000         0.7334        72.6705       76.33616         0.8022       -70.9724      -9.453097      0.9220459      0.8424484
      6420.0000         0.7325         74.145       78.28656         0.8042       -71.0348      -9.540459      0.9635438      0.8409923
      6420.5000         0.7316        74.0903        78.2142         0.8062       -70.9467      -9.417124      0.9620043      0.8430479
      6421.0000         0.7289          73.35       77.23497         0.8097       -70.8585      -9.293638      0.9411696       0.845106
      6421.5000         0.7256         72.527       76.14635         0.8175       -70.7704      -9.170303      0.9180074      0.8471616
      6422.0000         0.7223         71.704       75.05773         0.8253       -70.6823      -9.046957      0.8948454      0.8492174
      6422.5000         0.7198        70.8798       73.96751          0.833       -70.5941      -8.923483      0.8716492      0.8512753
      6423.0000         0.7201        70.3005       73.20124         0.8407       -70.5059      -8.799998      0.8553455      0.8533334
      6423.5000         0.7205         69.725          72.44         0.8483       -70.4816      -8.765979       0.839149      0.8539004
      6424.0000          0.726        71.1752       74.35826         0.8558       -70.4608      -8.736862       0.879963      0.8543856
      6424.5000         0.7335        72.5051       76.11738         0.8633       -70.4401      -8.707884       0.917391      0.8548686
      6425.0000          0.741        73.8339       77.87505         0.8776       -70.4193      -8.678757      0.9547884      0.8553541
      6425.5000         0.7485        74.9875       79.40099         0.8974       -70.3986      -8.649778       0.987255       0.855837
      6426.0000          0.756        76.0062       80.74847         0.9163       -70.3777      -8.620523              1      0.8563246
      6426.5000         0.7626        77.0261       82.09754         0.9351       -70.3569      -8.591406              1      0.8568099
      6427.0000         0.7669        78.0449       83.44515          0.954       -70.3379      -8.564799              1      0.8572534
      6427.5000         0.7713        78.9602       84.65587         0.9738       -70.3243      -8.545766              1      0.8575706
      6428.0000         0.7756        79.8136       85.78471         0.9921       -70.3107      -8.526721              1       0.857888
      6428.5000           0.78         80.667       86.91354         0.9908        -70.297      -8.507538              1      0.8582077
      6429.0000         0.7822        81.4912       88.00376         0.9896       -70.2834      -8.488504              1      0.8585249
      6429.5000         0.7843        82.2115       88.95654         0.9883       -70.2699      -8.469599              1        0.85884
      6430.0000         0.7864        82.5009       89.33934          0.987       -70.2448      -8.434458              1      0.8594257
      6430.5000         0.7893        81.8851       88.52479         0.9858       -70.1879      -8.354797              1      0.8607534
      6431.0000         0.7937        81.2688       87.70957         0.9817       -70.1311      -8.275287              1      0.8620785
      6431.5000         0.7982        80.6531       86.89516         0.9636       -70.0742      -8.195627              1      0.8634062
      6432.0000         0.8006        80.1479       86.22691         0.9455       -70.0175      -8.116244              1      0.8647293
      6432.5000          0.794        79.6538       85.57333          0.928       -69.9561      -8.030283              1      0.8661619
      6433.0000         0.7898        79.1754       84.94052         0.9113       -69.8887      -7.935925              1      0.8677346
      6433.5000         0.7856        80.7314       86.99873         0.8946        -69.821      -7.841141              1      0.8693143
      6434.0000         0.7815        81.9362       88.59238          0.878       -69.7537      -7.746922              1      0.8708846
      6434.5000         0.7773        83.0703       90.09251         0.8613       -69.6862      -7.652426              1      0.8724596
      6435.0000         0.7731        84.2046       91.59291         0.8478       -69.6187       -7.55792              1      0.8740347
      6435.5000         0.7686        84.9115       92.52795         0.8358       -69.5511      -7.463284              1      0.8756119
      6436.0000         0.7639        85.1978       92.90666         0.8237       -69.4769      -7.359399              1      0.8773434
      6436.5000         0.7592         85.484       93.28523         0.8116       -69.3944      -7.243904              1      0.8792683
      6437.0000         0.7545         85.585       93.41883         0.7992       -69.3119      -7.128398              1      0.8811933
      6437.5000         0.7498        85.6691       93.53008         0.7851       -69.2294      -7.012903              1      0.8831183
      6438.0000         0.7455        85.7843       93.68246         0.7711        -69.149      -6.900345              1      0.8849943
      6438.5000         0.7413        85.9216       93.86407          0.757        -69.079      -6.802345              1      0.8866276
      6439.0000         0.7371        86.0591       94.04594          0.743        -69.009      -6.704346              1      0.8882609
      6439.5000         0.7329        86.1859       94.21367         0.7289        -68.939      -6.606346              1      0.8898942
      6440.0000         0.7275        86.3007       94.36552          0.719       -68.8689      -6.508197              1        0.89153
      6440.5000         0.7201        86.4153       94.51711         0.7164        -68.791      -6.399142              1      0.8933476
      6441.0000         0.7127        86.4734       94.59396         0.7138        -68.661      -6.217146              1      0.8963809
      6441.5000         0.7054        86.5106       94.64317         0.7112       -68.5309      -6.035001              1      0.8994166
      6442.0000         0.6983        86.5477       94.69225         0.7085       -68.4008      -5.852866              1      0.9024522
      6442.5000            0.7         86.585       94.74158         0.7128       -68.2831      -5.688077              1      0.9051987
      6443.0000         0.7017        86.6046       94.76751         0.7172       -68.2074      -5.582098              1       0.906965
      6443.5000         0.7035        86.6052        94.7683         0.7216       -68.1316      -5.475981              1      0.9087337
      6444.0000         0.7056        86.8438       95.08392          0.726       -68.0559      -5.370003              1      0.9104999
      6444.5000         0.7087        89.8489       99.05891         0.7304       -67.9801      -5.263885              1      0.9122686
      6445.0000         0.7117         91.135       100.7601         0.7348       -67.9471      -5.217679              1      0.9130387
      6445.5000         0.7148         92.274       102.2667         0.7392       -67.9467      -5.217124              1       0.913048
      6446.0000         0.7178        93.1135       103.3772         0.7435        -67.946      -5.216141              1      0.9130643
      6446.5000         0.7208        93.8696       104.3773         0.7479       -67.9454      -5.215297              1      0.9130784
