#------------------------------------------------------------------------------
# Created by    : vladimir.rabinovich
# Created on    : 09/19/2023 17:21:44
#------------------------------------------------------------------------------
~Version Information Section
VERS.           2.0     :   CWLS log ASCII Standard - VERSION 2.0
WRAP.           NO      :   One line per depth step
~Well Information Section
#MNEM       .UNIT                                         VALUE :DESCRIPTION
#------------------------------------------------------------------------------
STRT        .FT                                            3434 :START DEPTH
STOP        .FT                                            9802 :STOP DEPTH
STEP        .FT                                             0.5 :STEP      
NULL        .                                           -999.25 :NULL      
COMP        .                                  UMC PETROLEUM CO :COMPANY   
WELL        .                               OCS G11352 ST00BP00 :WELL      
FLD         .                            HIGH ISLAND BLOCK 0093 :FIELD     
LOC         .                                                   :LOCATION  
CNTY        .                           HIGH ISLAND LARGE BLOCK :LOCATION  
STAT        .                                             TEXAS :STATE     
CTRY        .                                     UNITED STATES :COUNTRY   
SRVC        .                                                   :SERVICE COMPANY
DATE        .                             9/13/2023 11:19:57 AM :LOG DATE  
API         .                                    42708403880000 :API NUMBER
UWI         .                                    42708403880000 :UNIQUE WELL ID
XCOORD      .                                  1243413.75648782 :SURFACE X 
YCOORD      .                                  10663707.7269925 :SURFACE Y 
LAT         .                                         29.377731 :LATITUDE  
LON         .                                        -94.246854 :LONGITUDE 
ELEV        .FT                                              85 :ELEVATION VALUE
ELEV_TYPE   .                                                KB :ELEVATION REFERENCE TYPE
~Curve Information Section
#MNEM       .UNIT                                      API CODE :CURVE DESCRIPTION
#------------------------------------------------------------------------------
DEPT        .FT                                                 :DEPTH     
CALI        .IN                                                 :          
CALI_1      .IN                                                 :          
DPHI        .%                                                  :          
DRHO        .G/C3                                               :          
DT          .US/F                                               :          
GR          .GAPI                                               :          
GR_1        .GAPI                                               :          
GR_NORM     .GAPI                                               :GammaRay Normalized
ILD         .OHMM                                               :          
ILM         .OHMM                                               :          
NPHI        .%                                                  :          
RFOC        .OHMM                                               :          
SP          .MV                                                 :          
SP_NORM     .MV                                                 :SP Normalized
VSH_GR      .V/V                                                :Volume of Shale from GR
VSH_SP      .V/V                                                :Volume of Shale from SP
~A        DEPTH           CALI         CALI_1           DPHI           DRHO             DT             GR           GR_1        GR_NORM            ILD            ILM           NPHI           RFOC             SP        SP_NORM         VSH_GR         VSH_SP
# ...
      4746.0000        -999.25        15.7794        -999.25        -999.25       130.3848        22.3658        -999.25       36.76565         0.2473         0.3085        -999.25         0.7242      -103.5281       -63.5281     0.08012025     0.02264463
      4746.5000        -999.25        15.7824        -999.25        -999.25       134.8362        22.3769        -999.25       36.77916         0.2459         0.3107        -999.25         0.7679       -103.821        -63.821     0.08040757     0.01813847
      4747.0000        -999.25        15.7902        -999.25        -999.25       137.5039        22.7881        -999.25       37.41782         0.2433         0.3096        -999.25         0.8125      -104.0977       -64.0977     0.09399625     0.01388151
      4747.5000        -999.25        15.7977        -999.25        -999.25       130.4402        23.4536        -999.25       38.45382         0.2409         0.3061        -999.25         0.8574      -104.3621       -64.3621      0.1160388    0.009813867
      4748.0000        -999.25        15.8129        -999.25        -999.25       122.8086        24.0713        -999.25       39.41515         0.2386         0.3014        -999.25         0.8065      -104.5105       -64.5105      0.1364925    0.007530799
      4748.5000        -999.25        15.8197        -999.25        -999.25         116.33        23.9096        -999.25       39.15865         0.2361         0.2985        -999.25         0.7322      -104.6395       -64.6395      0.1310351      0.0055461
      4749.0000        -999.25        15.8235        -999.25        -999.25       114.2556        23.3974        -999.25        38.3545         0.2333         0.2968        -999.25         0.6916      -104.8909       -64.8909      0.1139254    0.001678467
      4749.5000        -999.25        15.8202        -999.25        -999.25       115.4495        22.8583        -999.25       37.50831          0.231         0.2958        -999.25         0.6832      -105.1176       -65.1176     0.09592146              0
      4750.0000        -999.25        15.8181        -999.25        -999.25       117.3674        22.2108        -999.25       36.49275         0.2296         0.2955        -999.25         0.6848      -105.2881       -65.2881     0.07431387              0
      4750.5000        -999.25        15.8197        -999.25        -999.25       118.4065        21.6533        -999.25       35.61782         0.2286         0.2954        -999.25         0.7011      -105.2163       -65.2163     0.05569831              0
      4751.0000        -999.25        15.8008        -999.25        -999.25       119.0869          21.73        -999.25       35.73383          0.229          0.297        -999.25         0.7172      -105.0852       -65.0852      0.0581665              0
      4751.5000        -999.25        15.7723        -999.25        -999.25       121.0878         22.335        -999.25        36.6753         0.2297         0.2997        -999.25         0.7134       -104.868        -64.868     0.07819781    0.002030827
      4752.0000        -999.25         15.724        -999.25        -999.25        123.311        22.8057        -999.25       37.40693          0.231          0.304        -999.25          0.704      -104.5992       -64.5992     0.09376436    0.006166194
      4752.5000        -999.25        15.5961        -999.25        -999.25       124.0236        22.8214        -999.25       37.42762         0.2341         0.3098        -999.25         0.6839      -104.1147       -64.1147     0.09420468     0.01361999
      4753.0000        -999.25        15.1937        -999.25        -999.25       124.1542        22.7754        -999.25       37.35191           0.24         0.3106        -999.25         0.6622      -103.2971       -63.2971      0.0925939     0.02619852
      4753.5000        -999.25         14.716        -999.25        -999.25       124.2235        22.9055        -999.25       37.55135         0.2482          0.316        -999.25         0.6457      -102.2722       -62.2722     0.09683715     0.04196613
      4754.0000        -999.25        14.8706        -999.25        -999.25       124.1525        25.9939        -999.25       42.37314         0.2651         0.3311        -999.25         0.6471      -100.0082       -60.0082      0.1994285      0.0767969
      4754.5000        -999.25        15.4922        -999.25        -999.25       123.5345        28.3951        -999.25       46.12117         0.2889         0.3692        -999.25          0.682       -96.6783       -56.6783      0.2791739      0.1280262
      4755.0000        -999.25        15.7836        -999.25        -999.25       117.6388        29.3597        -999.25       47.62452         0.3349         0.4137        -999.25         0.7597       -93.7334       -53.7334        0.31116      0.1733323
      4755.5000        -999.25         15.809        -999.25        -999.25       109.6304        31.1116        -999.25       50.35803         0.3822         0.4595        -999.25         0.8594       -90.7859       -50.7859      0.3693198      0.2186785
      4756.0000        -999.25        15.8038        -999.25        -999.25       101.6169        33.2384        -999.25       53.67731         0.4432         0.4913        -999.25         0.9016        -86.192        -46.192      0.4399428      0.2893538
      4756.5000        -999.25        15.7882        -999.25        -999.25         95.627        35.1306        -999.25       56.63004         0.4751          0.507        -999.25         0.8597       -84.9449       -44.9449      0.5027668        0.30854
      4757.0000        -999.25         15.778        -999.25        -999.25        95.8838        36.7706        -999.25       59.18871         0.4812         0.4979        -999.25         0.8202       -84.6757       -44.6757      0.5572065      0.3126816
      4757.5000        -999.25        15.7751        -999.25        -999.25        97.7734        35.6061        -999.25       57.36533         0.4519         0.4633        -999.25         0.8585       -86.0481       -46.0481      0.5184112      0.2915677
      4758.0000        -999.25         15.783        -999.25        -999.25        99.4785        31.7945        -999.25       51.40586         0.4054         0.4181        -999.25         0.8424       -90.0732       -50.0732      0.3916141      0.2296431
      4758.5000        -999.25        15.7661        -999.25        -999.25       100.5643        27.6352        -999.25       44.90311         0.3559         0.3766        -999.25         0.7483       -94.9948       -54.9948      0.2532578      0.1539262
      4759.0000        -999.25        15.7249        -999.25        -999.25       104.2898        25.0332        -999.25       40.83365         0.2923          0.346        -999.25          0.687       -99.8542       -59.8542      0.1666734     0.07916612
      4759.5000        -999.25        15.6183        -999.25        -999.25       111.3988         24.936        -999.25       40.67794         0.2555         0.3224        -999.25         0.6845         -102.5          -62.5      0.1633604     0.03846154
      4760.0000        -999.25        15.1689        -999.25        -999.25       117.9578        25.7334        -999.25       41.92003         0.2395         0.3068        -999.25         0.7025      -103.9166       -63.9166      0.1897879     0.01666765
      4760.5000        -999.25        14.1519        -999.25        -999.25         119.97        25.9215        -999.25       42.21011         0.2329         0.2982        -999.25         0.7253      -104.5437       -64.5437      0.1959597    0.007019982
      4761.0000        -999.25        13.2655        -999.25        -999.25       120.8228        25.4265        -999.25       41.43283         0.2361         0.2975        -999.25         0.7345       -104.928        -64.928      0.1794219    0.001107671
      4761.5000        -999.25        12.9467        -999.25        -999.25       121.0165        24.6014        -999.25       40.13977         0.2469          0.307        -999.25         0.6909      -105.1353       -65.1353      0.1519101              0
