#------------------------------------------------------------------------------
# Created by    : vladimir.rabinovich
# Created on    : 09/19/2023 17:20:01
#------------------------------------------------------------------------------
~Version Information Section
VERS.           2.0     :   CWLS log ASCII Standard - VERSION 2.0
WRAP.           NO      :   One line per depth step
~Well Information Section
#MNEM       .UNIT                                         VALUE :DESCRIPTION
#------------------------------------------------------------------------------
STRT        .FT                                            3496 :START DEPTH
STOP        .FT                                           13495 :STOP DEPTH
STEP        .FT                                             0.5 :STEP      
NULL        .                                           -999.25 :NULL      
COMP        .                      TEXAS EASTERN EXPLORATION CO :COMPANY   
WELL        .                                ST TR 00798-L NE/4 :WELL      
FLD         .                                           WILDCAT :FIELD     
LOC         .                                                   :LOCATION  
CNTY        .                        MUSTANG ISLAND LARGE BLOCK :LOCATION  
STAT        .                                             TEXAS :STATE     
CTRY        .                                     UNITED STATES :COUNTRY   
SRVC        .                                                   :SERVICE COMPANY
DATE        .                             9/13/2023 11:18:55 AM :LOG DATE  
API         .                                    42702302040000 :API NUMBER
UWI         .                                    42702302040000 :UNIQUE WELL ID
XCOORD      .                                  329124.923046376 :SURFACE X 
YCOORD      .                                  10022065.1107101 :SURFACE Y 
LAT         .                                        27.5591082 :LATITUDE  
LON         .                                       -97.0466418 :LONGITUDE 
ELEV        .FT                                              82 :ELEVATION VALUE
ELEV_TYPE   .                                                KB :ELEVATION REFERENCE TYPE
~Curve Information Section
#MNEM       .UNIT                                      API CODE :CURVE DESCRIPTION
#------------------------------------------------------------------------------
DEPT        .FT                                                 :DEPTH     
ASFL        .OHMM                                               :          
CILD        .MMHO                                               :          
GR          .GAPI                                               :          
GR_NORM     .GAPI                                               :GammaRay Normalized
ILD         .OHMM                                               :          
SFL         .OHMM                                               :          
SP          .MV                                                 :          
SP_NORM     .MV                                                 :SP Normalized
VSH_GR      .V/V                                                :Volume of Shale from GR
VSH_SP      .V/V                                                :Volume of Shale from SP
~A        DEPTH           ASFL           CILD             GR        GR_NORM            ILD            SFL             SP        SP_NORM         VSH_GR         VSH_SP
# ...
      6828.0000         0.9023       1911.725        67.1978       64.00518         0.5567          0.925       -84.8514      -41.57655      0.6596847      0.4119341
      6828.5000         0.9453       1907.086        66.8125        63.4773         0.5688         0.9196       -83.3168      -40.04195      0.6484532      0.4341746
      6829.0000         1.0152       1888.066         58.915       52.71348         0.5832         1.0007       -82.4028      -39.12795      0.4194357       0.447421
      6829.5000         1.0851       1811.461        55.1783       47.61906         0.5976         1.0818       -82.7697      -39.49485      0.3110438      0.4421037
      6830.0000         1.1551       1744.516          53.64       45.52013         0.6186         1.1641       -83.4098      -40.13494      0.2663857      0.4328269
      6830.5000          1.225       1692.072        52.2256       43.59004         0.6405         1.2177       -84.7261      -41.45124        0.22532      0.4137501
      6831.0000         1.2949       1646.133        54.2404       46.33247          0.662         1.2446       -86.1962      -42.92134      0.2836697      0.3924443
      6831.5000         1.3217       1598.357        56.3271       49.17287         0.6833         1.2513       -88.6055      -45.33065      0.3441037      0.3575269
      6832.0000         1.3027       1544.375        57.6682       50.99735         0.7046          1.258       -89.8199      -46.54505      0.3829224      0.3399268
      6832.5000         1.2655       1482.645         57.853       51.24628         0.7254         1.3056       -90.8484      -47.57354      0.3882187      0.3250211
      6833.0000         1.2468       1401.445        54.1138       46.14845         0.7455         1.3629       -93.1486      -49.87374      0.2797543      0.2916849
      6833.5000         1.3544       1296.955        51.7741       42.95755         0.7657         1.4509       -94.9697      -51.69485      0.2118628       0.265292
      6834.0000          1.462       1260.627        50.3201       40.97348         0.7858         1.5311       -96.5341      -53.25925      0.1696486      0.2426196
      6834.5000         1.5696        1230.48         49.835       40.30962         0.8059         1.5895       -97.6023      -54.32745      0.1555238      0.2271384
      6835.0000         1.6772       1197.381        49.5308       39.89225         0.8236         1.6479       -98.5575      -55.28265      0.1466435      0.2132949
      6835.5000         1.7848       1172.996        49.2808       39.54871         0.8134         1.7028       -99.3776      -56.10275      0.1393343      0.2014094
      6836.0000         1.8189       1182.432        49.0308        39.2052         0.8001         1.7539       -99.9823      -56.70745      0.1320255      0.1926457
      6836.5000         1.7935       1227.277        48.9018       39.02655         0.7838         1.7447      -100.4587      -57.18385      0.1282244      0.1857413
      6837.0000         1.7641       1270.285         48.783        38.8618         0.7675         1.7111      -100.6262      -57.35135      0.1247192      0.1833138
      6837.5000         1.7347        1321.24        48.6644       38.69732         0.7513         1.6774      -100.7853      -57.51045      0.1212196       0.181008
      6838.0000         1.7054       1367.227        48.5204       38.49824         0.7389         1.6438      -101.0139      -57.73905      0.1169838       0.177695
      6838.5000          1.676       1402.389        48.3608       38.27789         0.7293         1.6183      -101.3442      -58.06935      0.1122954       0.172908
      6839.0000         1.6466       1417.398        48.2009       38.05713         0.7283         1.5944      -101.7068      -58.43195      0.1075986      0.1676529
      6839.5000         1.6173        1409.08         48.041       37.83638         0.7272         1.5704      -102.0734      -58.79855      0.1029016      0.1623399
      6840.0000         1.5879       1396.441         47.867       37.59641         0.7261         1.5465      -102.4241      -59.14925     0.09779585      0.1572572
      6840.5000         1.5585       1383.789        47.6915        37.3544         0.7302         1.5286      -102.5685      -59.29364     0.09264682      0.1551646
      6841.0000         1.5291       1361.615        47.5159       37.11224         0.7437          1.521      -102.5864      -59.31155     0.08749454      0.1549051
      6841.5000         1.4998       1335.443        47.4137       36.97011         0.7571         1.5446      -102.5515      -59.27665     0.08447038      0.1554109
      6842.0000         1.5323       1309.719        47.3228       36.84338         0.7688         1.5756      -102.5402      -59.26535     0.08177396      0.1555747
      6842.5000         1.5801       1284.836        47.5384       37.13426         0.7783          1.611      -102.5704      -59.29554     0.08796302       0.155137
      6843.0000         1.6441       1259.707         47.754       37.42516         0.7878         1.6489      -102.6007      -59.32585     0.09415233      0.1546979
      6843.5000         1.6938       1233.561        47.9695       37.71592          0.795           1.68      -103.1117      -59.83685      0.1003386       0.147292
      6844.0000         1.7153       1214.838        48.3277       38.20112         0.7802         1.7081       -104.835      -61.56015      0.1106621      0.1223167
      6844.5000         1.7338       1201.342        48.7464       38.76875         0.7654         1.7231      -106.8596      -63.58474      0.1227393     0.09297473
      6845.0000         1.7361       1302.518        49.1651       39.33638         0.7196         1.6744      -108.9785      -65.70364      0.1348167     0.06226603
      6845.5000         1.6403       1484.084        49.6185       39.95129         0.6722         1.5944         -111.1      -67.82515      0.1478998     0.03151957
      6846.0000         1.5347        1665.65        50.0844       40.58324         0.6248         1.4908      -113.2189      -69.94405      0.1613455   0.0008109272
      6846.5000          1.429       1847.219        50.4033       41.01489         0.5707         1.4034      -115.3378      -72.06294      0.1705296              0
      6847.0000         1.3234       2028.785        50.5353       41.19186         0.4999         1.3188      -117.4567      -74.18185       0.174295              0
      6847.5000         1.2177       2210.352        50.1483       40.66167         0.4514          1.173      -119.4454      -76.17055      0.1630144              0
      6848.0000         1.1121       2391.918        49.7612       40.13133         0.4208         1.0626      -119.6774      -76.40254      0.1517305              0
      6848.5000         1.0065       2573.484        49.3735       39.60019         0.4066         0.9763       -119.561      -76.28615      0.1404295              0
      6849.0000         0.9008       2755.051        48.9158       38.97366         0.3922         0.8797      -118.6948      -75.41995      0.1270991              0
      6849.5000         0.7952       2901.656        48.3178       38.15595         0.3748         0.7735      -116.9779      -73.70305       0.109701              0
      6850.0000         0.6897       2941.609        47.7198       37.33825         0.3659         0.6872      -115.4519      -72.17705     0.09230325              0
      6850.5000          0.618       2965.102        47.2211       36.65587          0.363         0.6288      -112.1672      -68.89235     0.07778443     0.01605291
      6851.0000         0.6182       2980.086         46.759       36.02334         0.3743         0.6438      -112.2444      -68.96954     0.06432643     0.01493415
      6851.5000         0.6677         2970.5        46.4882       35.65148         0.3857         0.6714      -112.3218      -69.04695      0.0564145      0.0138123
      6852.0000         0.7173       2956.758         47.071        36.4427          0.397         0.7238      -112.3042      -69.02934       0.073249      0.0140675
