#------------------------------------------------------------------------------
# Created by    : vladimir.rabinovich
# Created on    : 09/19/2023 17:22:56
#------------------------------------------------------------------------------
~Version Information Section
VERS.           2.0     :   CWLS log ASCII Standard - VERSION 2.0
WRAP.           NO      :   One line per depth step
~Well Information Section
#MNEM       .UNIT                                         VALUE :DESCRIPTION
#------------------------------------------------------------------------------
STRT        .FT                                             671 :START DEPTH
STOP        .FT                                           10000 :STOP DEPTH
STEP        .FT                                             0.5 :STEP      
NULL        .                                           -999.25 :NULL      
COMP        .                                    MOBIL OIL CORP :COMPANY   
WELL        .                                     ST TR 00565-L :WELL      
FLD         .                                           WILDCAT :FIELD     
LOC         .                                                   :LOCATION  
CNTY        .                      MATAGORDA ISLAND LARGE BLOCK :LOCATION  
STAT        .                                             TEXAS :STATE     
CTRY        .                                     UNITED STATES :COUNTRY   
SRVC        .                                                   :SERVICE COMPANY
DATE        .                             9/13/2023 11:12:05 AM :LOG DATE  
API         .                                    42703000150000 :API NUMBER
UWI         .                                    42703000150000 :UNIQUE WELL ID
XCOORD      .                                  584511.465629887 :SURFACE X 
YCOORD      .                                  10263641.5286434 :SURFACE Y 
LAT         .                                         28.243485 :LATITUDE  
LON         .                                       -96.2796592 :LONGITUDE 
ELEV        .FT                                              11 :ELEVATION VALUE
ELEV_TYPE   .                                                KB :ELEVATION REFERENCE TYPE
~Curve Information Section
#MNEM       .UNIT                                      API CODE :CURVE DESCRIPTION
#------------------------------------------------------------------------------
DEPT        .FT                                                 :DEPTH     
SP          .MV                                                 :          
SP_NORM     .MV                                                 :SP Normalized
VSH_SP      .V/V                                                :Volume of Shale from SP
~A        DEPTH             SP        SP_NORM         VSH_SP
# ...
      9911.0000         8.2969        -4.2153      0.9036826
      9911.5000         8.3195        -4.2379         0.9027
      9912.0000         8.3421        -4.2605      0.9017174
      9912.5000         8.3647        -4.2831      0.9007348
      9913.0000         8.3782        -4.2966      0.9001479
      9913.5000          8.388        -4.3064      0.8997217
      9914.0000         8.3978        -4.3162      0.8992957
      9914.5000         8.4075        -4.3259      0.8988739
      9915.0000         8.4436         -4.362      0.8973044
      9915.5000         8.4798        -4.3982      0.8957304
      9916.0000         8.5161        -4.4345      0.8941522
      9916.5000         8.5375        -4.4559      0.8932217
      9917.0000         8.5427        -4.4611      0.8929957
      9917.5000         8.5479        -4.4663      0.8927696
      9918.0000         8.4893        -4.4077      0.8953174
      9918.5000         8.4071        -4.3255      0.8988913
      9919.0000         8.3248        -4.2432      0.9024696
      9919.5000         8.2172        -4.1356      0.9071478
      9920.0000         8.0873        -4.0057      0.9127957
      9920.5000         7.9575        -3.8759      0.9184391
      9921.0000         7.7812        -3.6996      0.9261044
      9921.5000         7.5865        -3.5049      0.9345695
      9922.0000         7.3918        -3.3102      0.9430348
      9922.5000         7.2154        -3.1338      0.9507043
      9923.0000         7.0423        -2.9607      0.9582304
      9923.5000         6.8893        -2.8077      0.9648826
      9924.0000         6.7657        -2.6841      0.9702565
      9924.5000         6.6422        -2.5606      0.9756261
      9925.0000         6.5396         -2.458       0.980087
      9925.5000          6.456        -2.3744      0.9837217
      9926.0000         6.4303        -2.3487      0.9848391
      9926.5000         6.4044        -2.3228      0.9859652
      9927.0000         6.3861        -2.3045      0.9867609
      9927.5000         6.3935        -2.3119      0.9864391
      9928.0000         6.4009        -2.3193      0.9861174
      9928.5000         6.4082        -2.3266         0.9858
      9929.0000         6.4145        -2.3329      0.9855261
      9929.5000         6.4209        -2.3393      0.9852479
      9930.0000         6.4295        -2.3479      0.9848739
      9930.5000         6.4522        -2.3706       0.983887
      9931.0000         6.4748        -2.3932      0.9829044
      9931.5000         6.4974        -2.4158      0.9819217
      9932.0000         6.5201        -2.4385      0.9809348
      9932.5000         6.5535        -2.4719      0.9794826
      9933.0000         6.6008        -2.5192      0.9774261
      9933.5000         6.6822        -2.6006       0.973887
      9934.0000         6.7981        -2.7165      0.9688478
      9934.5000         7.0707        -2.9891      0.9569957
      9935.0000         7.2217        -3.1401      0.9504305
      9935.5000         7.3482        -3.2666      0.9449304
      9936.0000          7.457        -3.3754         0.9402
      9936.5000         7.5504        -3.4688      0.9361391
      9937.0000         7.6439        -3.5623      0.9320739
      9937.5000         7.6878        -3.6062      0.9301652
      9938.0000         7.7222        -3.6406      0.9286696
      9938.5000         7.7565        -3.6749      0.9271783
      9939.0000         7.7908        -3.7092       0.925687
      9939.5000         7.8074        -3.7258      0.9249652
      9940.0000         7.8179        -3.7363      0.9245087
      9940.5000         7.8283        -3.7467      0.9240565
      9941.0000         7.8387        -3.7571      0.9236044
      9941.5000         7.8411        -3.7595         0.9235
      9942.0000         7.8416          -3.76      0.9234782
      9942.5000         7.8421        -3.7605      0.9234565
      9943.0000         7.8426         -3.761      0.9234348
      9943.5000         7.8425        -3.7609      0.9234391
      9944.0000          7.842        -3.7604      0.9234608
      9944.5000         7.8414        -3.7598      0.9234869
      9945.0000         7.8409        -3.7593      0.9235087
      9945.5000         7.8267        -3.7451      0.9241261
      9946.0000         7.7889        -3.7073      0.9257696
      9946.5000         7.7512        -3.6696      0.9274087
      9947.0000         7.7134        -3.6318      0.9290522
      9947.5000         7.6491        -3.5675      0.9318478
      9948.0000         7.5454        -3.4638      0.9363565
      9948.5000         7.4417        -3.3601      0.9408652
      9949.0000         7.3382        -3.2566      0.9453653
      9949.5000         7.2646         -3.183      0.9485652
      9950.0000         7.1913        -3.1097      0.9517522
      9950.5000          7.118        -3.0364      0.9549391
      9951.0000         7.0978        -3.0162      0.9558174
      9951.5000         7.0777        -2.9961      0.9566913
      9952.0000         7.0575        -2.9759      0.9575695
      9952.5000          7.075        -2.9934      0.9568087
      9953.0000          7.113        -3.0314      0.9551565
      9953.5000         7.1509        -3.0693      0.9535087
      9954.0000         7.2636         -3.182      0.9486087
      9954.5000         7.4435        -3.3619       0.940787
      9955.0000         7.5916          -3.51      0.9343478
      9955.5000         7.7394        -3.6578      0.9279217
      9956.0000         7.8569        -3.7753      0.9228131
      9956.5000         7.9625        -3.8809      0.9182218
      9957.0000         8.0427        -3.9611      0.9147348
      9957.5000         8.0857        -4.0041      0.9128652
      9958.0000         8.1221        -4.0405      0.9112826
      9958.5000         8.0645        -3.9829      0.9137869
      9959.0000         8.0069        -3.9253      0.9162913
      9959.5000         7.9464        -3.8648      0.9189218
      9960.0000         7.8565        -3.7749      0.9228305
      9960.5000         7.7667        -3.6851      0.9267348
      9961.0000         7.6768        -3.5952      0.9306435
      9961.5000         7.6199        -3.5383      0.9331174
      9962.0000         7.5781        -3.4965      0.9349348
      9962.5000         7.5363        -3.4547      0.9367522
      9963.0000         7.4974        -3.4158      0.9384435
      9963.5000         7.4596         -3.378       0.940087
      9964.0000         7.4218        -3.3402      0.9417304
      9964.5000         7.3776         -3.296      0.9436522
      9965.0000         7.3279        -3.2463      0.9458131
      9965.5000         7.2738        -3.1922      0.9481652
      9966.0000         7.2162        -3.1346      0.9506696
      9966.5000         7.1376         -3.056       0.954087
      9967.0000         6.9586         -2.877      0.9618695
      9967.5000         6.7209        -2.6393      0.9722043
      9968.0000          6.463        -2.3814      0.9834174
      9968.5000         6.2051        -2.1235      0.9946305
      9969.0000         5.9315        -1.8499              1
      9969.5000          5.655        -1.5734              1
      9970.0000         5.4632        -1.3816              1
      9970.5000         5.2976         -1.216              1
      9971.0000         5.2618        -1.1802              1
      9971.5000         5.2722        -1.1906              1
      9972.0000         5.2827        -1.2011              1
      9972.5000         5.2931        -1.2115              1
      9973.0000         5.4075        -1.3259              1
      9973.5000         5.5456         -1.464              1
      9974.0000         5.7013        -1.6197              1
      9974.5000         5.8923        -1.8107              1
      9975.0000         6.0878        -2.0062      0.9997304
      9975.5000         6.3673        -2.2857      0.9875783
      9976.0000         6.6476         -2.566      0.9753913
      9976.5000         6.9878        -2.9062         0.9606
