#------------------------------------------------------------------------------
# Created by    : vladimir.rabinovich
# Created on    : 09/19/2023 17:21:03
#------------------------------------------------------------------------------
~Version Information Section
VERS.           2.0     :   CWLS log ASCII Standard - VERSION 2.0
WRAP.           NO      :   One line per depth step
~Well Information Section
#MNEM       .UNIT                                         VALUE :DESCRIPTION
#------------------------------------------------------------------------------
STRT        .FT                                          2542.5 :START DEPTH
STOP        .FT                                            8214 :STOP DEPTH
STEP        .FT                                             0.5 :STEP      
NULL        .                                           -999.25 :NULL      
COMP        .                          SEAGULL ENERGY E & P INC :COMPANY   
WELL        .                               OCS G12505 ST00BP00 :WELL      
FLD         .                              GALVESTON BLOCK 0357 :FIELD     
LOC         .                                                   :LOCATION  
CNTY        .                             GALVESTON LARGE BLOCK :LOCATION  
STAT        .                                             TEXAS :STATE     
CTRY        .                                     UNITED STATES :COUNTRY   
SRVC        .                                                   :SERVICE COMPANY
DATE        .                             9/13/2023 11:19:54 AM :LOG DATE  
API         .                                    42706403610000 :API NUMBER
UWI         .                                    42706403610000 :UNIQUE WELL ID
XCOORD      .                                  1003713.76055251 :SURFACE X 
YCOORD      .                                  10412171.7759297 :SURFACE Y 
LAT         .                                          28.67696 :LATITUDE  
LON         .                                        -94.986081 :LONGITUDE 
ELEV        .FT                                              96 :ELEVATION VALUE
ELEV_TYPE   .                                                KB :ELEVATION REFERENCE TYPE
~Curve Information Section
#MNEM       .UNIT                                      API CODE :CURVE DESCRIPTION
#------------------------------------------------------------------------------
DEPT        .FT                                                 :DEPTH     
AT10        .OHMM                                               :          
AT20        .OHMM                                               :          
AT30        .OHMM                                               :          
AT60        .OHMM                                               :          
AT90        .OHMM                                               :          
DCAL        .IN                                                 :          
DPSS        .V/V                                                :          
DTLF        .US/FT                                              :          
DTLN        .US/FT                                              :          
GR          .GAPI                                               :          
GR_NORM     .GAPI                                               :GammaRay Normalized
NPSS        .V/V                                                :Neutron Porosity Sandstone
SP          .MV                                                 :          
SP_NORM     .MV                                                 :SP Normalized
TENS        .LB                                                 :          
VSH_GR      .V/V                                                :Volume of Shale from GR
VSH_SP      .V/V                                                :Volume of Shale from SP
~A        DEPTH           AT10           AT20           AT30           AT60           AT90           DCAL           DPSS           DTLF           DTLN             GR        GR_NORM           NPSS             SP        SP_NORM           TENS         VSH_GR         VSH_SP
# ...
      3847.5000         0.7126         0.7517         0.7652         0.7789         0.7929         2.2693         0.2928            141          141.6          104.4       88.92056         0.4707        -3.1829      -1.344863       2387.755              1      0.9807877
      3848.0000         0.7126         0.7517         0.7652         0.7789         0.7929         2.2713         0.2928          141.2          141.8          103.4       87.71929         0.4911        -3.3852      -1.545339       2387.755              1      0.9779238
      3848.5000         0.7063         0.7517         0.7652         0.7789         0.7929         2.2733         0.2916            141          141.6          102.2       86.27803         0.4814        -3.3885      -1.546815       2387.755              1      0.9779027
      3849.0000         0.7063         0.7517         0.7652         0.7789         0.7929         2.2752         0.2904          140.6          141.2          101.6       85.55676         0.4392        -3.3919      -1.548392       2387.755              1      0.9778801
      3849.5000         0.7063         0.7517         0.7652         0.7789         0.7929         2.2772         0.2916          140.4            141          101.2       85.07549         0.4296         -3.595      -1.749668       2387.755              1      0.9750047
      3850.0000         0.6933          0.745         0.7517         0.7652         0.7789         2.2792         0.2928          140.6          141.2        99.2003       82.67459           0.45        -3.9984      -2.151244       2387.755              1       0.969268
      3850.5000         0.6931         0.7449         0.7449         0.7583          0.772         2.2798         0.2916       140.8059       141.4059        97.3956       80.50768         0.4572        -4.4033       -2.55432       2387.755              1      0.9635097
      3851.0000         0.6928         0.7315         0.7381         0.7514          0.765         2.2795         0.2892       141.2157       141.8157        98.7861       82.17502         0.4597        -4.6086      -2.757797       2387.755              1      0.9606029
      3851.5000         0.6924         0.7313         0.7379         0.7513         0.7649         2.2793          0.288       141.6255       142.2255       102.5743        86.7196         0.4621        -4.4144      -2.561773       2387.755              1      0.9634032
      3852.0000         0.6921         0.7311         0.7377         0.7511         0.7648          2.279         0.2892       142.2353       142.8353       107.1644       92.22643         0.4646        -4.2207      -2.366249       2387.755              1      0.9661964
      3852.5000         0.6851         0.7309         0.7375         0.7509         0.7646         2.1991          0.294       142.8451       143.4451       107.7545        92.9333         0.4646        -3.6291      -1.772825       2387.755              1      0.9746739
      3853.0000         0.6782         0.7306         0.7373         0.7508         0.7576         2.1193         0.2964       142.6569       143.2569       106.5446       91.48016         0.4647        -3.0387      -1.180602       2387.755              1      0.9831343
      3853.5000         0.6779         0.7304         0.7371         0.7506         0.7506         2.1192          0.294       141.8667       142.4667       105.9347         90.747         0.4683        -2.4495      -0.589578       2387.755              1      0.9915774
      3854.0000         0.6976         0.7436         0.7505         0.7643         0.7713         2.1191         0.2868        139.878       140.4765       106.1248       90.97386         0.4696        -1.6628      0.1989459       2387.755              1              1
      3854.5000         0.7102         0.7642         0.7712         0.7855            0.8         2.0793         0.2832       138.1079       138.7011       105.9149       90.72072         0.4696        -1.4727      0.3908696       2387.755              1              1
      3855.0000         0.7365         0.7854         0.7927         0.8076          0.823         2.0792         0.2832       136.3344       136.9282        102.905       87.10757         0.4709        -1.0848      0.7805933       2387.755              1              1
      3855.5000         0.7569         0.7926            0.8         0.8152         0.8306         2.0396         0.2832       135.3499       135.9443        98.3126       81.59542         0.4637        -1.4895       0.377717       2387.755              1              1
      3856.0000         0.7568         0.7926            0.8         0.8151         0.8305         2.0791         0.2856       136.1484       136.7434        96.1293        78.9742         0.4552         -2.091     -0.2219592       2387.755      0.9781744      0.9968292
      3856.5000         0.7427         0.7853         0.7926         0.8075         0.8227         2.0395          0.288         136.75       137.3455        98.8872       82.28241         0.4516        -2.6914     -0.8205354       2387.755              1      0.9882781
      3857.0000         0.7356         0.7779         0.7852            0.8          0.815         2.0395         0.2904       137.5514       138.1475       101.0634       84.89258         0.4468        -3.2906      -1.417912       2387.755              1      0.9797441
      3857.5000         0.7354         0.7706         0.7779         0.7925         0.8074         2.0394         0.2904       137.3599       137.9565       100.4535       84.15943         0.4444        -3.6915      -1.816988       2387.755              1       0.974043
      3858.0000         0.7491         0.7925            0.8         0.8149           0.83         2.0788         0.2892       136.1725       136.7698        98.8612       82.24741         0.4456        -4.0916      -2.215264       2387.755              1      0.9683534
      3858.5000          0.756         0.8148         0.8223         0.8376         0.8531         2.0787         0.2856       134.7835       135.3814        97.2786       80.34702         0.4456        -4.0974      -2.219241       2387.755              1      0.9682966
      3859.0000         0.7925         0.8451         0.8529         0.8686         0.8847         2.0786          0.282       133.1922       133.7907        95.8957       78.68627          0.442        -4.1043      -2.224317       2387.755      0.9720483       0.968224
      3859.5000         0.8222         0.8763         0.8843         0.9005         0.9164         2.1178         0.2796       132.5963       133.1954        94.7128       77.26553         0.4298        -4.1101      -2.228293       2387.755      0.9418198      0.9681672
      3860.0000         0.8221          0.876          0.884         0.9002         0.9161         2.1177         0.2784       132.9986       133.5983        94.3158       76.78786         0.4224        -4.5081      -2.624469       2387.755      0.9316567      0.9625076
      3860.5000            0.8         0.8601          0.868         0.8838            0.9         2.1176          0.282          134.8          135.8         94.902       77.49004         0.4261        -4.3137      -2.428246       2387.755      0.9465965      0.9653108
      3861.0000         0.7849         0.8447         0.8524          0.868         0.8838         2.1176          0.288            136          136.6        96.2745       79.13577         0.4359        -3.5294      -1.642122       2387.755      0.9816122      0.9765411
      3861.5000         0.7774         0.8524         0.8601         0.8759         0.8919         2.1176         0.2916          134.8          135.4        97.2549       80.31098         0.4359        -2.7451     -0.8559979       2387.755              1      0.9877715
      3862.0000         0.8073         0.8524         0.8601         0.8759         0.8919         2.1176          0.288          133.2          133.8        97.2549       80.30972         0.4298        -2.1569     -0.2659742       2387.755              1      0.9962004
