#------------------------------------------------------------------------------
# Created by    : vladimir.rabinovich
# Created on    : 09/19/2023 17:20:31
#------------------------------------------------------------------------------
~Version Information Section
VERS.           2.0     :   CWLS log ASCII Standard - VERSION 2.0
WRAP.           NO      :   One line per depth step
~Well Information Section
#MNEM       .UNIT                                         VALUE :DESCRIPTION
#------------------------------------------------------------------------------
STRT        .FT                                            2310 :START DEPTH
STOP        .FT                                           12118 :STOP DEPTH
STEP        .FT                                             0.5 :STEP      
NULL        .                                           -999.25 :NULL      
COMP        .                                   FOREST OIL CORP :COMPANY   
WELL        .                               OCS G01793 ST00BP00 :WELL      
FLD         .                                           WILDCAT :FIELD     
LOC         .                                                   :LOCATION  
CNTY        .                             GALVESTON LARGE BLOCK :LOCATION  
STAT        .                                             TEXAS :STATE     
CTRY        .                                     UNITED STATES :COUNTRY   
SRVC        .                                                   :SERVICE COMPANY
DATE        .                             9/13/2023 11:19:24 AM :LOG DATE  
API         .                                    42706001380000 :API NUMBER
UWI         .                                    42706001380000 :UNIQUE WELL ID
XCOORD      .                                  1024149.02927821 :SURFACE X 
YCOORD      .                                  10425384.3690734 :SURFACE Y 
LAT         .                                         28.714212 :LATITUDE  
LON         .                                        -94.923031 :LONGITUDE 
ELEV        .FT                                              60 :ELEVATION VALUE
ELEV_TYPE   .                                                KB :ELEVATION REFERENCE TYPE
~Curve Information Section
#MNEM       .UNIT                                      API CODE :CURVE DESCRIPTION
#------------------------------------------------------------------------------
DEPT        .FT                                                 :DEPTH     
ASN         .OHMM                                               :          
CALI        .IN                                                 :          
CILD        .MMHO                                               :          
DT          .US/F                                               :          
ILD         .OHMM                                               :          
RHOB        .G/C3                                               :          
SP          .MV                                                 :          
SP_NORM     .MV                                                 :SP Normalized
VSH_SP      .V/V                                                :Volume of Shale from SP
~A        DEPTH            ASN           CALI           CILD             DT            ILD           RHOB             SP        SP_NORM         VSH_SP
# ...
      9491.5000         0.6545         8.2875       1973.732         93.365         0.5198         2.3066        -73.653      -29.05249      0.5530387
      9492.0000          0.638         8.3027       1991.219        92.6968         0.5156         2.3289       -71.8313      -26.49667      0.5923589
      9492.5000         0.6355         8.3258       1996.063        94.2476         0.5114         2.3403       -70.0072       -23.9375      0.6317308
      9493.0000         0.6494         8.3488        1997.07        95.7285         0.5072         2.3482       -68.2279      -21.44104      0.6701379
      9493.5000         0.6633         8.3682       1998.078         95.691         0.5027          2.349        -68.203      -21.40075      0.6707578
      9494.0000         0.6752          8.385       1998.898        94.8871         0.4968         2.3467       -70.2589      -24.27357      0.6265604
      9494.5000         0.6661         8.3762       1999.305        94.1342         0.4908         2.3446       -72.0457      -26.76965      0.5881593
      9495.0000         0.6546         8.3334       1999.709        93.4292         0.4849         2.3491       -73.8324      -29.26559      0.5497602
      9495.5000         0.6389           8.29       1957.748        93.7102          0.479         2.3548       -72.8231      -27.84713      0.5715826
      9496.0000         0.6211         8.2456       1941.188        94.3411         0.4741         2.3613       -70.1467      -24.09474      0.6293117
      9496.5000          0.601         8.2012       1929.768         94.973         0.4702         2.3679       -72.7085      -27.67583       0.574218
      9497.0000          0.629         8.1735       1921.525        94.7874         0.4662         2.3779       -75.1731      -31.12083      0.5212179
      9497.5000         0.6765         8.1604       1916.391        93.7876         0.4622         2.3783       -77.1469      -33.87871      0.4787891
      9498.0000         0.6702         8.1473       1912.338        92.8501         0.4582         2.3711       -79.1205      -36.63631      0.4363644
      9498.5000         0.6614         8.1342       1908.598        92.4207         0.4543          2.364       -80.3901      -38.40832      0.4091028
      9499.0000         0.6493         8.1211       1904.895        91.9912         0.4503         2.3495       -80.4288      -38.45707      0.4083529
      9499.5000         0.6345         8.1265        1891.48         92.334         0.4452         2.3332       -75.2454      -31.19487       0.520079
      9500.0000         0.6197         8.2534       1871.768        93.3002         0.4397         2.3131       -74.1626      -29.67351      0.5434845
      9500.5000          0.605         8.3808       2000.086        94.7462         0.4343          2.314        -71.597      -26.07623      0.5988272
      9501.0000         0.5917         8.4532       2000.174        95.6412         0.4288         2.3174       -67.9537      -20.97017      0.6773819
      9501.5000         0.5784         8.3866       2000.262        96.5824         0.4234         2.3208       -65.4767      -17.49694      0.7308163
      9502.0000         0.5651         8.3245        2000.35        97.6183         0.4202         2.3241        -65.068      -16.91932      0.7397027
      9502.5000         0.5518         8.2625       2000.242        98.7452         0.4177         2.3273       -69.1748       -22.6634      0.6513323
      9503.0000         0.5589         8.2005       1999.832        99.4484         0.4152         2.3297       -73.3914      -28.56121      0.5605967
      9503.5000         0.6166         8.1965       1999.424        99.9832         0.4127         2.3321       -80.3191      -38.25455      0.4114684
      9504.0000         0.6785         8.2929       1999.016        99.0382         0.4101         2.3345        -83.494      -42.69398      0.3431695
      9504.5000         0.7258         8.3918       1998.605         98.092         0.4076         2.3369       -85.7218      -45.80746      0.2952698
      9505.0000         0.7122         8.4836       1998.207        91.8541           0.41         2.3393       -87.2395      -47.92681      0.2626645
      9505.5000         0.6861         8.5247       1997.818        89.2462         0.4135         2.3417       -88.6898      -49.95178       0.231511
      9506.0000         0.6551         8.5295        1997.43        89.7236         0.4169          2.342       -80.1198      -37.94835      0.4161792
      9506.5000         0.6242         8.4739       1997.041        92.5771         0.4204         2.3366       -63.6874      -14.93756      0.7701914
      9507.0000         0.5849           8.39       1996.652        94.9108         0.4239         2.3312       -61.4272      -11.76784      0.8189563
      9507.5000         0.5433         8.2795       1996.533        96.5214         0.4274         2.3259        -60.403      -10.32852      0.8410996
      9508.0000         0.7289         8.1693       1996.621         98.087         0.4335         2.3208        -61.644      -12.06049       0.814454
      9508.5000         0.7578         8.1165       1996.709        99.1715         0.4401         2.3157        -62.885      -13.79245      0.7878085
      9509.0000         0.7845         8.0831       1996.797        99.4757         0.4468         2.3106       -65.0182       -16.7735      0.7419462
      9509.5000         0.8004         8.0497       1996.885         97.728         0.4534         2.3115       -67.9786      -20.91262      0.6782674
      9510.0000         0.8163         8.1382       1997.389        95.5291           0.46         2.3239       -71.2133      -25.43576      0.6086805
      9510.5000         0.8111         8.3656        1998.02        93.6343         0.4667         2.3363       -74.8716      -30.55194      0.5299702
      9511.0000         0.7588          8.493        1998.65        92.1832         0.4733         2.3563       -78.2657      -35.29825        0.45695
      9511.5000         0.6918         8.6109       1999.281         91.687         0.4803         2.3745       -76.0129      -32.13889      0.5055555
      9512.0000         0.6489         8.6793       1999.631        92.1471         0.4877          2.386       -64.2307      -15.63837      0.7594097
      9512.5000         0.6208         8.6368       1999.496        94.0979         0.4951         2.3753       -58.5165      -7.633056      0.8825684
      9513.0000         0.6029         8.5944       1999.363         97.349         0.5026         2.3442       -57.1609      -5.729781      0.9118495
      9513.5000         0.6068         8.5519        1999.23       100.0292           0.51         2.3137       -55.8052      -3.826363      0.9411329
      9514.0000          0.623         8.5094       1995.096       101.3824         0.5174         2.3049       -55.0912       -2.82133      0.9565949
      9514.5000         0.6393         8.4669       1843.102       101.8149         0.5248         2.2962        -54.396      -1.842611      0.9716522
      9515.0000         0.6551         8.4429       1677.441       102.2476          0.531         2.2952       -53.7088     -0.8750961       0.986537
      9515.5000         0.6703         8.4275       1541.152       102.6807         0.5372         2.3016       -53.2496     -0.2267822       0.996511
      9516.0000         0.6854         8.4517       1508.797        102.298         0.5433         2.3081       -53.1637     -0.1010864      0.9984448
      9516.5000         0.7006         8.4752       1487.666       101.6971         0.5495         2.3268        -53.497     -0.5622719      0.9913496
      9517.0000         0.7108         8.4581       1469.174       100.5154         0.5556         2.3586       -53.8303      -1.023452      0.9842546
      9517.5000         0.7192         8.4328       1449.859          99.28         0.5618          2.365       -54.1642      -1.485476      0.9771465
