#------------------------------------------------------------------------------
# Created by    : vladimir.rabinovich
# Created on    : 09/19/2023 17:22:28
#------------------------------------------------------------------------------
~Version Information Section
VERS.           2.0     :   CWLS log ASCII Standard - VERSION 2.0
WRAP.           NO      :   One line per depth step
~Well Information Section
#MNEM       .UNIT                                         VALUE :DESCRIPTION
#------------------------------------------------------------------------------
STRT        .FT                                            2981 :START DEPTH
STOP        .FT                                           10477 :STOP DEPTH
STEP        .FT                                             0.5 :STEP      
NULL        .                                           -999.25 :NULL      
COMP        .                          SEAGULL ENERGY E & P INC :COMPANY   
WELL        .                               OCS G13783 ST00BP00 :WELL      
FLD         .                                           WILDCAT :FIELD     
LOC         .                                                   :LOCATION  
CNTY        .                             GALVESTON LARGE BLOCK :LOCATION  
STAT        .                                             TEXAS :STATE     
CTRY        .                                     UNITED STATES :COUNTRY   
SRVC        .                                                   :SERVICE COMPANY
DATE        .                             9/13/2023 11:19:39 AM :LOG DATE  
API         .                                    42706403890000 :API NUMBER
UWI         .                                    42706403890000 :UNIQUE WELL ID
XCOORD      .                                  1047250.65699841 :SURFACE X 
YCOORD      .                                  10470150.2239286 :SURFACE Y 
LAT         .                                         28.838318 :LATITUDE  
LON         .                                         -94.85315 :LONGITUDE 
ELEV        .FT                                              94 :ELEVATION VALUE
ELEV_TYPE   .                                                KB :ELEVATION REFERENCE TYPE
~Curve Information Section
#MNEM       .UNIT                                      API CODE :CURVE DESCRIPTION
#------------------------------------------------------------------------------
DEPT        .FT                                                 :DEPTH     
CILD        .MMHO                                               :          
CNC         .%                                                  :          
DT24        .US/F                                               :          
GR          .GAPI                                               :          
GR_NORM     .GAPI                                               :GammaRay Normalized
PORZ        .%                                                  :          
RFOC        .OHMM                                               :          
RILD        .OHMM                                               :          
RILM        .OHMM                                               :          
RWAZ        .OHMM                                               :          
SP          .MV                                                 :          
SP_NORM     .MV                                                 :SP Normalized
TEN         .LBF                                                :          
VSH_GR      .V/V                                                :Volume of Shale from GR
VSH_SP      .V/V                                                :Volume of Shale from SP
ZCOR        .G/C3                                               :          
ZDEN        .G/C3                                               :          
~A        DEPTH           CILD            CNC           DT24             GR        GR_NORM           PORZ           RFOC           RILD           RILM           RWAZ             SP        SP_NORM            TEN         VSH_GR         VSH_SP           ZCOR           ZDEN
# ...
      9926.0000       1395.338         41.381       106.7679         52.741       59.71777         15.456          1.049          0.725          0.713          0.021         -9.417      -8.219395        -36.595      0.5684632      0.8825801              0          2.395
      9926.5000       1378.203         42.614       111.1139         52.485       59.41057          17.73          1.007          0.706            0.7          0.028         -9.666      -8.468395        -16.085       0.561927      0.8790229         -0.001          2.358
      9927.0000       1361.115        43.8669        111.663         52.651       59.60977         19.125          0.984          0.693          0.693          0.032          -9.65      -8.452394          1.721      0.5661653      0.8792515         -0.001          2.334
      9927.5000       1344.977          45.18       109.2579         52.243       59.12017         18.996          0.981          0.688          0.689          0.031         -9.391      -8.193395        -10.534      0.5557482      0.8829515          0.004          2.337
      9928.0000       1335.637         45.831       107.2699         51.128       57.78217          17.96          0.988          0.686          0.687          0.028         -9.177      -7.979395        -38.839      0.5272801      0.8860086          0.013          2.354
      9928.5000       1341.539         45.821       106.5659         50.164       56.62537         17.273          0.991          0.686          0.689          0.025         -8.944      -7.746396         -49.78      0.5026674      0.8893372          0.018          2.365
      9929.0000       1352.748         46.256       106.5499         49.641       55.99776         17.605          0.989          0.688          0.693          0.026         -8.431      -7.233395         -32.64      0.4893141      0.8966658           0.01          2.359
      9929.5000        1372.15         47.073        106.949          49.81       56.20057         18.457          0.986          0.691          0.695           0.03         -7.753      -6.555395        -15.229      0.4936291      0.9063515         -0.001          2.345
      9930.0000       1392.398         47.342       106.9249          50.22       56.69257         18.916          0.983          0.695          0.693          0.031          -7.35      -6.152395        -25.735      0.5040972      0.9121087         -0.002          2.338
      9930.5000       1412.623         47.543         106.59         50.712       57.28297         18.549          0.985          0.697           0.69           0.03         -7.378      -6.180395        -60.455       0.516659      0.9117087          0.008          2.344
      9931.0000       1425.152        47.5569         105.97         51.288       57.97417         17.598          0.989          0.697          0.688          0.027         -7.494      -6.296395       -89.6039      0.5313653      0.9100515          0.021           2.36
      9931.5000        1437.68         47.397       105.6489         51.252       57.93097         16.848          0.985          0.698          0.686          0.024         -7.276      -6.078395        -89.401      0.5304461      0.9131658          0.029          2.372
      9932.0000        1446.82         47.602        105.351         49.964       56.38537         16.901           0.97            0.7          0.686          0.025         -6.776      -5.578395       -68.3579       0.497561      0.9203086          0.027          2.371
      9932.5000       1449.717         48.062        104.512         48.799       54.98737         17.345          0.955          0.702          0.688          0.026         -6.378      -5.180395        -57.804      0.4678164      0.9259943          0.014          2.364
      9933.0000       1449.846         48.296       104.3459         48.679       54.84337         17.556          0.951          0.703          0.692          0.027         -6.311      -5.113395         -68.83      0.4647525      0.9269515         -0.001           2.36
      9933.5000       1449.008         48.454        104.856         48.563       54.70417          17.59          0.956          0.703          0.696          0.027         -6.233      -5.035395        -79.549      0.4617908      0.9280658          -0.01           2.36
      9934.0000       1448.166         48.217       105.1589         48.026       54.05977         17.803          0.962          0.702            0.7          0.028         -5.641      -4.443395        -71.825      0.4480802      0.9365229         -0.009          2.356
      9934.5000       1447.328          47.47       105.7109         48.162       54.22297          18.39           0.96          0.701          0.702           0.03         -4.928      -3.730395         -48.95      0.4515525      0.9467086         -0.003          2.347
      9935.0000        1445.77         46.451       106.0819         48.171       54.23377         19.199          0.953          0.704          0.701          0.033         -4.912      -3.714396        -28.612      0.4517823      0.9469372         -0.002          2.333
      9935.5000       1443.615         45.348       105.6299         47.929       53.94337         19.801          0.949          0.711          0.701          0.035         -5.605      -4.407395        -24.079      0.4456035      0.9370372          0.003          2.323
      9936.0000       1441.461         44.306        105.927        49.1559       55.41565         19.689           0.95          0.718          0.703          0.035         -6.257      -5.059395        -27.494      0.4769286      0.9277229          0.016          2.325
      9936.5000       1439.305         43.649        106.271         51.533       58.26817         18.971          0.952          0.723          0.708          0.033         -6.468      -5.270395         -11.54      0.5376206      0.9247087          0.023          2.337
      9937.0000        1437.15         43.599        105.422         52.293       59.18017         18.155          0.954          0.727          0.717           0.03         -6.592      -5.394395         36.931      0.5570248      0.9229372          0.022           2.35
      9937.5000       1434.896         43.743       104.0969         51.964       58.78537         17.395           0.96          0.735           0.73          0.028         -6.584      -5.386395        84.4669      0.5486248      0.9230515          0.027          2.363
      9938.0000        1432.15         43.599       102.0459         52.996       60.02377          16.52          0.968          0.749          0.745          0.025         -6.327      -5.129395         78.568      0.5749738      0.9267229          0.038          2.377
      9938.5000       1429.404         43.076        100.663         54.472       61.79497         15.723          0.968          0.769          0.765          0.023         -6.373      -5.175395         20.441      0.6126589      0.9260658           0.04          2.391
      9939.0000       1426.652         42.205       100.7009         54.442       61.75897         15.368          0.961          0.789          0.788          0.023         -6.898      -5.700395        -32.013      0.6118929      0.9185658           0.03          2.396
      9939.5000       1423.459         41.384       101.6499         53.554       60.69337         15.298           0.96          0.811          0.808          0.023         -7.124      -5.926395        -46.151      0.5892206      0.9153372          0.027          2.398
      9940.0000       1419.939         41.191        102.578         53.205       60.27457         15.118          0.978          0.833          0.821          0.023         -6.947      -5.749395       -46.7209      0.5803099      0.9178658          0.036          2.401
      9940.5000       1416.422          41.15       103.1599         53.782       60.96697         14.788          1.001          0.853          0.827          0.023         -6.843      -5.645395        -60.304      0.5950419      0.9193515          0.041          2.406
