#------------------------------------------------------------------------------
# Created by    : vladimir.rabinovich
# Created on    : 09/19/2023 17:22:29
#------------------------------------------------------------------------------
~Version Information Section
VERS.           2.0     :   CWLS log ASCII Standard - VERSION 2.0
WRAP.           NO      :   One line per depth step
~Well Information Section
#MNEM       .UNIT                                         VALUE :DESCRIPTION
#------------------------------------------------------------------------------
STRT        .FT                                            1202 :START DEPTH
STOP        .FT                                           11047 :STOP DEPTH
STEP        .FT                                             0.5 :STEP      
NULL        .                                           -999.25 :NULL      
COMP        .                                 MESA PETROLEUM CO :COMPANY   
WELL        .                               OCS G03305 ST00BP00 :WELL      
FLD         .                                           WILDCAT :FIELD     
LOC         .                                                   :LOCATION  
CNTY        .                      MATAGORDA ISLAND LARGE BLOCK :LOCATION  
STAT        .                                             TEXAS :STATE     
CTRY        .                                     UNITED STATES :COUNTRY   
SRVC        .                                                   :SERVICE COMPANY
DATE        .                             9/13/2023 11:12:09 AM :LOG DATE  
API         .                                    42703400870000 :API NUMBER
UWI         .                                    42703400870000 :UNIQUE WELL ID
XCOORD      .                                  540264.325087739 :SURFACE X 
YCOORD      .                                   10226560.637492 :SURFACE Y 
LAT         .                                         28.138272 :LATITUDE  
LON         .                                        -96.413655 :LONGITUDE 
ELEV        .FT                                              80 :ELEVATION VALUE
ELEV_TYPE   .                                                KB :ELEVATION REFERENCE TYPE
~Curve Information Section
#MNEM       .UNIT                                      API CODE :CURVE DESCRIPTION
#------------------------------------------------------------------------------
DEPT        .FT                                                 :DEPTH     
CILD        .MMHO                                               :          
DPHI        .%                                                  :          
GR          .GAPI                                               :          
GR_NORM     .GAPI                                               :GammaRay Normalized
ILD         .OHMM                                               :          
ILM         .OHMM                                               :          
SFL         .OHMM                                               :          
SP          .MV                                                 :          
SP_NORM     .MV                                                 :SP Normalized
VSH_GR      .V/V                                                :Volume of Shale from GR
VSH_SP      .V/V                                                :Volume of Shale from SP
~A        DEPTH           CILD           DPHI             GR        GR_NORM            ILD            ILM            SFL             SP        SP_NORM         VSH_GR         VSH_SP
# ...
     10382.0000        -999.25        23.4276        45.0925       58.06452         0.8545         1.1192         1.0034       -68.3615      -28.84055      0.5332877      0.3672603
     10382.5000        -999.25        23.0325        45.0861       58.06452         0.8297         1.0825         0.9833       -67.7949      -28.27394      0.5332877      0.3801377
     10383.0000        -999.25         22.729        45.0796       58.79033         0.8156         1.0506         0.9661       -68.0244      -28.50344      0.5487304      0.3749218
     10383.5000        -999.25         22.235        45.0726       59.51613         0.8143         1.0168         0.9498       -68.3265      -28.80554      0.5641729      0.3680559
     10384.0000        -999.25         21.543        45.0655       60.24193         0.8127         1.0026         0.9389       -68.7714      -29.25044      0.5796155      0.3579445
     10384.5000        -999.25        21.2619        45.0585       60.96775         0.8029         0.9887         0.9289       -68.7615      -29.24054      0.5950585      0.3581696
     10385.0000        -999.25         21.495        45.0409       61.69355         0.7918         0.9751         0.9132       -68.6451      -29.12415      0.6105011      0.3608149
     10385.5000        -999.25        21.8641        45.0228       62.41936         0.7615         0.9614         0.8986        -68.481      -28.96004      0.6259438      0.3645444
     10386.0000        -999.25        21.7242        45.0046       63.14516         0.7413         0.9478         0.8891       -68.1936      -28.67265      0.6413864      0.3710762
     10386.5000        -999.25         20.812        44.9792       63.87096         0.7321         0.9404         0.8816       -67.0662      -27.54524      0.6568289       0.396699
     10387.0000        -999.25        19.0486        44.9492       60.96775         0.7434         0.9333         0.8905       -64.3654      -24.84444      0.5950585      0.4580808
     10387.5000        -999.25        17.9438        44.9193             60         0.7695         0.9279         0.9138       -60.3557      -20.83474      0.5744681      0.5492104
     10388.0000        -999.25        17.6691        44.8961       57.74194         0.8056         0.9422         0.9493       -56.3706      -16.84964      0.5264242      0.6397808
     10388.5000        -999.25        17.8929        44.8901       55.48387         0.8572         0.9884         0.9841       -53.5864      -14.06544      0.4783802      0.7030582
     10389.0000        -999.25        17.8345        44.8842       53.22581         0.9435         1.0501         1.0342       -52.1171      -12.59614      0.4303364      0.7364513
     10389.5000        -999.25        16.8923        44.8784       50.96774         1.0375         1.1207         1.1077       -53.4713      -13.95034      0.3822923      0.7056741
     10390.0000        -999.25        15.7285         44.837       48.70968         1.1108         1.2193         1.1801       -55.1967      -15.67574      0.3342485      0.6664604
     10390.5000        -999.25        15.2618        44.7885       46.45161          1.154         1.2929         1.2406       -56.4171      -16.89614      0.2862045      0.6387241
     10391.0000        -999.25        15.9116        44.7399       46.45161         1.1873         1.3554         1.2759       -57.6083      -18.08734      0.2862045      0.6116514
     10391.5000        -999.25        17.1611        44.7068       46.45161         1.1815         1.3501         1.2602       -58.2921      -18.77114      0.2862045      0.5961104
     10392.0000        -999.25         18.158        44.7425       46.45161         1.1164         1.3007         1.2094       -58.6578      -19.13684      0.2862045      0.5877991
     10392.5000        -999.25        18.8093        44.7782       49.35484          1.046         1.2508         1.1497       -59.1235      -19.60254      0.3479753       0.577215
     10393.0000        -999.25        18.9064        44.8139       52.25807         0.9704         1.2025         1.0946       -59.7086      -20.18764      0.4097462      0.5639172
     10393.5000        -999.25        18.6395        44.8513       55.16129         0.9215          1.144         1.0435       -60.7797      -21.25874      0.4715168       0.539574
     10394.0000        -999.25        18.1676        44.8936       58.06452         0.9006         1.1026         1.0258       -62.2012      -22.68024      0.5332877      0.5072672
     10394.5000        -999.25        18.5663         44.936       58.06452         0.8984         1.0814         1.0194       -63.8334      -24.31244      0.5332877      0.4701717
     10395.0000        -999.25         19.118         44.975       57.58065         0.9303         1.0763         1.0418       -65.4143      -25.89334      0.5229926      0.4342422
     10395.5000        -999.25        19.5302        44.9481       57.09678         0.9829         1.1009         1.0883       -65.4241      -25.90314      0.5126974      0.4340194
     10396.0000        -999.25        19.3631        44.9212       54.19355         1.0419         1.1456         1.1291       -63.9731      -24.45214      0.4509266      0.4669968
     10396.5000        -999.25        18.8676        44.9221       51.29033          1.052         1.1799         1.1326       -62.0173      -22.49634      0.3891559      0.5114468
     10397.0000        -999.25         18.494        44.9403       49.35484         1.0533         1.1966         1.1369       -60.0468      -20.52584      0.3479753      0.5562309
     10397.5000        -999.25        18.3253        44.9586       49.35484         1.0623         1.2003         1.1418       -57.7578      -18.23684      0.3479753      0.6082535
     10398.0000        -999.25        18.1774        44.9583       49.35484          1.078         1.2187         1.1648       -56.2701      -16.74914      0.3479753       0.642065
     10398.5000        -999.25        18.0878        44.9407       49.35484         1.0799         1.2382         1.1716        -56.797      -17.27604      0.3479753      0.6300899
     10399.0000        -999.25        17.9983        44.9232       50.32258         1.0532         1.2392         1.1501       -58.6155      -19.09454      0.3685655      0.5887604
     10399.5000        -999.25        17.9356         44.908       51.29032         1.0213         1.2119         1.1058       -60.3165      -20.79554      0.3891558      0.5501013
     10400.0000        -999.25        17.8976        44.9138       53.92258          0.989         1.1721         1.0705       -61.6853      -22.16434      0.4451613      0.5189922
     10400.5000        -999.25        17.8598        44.9197       55.74194         0.9469         1.1233         1.0377       -62.4229      -22.90194       0.483871      0.5022286
     10401.0000        -999.25         17.877        44.9241       57.56129         0.9027         1.0797         1.0141       -63.2722      -23.75124      0.5225807      0.4829263
     10401.5000        -999.25        17.9128        44.9105       59.07742         0.8591         1.0469         0.9936       -65.8701      -26.34914      0.5548387      0.4238831
     10402.0000        -999.25        17.9485        44.8969       60.59355         0.8263         1.0239         0.9712       -69.3357      -29.81474      0.5870969      0.3451195
     10402.5000        -999.25         17.976        44.8731       62.10968         0.7988         1.0075         0.9526       -72.6492      -33.12824      0.6193549      0.2698127
     10403.0000        -999.25         17.971        44.7993       62.41291         0.7882         0.9965         0.9406        -75.453      -35.93204      0.6258066      0.2060899
     10403.5000        -999.25        17.9659        44.7255       62.71613         0.7945         0.9949         0.9556       -77.6245      -38.10354      0.6322581      0.1567378
     10404.0000        -999.25        17.9609        44.6517       63.01936         0.8197         1.0018         0.9884         -78.78      -39.25904      0.6387098      0.1304763
