#------------------------------------------------------------------------------
# Created by    : vladimir.rabinovich
# Created on    : 09/19/2023 17:21:26
#------------------------------------------------------------------------------
~Version Information Section
VERS.           2.0     :   CWLS log ASCII Standard - VERSION 2.0
WRAP.           NO      :   One line per depth step
~Well Information Section
#MNEM       .UNIT                                         VALUE :DESCRIPTION
#------------------------------------------------------------------------------
STRT        .FT                                            3102 :START DEPTH
STOP        .FT                                            8740 :STOP DEPTH
STEP        .FT                                             0.5 :STEP      
NULL        .                                           -999.25 :NULL      
COMP        .                          SEAGULL ENERGY E & P INC :COMPANY   
WELL        .                               OCS G13314 ST00BP00 :WELL      
FLD         .                              GALVESTON BLOCK 0330 :FIELD     
LOC         .                                                   :LOCATION  
CNTY        .                             GALVESTON LARGE BLOCK :LOCATION  
STAT        .                                             TEXAS :STATE     
CTRY        .                                     UNITED STATES :COUNTRY   
SRVC        .                                                   :SERVICE COMPANY
DATE        .                             9/13/2023 11:19:54 AM :LOG DATE  
API         .                                    42706403240000 :API NUMBER
UWI         .                                    42706403240000 :UNIQUE WELL ID
XCOORD      .                                  980373.867630971 :SURFACE X 
YCOORD      .                                  10452895.3513713 :SURFACE Y 
LAT         .                                         28.787844 :LATITUDE  
LON         .                                        -95.061044 :LONGITUDE 
ELEV        .FT                                              95 :ELEVATION VALUE
ELEV_TYPE   .                                                KB :ELEVATION REFERENCE TYPE
~Curve Information Section
#MNEM       .UNIT                                      API CODE :CURVE DESCRIPTION
#------------------------------------------------------------------------------
DEPT        .FT                                                 :DEPTH     
CALI        .IN                                                 :          
DRHO        .G/C3                                               :          
DT          .US/F                                               :          
GR          .GAPI                                               :          
GR_1        .GAPI                                               :          
GR_NORM     .GAPI                                               :GammaRay Normalized
ILD         .OHMM                                               :          
ILM         .OHMM                                               :          
NPHI        .%                                                  :          
RFOC        .OHMM                                               :          
RHOB        .G/C3                                               :          
SP          .MV                                                 :          
SP_NORM     .MV                                                 :SP Normalized
VSH_GR      .V/V                                                :Volume of Shale from GR
VSH_SP      .V/V                                                :Volume of Shale from SP
~A        DEPTH           CALI           DRHO             DT             GR           GR_1        GR_NORM            ILD            ILM           NPHI           RFOC           RHOB             SP        SP_NORM         VSH_GR         VSH_SP
# ...
      6128.0000        -999.25        -999.25        102.952        53.6658        -999.25        62.4918         0.4268         0.5678        -999.25         1.0651        -999.25       -53.9693      -23.94211      0.6274851      0.7007236
      6128.5000        -999.25        -999.25        99.3127        52.2606        -999.25       60.90463         0.4716          0.595        -999.25         1.0259        -999.25        -51.087      -21.06008      0.5937156       0.736749
      6129.0000        -999.25        -999.25        96.0634        51.3499        -999.25         59.876         0.5144         0.6251        -999.25         1.1871        -999.25        -49.644      -19.61735      0.5718297      0.7547832
      6129.5000        -999.25        -999.25        93.1066         51.553        -999.25        60.1054         0.5535         0.6558        -999.25         1.2632        -999.25       -47.5547      -17.52831      0.5767106      0.7808961
      6130.0000        -999.25        -999.25        96.4434        51.9804        -999.25       60.58814         0.5893         0.6858        -999.25         1.1391        -999.25       -43.8181      -13.79198      0.5869818      0.8276002
      6130.5000        -999.25        -999.25        99.7802        52.3754        -999.25       61.03429          0.624         0.7134        -999.25         1.0072        -999.25       -40.1557      -10.12985      0.5964743      0.8733769
      6131.0000        -999.25        -999.25        103.152         53.048        -999.25       61.79399          0.654         0.7383        -999.25         0.9848        -999.25       -38.0478      -8.022213      0.6126382      0.8997223
      6131.5000        -999.25        -999.25       105.5465        54.5795        -999.25       63.52382         0.6793         0.7594        -999.25         1.1571        -999.25       -38.6987      -8.673384       0.649443      0.8915827
      6132.0000        -999.25        -999.25       104.5879        57.8803        -999.25       67.25208         0.6989         0.7748        -999.25          1.336        -999.25       -39.2879       -9.26285      0.7287676      0.8842144
      6132.5000        -999.25        -999.25       103.9594        59.9504        -999.25       69.59025         0.7148         0.7901        -999.25         1.2383        -999.25       -38.3301      -8.305319      0.7785159      0.8961835
      6133.0000        -999.25        -999.25       105.8739         61.716        -999.25       71.58449         0.7203         0.7999        -999.25         1.0722        -999.25       -36.5026      -6.478086      0.8209466      0.9190239
      6133.5000        -999.25        -999.25        107.941        60.2228        -999.25       69.89792         0.7181          0.808        -999.25         1.0412        -999.25       -37.3848      -7.360552      0.7850621      0.9079931
      6134.0000        -999.25        -999.25       109.2682        57.5708        -999.25       66.90249           0.71         0.8099        -999.25         1.2094        -999.25       -39.7174      -9.693419      0.7213296      0.8788323
      6134.5000        -999.25        -999.25       110.2162        56.1594        -999.25       65.30832         0.7011         0.8093        -999.25          1.359        -999.25       -38.9485      -8.924789      0.6874111      0.8884401
      6135.0000        -999.25        -999.25       110.9673        57.8903        -999.25       67.26337         0.6956         0.8066        -999.25          1.229        -999.25       -34.4374      -4.413956      0.7290078      0.9448255
      6135.5000        -999.25        -999.25       111.6208        59.1382        -999.25       68.67287         0.6989         0.8155        -999.25         1.0551        -999.25       -31.5904      -1.567223      0.7589971      0.9804097
      6136.0000        -999.25        -999.25       111.6034        59.4057        -999.25       68.97501         0.7066         0.8287        -999.25         0.9526        -999.25       -27.7164       2.306511      0.7654257              1
      6136.5000        -999.25        -999.25       110.1956        57.0756        -999.25       66.34315         0.7064         0.8361        -999.25         1.0779        -999.25       -27.7498       2.272844      0.7094288              1
      6137.0000        -999.25        -999.25       107.8685        55.1516        -999.25       64.17001         0.6874         0.8241        -999.25         1.1858        -999.25       -30.8216     -0.7992249      0.6631916      0.9900097
      6137.5000        -999.25        -999.25       106.1888        54.1387        -999.25       63.02594         0.6659          0.808        -999.25         1.2429        -999.25       -33.1635      -3.141394      0.6388497      0.9607326
      6138.0000        -999.25        -999.25       105.4377        56.6521        -999.25       65.86482         0.6553         0.7927        -999.25         1.2416        -999.25       -33.7391       -3.71726      0.6992515      0.9535342
      6138.5000        -999.25        -999.25       106.2057        60.1263        -999.25       69.78893          0.659         0.7829        -999.25         1.1399        -999.25       -32.4466      -2.425028      0.7827433      0.9696872
      6139.0000        -999.25        -999.25        106.998        63.0779        -999.25       73.12276         0.6737         0.7777        -999.25         1.0304        -999.25       -30.3665     -0.3451939      0.8536757      0.9956851
      6139.5000        -999.25        -999.25       107.6648         63.801        -999.25       73.93949         0.6926         0.7965        -999.25         0.9802        -999.25       -28.0098        2.01124       0.871053              1
      6140.0000        -999.25        -999.25       107.5898        61.3322        -999.25       71.15099         0.7114         0.8306        -999.25         1.0327        -999.25       -27.1908       2.829971      0.8117233              1
      6140.5000        -999.25        -999.25       106.5575         57.499        -999.25        66.8214          0.732         0.8646        -999.25         1.0724        -999.25       -29.9264     0.09410477      0.7196042              1
      6141.0000        -999.25        -999.25       105.3315        53.7747        -999.25        62.6148         0.7559         0.8892        -999.25         1.1077        -999.25       -33.2136      -3.193363      0.6301021      0.9600829
      6141.5000        -999.25        -999.25        103.257        50.2065        -999.25       58.58453         0.7764         0.9072        -999.25         1.1989        -999.25       -38.8519      -8.831928      0.5443517      0.8896009
      6142.0000        -999.25        -999.25         100.27         48.259        -999.25       56.38483         0.7939         0.9095        -999.25         1.3232        -999.25       -45.0772       -15.0575      0.4975495      0.8117813
      6142.5000        -999.25        -999.25        97.4307        50.5928        -999.25       59.02085         0.8083         0.8973        -999.25         1.4568        -999.25        -46.152      -16.13257      0.5536352      0.7983429
      6143.0000        -999.25        -999.25        96.1259         53.854        -999.25       62.70437         0.8114         0.8834        -999.25         1.2643        -999.25        -42.856      -12.83683      0.6320079      0.8395396
      6143.5000        -999.25        -999.25        98.6304        57.0929        -999.25        66.3627         0.8091         0.8685        -999.25         1.1055        -999.25        -37.381      -7.362101      0.7098447      0.9079738
      6144.0000        -999.25        -999.25       102.7321        59.8316        -999.25       69.45605         0.8007         0.8553        -999.25         1.0288        -999.25       -31.5904      -1.571768      0.7756608      0.9803529
      6144.5000        -999.25        -999.25       107.4561        61.8497        -999.25        71.7355         0.7806         0.8465        -999.25         1.0293        -999.25       -28.7378       1.280565      0.8241595              1
