#------------------------------------------------------------------------------
# Created by    : vladimir.rabinovich
# Created on    : 09/19/2023 17:21:26
#------------------------------------------------------------------------------
~Version Information Section
VERS.           2.0     :   CWLS log ASCII Standard - VERSION 2.0
WRAP.           NO      :   One line per depth step
~Well Information Section
#MNEM       .UNIT                                         VALUE :DESCRIPTION
#------------------------------------------------------------------------------
STRT        .FT                                            3102 :START DEPTH
STOP        .FT                                            8740 :STOP DEPTH
STEP        .FT                                             0.5 :STEP      
NULL        .                                           -999.25 :NULL      
COMP        .                          SEAGULL ENERGY E & P INC :COMPANY   
WELL        .                               OCS G13314 ST00BP00 :WELL      
FLD         .                              GALVESTON BLOCK 0330 :FIELD     
LOC         .                                                   :LOCATION  
CNTY        .                             GALVESTON LARGE BLOCK :LOCATION  
STAT        .                                             TEXAS :STATE     
CTRY        .                                     UNITED STATES :COUNTRY   
SRVC        .                                                   :SERVICE COMPANY
DATE        .                             9/13/2023 11:19:54 AM :LOG DATE  
API         .                                    42706403240000 :API NUMBER
UWI         .                                    42706403240000 :UNIQUE WELL ID
XCOORD      .                                  980373.867630971 :SURFACE X 
YCOORD      .                                  10452895.3513713 :SURFACE Y 
LAT         .                                         28.787844 :LATITUDE  
LON         .                                        -95.061044 :LONGITUDE 
ELEV        .FT                                              95 :ELEVATION VALUE
ELEV_TYPE   .                                                KB :ELEVATION REFERENCE TYPE
~Curve Information Section
#MNEM       .UNIT                                      API CODE :CURVE DESCRIPTION
#------------------------------------------------------------------------------
DEPT        .FT                                                 :DEPTH     
CALI        .IN                                                 :          
DRHO        .G/C3                                               :          
DT          .US/F                                               :          
GR          .GAPI                                               :          
GR_1        .GAPI                                               :          
GR_NORM     .GAPI                                               :GammaRay Normalized
ILD         .OHMM                                               :          
ILM         .OHMM                                               :          
NPHI        .%                                                  :          
RFOC        .OHMM                                               :          
RHOB        .G/C3                                               :          
SP          .MV                                                 :          
SP_NORM     .MV                                                 :SP Normalized
VSH_GR      .V/V                                                :Volume of Shale from GR
VSH_SP      .V/V                                                :Volume of Shale from SP
~A        DEPTH           CALI           DRHO             DT             GR           GR_1        GR_NORM            ILD            ILM           NPHI           RFOC           RHOB             SP        SP_NORM         VSH_GR         VSH_SP
# ...
      3544.0000        -999.25        -999.25       150.8916        49.2504        -999.25       57.50461          0.588         0.7505        -999.25         1.3185        -999.25       -52.8466      -21.43763      0.5213747      0.7320297
      3544.5000        -999.25        -999.25       152.1074        52.5388        -999.25       61.21886         0.5872         0.7547        -999.25         1.2643        -999.25       -51.8232      -20.41449      0.6004012      0.7448188
      3545.0000        -999.25        -999.25       153.4653        56.5081        -999.25       65.70217         0.5905         0.7636        -999.25         1.2264        -999.25       -50.4396      -19.03116      0.6957909      0.7621105
      3545.5000        -999.25        -999.25       154.3872        59.2369        -999.25       68.78436         0.5987         0.7767        -999.25         1.2035        -999.25        -48.628      -17.21983      0.7613693      0.7847522
      3546.0000        -999.25        -999.25       153.8975        61.6834        -999.25       71.54767         0.6077         0.7921        -999.25         1.1746        -999.25       -46.8842       -15.4763      0.8201631      0.8065463
      3546.5000        -999.25        -999.25       152.0261          63.73        -999.25       73.85931         0.6207         0.8056        -999.25         1.1706        -999.25       -45.0075      -13.59986      0.8693469      0.8300017
      3547.0000        -999.25        -999.25       151.4358        60.1655        -999.25        69.8332         0.6365         0.8174        -999.25         1.2133        -999.25       -43.2385      -11.83113      0.7836851      0.8521109
      3547.5000        -999.25        -999.25       151.0129        54.5593        -999.25         63.501         0.6531         0.8239        -999.25         1.3162        -999.25       -43.8654       -12.4583      0.6489575      0.8442713
      3548.0000        -999.25        -999.25       150.0913        51.6783        -999.25       60.24693         0.6701          0.825        -999.25         1.3614        -999.25       -44.6449      -13.23807      0.5797218      0.8345242
      3548.5000        -999.25        -999.25       147.9534         50.491        -999.25       58.90587         0.6875         0.8194        -999.25         1.3222        -999.25       -44.7159      -13.30933      0.5511887      0.8336334
      3549.0000        -999.25        -999.25       143.8301        54.1285        -999.25       63.01442         0.7054         0.8106        -999.25         1.2304        -999.25       -43.0593        -11.653      0.6386047      0.8543375
      3549.5000        -999.25        -999.25       140.1165        57.7685        -999.25       67.12579         0.7162         0.7945        -999.25         1.2026        -999.25       -40.9143      -9.508266      0.7260807      0.8811467
      3550.0000        -999.25        -999.25        137.843        60.2348        -999.25       69.91148         0.7116         0.7772        -999.25         1.1839        -999.25       -38.1954      -6.789635      0.7853506      0.9151295
      3550.5000        -999.25        -999.25       139.9316        62.6999        -999.25       72.69579         0.7039         0.7528        -999.25         1.0927        -999.25       -36.0328        -4.6273      0.8445913      0.9421588
      3551.0000        -999.25        -999.25       143.7776         68.124        -999.25       78.82231         0.6919         0.7358        -999.25         0.9697        -999.25       -33.0381       -1.63287      0.9749428      0.9795891
      3551.5000        -999.25        -999.25        149.332        69.9316        -999.25         80.864         0.6762         0.7235        -999.25         0.9077        -999.25       -30.7455       0.659462              1              1
      3552.0000        -999.25        -999.25       154.7991        70.2399        -999.25       81.21222         0.6591         0.7098        -999.25         0.8848        -999.25        -29.347       2.057695              1              1
      3552.5000        -999.25        -999.25       157.8235        68.8674        -999.25       79.66199         0.6406         0.6964        -999.25          0.879        -999.25       -28.4732       2.931229      0.9928082              1
      3553.0000        -999.25        -999.25       159.0386        67.7104        -999.25       78.35515         0.6218         0.6832        -999.25          0.889        -999.25       -27.8506       3.553562      0.9650031              1
      3553.5000        -999.25        -999.25       158.8972        72.5886        -999.25       83.86507         0.6067         0.6702        -999.25         0.9255        -999.25       -27.4188       3.985094              1              1
      3554.0000        -999.25        -999.25       157.9395        76.9146        -999.25       88.75128         0.5969         0.6588        -999.25         0.9826        -999.25       -27.0358       4.367826              1              1
      3554.5000        -999.25        -999.25       157.5715        77.3949        -999.25       89.29378         0.5912         0.6528        -999.25         0.9439        -999.25       -26.6945       4.708858              1              1
      3555.0000        -999.25        -999.25       158.0862        74.9163        -999.25       86.49421         0.5907         0.6492        -999.25          0.874        -999.25       -26.6493       4.753792              1              1
      3555.5000        -999.25        -999.25       159.0601        71.9918        -999.25       83.19099         0.5957         0.6478        -999.25         0.8154        -999.25       -26.6729       4.729925              1              1
      3556.0000        -999.25        -999.25       159.6606        69.5181        -999.25       80.39694          0.603         0.6573        -999.25         0.8033        -999.25       -26.7797       4.622858              1              1
      3556.5000        -999.25        -999.25       158.3752        70.0802        -999.25       81.03185         0.6117         0.6752        -999.25         0.8179        -999.25       -26.9717        4.43059              1              1
      3557.0000        -999.25        -999.25       155.7529        73.4503        -999.25       84.83836         0.6254         0.6966        -999.25         0.8431        -999.25       -27.1688       4.233221              1              1
      3557.5000        -999.25        -999.25       153.4329        77.1188        -999.25       88.98193         0.6386         0.7079        -999.25         0.9185        -999.25       -27.3517       4.050055              1              1
      3558.0000        -999.25        -999.25       151.3726        77.2117        -999.25       89.08686         0.6514         0.7063        -999.25         1.0944        -999.25       -27.4923       3.909187              1              1
      3558.5000        -999.25        -999.25       150.3635        74.8345        -999.25       86.40181         0.6642         0.7049        -999.25         1.0533        -999.25       -27.5519       3.849319              1              1
      3559.0000        -999.25        -999.25       152.5649        71.4954        -999.25       82.63029         0.6724         0.7032        -999.25         0.9269        -999.25       -27.6684       3.732553              1              1
      3559.5000        -999.25        -999.25       154.9575        70.0363        -999.25       80.98225         0.6737         0.7015        -999.25         0.8685        -999.25       -27.8228       3.577887              1              1
      3560.0000        -999.25        -999.25       157.2708        71.4595        -999.25       82.58976         0.6686         0.6997        -999.25         0.8506        -999.25       -28.0026       3.397818              1              1
      3560.5000        -999.25        -999.25        158.675        73.3947        -999.25       84.77557         0.6562         0.6972        -999.25         0.8941        -999.25       -28.1897       3.210451              1              1
