#------------------------------------------------------------------------------
# Created by    : vladimir.rabinovich
# Created on    : 09/19/2023 17:19:48
#------------------------------------------------------------------------------
~Version Information Section
VERS.           2.0     :   CWLS log ASCII Standard - VERSION 2.0
WRAP.           NO      :   One line per depth step
~Well Information Section
#MNEM       .UNIT                                         VALUE :DESCRIPTION
#------------------------------------------------------------------------------
STRT        .FT                                            3926 :START DEPTH
STOP        .FT                                            8446 :STOP DEPTH
STEP        .FT                                             0.5 :STEP      
NULL        .                                           -999.25 :NULL      
COMP        .                             WALTER OIL & GAS CORP :COMPANY   
WELL        .                               OCS G06101 ST00BP00 :WELL      
FLD         .                                           WILDCAT :FIELD     
LOC         .                                                   :LOCATION  
CNTY        .                             GALVESTON LARGE BLOCK :LOCATION  
STAT        .                                             TEXAS :STATE     
CTRY        .                                     UNITED STATES :COUNTRY   
SRVC        .                                                   :SERVICE COMPANY
DATE        .                             9/13/2023 11:19:36 AM :LOG DATE  
API         .                                    42706402050000 :API NUMBER
UWI         .                                    42706402050000 :UNIQUE WELL ID
XCOORD      .                                  1036351.71170487 :SURFACE X 
YCOORD      .                                  10440832.2127806 :SURFACE Y 
LAT         .                                         28.757227 :LATITUDE  
LON         .                                        -94.885733 :LONGITUDE 
ELEV        .FT                                              88 :ELEVATION VALUE
ELEV_TYPE   .                                                KB :ELEVATION REFERENCE TYPE
~Curve Information Section
#MNEM       .UNIT                                      API CODE :CURVE DESCRIPTION
#------------------------------------------------------------------------------
DEPT        .FT                                                 :DEPTH     
ASFL        .OHMM                                               :          
CALI        .IN                                                 :          
CILD        .MMHO                                               :          
GR          .GAPI                                               :          
GR_1        .GAPI                                               :          
GR_NORM     .GAPI                                               :GammaRay Normalized
ILD         .OHMM                                               :          
ILM         .OHMM                                               :          
NPHI        .%                                                  :          
RFOC        .OHMM                                               :          
RHOB        .G/C3                                               :          
SP          .MV                                                 :          
SP_NORM     .MV                                                 :SP Normalized
VSH_GR      .V/V                                                :Volume of Shale from GR
VSH_SP      .V/V                                                :Volume of Shale from SP
~A        DEPTH           ASFL           CALI           CILD             GR           GR_1        GR_NORM            ILD            ILM           NPHI           RFOC           RHOB             SP        SP_NORM         VSH_GR         VSH_SP
# ...
      8431.0000         1.0005         9.6781       1261.951        -999.25        -999.25        -999.25         0.8041         0.8332        -999.25         0.9775         2.6635       -44.0981        -3.3214        -999.25      0.9525514
      8431.5000          1.002         9.6713       1250.594        -999.25        -999.25        -999.25         0.8045         0.8432        -999.25         0.9858          2.593       -44.7224      -3.945702        -999.25      0.9436328
      8432.0000         1.0034         9.6645       1239.227        -999.25        -999.25        -999.25         0.8073         0.8539        -999.25          0.996         2.6636        -45.181      -4.404301        -999.25      0.9370814
      8432.5000         1.0048         9.6582       1227.857        -999.25        -999.25        -999.25         0.8119         0.8647        -999.25         1.0071          2.808       -44.9224      -4.145702        -999.25      0.9407757
      8433.0000         1.0062          9.652         1216.5        -999.25        -999.25        -999.25         0.8168         0.8676        -999.25         1.0189         2.8491       -44.4001      -3.623402        -999.25      0.9482371
      8433.5000         1.0076         9.6458       1205.131        -999.25        -999.25        -999.25         0.8266         0.8755        -999.25         1.0233         2.8552       -44.0888      -3.312099        -999.25      0.9526843
      8434.0000          1.009         9.6412       1193.764        -999.25        -999.25        -999.25         0.8364         0.8827        -999.25         1.0202         2.8633       -44.1148        -3.3381        -999.25      0.9523128
      8434.5000         1.0092         9.6376       1186.758        -999.25        -999.25        -999.25          0.845         0.8864        -999.25         1.0152         2.8658       -44.4247      -3.648003        -999.25      0.9478857
      8435.0000         1.0086         9.6341       1186.131        -999.25        -999.25        -999.25         0.8526         0.8901        -999.25         1.0086         2.8644       -44.6699        -3.8932        -999.25      0.9443828
      8435.5000          1.008         9.6307       1185.459        -999.25        -999.25        -999.25         0.8603          0.894        -999.25          1.002         2.8632        -44.614      -3.837299        -999.25      0.9451814
      8436.0000         1.0074         9.6294       1184.516        -999.25        -999.25        -999.25         0.8611         0.8979        -999.25         0.9951         2.8668       -44.5583      -3.781601        -999.25      0.9459772
      8436.5000         1.0069         9.6281       1183.568        -999.25        -999.25        -999.25         0.8616         0.8997        -999.25         0.9884         2.8716       -44.4717         -3.695        -999.25      0.9472143
      8437.0000         1.0063          9.628       1182.623        -999.25        -999.25        -999.25         0.8621         0.9015        -999.25         0.9855         2.8751       -44.3715      -3.594799        -999.25      0.9486457
      8437.5000         1.0096         9.6325       1181.678        -999.25        -999.25        -999.25         0.8627         0.9036        -999.25         0.9826         2.8775       -44.2759      -3.499203        -999.25      0.9500114
      8438.0000         1.0148          9.637       1180.732        -999.25        -999.25        -999.25          0.863         0.9061        -999.25         0.9823         2.8783       -44.1628      -3.386101        -999.25      0.9516271
      8438.5000           1.02         9.6403       1179.787        -999.25        -999.25        -999.25         0.8617         0.9085        -999.25         0.9868        -999.25       -44.0413      -3.264603        -999.25      0.9533628
      8439.0000         1.0252          9.642       1178.842        -999.25        -999.25        -999.25         0.8605         0.9093        -999.25         0.9913        -999.25        -43.963      -3.186302        -999.25      0.9544814
      8439.5000         1.0304         9.6437       1178.107        -999.25        -999.25        -999.25         0.8594         0.9098        -999.25         0.9981        -999.25       -43.9022        -3.1255        -999.25        0.95535
      8440.0000         1.0416         9.6458       1177.725        -999.25        -999.25        -999.25         0.8588         0.9098        -999.25         1.0049        -999.25        -43.926        -3.1493        -999.25        0.95501
      8440.5000         1.0528          9.648       1177.342        -999.25        -999.25        -999.25         0.8582         0.9086        -999.25         1.0148        -999.25       -43.9497         -3.173        -999.25      0.9546714
      8441.0000         1.0639         9.6465       1176.961        -999.25        -999.25        -999.25         0.8575         0.9074        -999.25         1.0268        -999.25       -43.9592      -3.182503        -999.25      0.9545357
      8441.5000         1.0751         9.6408       1176.576        -999.25        -999.25        -999.25         0.8579         0.9062        -999.25          1.041        -999.25       -43.9657      -3.188999        -999.25      0.9544429
      8442.0000         1.0858         9.6378       1176.193        -999.25        -999.25        -999.25         0.8583         0.9056        -999.25         1.0581        -999.25       -43.9962      -3.219501        -999.25      0.9540071
      8442.5000          1.096         9.6365       1175.811        -999.25        -999.25        -999.25         0.8587          0.905        -999.25         1.0627        -999.25       -44.0418      -3.265102        -999.25      0.9533557
      8443.0000         1.1062         9.6374       1175.428        -999.25        -999.25        -999.25          0.857         0.9043        -999.25         1.0657        -999.25       -44.0388        -3.2621        -999.25      0.9533986
      8443.5000         1.1165         9.6401       1175.047        -999.25        -999.25        -999.25         0.8553         0.9023        -999.25          1.065        -999.25       -43.9963      -3.219601        -999.25      0.9540057
      8444.0000         1.1255         9.6386       1174.664        -999.25        -999.25        -999.25         0.8536         0.8999        -999.25         1.0812        -999.25       -43.9542      -3.177502        -999.25      0.9546071
      8444.5000         1.1338         9.6336       1174.281        -999.25        -999.25        -999.25         0.8524         0.8975        -999.25         1.1059        -999.25       -43.9167      -3.139999        -999.25      0.9551429
      8445.0000          1.142         9.6287       1174.096        -999.25        -999.25        -999.25         0.8513         0.8961        -999.25         1.1285        -999.25       -43.8793        -3.1026        -999.25      0.9556772
      8445.5000         1.1495         9.6241       1173.967        -999.25        -999.25        -999.25         0.8502         0.8949        -999.25         1.1443        -999.25       -43.8459      -3.069202        -999.25      0.9561542
      8446.0000         1.1552         9.6195       1173.838        -999.25        -999.25        -999.25         0.8495         0.8937        -999.25         1.1521        -999.25       -43.8203      -3.043602        -999.25        0.95652
