#------------------------------------------------------------------------------
# Created by    : vladimir.rabinovich
# Created on    : 09/19/2023 17:22:29
#------------------------------------------------------------------------------
~Version Information Section
VERS.           2.0     :   CWLS log ASCII Standard - VERSION 2.0
WRAP.           NO      :   One line per depth step
~Well Information Section
#MNEM       .UNIT                                         VALUE :DESCRIPTION
#------------------------------------------------------------------------------
STRT        .FT                                            1202 :START DEPTH
STOP        .FT                                           11047 :STOP DEPTH
STEP        .FT                                             0.5 :STEP      
NULL        .                                           -999.25 :NULL      
COMP        .                                 MESA PETROLEUM CO :COMPANY   
WELL        .                               OCS G03305 ST00BP00 :WELL      
FLD         .                                           WILDCAT :FIELD     
LOC         .                                                   :LOCATION  
CNTY        .                      MATAGORDA ISLAND LARGE BLOCK :LOCATION  
STAT        .                                             TEXAS :STATE     
CTRY        .                                     UNITED STATES :COUNTRY   
SRVC        .                                                   :SERVICE COMPANY
DATE        .                             9/13/2023 11:12:09 AM :LOG DATE  
API         .                                    42703400870000 :API NUMBER
UWI         .                                    42703400870000 :UNIQUE WELL ID
XCOORD      .                                  540264.325087739 :SURFACE X 
YCOORD      .                                   10226560.637492 :SURFACE Y 
LAT         .                                         28.138272 :LATITUDE  
LON         .                                        -96.413655 :LONGITUDE 
ELEV        .FT                                              80 :ELEVATION VALUE
ELEV_TYPE   .                                                KB :ELEVATION REFERENCE TYPE
~Curve Information Section
#MNEM       .UNIT                                      API CODE :CURVE DESCRIPTION
#------------------------------------------------------------------------------
DEPT        .FT                                                 :DEPTH     
CILD        .MMHO                                               :          
DPHI        .%                                                  :          
GR          .GAPI                                               :          
GR_NORM     .GAPI                                               :GammaRay Normalized
ILD         .OHMM                                               :          
ILM         .OHMM                                               :          
SFL         .OHMM                                               :          
SP          .MV                                                 :          
SP_NORM     .MV                                                 :SP Normalized
VSH_GR      .V/V                                                :Volume of Shale from GR
VSH_SP      .V/V                                                :Volume of Shale from SP
~A        DEPTH           CILD           DPHI             GR        GR_NORM            ILD            ILM            SFL             SP        SP_NORM         VSH_GR         VSH_SP
# ...
      9729.5000        -999.25        16.5143         54.831       79.27666         0.4218         0.6125         0.5801       -41.9838      -1.344864      0.9846097      0.9921622
      9730.0000        -999.25        15.4125        54.7697        79.1355         0.4224         0.6079         0.5815       -41.8771      -1.241653      0.9816064      0.9945078
      9730.5000        -999.25        15.5114         55.229       80.23236         0.4248         0.6075         0.5828       -41.7443      -1.112339              1      0.9974468
      9731.0000        -999.25        16.3563        55.1356       80.01487         0.4274         0.6087         0.5855       -41.6129     -0.9844208              1              1
      9731.5000        -999.25        16.6886        54.3864       78.23795         0.4307         0.6184         0.5898       -41.6046     -0.9796066      0.9625096              1
      9732.0000        -999.25        16.3866        53.0278       75.01183          0.435         0.6272         0.5939       -41.5964     -0.9748955      0.8938688              1
      9732.5000        -999.25        16.3603        51.1779       70.61742         0.4391         0.6345         0.5966       -41.6113     -0.9932785      0.8003706              1
      9733.0000        -999.25        16.5704         49.998       67.81628         0.4424         0.6409         0.5994       -41.6317      -1.017162      0.7407718      0.9996099
      9733.5000        -999.25        17.0785        50.4925        68.9968         0.4456         0.6419         0.6018       -41.6547      -1.043652      0.7658894      0.9990079
      9734.0000        -999.25        17.7033        51.3652       71.07673         0.4481          0.643          0.603       -41.7152      -1.107632      0.8101432      0.9975538
      9734.5000        -999.25        17.0254        51.8461       72.22497         0.4488         0.6427         0.6043       -41.7757      -1.171619      0.8345738      0.9960995
      9735.0000        -999.25        15.9723        51.8225       72.17346         0.4495         0.6416         0.6056       -41.8271      -1.226505      0.8334779      0.9948521
      9735.5000        -999.25        15.4546        52.3718       73.48433         0.4507         0.6405         0.6072       -41.8439      -1.246788      0.8613687      0.9943912
      9736.0000        -999.25        15.5377        54.8973       79.49458         0.4526          0.643         0.6087       -41.8608      -1.267178      0.9892464      0.9939278
      9736.5000        -999.25        15.8153        56.5703       83.47762         0.4544         0.6458         0.6147       -41.8725      -1.282364              1      0.9935827
      9737.0000        -999.25        15.9998        57.2312       85.05386         0.4586         0.6485         0.6216        -41.823      -1.236347              1      0.9946285
      9737.5000        -999.25        16.0531        55.4796       80.89318         0.4643         0.6531          0.627       -41.7735      -1.190331              1      0.9956743
      9738.0000        -999.25        16.1164         54.121       77.66707         0.4701         0.6583         0.6294        -41.697      -1.117317      0.9503632      0.9973337
      9738.5000        -999.25        15.9006         53.515       76.23067         0.4703         0.6631          0.626       -41.5241     -0.9479027      0.9198014              1
      9739.0000        -999.25        15.7153        53.6066       76.45313           0.47         0.6659         0.6217       -41.3546     -0.7818871      0.9245347              1
      9739.5000        -999.25        15.9545        53.8683       77.08008          0.457         0.6624         0.6154       -41.2239     -0.6546745       0.937874              1
      9740.0000        -999.25        16.2898        53.9266       77.22337          0.441          0.646         0.6085        -41.093      -0.527256      0.9409229              1
      9740.5000        -999.25        16.4439        53.7682       76.85131         0.4345         0.6313         0.6051       -40.9622     -0.3999443      0.9330066              1
      9741.0000        -999.25        16.4933        53.5747       76.39582         0.4367         0.6205         0.6036       -40.9869     -0.4281311      0.9233153              1
      9741.5000        -999.25          16.82          53.38       75.93747         0.4473         0.6142          0.606       -41.0365     -0.4812126      0.9135632              1
      9742.0000        -999.25        18.1494        52.9406       74.89719         0.4652         0.6276         0.6361       -41.2417     -0.6898994      0.8914295              1
      9742.5000        -999.25        18.4448        52.3817       73.57279         0.4899         0.6537         0.6665       -41.4796     -0.9312859      0.8632509              1
      9743.0000        -999.25        17.1288        51.2712       70.93669         0.5172         0.6856         0.6871       -41.4038     -0.8589706      0.8071637              1
      9743.5000        -999.25        15.8098        50.4544       68.99895         0.5506         0.7101         0.6894        -41.188      -0.646656      0.7659351              1
      9744.0000        -999.25        15.7585        50.2535       68.52586         0.5512         0.7341         0.6772       -40.7589     -0.2210388      0.7558694              1
      9744.5000        -999.25        16.5645        50.2173        68.4444         0.5365          0.719         0.6612        -40.517     0.01737595      0.7541361              1
      9745.0000        -999.25        17.5851        50.3291        68.7149         0.5088         0.7006         0.6471       -40.4902     0.04068756      0.7598915              1
      9745.5000        -999.25         17.954        50.5207       69.17516          0.482         0.6774         0.6336       -40.4757     0.05170441      0.7696843              1
      9746.0000        -999.25        17.2011        51.2073       70.81252         0.4646          0.655         0.6231       -40.4842     0.03971863      0.8045217              1
      9746.5000        -999.25        16.1702        51.9886       72.67509         0.4559         0.6412         0.6133       -40.4926     0.02783203      0.8441508              1
      9747.0000        -999.25        15.3224        52.9307       74.92004         0.4469           0.63         0.6046       -40.4252     0.09174728      0.8919157              1
      9747.5000        -999.25        14.9679         53.739        76.8468         0.4376         0.6211         0.5964       -40.3583      0.1551628      0.9329107              1
      9748.0000        -999.25        15.6665        54.1995       77.94653           0.43         0.6165         0.5885         -40.35       0.159977      0.9563092              1
      9748.5000        -999.25        16.2654        53.6113       76.55243         0.4247         0.6127         0.5856       -40.4126     0.09389114      0.9266474              1
      9749.0000        -999.25        16.6332        52.7268        74.4537         0.4212         0.6091          0.584       -40.6005    -0.09749222      0.8819935              1
      9749.5000        -999.25        16.7765        52.3869       73.65012         0.4192         0.6051          0.586       -40.9203     -0.4207802      0.8648962              1
      9750.0000        -999.25         16.881        52.5794       74.11245         0.4211          0.601         0.5881       -41.2825     -0.7864647       0.874733              1
      9750.5000        -999.25        17.1262        53.0566       75.25187         0.4248         0.6028         0.5924       -41.4495     -0.9569511       0.898976              1
      9751.0000        -999.25        17.1563         53.329       75.90429         0.4294         0.6056         0.5974       -41.6006      -1.111538      0.9128572      0.9974651
      9751.5000        -999.25        17.0623        53.4073       76.09516         0.4348         0.6136         0.5989       -41.3504     -0.8648186      0.9169183              1
