#------------------------------------------------------------------------------
# Created by    : vladimir.rabinovich
# Created on    : 09/19/2023 17:19:55
#------------------------------------------------------------------------------
~Version Information Section
VERS.           2.0     :   CWLS log ASCII Standard - VERSION 2.0
WRAP.           NO      :   One line per depth step
~Well Information Section
#MNEM       .UNIT                                         VALUE :DESCRIPTION
#------------------------------------------------------------------------------
STRT        .FT                                            1601 :START DEPTH
STOP        .FT                                            6340 :STOP DEPTH
STEP        .FT                                             0.5 :STEP      
NULL        .                                           -999.25 :NULL      
COMP        .                 FAIRWAYS OFFSHORE EXPLORATION INC :COMPANY   
WELL        .                                ST TR 00629-L SE/4 :WELL      
FLD         .                                       BLOCK 630-L :FIELD     
LOC         .                                                   :LOCATION  
CNTY        .                      MATAGORDA ISLAND LARGE BLOCK :LOCATION  
STAT        .                                             TEXAS :STATE     
CTRY        .                                     UNITED STATES :COUNTRY   
SRVC        .                                                   :SERVICE COMPANY
DATE        .                             9/13/2023 11:19:05 AM :LOG DATE  
API         .                                    42703302840100 :API NUMBER
UWI         .                                    42703302840100 :UNIQUE WELL ID
XCOORD      .                                  449566.970470722 :SURFACE X 
YCOORD      .                                  10204940.3648147 :SURFACE Y 
LAT         .                                        28.0716107 :LATITUDE  
LON         .                                       -96.6925833 :LONGITUDE 
ELEV        .FT                                              82 :ELEVATION VALUE
ELEV_TYPE   .                                                KB :ELEVATION REFERENCE TYPE
~Curve Information Section
#MNEM       .UNIT                                      API CODE :CURVE DESCRIPTION
#------------------------------------------------------------------------------
DEPT        .FT                                                 :DEPTH     
ASFL        .OHMM                                               :          
CILD        .MMHO                                               :          
GR          .GAPI                                               :          
GR_NORM     .GAPI                                               :GammaRay Normalized
ILD         .OHMM                                               :          
SP          .MV                                                 :          
SP_NORM     .MV                                                 :SP Normalized
VSH_GR      .V/V                                                :Volume of Shale from GR
VSH_SP      .V/V                                                :Volume of Shale from SP
~A        DEPTH           ASFL           CILD             GR        GR_NORM            ILD             SP        SP_NORM         VSH_GR         VSH_SP
# ...
      4436.5000         1.1859       744.5205        58.4034       68.73464         1.5309       -45.5423      -8.049198      0.7603115      0.8863032
      4437.0000         1.4513       703.7686        60.8133       71.45988         1.6213       -45.7023      -8.207233      0.8182952      0.8837543
      4437.5000         1.5969       656.3965        60.9685       71.63338         1.7121       -45.6587      -8.161671      0.8219869      0.8844892
      4438.0000         1.6663       607.9951        60.3744       70.95889         1.7836       -45.4245      -7.925507       0.807636      0.8882983
      4438.5000         1.7129       558.2207        83.4628       97.08669         1.8551       -45.2001      -7.699146              1      0.8919492
      4439.0000         1.7573       515.5078        86.4971       100.5186         1.9221        -45.016      -7.513081              1      0.8949503
      4439.5000         1.7713       515.8994        90.0728       104.5632         1.9973       -44.8318       -7.32692              1      0.8979529
      4440.0000          1.756       527.1729          93.41       108.3379         1.9579       -46.3049      -8.798061              1      0.8742248
      4440.5000         1.7417       533.8848       106.1334       122.7352         1.9184       -47.3304      -9.821594              1      0.8577162
      4441.0000         1.7092       540.5908       108.8536       125.8116         1.8963       -47.9437      -10.43293              1      0.8478559
      4441.5000         1.6392       547.2969       110.4789       127.6489         1.8913       -48.3268      -10.81407              1      0.8417085
      4442.0000         1.5945       552.1934       108.7828       125.7273         1.8863       -48.6391      -11.12441              1      0.8367031
      4442.5000         1.5599       553.6523       105.5723       122.0917         1.8808       -48.7475      -11.23085              1      0.8349863
      4443.0000         1.5293       555.1113        99.2106       114.8898         1.8731        -48.856      -11.33738              1       0.833268
      4443.5000         1.5115       556.5703        88.3768       102.6267         1.8654       -48.8676      -11.34702              1      0.8331126
      4444.0000         1.4968       558.5195        85.0297       98.83654         1.8578       -48.8731      -11.35056              1      0.8330555
      4444.5000         1.4883       560.5381        68.8771       80.55396         1.8355       -49.9438       -12.4193              1      0.8158178
      4445.0000         1.4798       562.5557         58.545       68.85864         1.8009       -51.6796      -14.15313      0.7629498      0.7878527
      4445.5000         1.4746       567.6729        55.9924       65.96764         1.7637       -54.9858      -17.45737      0.7014392      0.7345585
      4446.0000         1.4702       574.8506        54.1747       63.90836         1.6644       -57.2305      -19.70011      0.6576248      0.6983854
      4446.5000         1.4654       582.0234        52.1535       61.61877         1.4584       -59.9694      -22.43705      0.6089099      0.6542412
      4447.0000         1.4602         590.96        49.9833       59.16055         1.3238       -62.7653      -25.23098      0.5566074      0.6091777
      4447.5000         1.4424       600.5967        48.6784       57.68161         1.2148       -69.1742      -31.63792      0.5251406      0.5058399
      4448.0000         1.4037       796.7471        47.9407        56.8446         1.0463       -75.1758      -37.63755      0.5073319      0.4090717
      4448.5000          1.347       932.4375        47.4667       56.30604         0.9518       -78.4733      -40.93309      0.4958732      0.3559178
      4449.0000         1.1943       1014.578        46.6957       55.43134          0.865       -81.0756      -43.53343      0.4772625      0.3139769
      4449.5000         0.9495       1103.584        45.4243       53.99032         0.7658       -93.2806      -55.73647      0.4466025      0.1171537
      4450.0000         0.8883       1950.637        45.2164        53.7529         0.6499       -92.5624      -55.01631      0.4415511      0.1287692
      4450.5000         0.9451        2050.43        45.8564       54.47507         0.5388       -91.4276      -53.87954      0.4569165      0.1471041
      4451.0000         1.0223        2121.93         46.512        55.2149         0.5205       -90.2593      -52.70928      0.4726576      0.1659793
      4451.5000         1.0949       2193.035        46.6873       55.41117         0.5306        -88.675      -51.12302      0.4768333      0.1915641
      4452.0000         1.1501       2232.535        46.8256       55.56555         0.5812        -86.757      -49.20306      0.4801181      0.2225313
      4452.5000         1.1894       2217.945        47.3602       56.16844         0.6317       -84.1472       -46.5913      0.4929456      0.2646565
      4453.0000         1.2335       1852.852        47.8956       56.77224         0.6819       -81.2916      -43.73373      0.5057923      0.3107462
      4453.5000         1.2755       1485.646        48.8516       57.85205         0.7286       -77.9742      -40.41437      0.5287669      0.3642844
      4454.0000          1.259       1329.016        49.8697       59.00213         0.7652       -73.8051      -36.24331      0.5532368      0.4315595
      4454.5000         1.2007       1247.146        51.0076        60.2878         0.7829       -62.6163      -25.05254      0.5805915      0.6120557
      4455.0000         1.1384       1265.658        52.3658       61.82278         0.7714       -65.7028      -28.13708      0.6132507      0.5623052
      4455.5000         1.0454       1339.633        55.8198       65.72967         0.7408       -69.1617      -31.59402      0.6963759      0.5065481
      4456.0000         0.9282       1382.518        53.6136       63.23071         0.7101       -71.4214      -33.85176      0.6432065      0.4701329
      4456.5000         0.8843       1425.402        51.3229        60.6361         0.6671       -73.6884      -36.11679      0.5880021      0.4336001
      4457.0000         0.8624       1468.313         48.275       57.18456         0.6207       -76.5192      -38.94564      0.5145652      0.3879736
      4457.5000         0.8541       1523.652        44.1307       52.49218         0.5735       -80.0327      -42.45717      0.4147272       0.331336
      4458.0000         0.9451       1590.051        42.4459        50.5833         0.5491       -81.8813      -44.30381      0.3741128      0.3015515
      4458.5000         1.1379       1699.164        41.3918       49.38821         0.5922       -80.5417      -42.96225      0.3486853      0.3231896
      4459.0000         1.1884        1816.17        42.5067       50.64785         0.6353        -77.351      -39.76958      0.3754862      0.3746842
      4459.5000         1.2351       1900.813        44.0832       52.42989         0.6953       -73.3978      -35.81441       0.413402      0.4384772
      4460.0000         1.2727       1736.924         44.563       52.97077         0.7619       -69.2585      -31.67316      0.4249099      0.5052717
      4460.5000         1.3036        1489.57        45.0656       53.53745         0.7848       -65.0671      -27.47979      0.4369671      0.5729066
      4461.0000         1.3324       1291.895        45.6596       54.20757         0.8062       -61.1439      -23.55463      0.4512249      0.6362156
      4461.5000         1.3523        1227.75        46.2537        54.8778         0.8218       -65.3625      -27.77127      0.4654851      0.5682052
      4462.0000         1.3722       1218.236        47.1749       55.91822         0.8199       -68.1561       -30.5629      0.4876217      0.5231789
      4462.5000         1.3867       1253.619        45.7869       54.34524          0.818       -70.7373      -33.14214      0.4541541      0.4815783
