#------------------------------------------------------------------------------
# Created by    : vladimir.rabinovich
# Created on    : 09/19/2023 17:20:45
#------------------------------------------------------------------------------
~Version Information Section
VERS.           2.0     :   CWLS log ASCII Standard - VERSION 2.0
WRAP.           NO      :   One line per depth step
~Well Information Section
#MNEM       .UNIT                                         VALUE :DESCRIPTION
#------------------------------------------------------------------------------
STRT        .FT                                            2110 :START DEPTH
STOP        .FT                                            6746 :STOP DEPTH
STEP        .FT                                             0.5 :STEP      
NULL        .                                           -999.25 :NULL      
COMP        .                       HOUSTON OIL & MINERALS CORP :COMPANY   
WELL        .                                ST TR 00694-L NE/4 :WELL      
FLD         .                                           WILDCAT :FIELD     
LOC         .                                                   :LOCATION  
CNTY        .                      MATAGORDA ISLAND LARGE BLOCK :LOCATION  
STAT        .                                             TEXAS :STATE     
CTRY        .                                     UNITED STATES :COUNTRY   
SRVC        .                                                   :SERVICE COMPANY
DATE        .                             9/13/2023 11:12:01 AM :LOG DATE  
API         .                                    42703302070000 :API NUMBER
UWI         .                                    42703302070000 :UNIQUE WELL ID
XCOORD      .                                  400461.464340365 :SURFACE X 
YCOORD      .                                  10145980.2526086 :SURFACE Y 
LAT         .                                        27.9055609 :LATITUDE  
LON         .                                       -96.8388291 :LONGITUDE 
ELEV        .FT                                              25 :ELEVATION VALUE
ELEV_TYPE   .                                                KB :ELEVATION REFERENCE TYPE
~Curve Information Section
#MNEM       .UNIT                                      API CODE :CURVE DESCRIPTION
#------------------------------------------------------------------------------
DEPT        .FT                                                 :DEPTH     
ASN         .OHMM                                               :          
CILD        .MMHO                                               :          
ILD         .OHMM                                               :          
SP          .MV                                                 :          
SP_NORM     .MV                                                 :SP Normalized
VSH_SP      .V/V                                                :Volume of Shale from SP
~A        DEPTH            ASN           CILD            ILD             SP        SP_NORM         VSH_SP
# ...
      6404.0000         0.7858       1778.412         0.4737       -89.7471       -52.0112      0.2061714
      6404.5000          0.805       1760.906         0.4748       -90.5396       -52.8037      0.1935921
      6405.0000         0.8241         1743.4         0.4759        -91.754       -54.0181      0.1743159
      6405.5000         0.8436       1725.869          0.477       -91.6506       -53.9147      0.1759571
      6406.0000         0.8637       1708.363         0.4781       -90.8439       -53.1081      0.1887603
      6406.5000         0.8794       1684.303         0.4792       -89.9188       -52.1829       0.203446
      6407.0000         0.8902       1659.992         0.4804       -88.9926       -51.2567      0.2181476
      6407.5000         0.9004       1635.707         0.4863       -88.0675       -50.3316      0.2328317
      6408.0000         0.8957       1592.648         0.4923       -87.1051       -49.3693      0.2481063
      6408.5000         0.8911       1506.285         0.4983       -85.8302       -48.0943      0.2683445
      6409.0000         0.8856       1521.334         0.5044        -87.933       -50.1971      0.2349666
      6409.5000         0.8798       1548.152         0.5104       -89.7483       -52.0124      0.2061523
      6410.0000          0.874       1570.326         0.5164       -91.5062       -53.7704      0.1782476
      6410.5000         0.8682       1592.475         0.5225       -92.4351       -54.6992      0.1635048
      6411.0000         0.8624        1614.65         0.5285       -92.6643       -54.9284      0.1598667
      6411.5000         0.8566       1636.799         0.5345       -92.5801       -54.8442      0.1612032
      6412.0000         0.8524       1641.766         0.5406       -92.6184       -54.8825      0.1605952
      6412.5000         0.8499       1613.012         0.5459       -92.6566       -54.9207      0.1599889
      6413.0000         0.8474       1584.281         0.5484       -92.6948        -54.959       0.159381
      6413.5000          0.848       1555.527         0.5508       -92.7332       -54.9973       0.158773
      6414.0000         0.8502       1526.797         0.5533       -92.7714       -55.0355      0.1581667
      6414.5000         0.8635       1498.041         0.5558       -92.7488        -55.013      0.1585238
      6415.0000         0.8792       1469.287         0.5582       -92.4338       -54.6979      0.1635254
      6415.5000         0.8914       1440.533         0.5607       -92.1188       -54.3829      0.1685254
      6416.0000         0.9011       1411.754         0.5632       -77.5096       -39.7737      0.4004174
      6416.5000         0.9071       1388.561         0.5656       -78.5393       -40.8034       0.384073
      6417.0000         0.9066       1407.383         0.5681       -79.5676       -41.8317      0.3677508
      6417.5000         0.9061        1426.18         0.5704       -81.0269        -43.291      0.3445873
      6418.0000          0.907       1445.002         0.5697       -82.5669       -44.8311      0.3201413
      6418.5000         0.9094       1461.727          0.569       -84.1083       -46.3724      0.2956762
      6419.0000         0.9117       1473.174         0.5683       -85.6497       -47.9138      0.2712095
      6419.5000         0.9209       1484.621         0.5676       -87.1088        -49.373      0.2480476
      6420.0000         0.9383       1496.055          0.567       -88.5294       -50.7936      0.2254984
      6420.5000         0.9556       1507.502         0.5671       -88.1621       -50.4263      0.2313286
      6421.0000         0.9639       1494.764         0.5672        -86.884       -49.1482      0.2516159
      6421.5000         0.9713       1461.738         0.5696       -86.1707       -48.4348      0.2629397
      6422.0000         0.9747       1393.801          0.574        -85.537       -47.8012      0.2729968
      6422.5000         0.9782       1341.506         0.5889       -85.2926       -47.5568      0.2768762
      6423.0000         0.9817       1290.303         0.6086       -85.0483       -47.3125       0.280754
      6423.5000         0.9901       1239.945         0.6315       -83.0052       -45.2694      0.3131841
      6424.0000         1.0002        1199.42         0.6643       -78.1073       -40.3714      0.3909302
      6424.5000         1.0103       1158.846         0.6972       -71.3442       -33.6083       0.498281
      6425.0000          1.049       1117.477           0.73       -64.5812       -26.8453      0.6056302
      6425.5000         1.0912       1037.223         0.7629       -57.8182       -20.0823      0.7129794
      6426.0000         1.1334       950.4121         0.8038       -49.2213       -11.4854      0.8494381
      6426.5000         1.1757        877.457         0.8449        -48.229       -10.4931      0.8651889
      6427.0000         1.2179       834.5488          0.886       -49.1005       -11.3646      0.8513556
      6427.5000         1.2601       820.7148         0.9271       -50.1103       -12.3744       0.835327
      6428.0000          1.302       817.0615          0.967       -51.0347       -13.2988       0.820654
      6428.5000         1.2867       814.3115         1.0042       -51.3973       -13.6614      0.8148984
      6429.0000         1.2715       820.7979         1.0414       -51.7599        -14.024      0.8091428
      6429.5000         1.2629       827.2852         1.0786       -51.1848       -13.4489      0.8182714
      6430.0000         1.2583       833.7725         1.1051       -49.6795       -11.9436      0.8421651
      6430.5000         1.2568       840.2656         1.1257       -48.3012       -10.5653      0.8640429
      6431.0000          1.261       846.7529         1.1463       -47.4285        -9.6926      0.8778952
      6431.5000         1.2658       848.5205         1.1668       -46.5557        -8.8198      0.8917492
      6432.0000         1.2803       850.2363         1.1875       -45.6829         -7.947      0.9056032
      6432.5000         1.2971       851.9512         1.1997       -45.2288         -7.493      0.9128096
      6433.0000          1.349        853.666         1.2116       -44.9749         -7.239      0.9168413
      6433.5000         1.4097       835.5918         1.2234       -44.8481        -7.1122       0.918854
      6434.0000         1.4704       793.1797         1.2353       -44.7946        -7.0588      0.9197016
      6434.5000         1.5311       740.9092         1.2472        -44.741        -7.0051       0.920554
      6435.0000         1.5766       728.8662         1.2565       -44.6876        -6.9517      0.9214016
      6435.5000         1.5636       716.8232         1.2654        -44.634        -6.8981      0.9222524
      6436.0000         1.5445       708.1514         1.2744       -44.6004        -6.8645      0.9227857
      6436.5000         1.5253        704.501         1.2833       -44.6068        -6.8709      0.9226841
      6437.0000         1.5102       700.8477         1.2866       -44.6131        -6.8772      0.9225841
      6437.5000         1.5029       699.8975         1.2887       -44.6194        -6.8835      0.9224841
      6438.0000         1.5015       699.8418         1.2908       -44.6258        -6.8899      0.9223825
      6438.5000         1.4985       699.7861         1.2929       -44.6321        -6.8962      0.9222825
      6439.0000         1.4784       699.7314         1.2918       -44.7552        -7.0193      0.9203286
      6439.5000         1.4426        712.751         1.2897       -44.9014        -7.1656      0.9180064
      6440.0000         1.3931       732.1689         1.2604       -45.0477        -7.3118      0.9156857
      6440.5000         1.3438       751.5869         1.2286       -45.1938         -7.458      0.9133651
      6441.0000         1.2671       768.9688         1.1969        -45.399        -7.6631      0.9101095
      6441.5000         1.2586       785.9043          1.165       -45.6216        -7.8857      0.9065762
