#------------------------------------------------------------------------------
# Created by    : vladimir.rabinovich
# Created on    : 09/19/2023 17:20:36
#------------------------------------------------------------------------------
~Version Information Section
VERS.           2.0     :   CWLS log ASCII Standard - VERSION 2.0
WRAP.           NO      :   One line per depth step
~Well Information Section
#MNEM       .UNIT                                         VALUE :DESCRIPTION
#------------------------------------------------------------------------------
STRT        .FT                                             498 :START DEPTH
STOP        .FT                                            9565 :STOP DEPTH
STEP        .FT                                             0.5 :STEP      
NULL        .                                           -999.25 :NULL      
COMP        .                       BLUE DOLPHIN EXPLORATION CO :COMPANY   
WELL        .                                OCS 00714 ST00BP00 :WELL      
FLD         .                              GALVESTON BLOCK 0288 :FIELD     
LOC         .                                                   :LOCATION  
CNTY        .                             GALVESTON LARGE BLOCK :LOCATION  
STAT        .                                             TEXAS :STATE     
CTRY        .                                     UNITED STATES :COUNTRY   
SRVC        .                                                   :SERVICE COMPANY
DATE        .                             9/13/2023 11:19:25 AM :LOG DATE  
API         .                                    42706000390000 :API NUMBER
UWI         .                                    42706000390000 :UNIQUE WELL ID
XCOORD      .                                  1097340.72850425 :SURFACE X 
YCOORD      .                                  10481267.2561277 :SURFACE Y 
LAT         .                                        28.8709496 :LATITUDE  
LON         .                                       -94.6972159 :LONGITUDE 
ELEV        .FT                                              85 :ELEVATION VALUE
ELEV_TYPE   .                                                KB :ELEVATION REFERENCE TYPE
~Curve Information Section
#MNEM       .UNIT                                      API CODE :CURVE DESCRIPTION
#------------------------------------------------------------------------------
DEPT        .FT                                                 :DEPTH     
ASN         .OHMM                                               :          
CALI        .IN                                                 :          
DT          .US/F                                               :          
ILD         .OHMM                                               :          
SP          .MV                                                 :          
SP_1        .MV                                                 :          
SP_NORM     .MV                                                 :SP Normalized
VSH_SP      .V/V                                                :Volume of Shale from SP
~A        DEPTH            ASN           CALI             DT            ILD             SP           SP_1        SP_NORM         VSH_SP
# ...
      1707.5000         1.5549        -999.25        -999.25        -999.25        -999.25       -49.8485      -1.068012              1
      1708.0000         1.5499        -999.25        -999.25        -999.25        -999.25       -49.8491      -1.068611              1
      1708.5000         1.5334        -999.25        -999.25        -999.25        -999.25       -49.8314      -1.050915              1
      1709.0000          1.517        -999.25        -999.25        -999.25        -999.25       -49.7415     -0.9610138              1
      1709.5000         1.4961        -999.25        -999.25        -999.25        -999.25       -49.6516     -0.8711128              1
      1710.0000         1.4747        -999.25        -999.25        -999.25        -999.25       -49.5618      -0.781311              1
      1710.5000         1.4608        -999.25        -999.25        -999.25        -999.25       -49.7737     -0.9932137              1
      1711.0000         1.4493        -999.25        -999.25        -999.25        -999.25       -51.1214      -2.340912      0.9896693
      1711.5000         1.4373        -999.25        -999.25        -999.25        -999.25       -54.2987      -5.518211      0.8933876
      1712.0000         1.6255        -999.25        -999.25        -999.25        -999.25       -57.6614      -8.880913      0.7914875
      1712.5000         1.6444        -999.25        -999.25        -999.25        -999.25       -61.0253      -12.24481      0.6895512
      1713.0000         1.6576        -999.25        -999.25        -999.25        -999.25       -64.3879      -15.60741      0.5876541
      1713.5000         1.6507        -999.25        -999.25        -999.25        -999.25       -67.7507      -18.97021      0.4857511
      1714.0000         1.6271        -999.25        -999.25        -999.25        -999.25       -70.6488      -21.86832      0.3979298
      1714.5000         1.5882        -999.25        -999.25        -999.25        -999.25       -72.5775      -23.79701      0.3394845
      1715.0000         1.5689        -999.25        -999.25        -999.25        -999.25       -72.9757      -24.19521      0.3274178
      1715.5000         1.6069        -999.25        -999.25        -999.25        -999.25       -72.5653      -23.78481      0.3398542
      1716.0000         1.6351        -999.25        -999.25        -999.25        -999.25       -72.5753      -23.79482      0.3395511
      1716.5000         1.6535        -999.25        -999.25        -999.25        -999.25       -74.0592      -25.27871      0.2945846
      1717.0000         1.6543        -999.25        -999.25        -999.25        -999.25       -74.6249      -25.84441       0.277442
      1717.5000         1.6452        -999.25        -999.25        -999.25        -999.25       -75.2454      -26.46491       0.258639
      1718.0000         1.6394        -999.25        -999.25        -999.25        -999.25       -77.0103      -28.22981      0.2051572
      1718.5000         1.6534        -999.25        -999.25        -999.25        -999.25       -80.1555      -31.37502       0.109848
      1719.0000         1.6913        -999.25        -999.25        -999.25        -999.25       -80.9152      -32.13471     0.08682691
      1719.5000         1.7188        -999.25        -999.25        -999.25        -999.25       -81.6445      -32.86401     0.06472686
      1720.0000         1.7119        -999.25        -999.25        -999.25        -999.25         -80.78      -31.99951     0.09092389
      1720.5000         1.6935        -999.25        -999.25        -999.25        -999.25        -79.627      -30.84651      0.1258633
      1721.0000          1.695        -999.25        -999.25        -999.25        -999.25       -78.8623      -30.08181      0.1490361
      1721.5000         1.7242        -999.25        -999.25        -999.25        -999.25       -78.5101      -29.72961      0.1597087
      1722.0000         1.7389        -999.25        -999.25        -999.25        -999.25       -78.6915      -29.91101      0.1542118
      1722.5000         1.6786        -999.25        -999.25        -999.25        -999.25        -78.873      -30.09251      0.1487117
      1723.0000         1.5907        -999.25        -999.25        -999.25        -999.25       -79.1016      -30.32111      0.1417844
      1723.5000         1.5022        -999.25        -999.25        -999.25        -999.25       -78.7891      -30.00861      0.1512541
      1724.0000         1.4137        -999.25        -999.25        -999.25        -999.25       -77.5948      -28.81432       0.187445
      1724.5000         1.3743        -999.25        -999.25        -999.25        -999.25       -74.6146      -25.83411      0.2777541
      1725.0000         1.3516        -999.25        -999.25        -999.25        -999.25       -72.1576      -23.37711      0.3522087
      1725.5000         1.3335        -999.25        -999.25        -999.25        -999.25       -69.7007      -20.92021      0.4266602
      1726.0000         1.3668        -999.25        -999.25        -999.25        -999.25       -69.2205      -20.44001      0.4412118
      1726.5000         1.6957        -999.25        -999.25        -999.25        -999.25       -71.4808      -22.70031      0.3727179
      1727.0000         1.7336        -999.25        -999.25        -999.25        -999.25       -73.7418      -24.96131      0.3042027
      1727.5000         1.7531        -999.25        -999.25        -999.25        -999.25       -75.9102      -27.12971      0.2384935
      1728.0000         1.7794        -999.25        -999.25        -999.25        -999.25       -77.0148      -28.23431      0.2050208
      1728.5000         1.8378        -999.25        -999.25        -999.25        -999.25       -77.1219      -28.34142      0.2017753
      1729.0000         1.8593        -999.25        -999.25        -999.25        -999.25        -76.806      -28.02551      0.2113481
      1729.5000         1.8651        -999.25        -999.25        -999.25        -999.25       -76.4901      -27.70961      0.2209209
      1730.0000         1.8717        -999.25        -999.25        -999.25        -999.25       -76.6671      -27.88661      0.2155572
      1730.5000         1.8823        -999.25        -999.25        -999.25        -999.25       -77.0314      -28.25092      0.2045177
      1731.0000         1.9072        -999.25        -999.25        -999.25        -999.25       -77.6777      -28.89721      0.1849331
      1731.5000         1.9511        -999.25        -999.25        -999.25        -999.25       -79.4457      -30.66521      0.1313571
      1732.0000         2.0106        -999.25        -999.25        -999.25        -999.25        -81.549      -32.76852     0.06762071
      1732.5000           2.05        -999.25        -999.25        -999.25        -999.25       -83.5073      -34.72681    0.008278355
      1733.0000         2.0302        -999.25        -999.25        -999.25        -999.25       -83.2625      -34.48201     0.01569667
      1733.5000         1.9799        -999.25        -999.25        -999.25        -999.25       -82.5742      -33.79372     0.03655405
      1734.0000         1.9211        -999.25        -999.25        -999.25        -999.25       -82.0093      -33.22881     0.05367233
      1734.5000         1.9355        -999.25        -999.25        -999.25        -999.25       -81.9144      -33.13391     0.05654815
      1735.0000         1.9191        -999.25        -999.25        -999.25        -999.25       -82.1348      -33.35432     0.04986919
      1735.5000         1.8779        -999.25        -999.25        -999.25        -999.25         -82.66      -33.87952     0.03395404
      1736.0000          1.923        -999.25        -999.25        -999.25        -999.25       -83.1117      -34.33121     0.02026621
      1736.5000         1.9546        -999.25        -999.25        -999.25        -999.25       -83.5496      -34.76911    0.006996617
