#------------------------------------------------------------------------------
# Created by    : vladimir.rabinovich
# Created on    : 09/19/2023 17:22:39
#------------------------------------------------------------------------------
~Version Information Section
VERS.           2.0     :   CWLS log ASCII Standard - VERSION 2.0
WRAP.           NO      :   One line per depth step
~Well Information Section
#MNEM       .UNIT                                         VALUE :DESCRIPTION
#------------------------------------------------------------------------------
STRT        .FT                                            3496 :START DEPTH
STOP        .FT                                          7091.5 :STOP DEPTH
STEP        .FT                                             0.5 :STEP      
NULL        .                                           -999.25 :NULL      
COMP        .                          SEAGULL ENERGY E & P INC :COMPANY   
WELL        .                               OCS G07251 ST00BP00 :WELL      
FLD         .                              GALVESTON BLOCK 0349 :FIELD     
LOC         .                                                   :LOCATION  
CNTY        .                             GALVESTON LARGE BLOCK :LOCATION  
STAT        .                                             TEXAS :STATE     
CTRY        .                                     UNITED STATES :COUNTRY   
SRVC        .                                                   :SERVICE COMPANY
DATE        .                             9/13/2023 11:19:36 AM :LOG DATE  
API         .                                    42706402300000 :API NUMBER
UWI         .                                    42706402300000 :UNIQUE WELL ID
XCOORD      .                                  1015542.86720011 :SURFACE X 
YCOORD      .                                  10434819.2372955 :SURFACE Y 
LAT         .                                         28.739771 :LATITUDE  
LON         .                                        -94.950355 :LONGITUDE 
ELEV        .FT                                              93 :ELEVATION VALUE
ELEV_TYPE   .                                                KB :ELEVATION REFERENCE TYPE
~Curve Information Section
#MNEM       .UNIT                                      API CODE :CURVE DESCRIPTION
#------------------------------------------------------------------------------
DEPT        .FT                                                 :DEPTH     
DCAL        .IN                                                 :          
DPHI        .%                                                  :          
DRHO        .G/C3                                               :          
GR          .GAPI                                               :          
GR_NORM     .GAPI                                               :GammaRay Normalized
ILD         .OHMM                                               :          
ILM         .OHMM                                               :          
NPHI        .%                                                  :          
SGRD        .OHMM                                               :          
SP          .MV                                                 :          
SP_NORM     .MV                                                 :SP Normalized
VSH_GR      .V/V                                                :Volume of Shale from GR
VSH_SP      .V/V                                                :Volume of Shale from SP
~A        DEPTH           DCAL           DPHI           DRHO             GR        GR_NORM            ILD            ILM           NPHI           SGRD             SP        SP_NORM         VSH_GR         VSH_SP
# ...
      6840.0000         0.8697        21.3631        -0.0758        64.8204       78.77705         0.6129         0.6465        45.1276         0.7253       -59.6776      -10.69801      0.9739797      0.8354152
      6840.5000         0.9502        21.1892        -0.0803         63.022       76.36403         0.6128         0.6468        45.2297         0.7334       -59.4962      -10.51661      0.9226389       0.838206
      6841.0000         1.0547        20.7353        -0.0818        63.6458       77.20584         0.6157         0.6492        45.0228         0.7463       -59.3792      -10.39961      0.9405498       0.840006
      6841.5000         1.1743        19.6346        -0.0811        65.1188       79.18876         0.6205          0.652        44.5403         0.7582       -59.3466      -10.36701      0.9827396      0.8405076
      6842.0000         1.2707         18.552        -0.0772        66.5881       81.16669         0.6273         0.6548        44.1671         0.7738       -59.3606      -10.38101              1      0.8402922
      6842.5000         1.2787        18.3877        -0.0672        68.2646       83.42307         0.6351          0.662        44.0421         0.7692       -59.9068      -10.92721              1      0.8318891
      6843.0000         1.2577        20.1238        -0.0621        67.1874       81.97915         0.6438         0.6674         44.116         0.7613       -60.9026      -11.92301              1      0.8165691
      6843.5000         1.2369        22.6208        -0.0824         64.833       78.81901         0.6532         0.6753        44.6716          0.758       -61.4889      -12.50931      0.9748725      0.8075491
      6844.0000         1.1683        23.3478        -0.0943        63.4536       76.96901         0.6631         0.6867        45.4865         0.7585       -60.8225      -11.84291      0.9355108      0.8178014
      6844.5000          1.056        22.0851        -0.0928        64.6582       78.59127         0.6767         0.7006         46.317          0.773       -59.7592      -10.77961       0.970027      0.8341599
      6845.0000         0.9491        21.7103        -0.0844        66.2635       80.75195         0.6888         0.7182        46.2489         0.8037       -59.2529      -10.27331              1      0.8419491
      6845.5000         0.9937        20.0278        -0.0735        66.9767        81.7139         0.7014         0.7367        45.5765         0.8192       -59.1115      -10.13191              1      0.8441245
      6846.0000         1.0814        17.8474        -0.0591         67.045       81.80925          0.717          0.755        44.4075         0.8331        -59.176      -10.19641              1      0.8431322
      6846.5000         1.1511        17.4608        -0.0471        66.7102       81.36293         0.7322         0.7657        43.1215         0.8371       -59.1794      -10.19981              1      0.8430799
      6847.0000         1.2142        17.9311        -0.0439        67.3871       82.27609         0.7466         0.7725        41.9091         0.8312       -59.2062      -10.22661              1      0.8426676
      6847.5000         1.2993        17.9307        -0.0454         66.266       80.77319         0.7565         0.7826        41.0181         0.8174       -59.1495      -10.16991              1      0.8435398
      6848.0000         1.3755        17.7544        -0.0481        65.0546       79.14895         0.7594         0.7863        40.5736         0.8077       -59.2075      -10.22791      0.9818925      0.8426476
      6848.5000         1.4254        17.7113        -0.0488          68.98       84.42729         0.7511         0.7833        40.1808         0.8263        -59.143      -10.16341              1      0.8436399
      6849.0000         1.3924        17.5023        -0.0482        67.1143       81.92383         0.7321         0.7685        40.0189         0.8452       -59.1888      -10.20921              1      0.8429353
      6849.5000         1.2743        17.8759        -0.0458        68.5131       83.80703         0.7156         0.7453        40.0891         0.8439        -59.397      -10.41741              1      0.8397322
      6850.0000         1.1042        18.7373        -0.0435        70.0179       85.83267         0.6998         0.7201        40.3838         0.8349        -59.985      -11.00541              1       0.830686
      6850.5000         1.0566        20.3249        -0.0406        69.0674       84.55902         0.6817         0.6994        41.2324         0.8008       -60.2916      -11.31201              1      0.8259691
      6851.0000         1.0482        20.4581        -0.0381        69.3669       84.96505         0.6618          0.683        43.3181         0.7556       -60.0951      -11.11551              1      0.8289922
      6851.5000         1.0558        20.8598        -0.0389        71.0472       87.22653         0.6408         0.6672        44.2575         0.7415       -59.6341      -10.65451              1      0.8360844
      6852.0000         1.0455        20.8587        -0.0413        70.0835       85.93513         0.6203         0.6516        44.9575         0.7361       -59.1274      -10.14781              1      0.8438799
      6852.5000         0.9844        19.9077        -0.0445         68.666       84.03394         0.6039         0.6361        45.3049         0.7299       -58.3794      -9.399807              1      0.8553876
      6853.0000         0.9138        19.6121        -0.0504        68.2546        83.4847         0.5883         0.6187        45.4589         0.7214       -57.5625      -8.582909              1      0.8679553
      6853.5000         0.8863        20.5095        -0.0556        67.8596       82.95747          0.579         0.6095        45.4128         0.7195       -56.7675       -7.78791              1       0.880186
      6854.0000         0.8654        21.3051        -0.0609         67.932       83.05835         0.5716         0.6026        45.3332         0.7182       -56.4053      -7.425709              1      0.8857583
      6854.5000         0.8715          20.55        -0.0686        68.3813       83.66568         0.5681         0.5976        45.0228         0.7182       -56.0213       -7.04171              1       0.891666
      6855.0000          0.906        20.3039         -0.062        69.2483       84.83427         0.5643         0.5965        43.3579         0.7216       -55.5228      -6.543209              1      0.8993353
      6855.5000         0.9498        21.0751         -0.054        70.8911       87.04536         0.5634         0.5963        43.0204         0.7274       -54.9523       -5.97271              1      0.9081122
      6856.0000         0.9452        20.7871        -0.0431        68.6304       84.01112         0.5639         0.5955        43.1996         0.7317       -54.6615      -5.681908              1       0.912586
      6856.5000         0.9107         20.849        -0.0325          68.89       84.36353         0.5647         0.5958          44.31         0.7174        -55.056      -6.076408              1      0.9065168
      6857.0000         0.8674        21.4496        -0.0273        71.1896        87.4572         0.5656         0.5967        45.3724         0.7118       -55.4077      -6.428108              1       0.901106
      6857.5000         0.9299        22.1781        -0.0345        68.5231       83.87765         0.5657         0.5979        46.1895         0.7131       -55.8293      -6.849709              1      0.8946199
      6858.0000         0.9926        22.7018        -0.0435        68.4519       83.78555         0.5651         0.5996        46.6974         0.7148       -56.0138       -7.03421              1      0.8917814
      6858.5000         0.9615        22.6395        -0.0539        70.2008       86.13921          0.565         0.6006        46.8237         0.7177       -55.6923      -6.712708              1      0.8967276
