#------------------------------------------------------------------------------
# Created by    : vladimir.rabinovich
# Created on    : 09/19/2023 17:19:50
#------------------------------------------------------------------------------
~Version Information Section
VERS.           2.0     :   CWLS log ASCII Standard - VERSION 2.0
WRAP.           NO      :   One line per depth step
~Well Information Section
#MNEM       .UNIT                                         VALUE :DESCRIPTION
#------------------------------------------------------------------------------
STRT        .FT                                             816 :START DEPTH
STOP        .FT                                            7470 :STOP DEPTH
STEP        .FT                                             0.5 :STEP      
NULL        .                                           -999.25 :NULL      
COMP        .                                   KERR-MCGEE CORP :COMPANY   
WELL        .                               OCS G05003 ST00BP00 :WELL      
FLD         .                                 BRAZOS BLOCK 0412 :FIELD     
LOC         .                                                   :LOCATION  
CNTY        .                                BRAZOS LARGE BLOCK :LOCATION  
STAT        .                                             TEXAS :STATE     
CTRY        .                                     UNITED STATES :COUNTRY   
SRVC        .                                                   :SERVICE COMPANY
DATE        .                             9/13/2023 11:19:08 AM :LOG DATE  
API         .                                    42704401140000 :API NUMBER
UWI         .                                    42704401140000 :UNIQUE WELL ID
XCOORD      .                                  819493.037302503 :SURFACE X 
YCOORD      .                                  10380289.6446028 :SURFACE Y 
LAT         .                                         28.579682 :LATITUDE  
LON         .                                        -95.558179 :LONGITUDE 
ELEV        .FT                                              90 :ELEVATION VALUE
ELEV_TYPE   .                                                KB :ELEVATION REFERENCE TYPE
~Curve Information Section
#MNEM       .UNIT                                      API CODE :CURVE DESCRIPTION
#------------------------------------------------------------------------------
DEPT        .FT                                                 :DEPTH     
ASFL        .OHMM                                               :          
CALI        .IN                                                 :          
CILD        .MMHO                                               :          
GR          .GAPI                                               :          
GR_NORM     .GAPI                                               :GammaRay Normalized
ILD         .OHMM                                               :          
ILM         .OHMM                                               :          
RHOB        .G/C3                                               :          
SP          .MV                                                 :          
SP_NORM     .MV                                                 :SP Normalized
VSH_GR      .V/V                                                :Volume of Shale from GR
VSH_SP      .V/V                                                :Volume of Shale from SP
~A        DEPTH           ASFL           CALI           CILD             GR        GR_NORM            ILD            ILM           RHOB             SP        SP_NORM         VSH_GR         VSH_SP
# ...
       836.5000         1.3745        -999.25       670.3301        71.7404       80.19176         1.4196         1.6089        -999.25       -80.2902      -11.24258              1              1
       837.0000         1.5009        -999.25       681.9189         74.684       82.90132         1.4264         1.6483        -999.25       -82.1188      -13.07117              1              1
       837.5000         1.6218        -999.25       693.5078         72.861       78.10403         1.5839          1.681        -999.25       -83.9471      -14.89948      0.9596602              1
       838.0000         1.6725        -999.25        707.251        73.2726         76.826         1.8652         1.7126        -999.25       -83.3929      -14.34528      0.9324682              1
       838.5000         1.6902        -999.25       665.0684        74.6597       77.08427         2.3182         1.7428        -999.25       -75.9614       -6.91378      0.9379631              1
       839.0000         1.7007        -999.25       463.5249        76.0515       77.61189         2.5248         1.7738        -999.25       -73.0222      -3.974579      0.9491891              1
       839.5000         1.7141        -999.25       422.0811        74.4573       75.08981         2.6495         1.8055        -999.25       -71.3915       -2.34388       0.895528              1
       840.0000         1.7326        -999.25       404.9873        71.1703       69.90175         2.7538         1.8415        -999.25       -70.2686      -1.220978      0.7851436              1
       840.5000         1.7512        -999.25       390.5664        67.4888       64.09243         2.8083         1.8809        -999.25        -69.469     -0.4213791       0.661541              1
       841.0000         1.7722        -999.25       378.5166        64.5956       59.52457         2.8628         1.9195        -999.25       -68.7961      0.2515259      0.5643526      0.9820338
       841.5000         1.7967        -999.25       366.4668          61.72       54.98446         2.9057         1.9525        -999.25        -68.105      0.9426193      0.4677544      0.9326701
       842.0000         1.8016        -999.25       368.6763        57.7494       48.71983         2.9205         1.9747        -999.25       -67.3105       1.737122      0.3344644      0.8759199
       842.5000         1.7645        -999.25       380.7754        59.3204       51.18257         2.8069          1.978        -999.25       -66.5112       2.536423      0.3868631       0.818827
       843.0000         1.7275        -999.25        392.874        59.9218       52.11829         2.6933         1.9432        -999.25       -65.7053       3.342323       0.406772      0.7612626
       843.5000         1.6904        -999.25       404.9731         57.964        49.0236         2.5797         1.8537        -999.25       -64.8993       4.148323      0.3409277      0.7036912
       844.0000         1.6533        -999.25       424.5962        55.0865       44.48046          2.422         1.7015        -999.25       -64.0931       4.954521      0.2442652      0.6461056
       844.5000         1.5719        -999.25       446.8921        52.3737       40.19672         2.2657         1.5509        -999.25       -63.4698       5.577824      0.1531218       0.601584
       845.0000         1.5086        -999.25       468.2017        49.5163       35.68526         2.1721          1.458        -999.25       -63.0133       6.034321     0.05713321      0.5689771
       845.5000         1.4595        -999.25       489.1704        47.4796       32.46629         2.0784         1.3993        -999.25       -62.8209       6.226723              0      0.5552341
       846.0000         1.4255        -999.25       508.0034        46.8873       31.52209         1.9959         1.3371        -999.25       -62.7803       6.267323              0      0.5523341
       846.5000         1.4834        -999.25       522.5537        46.3115       30.60388         1.9254         1.2993        -999.25       -62.7399       6.307724              0      0.5494483
       847.0000         1.5113        -999.25       520.2793        45.7041       29.63589         1.8719         1.3044        -999.25       -62.6993       6.348324              0      0.5465483
       847.5000         1.5327        -999.25       518.0039        44.7623       28.14128         1.9394         1.2978        -999.25       -62.5104       6.537224              0      0.5330554
       848.0000         1.5524        -999.25       515.5205        45.2155       28.84361         2.0802         1.3328        -999.25       -62.3207       6.726921              0      0.5195056
       848.5000         1.5707        -999.25       503.9429         48.211       33.54978         2.1908         1.4138        -999.25       -62.1023       6.945324     0.01169749      0.5039054
       849.0000         1.5925        -999.25       492.3647        52.1245       39.70168         2.2971         1.5482        -999.25       -61.6882       7.359421      0.1425889      0.4743271
       849.5000         1.6178        -999.25       480.7847        54.3356       43.17251         2.3492         1.6478        -999.25        -61.274       7.773624      0.2164364      0.4447411
       850.0000         1.6359        -999.25       469.0591        55.5021       44.99822         2.3523         1.6054        -999.25       -60.8599       8.187721      0.2552812      0.4151628
       850.5000          1.616        -999.25       453.3511        56.6945       46.86471         2.3029         1.4923        -999.25       -60.4696       8.578022      0.2949939      0.3872841
       851.0000         1.5962        -999.25        452.314         57.826       48.63528         2.2492         1.3961        -999.25       -60.2068       8.840824      0.3326655      0.3685126
       851.5000         1.5764        -999.25       463.3389        58.4225       49.56331         2.1956         1.3272        -999.25       -59.9441       9.103523      0.3524109      0.3497483
       852.0000         1.5427        -999.25        475.231        57.4739       48.05798         2.1416         1.2663        -999.25       -59.6813       9.366322      0.3203825       0.330977
       852.5000         1.4967        -999.25       487.1226        55.3577       44.71382         2.0875         1.2185        -999.25       -59.4667       9.580921      0.2492302      0.3156485
       853.0000         1.4657        -999.25       499.0127        52.8878        40.8126         2.0334         1.2049        -999.25       -59.3116       9.736023      0.1662255      0.3045698
       853.5000         1.4677        -999.25       508.1069        50.2762       36.68824         1.9771         1.2207        -999.25       -59.1954       9.852222     0.07847311      0.2962698
       854.0000          1.514        -999.25        510.103         47.376       32.10937         1.9167         1.2625        -999.25       -59.2339       9.813725              0      0.2990197
       854.5000          1.561        -999.25       512.0986        47.4801       32.26192         1.8563         1.2952        -999.25       -59.2725       9.775124              0      0.3017769
       855.0000         1.5768        -999.25       514.0947        47.7013       32.59888         1.8001         1.2955        -999.25       -59.4204       9.627224              0      0.3123412
       855.5000         1.5885        -999.25       516.0908        47.9224        32.9357         1.7565         1.2785        -999.25       -59.5693       9.478321              0      0.3229771
       856.0000         1.5838        -999.25       509.9331        47.9163       32.91468         1.7128         1.2569        -999.25       -59.7181       9.329521              0      0.3336056
       856.5000         1.5778        -999.25       501.1587        47.6304       32.45304         1.7506         1.2377        -999.25       -59.8358       9.211823              0      0.3420127
