#------------------------------------------------------------------------------
# Created by    : vladimir.rabinovich
# Created on    : 09/19/2023 17:22:45
#------------------------------------------------------------------------------
~Version Information Section
VERS.           2.0     :   CWLS log ASCII Standard - VERSION 2.0
WRAP.           NO      :   One line per depth step
~Well Information Section
#MNEM       .UNIT                                         VALUE :DESCRIPTION
#------------------------------------------------------------------------------
STRT        .FT                                            3370 :START DEPTH
STOP        .FT                                           10136 :STOP DEPTH
STEP        .FT                                             0.5 :STEP      
NULL        .                                           -999.25 :NULL      
COMP        .                                  W&T OFFSHORE INC :COMPANY   
WELL        .                               OCS G04565 ST00BP00 :WELL      
FLD         .                              GALVESTON BLOCK 0303 :FIELD     
LOC         .                                                   :LOCATION  
CNTY        .                             GALVESTON LARGE BLOCK :LOCATION  
STAT        .                                             TEXAS :STATE     
CTRY        .                                     UNITED STATES :COUNTRY   
SRVC        .                                                   :SERVICE COMPANY
DATE        .                             9/13/2023 11:19:27 AM :LOG DATE  
API         .                                    42706401000000 :API NUMBER
UWI         .                                    42706401000000 :UNIQUE WELL ID
XCOORD      .                                  988505.563749319 :SURFACE X 
YCOORD      .                                  10486369.8338556 :SURFACE Y 
LAT         .                                        28.8802688 :LATITUDE  
LON         .                                       -95.0374578 :LONGITUDE 
ELEV        .FT                                              93 :ELEVATION VALUE
ELEV_TYPE   .                                                KB :ELEVATION REFERENCE TYPE
~Curve Information Section
#MNEM       .UNIT                                      API CODE :CURVE DESCRIPTION
#------------------------------------------------------------------------------
DEPT        .FT                                                 :DEPTH     
DPHI        .DEC                                                :          
DRHO        .G/C3                                               :          
DT          .US/F                                               :          
GR          .GAPI                                               :          
GR_1        .GAPI                                               :          
GR_NORM     .GAPI                                               :GammaRay Normalized
ILD         .OHMM                                               :          
NPHI        .DEC                                                :          
RHOB        .G/C3                                               :          
SP          .MV                                                 :          
SP_NORM     .MV                                                 :SP Normalized
VSH_GR      .V/V                                                :Volume of Shale from GR
VSH_SP      .V/V                                                :Volume of Shale from SP
~A        DEPTH           DPHI           DRHO             DT             GR           GR_1        GR_NORM            ILD           NPHI           RHOB             SP        SP_NORM         VSH_GR         VSH_SP
# ...
      8785.0000        -999.25        -999.25       108.7572        -999.25        63.4037        83.1933         0.5927        -999.25        -999.25       -46.7532      -3.541225              1      0.9494111
      8785.5000        -999.25        -999.25       109.2727        -999.25        62.1287       81.59955         0.5903        -999.25        -999.25       -47.2634      -4.048084              1      0.9421702
      8786.0000        -999.25        -999.25       109.5673        -999.25        61.0812       80.29018         0.5865        -999.25        -999.25        -47.837      -4.618347              1      0.9340236
      8786.5000        -999.25        -999.25       109.6157        -999.25         60.377       79.40993         0.5847        -999.25        -999.25       -48.3569      -5.134903      0.9874452      0.9266443
      8787.0000        -999.25        -999.25       108.9097        -999.25        60.0288       78.97468         0.5849        -999.25        -999.25       -48.5869      -5.361565      0.9781846      0.9234062
      8787.5000        -999.25        -999.25        108.015        -999.25        60.9564       80.13419         0.5841        -999.25        -999.25       -48.7294      -5.500725              1      0.9214182
      8788.0000        -999.25        -999.25       107.0032        -999.25        62.0381        81.4863         0.5815        -999.25        -999.25       -48.5132      -5.281185              1      0.9245545
      8788.5000        -999.25        -999.25       108.4968        -999.25        62.9045       82.56929         0.5716        -999.25        -999.25       -48.2418      -5.006443              1      0.9284794
      8789.0000        -999.25        -999.25       110.3208        -999.25         61.228       80.47367         0.5619        -999.25        -999.25       -47.7765      -4.537807              1      0.9351742
      8789.5000        -999.25        -999.25        112.379        -999.25        59.0573        77.7603         0.5464        -999.25        -999.25       -47.3433      -4.101269      0.9523468      0.9414104
      8790.0000        -999.25        -999.25       114.2621        -999.25        58.0795       76.53805         0.5305        -999.25        -999.25       -47.0675      -3.822128      0.9263414      0.9453982
      8790.5000        -999.25        -999.25       115.9949        -999.25        59.9334       78.85542         0.5155        -999.25        -999.25       -46.8577       -3.60899      0.9756473       0.948443
      8791.0000        -999.25        -999.25       117.1541        -999.25        61.8986       81.31194         0.5012        -999.25        -999.25       -46.9182      -3.666149              1      0.9476264
      8791.5000        -999.25        -999.25       117.4607        -999.25         62.728       82.34867         0.4885        -999.25        -999.25       -47.0831      -3.827709              1      0.9453185
      8792.0000        -999.25        -999.25        117.411        -999.25        62.4854       82.04543         0.4773        -999.25        -999.25       -47.3658      -4.107067              1      0.9413276
      8792.5000        -999.25        -999.25       117.4065        -999.25        61.7689       81.14981          0.467        -999.25        -999.25       -47.5911      -4.329029              1      0.9381567
      8793.0000        -999.25        -999.25       117.4077        -999.25        61.3915       80.67804         0.4577        -999.25        -999.25       -47.7457      -4.480289              1      0.9359959
      8793.5000        -999.25        -999.25       117.7616        -999.25        61.2568       80.50968         0.4506        -999.25        -999.25       -47.6627      -4.393951              1      0.9372293
      8794.0000        -999.25        -999.25       118.2404        -999.25        61.0901        80.3013         0.4454        -999.25        -999.25       -47.3828       -4.11071              1      0.9412756
      8794.5000        -999.25        -999.25       119.3064        -999.25        60.8554       80.00793         0.4412        -999.25        -999.25       -46.9184      -3.642971              1      0.9479576
      8795.0000        -999.25        -999.25       119.6915        -999.25         60.804       79.94368         0.4384        -999.25        -999.25       -46.4632      -3.184429      0.9988017      0.9545081
      8795.5000        -999.25        -999.25       119.0551        -999.25        62.2828       81.79218         0.4422        -999.25        -999.25       -46.0392      -2.757092              1       0.960613
      8796.0000        -999.25        -999.25       118.2108        -999.25        62.5423       82.11655         0.4461        -999.25        -999.25       -45.7983      -2.512852              1      0.9641021
      8796.5000        -999.25        -999.25       117.3296        -999.25        61.9415       81.36555         0.4533        -999.25        -999.25       -45.4435      -2.154713              1      0.9692184
      8797.0000        -999.25        -999.25       116.5063        -999.25        61.3394       80.61293         0.4617        -999.25        -999.25       -45.3392       -2.04707              1      0.9707562
      8797.5000        -999.25        -999.25       115.7977        -999.25        62.2217       81.71579         0.4718        -999.25        -999.25       -45.4313      -2.135834              1      0.9694881
      8798.0000        -999.25        -999.25       115.0891        -999.25        64.3215       84.34055         0.4852        -999.25        -999.25       -45.6262      -2.327393              1      0.9667515
      8798.5000        -999.25        -999.25       114.2325        -999.25        65.8669       86.27229         0.4977        -999.25        -999.25       -46.1154      -2.813251              1      0.9598107
      8799.0000        -999.25        -999.25       114.0785        -999.25        66.1356       86.60817         0.5091        -999.25        -999.25       -46.6724      -3.366913              1      0.9519013
      8799.5000        -999.25        -999.25       114.9375        -999.25        65.8009        86.1898         0.5148        -999.25        -999.25       -46.6432      -3.334373              1      0.9523661
      8800.0000        -999.25        -999.25       115.9813        -999.25         65.598       85.93617         0.5111        -999.25        -999.25       -46.2236       -2.91143              1      0.9584081
      8800.5000        -999.25        -999.25       116.8207        -999.25        66.1962       86.68392          0.498        -999.25        -999.25       -46.3576      -3.042095              1      0.9565415
      8801.0000        -999.25        -999.25       117.3308        -999.25        67.6866       88.54692         0.4815        -999.25        -999.25       -47.2386      -3.919758              1      0.9440035
      8801.5000        -999.25        -999.25       117.8251        -999.25        68.8932       90.05518         0.4663        -999.25        -999.25        -48.028      -4.705814              1      0.9327741
      8802.0000        -999.25        -999.25       118.5818        -999.25        68.5065        89.5718         0.4517        -999.25        -999.25       -48.7273      -5.401775              1      0.9228318
      8802.5000        -999.25        -999.25       119.2572        -999.25        65.5121        85.8288         0.4391        -999.25        -999.25       -49.3303      -6.001434              1      0.9142652
      8803.0000        -999.25        -999.25         119.63        -999.25        64.6782       84.78642         0.4304        -999.25        -999.25       -49.6411      -6.308899              1      0.9098729
      8803.5000        -999.25        -999.25       119.9313        -999.25        64.4836       84.54317         0.4233        -999.25        -999.25       -49.6019      -6.266354              1      0.9104807
