#------------------------------------------------------------------------------
# Created by    : vladimir.rabinovich
# Created on    : 09/19/2023 17:22:52
#------------------------------------------------------------------------------
~Version Information Section
VERS.           2.0     :   CWLS log ASCII Standard - VERSION 2.0
WRAP.           NO      :   One line per depth step
~Well Information Section
#MNEM       .UNIT                                         VALUE :DESCRIPTION
#------------------------------------------------------------------------------
STRT        .FT                                             873 :START DEPTH
STOP        .FT                                           11612 :STOP DEPTH
STEP        .FT                                             0.5 :STEP      
NULL        .                                           -999.25 :NULL      
COMP        .                                   MARATHON OIL CO :COMPANY   
WELL        .                               OCS G04137 ST00BP04 :WELL      
FLD         .                       MATAGORDA ISLAND BLOCK 0527 :FIELD     
LOC         .                                                   :LOCATION  
CNTY        .                      MATAGORDA ISLAND LARGE BLOCK :LOCATION  
STAT        .                                             TEXAS :STATE     
CTRY        .                                     UNITED STATES :COUNTRY   
SRVC        .                                                   :SERVICE COMPANY
DATE        .                             9/13/2023 11:19:05 AM :LOG DATE  
API         .                                    42703400590000 :API NUMBER
UWI         .                                    42703400590000 :UNIQUE WELL ID
XCOORD      .                                  609906.580547661 :SURFACE X 
YCOORD      .                                  10277311.7025511 :SURFACE Y 
LAT         .                                         28.282909 :LATITUDE  
LON         .                                        -96.202007 :LONGITUDE 
ELEV        .FT                                              95 :ELEVATION VALUE
ELEV_TYPE   .                                                KB :ELEVATION REFERENCE TYPE
~Curve Information Section
#MNEM       .UNIT                                      API CODE :CURVE DESCRIPTION
#------------------------------------------------------------------------------
DEPT        .FT                                                 :DEPTH     
GR          .GAPI                                               :          
GR_NORM     .GAPI                                               :GammaRay Normalized
ILD         .OHMM                                               :          
SP          .MV                                                 :          
SP_NORM     .MV                                                 :SP Normalized
VSH_GR      .V/V                                                :Volume of Shale from GR
VSH_SP      .V/V                                                :Volume of Shale from SP
~A        DEPTH             GR        GR_NORM            ILD             SP        SP_NORM         VSH_GR         VSH_SP
# ...
      1710.5000        31.5456       44.43355         0.5928      -102.3386      -5.222839       0.243267      0.3967372
      1711.0000        31.1445       43.77554         0.5852      -102.3989      -5.288231      0.2292667      0.3873956
      1711.5000        30.1259       42.10452         0.5765      -102.5173       -5.41172      0.1937132      0.3697543
      1712.0000        29.0343       40.31375         0.5719      -102.6617      -5.561211      0.1556116      0.3483985
      1712.5000        29.7487       41.48572         0.5709      -102.5269      -5.431503      0.1805473      0.3669281
      1713.0000        30.2517        42.3109         0.5765      -102.3673         -5.277      0.1981042      0.3889999
      1713.5000        30.6269       42.92641         0.5962      -102.3666      -5.281387      0.2112003      0.3883732
      1714.0000        31.4386         44.258         0.6293      -102.2709      -5.190773       0.239532      0.4013181
      1714.5000        32.9319       46.70777         0.6726       -101.952      -4.876976      0.2916546      0.4461463
      1715.0000        33.4352       47.53344         0.7326      -101.0859      -4.015961       0.309222      0.5691485
      1715.5000        33.9309       48.34663         0.7958      -100.2164      -3.151558      0.3265241      0.6926346
      1716.0000        33.2479       47.22617         0.8682       -99.7614      -2.701645      0.3026844      0.7569079
      1716.5000        32.3922        45.8224         0.9351       -99.6581      -2.603432       0.272817      0.7709383
      1717.0000        31.9545       45.10434         1.0024       -99.6582      -2.608635      0.2575392       0.770195
      1717.5000         31.507       44.37021         1.0695       -99.6365      -2.592018      0.2419194      0.7725688
      1718.0000        30.9592       43.47155          1.136       -99.6251      -2.585716      0.2227989      0.7734691
      1718.5000        31.1155       43.72797         1.1881       -99.6249      -2.590607      0.2282547      0.7727705
      1719.0000        31.7454       44.76131          1.207       -99.6466      -2.617393      0.2502407      0.7689438
      1719.5000        32.6132       46.18495          1.199       -99.6805      -2.656387      0.2805308      0.7633733
      1720.0000        33.4707       47.59168         1.1584       -99.7601      -2.741081      0.3104613      0.7512741
      1720.5000        33.1091       46.99847         1.0995       -99.8829      -2.868973      0.2978397      0.7330039
      1721.0000         32.634       46.21907         1.0628       -99.8796      -2.870766      0.2812567      0.7327477
      1721.5000        32.2578       45.60191         1.0281       -99.8519      -2.848152      0.2681257      0.7359782
      1722.0000        33.7257       48.01001         0.9669       -99.7281      -2.729454       0.319362      0.7529351
      1722.5000        35.9248       51.61764         0.9101       -99.1708      -2.177238        0.39612      0.8318231
      1723.0000        38.0387        55.0855         0.8631       -98.4513      -1.462837      0.4699043      0.9338804
      1723.5000        40.2106       58.64852         0.8208       -97.6906      -0.707222      0.5457131              1
      1724.0000        41.1721       60.22583         0.7757       -97.1698     -0.1915131       0.579273              1
      1724.5000        40.3428       58.86537         0.7415        -97.986       -1.01281      0.5503271        0.99817
      1725.0000        38.7574       56.26453         0.7114       -98.3757        -1.4076        0.49499      0.9417714
      1725.5000        37.1387       53.60904         0.7074       -98.4373      -1.474297      0.4384903      0.9322433
      1726.0000        35.8272       51.45753          0.721       -98.4987      -1.540787      0.3927133      0.9227448
      1726.5000        36.4805       52.52927         0.7314       -98.4545      -1.501671      0.4155164      0.9283327
      1727.0000        37.5837       54.33908         0.7418        -98.385      -1.437271      0.4540229      0.9375327
      1727.5000        38.7046        56.1779         0.7517       -98.2524      -1.309761      0.4931469      0.9557484
      1728.0000        38.3491        55.5947          0.761        -98.814      -1.876457      0.4807384      0.8747918
      1728.5000        37.5217       54.23737         0.7688       -99.3798      -2.447342      0.4518588      0.7932369
      1729.0000        36.7473       52.96695         0.7781       -99.2843      -2.356934      0.4248286      0.8061523
      1729.5000         36.061       51.84108         0.7893       -99.0117      -2.089432       0.400874      0.8443669
      1730.0000        36.9422       53.28668         0.7977       -99.3671      -2.449921      0.4316315      0.7928685
      1730.5000        37.0682       53.49339         0.7999      -100.0397      -3.127617      0.4360296      0.6960548
      1731.0000           36.4       52.39721         0.8005      -100.0021        -3.0951      0.4127065      0.7006999
      1731.5000         37.337       53.93435         0.8003       -99.3768      -2.474892      0.4454118      0.7893012
      1732.0000        39.0889       56.80836         0.8002       -98.8667      -1.969887      0.5065608      0.8614448
      1732.5000        40.4164       58.98613         0.7942       -99.1302       -2.23848      0.5528964      0.8230743
      1733.0000        40.6851       59.42692         0.7868      -100.5698      -3.683174      0.5622749      0.6166894
      1733.5000        39.4681       57.43043         0.7761      -102.2445      -5.362961      0.5197964      0.3767199
      1734.0000        36.3214       52.26826         0.7601      -102.4851       -5.60865      0.4099629      0.3416214
      1734.5000        34.5307        49.3306         0.7412      -101.4977       -4.62635      0.3474597        0.48195
      1735.0000        34.8734       49.89282         0.7204      -100.6835      -3.817238      0.3594217      0.5975375
      1735.5000         37.702       54.53314         0.7011       -99.9045      -3.043335      0.4581519       0.708095
      1736.0000        40.2418       58.69969         0.7886       -99.2051      -2.349022      0.5468019      0.8072826
      1736.5000         39.912       58.15865         0.8248       -98.8975      -2.046509      0.5352904      0.8504987
      1737.0000        39.5891       57.62894         0.8366       -98.8704      -2.024506        0.52402       0.853642
      1737.5000         39.317       57.18256         0.8486       -98.8949      -2.054092      0.5145225      0.8494154
      1738.0000        39.3194       57.18651         0.8608       -98.9033      -2.067589      0.5146065      0.8474873
      1738.5000        39.7112       57.82925         0.8617       -98.9117      -2.081078      0.5282819      0.8455604
      1739.0000        40.4982       59.12032         0.8615       -98.8812      -2.055672      0.5557515      0.8491898
      1739.5000        41.7234       61.13025         0.8593       -98.8334      -2.012962      0.5985159      0.8552911
      1740.0000        43.5285       64.09152         0.8569       -98.7855      -1.970154      0.6615217      0.8614066
      1740.5000        45.5985        67.4874         0.8527        -98.764      -1.953751      0.7337744      0.8637499
      1741.0000        47.1954       70.10709         0.8482       -98.7559      -1.950737      0.7895126      0.8641804
      1741.5000        47.7203       70.96819         0.8415       -98.7478      -1.947731      0.8078337      0.8646098
      1742.0000        47.4741       70.56429          0.834       -98.7838      -1.988823      0.7992403      0.8587396
      1742.5000        48.0759       71.55157         0.8279       -98.8341      -2.044212      0.8202461      0.8508268
      1743.0000        49.0022       73.07117          0.822       -98.8845      -2.099709       0.852578      0.8428988
      1743.5000         50.023       74.74578         0.8219       -98.9384      -2.158699      0.8882081      0.8344716
