#------------------------------------------------------------------------------
# Created by    : vladimir.rabinovich
# Created on    : 09/19/2023 17:20:58
#------------------------------------------------------------------------------
~Version Information Section
VERS.           2.0     :   CWLS log ASCII Standard - VERSION 2.0
WRAP.           NO      :   One line per depth step
~Well Information Section
#MNEM       .UNIT                                         VALUE :DESCRIPTION
#------------------------------------------------------------------------------
STRT        .FT                                             521 :START DEPTH
STOP        .FT                                           11050 :STOP DEPTH
STEP        .FT                                             0.5 :STEP      
NULL        .                                           -999.25 :NULL      
COMP        .                                      SHELL OIL CO :COMPANY   
WELL        .                                     ST TR 00335-L :WELL      
FLD         .                                           WILDCAT :FIELD     
LOC         .                                                   :LOCATION  
CNTY        .                                BRAZOS LARGE BLOCK :LOCATION  
STAT        .                                             TEXAS :STATE     
CTRY        .                                     UNITED STATES :COUNTRY   
SRVC        .                                                   :SERVICE COMPANY
DATE        .                             9/13/2023 11:18:52 AM :LOG DATE  
API         .                                    42704000130000 :API NUMBER
UWI         .                                    42704000130000 :UNIQUE WELL ID
XCOORD      .                                  903482.990868916 :SURFACE X 
YCOORD      .                                   10450808.276789 :SURFACE Y 
LAT         .                                        28.7782296 :LATITUDE  
LON         .                                       -95.3008656 :LONGITUDE 
ELEV        .FT                                              81 :ELEVATION VALUE
ELEV_TYPE   .                                                DF :ELEVATION REFERENCE TYPE
~Curve Information Section
#MNEM       .UNIT                                      API CODE :CURVE DESCRIPTION
#------------------------------------------------------------------------------
DEPT        .FT                                                 :DEPTH     
ASN         .OHMM                                               :          
CILD        .MMHO                                               :          
ILD         .OHMM                                               :          
SP          .MV                                                 :          
SP_NORM     .MV                                                 :SP Normalized
VSH_SP      .V/V                                                :Volume of Shale from SP
~A        DEPTH            ASN           CILD            ILD             SP        SP_NORM         VSH_SP
# ...
      4017.0000         0.4919       2347.813         0.2754       -99.6219      -51.27089              0
      4017.5000         0.4856       2367.297         0.2743       -99.6082      -51.25542              0
      4018.0000         0.4796       2386.684         0.2731       -99.5942      -51.23964              0
      4018.5000         0.4736       2347.703         0.2731        -99.238      -50.88167              0
      4019.0000         0.4696       2255.641         0.2743       -98.8562       -50.4981              0
      4019.5000         0.4674       2277.133         0.2756       -98.4745      -50.11463              0
      4020.0000         0.4732       2298.613         0.2769       -98.0927      -49.73105    0.005488805
      4020.5000         0.4901        2320.09         0.2782       -98.1511      -49.78768    0.004333107
      4021.0000         0.4987        2341.57         0.2794       -99.0566      -50.69141              0
      4021.5000         0.4909       2333.977         0.2807       -99.8463      -51.47933              0
      4022.0000         0.4851        2295.52          0.282      -100.5782      -52.20946              0
      4022.5000         0.4799       2232.773         0.2833      -101.3102      -52.93969              0
      4023.0000         0.4906        -999.25         0.2845      -100.5051      -52.13281              0
      4023.5000         0.4921        -999.25         0.2858       -99.4043      -51.03024              0
      4024.0000         0.4987        -999.25         0.2863       -98.3033      -49.92747    0.001480258
      4024.5000         0.5163        -999.25          0.285       -97.2025      -48.82489     0.02398176
      4025.0000         0.5344        -999.25         0.2838       -96.4712      -48.09182     0.03894237
      4025.5000         0.5537        -999.25         0.2825       -96.7211      -48.33995     0.03387856
      4026.0000          0.573        -999.25         0.2812       -96.9709      -48.58798     0.02881677
      4026.5000         0.5902        -999.25           0.28       -97.2207      -48.83601      0.0237549
      4027.0000         0.6027        -999.25         0.2787       -97.5199      -49.13343     0.01768509
      4027.5000         0.6121        -999.25         0.2774       -97.8191      -49.43086     0.01161513
      4028.0000         0.6276        -999.25         0.2762       -98.1185      -49.72849     0.00554112
      4028.5000         0.6607        -999.25          0.275       -98.4178      -50.02602              0
      4029.0000          0.724        -999.25         0.2737       -98.2053      -49.81174    0.003842023
      4029.5000         0.7487        -999.25         0.2725       -97.9667      -49.57137    0.008747646
      4030.0000          0.726        -999.25         0.2712       -97.7281        -49.331     0.01365311
      4030.5000         0.7015        -999.25           0.27       -97.4894      -49.09053     0.01856068
      4031.0000         0.6716        -999.25         0.2688       -97.2507      -48.85005     0.02346833
      4031.5000         0.6441        -999.25         0.2675       -97.1265      -48.72408      0.0260392
      4032.0000         0.6299        -999.25         0.2663       -97.1677       -48.7635     0.02523461
      4032.5000         0.6235        -999.25         0.2651       -97.2091      -48.80313      0.0244259
      4033.0000         0.6272        -999.25         0.2638       -97.2505      -48.84276      0.0236171
      4033.5000         0.6422        -999.25          0.264       -97.2919      -48.88239     0.02280846
      4034.0000         0.6587        -999.25         0.2643       -97.3333      -48.92201     0.02199983
      4034.5000          0.698        -999.25         0.2645       -97.3746      -48.96154     0.02119298
      4035.0000         0.7191        -999.25         0.2647        -97.416      -49.00117     0.02038434
      4035.5000         0.7067        -999.25          0.265       -97.7183      -49.30169     0.01425116
      4036.0000         0.6943        -999.25         0.2652       -98.0863      -49.66792    0.006777082
      4036.5000         0.6845        -999.25         0.2654       -98.4543      -50.03415              0
      4037.0000         0.6754        -999.25         0.2657       -98.8225      -50.40058              0
      4037.5000         0.6663        -999.25         0.2659       -99.7191       -51.2954              0
      4038.0000         0.6576        -999.25         0.2661      -100.7712      -52.34573              0
      4038.5000         0.6501        -999.25         0.2664      -101.2156      -52.78836              0
      4039.0000         0.6426        -999.25         0.2666      -101.4402      -53.01118              0
      4039.5000         0.6584        -999.25         0.2668      -100.5624      -52.13161              0
      4040.0000         0.6733        -999.25         0.2671       -99.6788      -51.24624              0
      4040.5000         0.6868        -999.25         0.2673       -98.7954      -50.36107              0
      4041.0000         0.6878        -999.25         0.2675       -97.9119       -49.4758     0.01069805
      4041.5000         0.6538        -999.25         0.2678       -97.5914      -49.15352     0.01727513
      4042.0000         0.6187        -999.25          0.268       -97.3374      -48.89775     0.02249488
      4042.5000         0.5847        -999.25         0.2682       -97.0833      -48.64187     0.02771689
      4043.0000         0.5547        -999.25         0.2685       -97.2643       -48.8211     0.02405922
      4043.5000         0.5247        -999.25         0.2687       -97.8385      -49.39353     0.01237698
      4044.0000         0.5023        -999.25         0.2689       -98.4124      -49.96566   0.0007008922
      4044.5000          0.489        -999.25         0.2692       -98.9866      -50.53809              0
      4045.0000         0.4859        -999.25         0.2694       -99.5608      -51.11051              0
      4045.5000         0.4932        -999.25         0.2696       -100.135      -51.68294              0
      4046.0000         0.5004        -999.25         0.2699      -100.6294      -52.17557              0
      4046.5000          0.517        -999.25         0.2701      -100.1097      -51.65409              0
      4047.0000         0.5369        -999.25         0.2703         -99.59      -51.13261              0
      4047.5000         0.5512        -999.25         0.2705       -99.0706      -50.61145              0
      4048.0000         0.5612        -999.25         0.2706       -98.5509      -50.08998              0
      4048.5000         0.5727        -999.25         0.2704       -97.5143       -49.0516     0.01935515
      4049.0000         0.5717        -999.25         0.2702       -96.2014      -47.73693     0.04618516
      4049.5000         0.5612        -999.25           0.27       -95.2382      -46.77195     0.06587858
      4050.0000          0.554        -999.25         0.2698       -96.6155      -48.14748     0.03780645
      4050.5000         0.5488         2079.5         0.2695        -97.994      -49.52421    0.009709962
      4051.0000         0.5438       2318.449         0.2693       -99.3713      -50.89973              0
      4051.5000         0.5394        2386.84         0.2691       -99.9761      -51.50276              0
      4052.0000          0.537       2520.855         0.2689      -100.4425      -51.96739              0
      4052.5000         0.5347        2515.59         0.2679      -100.9086      -52.43172              0
      4053.0000         0.5326       2510.324         0.2666       -101.375      -52.89634              0
      4053.5000         0.5306       2505.055         0.2659      -101.8411      -53.36068              0
      4054.0000         0.5288       2499.789         0.2683      -102.3075       -53.8253              0
      4054.5000          0.527       2495.113         0.2699      -102.4619      -53.97792              0
