#------------------------------------------------------------------------------
# Created by    : vladimir.rabinovich
# Created on    : 09/19/2023 17:19:50
#------------------------------------------------------------------------------
~Version Information Section
VERS.           2.0     :   CWLS log ASCII Standard - VERSION 2.0
WRAP.           NO      :   One line per depth step
~Well Information Section
#MNEM       .UNIT                                         VALUE :DESCRIPTION
#------------------------------------------------------------------------------
STRT        .FT                                             816 :START DEPTH
STOP        .FT                                            7470 :STOP DEPTH
STEP        .FT                                             0.5 :STEP      
NULL        .                                           -999.25 :NULL      
COMP        .                                   KERR-MCGEE CORP :COMPANY   
WELL        .                               OCS G05003 ST00BP00 :WELL      
FLD         .                                 BRAZOS BLOCK 0412 :FIELD     
LOC         .                                                   :LOCATION  
CNTY        .                                BRAZOS LARGE BLOCK :LOCATION  
STAT        .                                             TEXAS :STATE     
CTRY        .                                     UNITED STATES :COUNTRY   
SRVC        .                                                   :SERVICE COMPANY
DATE        .                             9/13/2023 11:19:08 AM :LOG DATE  
API         .                                    42704401140000 :API NUMBER
UWI         .                                    42704401140000 :UNIQUE WELL ID
XCOORD      .                                  819493.037302503 :SURFACE X 
YCOORD      .                                  10380289.6446028 :SURFACE Y 
LAT         .                                         28.579682 :LATITUDE  
LON         .                                        -95.558179 :LONGITUDE 
ELEV        .FT                                              90 :ELEVATION VALUE
ELEV_TYPE   .                                                KB :ELEVATION REFERENCE TYPE
~Curve Information Section
#MNEM       .UNIT                                      API CODE :CURVE DESCRIPTION
#------------------------------------------------------------------------------
DEPT        .FT                                                 :DEPTH     
ASFL        .OHMM                                               :          
CALI        .IN                                                 :          
CILD        .MMHO                                               :          
GR          .GAPI                                               :          
GR_NORM     .GAPI                                               :GammaRay Normalized
ILD         .OHMM                                               :          
ILM         .OHMM                                               :          
RHOB        .G/C3                                               :          
SP          .MV                                                 :          
SP_NORM     .MV                                                 :SP Normalized
VSH_GR      .V/V                                                :Volume of Shale from GR
VSH_SP      .V/V                                                :Volume of Shale from SP
~A        DEPTH           ASFL           CALI           CILD             GR        GR_NORM            ILD            ILM           RHOB             SP        SP_NORM         VSH_GR         VSH_SP
# ...
      6576.5000         0.9485        13.2585       1338.629        -999.25        -999.25         0.7292         0.7145         2.0839       -36.3768      -2.167896        -999.25      0.9761654
      6577.0000         0.9455        13.2157       1344.398        -999.25        -999.25         0.7313         0.7144         2.0846       -36.1675       -1.96656        -999.25      0.9802743
      6577.5000         0.9424        13.1702        1350.16        -999.25        -999.25          0.733         0.7175         2.1314       -35.9581      -1.765129        -999.25      0.9843851
      6578.0000         0.9402        13.1225       1353.227        -999.25        -999.25         0.7348         0.7213         2.1871       -35.7488      -1.563793        -999.25       0.988494
      6578.5000         0.9399        13.0869       1354.816        -999.25        -999.25         0.7366         0.7254         2.2093       -35.3691      -1.192059        -999.25      0.9960805
      6579.0000         0.9395        13.1883        1356.41        -999.25        -999.25         0.7383         0.7299         2.1766       -34.9706     -0.8015289        -999.25              1
      6579.5000         0.9391         13.303       1358.002        -999.25        -999.25         0.7407          0.735         2.1779       -34.5722     -0.4110947        -999.25              1
      6580.0000         0.9387        13.4017       1356.654        -999.25        -999.25         0.7435         0.7428         2.1729       -34.1738     -0.0206604        -999.25              1
      6580.5000         0.9383        13.4828       1355.066        -999.25        -999.25         0.7464         0.7513         2.1274       -33.7759      0.3692703        -999.25              1
      6581.0000         0.9391        13.3657       1346.539        -999.25        -999.25         0.7492         0.7611         2.1111       -33.3585      0.7787056        -999.25              1
      6581.5000         0.9402         13.164       1336.041        -999.25        -999.25         0.7521         0.7711         2.1402       -32.7299       1.399342        -999.25              1
      6582.0000         0.9412        12.9788       1325.543        -999.25        -999.25         0.7549         0.7812         2.1727       -32.1014       2.019875        -999.25              1
      6582.5000         0.9422        12.8644       1314.217        -999.25        -999.25         0.7578         0.7902          2.134       -31.4961       2.617208        -999.25              1
      6583.0000         0.9433        12.9101       1296.465        -999.25        -999.25         0.7607         0.7989         2.0808       -31.2519       2.853443        -999.25              1
      6583.5000         0.9448        12.9868       1278.711        -999.25        -999.25         0.7644         0.8021         2.0576        -31.434       2.663374        -999.25              1
      6584.0000         0.9487        13.0546       1261.615        -999.25        -999.25         0.7683         0.8053         2.0752       -31.6162       2.473209        -999.25              1
      6584.5000         0.9526        13.0412       1254.299        -999.25        -999.25         0.7722         0.8087         2.0806       -31.8214       2.260044        -999.25              1
      6585.0000         0.9565        12.9005       1246.982        -999.25        -999.25         0.7761         0.8113         2.0599       -32.0552       2.018276        -999.25              1
      6585.5000         0.9637        12.7485       1239.672        -999.25        -999.25         0.7799         0.8118         2.0359       -32.2892        1.77631        -999.25              1
      6586.0000         0.9725        12.6117       1232.355        -999.25        -999.25         0.7848         0.8129         2.0424       -32.5234       1.534145        -999.25              1
      6586.5000         0.9712        12.5708        1225.51        -999.25        -999.25         0.7909         0.8152         2.0641       -32.7572       1.292377        -999.25              1
      6587.0000         0.9694        12.6643       1220.348        -999.25        -999.25         0.7971         0.8209         2.0818       -32.9913       1.050312        -999.25              1
      6587.5000         0.9676        12.8878       1215.186        -999.25        -999.25         0.8032         0.8286         2.1149       -33.1842      0.8494453        -999.25              1
      6588.0000         0.9657        13.1049       1210.023        -999.25        -999.25         0.8094           0.84         2.1674       -33.3256      0.7000771        -999.25              1
      6588.5000         0.9639        13.2912       1204.662        -999.25        -999.25         0.8155         0.8522         2.2067        -33.467      0.5507126        -999.25              1
      6589.0000          0.962        13.4064        1198.15        -999.25        -999.25         0.8218         0.8649         2.2178       -33.6084      0.4013481        -999.25              1
      6589.5000         0.9626        13.4527       1191.646        -999.25        -999.25         0.8281         0.8737         2.2045       -33.7498       0.251976        -999.25              1
      6590.0000         0.9645        13.4489       1185.135        -999.25        -999.25         0.8344          0.878         2.1739       -33.8913      0.1025124        -999.25              1
      6590.5000         0.9678        13.4245       1178.623        -999.25        -999.25         0.8408         0.8776          2.154       -34.0469    -0.06105423        -999.25              1
      6591.0000         0.9825         13.372       1168.693        -999.25        -999.25         0.8471         0.8796         2.1625       -34.2095     -0.2316208        -999.25              1
      6591.5000         0.9966        13.3239       1157.182        -999.25        -999.25         0.8535         0.8823         2.1503       -34.3676      -0.397686        -999.25              1
      6592.0000         1.0084        13.3034       1145.668        -999.25        -999.25         0.8636         0.8879         2.1387        -34.514     -0.5520515        -999.25              1
      6592.5000         1.0155        13.3536       1134.154        -999.25        -999.25         0.8774         0.9049         2.1336       -34.6605     -0.7065201        -999.25              1
      6593.0000         1.0124         13.434       1122.643        -999.25        -999.25         0.8933         0.9336         2.1502       -34.8069     -0.8608856        -999.25              1
      6593.5000         1.0079        13.5116       1103.119        -999.25        -999.25         0.9099         0.9716         2.1868       -34.9533      -1.015251        -999.25      0.9996887
      6594.0000         1.0019        13.4751       1079.846        -999.25        -999.25         0.9265          1.014         2.2528       -35.1436       -1.21352        -999.25      0.9956424
      6594.5000         1.0035        13.3079        1056.25        -999.25        -999.25          0.942         1.0565         2.3113       -35.3758      -1.453686        -999.25      0.9907411
      6595.0000         1.0115        12.9479       1031.541        -999.25        -999.25         0.9572         1.1031         2.3452       -35.6078      -1.693649        -999.25      0.9858439
      6595.5000         1.0237        12.3421       1006.831        -999.25        -999.25         0.9725         1.1304         2.3406         -35.84      -1.933819        -999.25      0.9809425
      6596.0000         1.0502        11.6301       981.5273        -999.25        -999.25         0.9874         1.1326         2.2592       -36.7198      -2.821583        -999.25      0.9628248
      6596.5000         1.1202        11.2417       953.7715        -999.25        -999.25         0.9992         1.1138         2.1946       -38.0688      -4.178551        -999.25      0.9351316
