#------------------------------------------------------------------------------
# Created by    : vladimir.rabinovich
# Created on    : 09/19/2023 17:20:04
#------------------------------------------------------------------------------
~Version Information Section
VERS.           2.0     :   CWLS log ASCII Standard - VERSION 2.0
WRAP.           NO      :   One line per depth step
~Well Information Section
#MNEM       .UNIT                                         VALUE :DESCRIPTION
#------------------------------------------------------------------------------
STRT        .FT                                             723 :START DEPTH
STOP        .FT                                            8219 :STOP DEPTH
STEP        .FT                                             0.5 :STEP      
NULL        .                                           -999.25 :NULL      
COMP        .                                    MOBIL OIL CORP :COMPANY   
WELL        .                               OCS G02338 ST00BP00 :WELL      
FLD         .                                           WILDCAT :FIELD     
LOC         .                                                   :LOCATION  
CNTY        .                             GALVESTON LARGE BLOCK :LOCATION  
STAT        .                                             TEXAS :STATE     
CTRY        .                                     UNITED STATES :COUNTRY   
SRVC        .                                                   :SERVICE COMPANY
DATE        .                             9/13/2023 11:18:53 AM :LOG DATE  
API         .                                    42706400200000 :API NUMBER
UWI         .                                    42706400200000 :UNIQUE WELL ID
XCOORD      .                                  941616.333010477 :SURFACE X 
YCOORD      .                                  10405518.1254327 :SURFACE Y 
LAT         .                                         28.655687 :LATITUDE  
LON         .                                        -95.179294 :LONGITUDE 
ELEV        .FT                                              84 :ELEVATION VALUE
ELEV_TYPE   .                                                KB :ELEVATION REFERENCE TYPE
~Curve Information Section
#MNEM       .UNIT                                      API CODE :CURVE DESCRIPTION
#------------------------------------------------------------------------------
DEPT        .FT                                                 :DEPTH     
ASFL        .OHMM                                               :          
CALI        .IN                                                 :          
CILD        .MMHO                                               :          
DPHI        .%                                                  :          
DT          .US/F                                               :          
GR          .GAPI                                               :          
GR_1        .GAPI                                               :          
GR_NORM     .GAPI                                               :GammaRay Normalized
ILD         .OHMM                                               :          
NPHI        .DEC                                                :          
SP          .MV                                                 :          
SP_NORM     .MV                                                 :SP Normalized
VSH_GR      .V/V                                                :Volume of Shale from GR
VSH_SP      .V/V                                                :Volume of Shale from SP
~A        DEPTH           ASFL           CALI           CILD           DPHI             DT             GR           GR_1        GR_NORM            ILD           NPHI             SP        SP_NORM         VSH_GR         VSH_SP
# ...
      3225.0000         0.8493        12.8264       723.7559        39.0179       164.7378        -999.25        88.5785       83.06448          0.733         0.3902        52.9086      -3.808735              1      0.9546978
      3225.5000         0.8452         12.839       732.4434        38.7872       164.7783        -999.25        87.7225       82.20848         0.7285         0.3879        53.2415      -3.480682              1       0.959989
      3226.0000         0.8412        12.7321       741.1318        38.5099       163.1931        -999.25         87.218       81.70398         0.7241         0.3851        53.5743      -3.152733              1      0.9652785
      3226.5000         0.8371        12.6623       746.7842        37.8597        161.835        -999.25        87.3113       81.79728         0.7182         0.3786        53.9072       -2.82468              1      0.9705697
      3227.0000          0.833        12.6428       747.7393        37.1716       161.1909        -999.25        87.1088       81.59478         0.7032         0.3717        54.2401      -2.496632              1      0.9758608
      3227.5000         0.8289        12.6192       748.6943        36.7603       161.2449        -999.25        86.6521       81.13808         0.6882         0.3676         54.588       -2.15358              1      0.9813939
      3228.0000         0.8249        12.5987       749.6504        36.8284       161.5178        -999.25        85.8596       80.34557         0.6731         0.3683        54.9425      -1.803928              1      0.9870334
      3228.5000         0.8208        12.5946       743.7187        37.1584       161.8845        -999.25        85.0012       79.48717         0.6572         0.3716        55.2969      -1.454376      0.9890888      0.9926714
      3229.0000         0.8167        12.7218       736.5498        37.6898       161.6345        -999.25        84.2194       78.70538         0.6413         0.3769        55.5579      -1.198227      0.9724548      0.9968028
      3229.5000         0.8139        12.7668       729.3779        38.2016       161.2263        -999.25        84.1697       78.65568         0.6255          0.382        55.4911      -1.269875      0.9713974      0.9956472
      3230.0000          0.811        12.5057        722.209        38.0419       160.7148        -999.25        86.1417       80.62768         0.6149         0.3804         55.528      -1.237823              1      0.9961641
      3230.5000         0.8082        12.2417       715.0371        37.6899       160.2034        -999.25        88.8373       83.32328         0.6076         0.3769        55.5991      -1.171577              1      0.9972326
      3231.0000         0.8054        12.1927       707.9297         37.338       159.5085        -999.25        91.7439       86.22987         0.6004         0.3734         55.012      -1.763523              1      0.9876851
      3231.5000         0.8026        12.2146        709.585         37.301       159.2732        -999.25        92.8353       87.32127         0.5931          0.373        54.2982      -2.482174              1      0.9760939
      3232.0000         0.8004        12.2626       720.1436         37.477       160.0322        -999.25        92.1453       86.63128         0.5858         0.3748        53.8276      -2.957623              1      0.9684255
      3232.5000         0.7984        12.3096        727.291        37.5087       160.8271        -999.25        91.4507       85.93668         0.5827         0.3751        53.4736      -3.316471              1      0.9626375
      3233.0000         0.7964        12.3469        732.292        37.9835       161.9155        -999.25        90.7473       85.23328         0.5814         0.3798        53.1166      -3.678318              1      0.9568013
      3233.5000         0.7943        12.2904       737.2939        38.6527       163.0627        -999.25        89.9269       84.41288         0.5801         0.3865        52.7333      -4.066467              1      0.9505408
      3234.0000         0.7923        12.2767       742.2959          38.97        163.408        -999.25        88.5146       83.00058         0.5788         0.3897        52.4443      -4.360317              1      0.9458013
      3234.5000         0.7903         12.283       747.2969        39.2605       162.4548        -999.25        86.7175       81.20348         0.5774         0.3926        52.7007      -4.108768              1      0.9498585
      3235.0000         0.7895        12.1364       752.2627        39.2101       161.4758        -999.25        84.6438       79.12978         0.5792         0.3921        53.4712      -3.343117      0.9814846      0.9622078
      3235.5000         0.7888        12.0325       753.3291        38.5974        160.874        -999.25        83.7911       78.27708         0.5851          0.386        54.2421      -2.577065      0.9633421      0.9745635
      3236.0000         0.7882        12.2867       754.3965        39.0127       160.1785        -999.25        83.7805       78.26648         0.5909         0.3901        54.9188      -1.905212      0.9631166      0.9853998
      3236.5000         0.7875        12.7253       755.4639         39.556       159.3352        -999.25        83.9108       78.39677         0.5968         0.3956        55.4695       -1.35936      0.9658888      0.9942039
      3237.0000          0.788        13.1778       751.0635        40.1229       158.1555        -999.25        84.0701       78.55608         0.6026         0.4012        56.0201     -0.8136101      0.9692782              1
      3237.5000           0.79        12.8114       745.7715        40.7289       156.9001        -999.25        84.5649       79.05088         0.6085         0.4073        56.5709      -0.267662      0.9798059              1
      3238.0000          0.792        12.5802       740.4805        40.6055       155.2605        -999.25        85.5994       80.08538         0.6146         0.4061        57.0349      0.1914902              1              1
      3238.5000         0.7939         12.448       731.5234        39.8734       153.1602        -999.25        86.7473       81.23328         0.6208         0.3987        57.4786      0.6303406              1              1
      3239.0000         0.7962        12.3327        720.248        39.1189       151.7295        -999.25        85.3424       79.82838         0.6271         0.3912        57.9227       1.069592      0.9963484              1
      3239.5000         0.7999        12.2968       709.6465        38.6011       146.7852        -999.25        83.6887       78.17467         0.6333          0.386        58.5645       1.706543      0.9611633              1
      3240.0000         0.8036        12.2778       704.9043         38.024       141.9468        -999.25        82.4464       76.93238         0.6396         0.3802        59.3907       2.527897      0.9347315              1
      3240.5000         0.8073        12.3063       700.1592         37.543       138.6934        -999.25        81.7531       76.23907         0.6459         0.3754        59.9409       3.073246      0.9199803              1
      3241.0000          0.811        12.3466       696.8604        37.3824        137.178        -999.25        81.4478       75.93378         0.6521         0.3738        59.3135       2.440994      0.9134846              1
      3241.5000         0.8147        12.3332       695.1885        37.2173       138.6897        -999.25        81.4691       75.95508         0.6596         0.3722        58.3986       1.521248      0.9139378              1
      3242.0000         0.8204         12.325       693.5186        37.0535       143.2363        -999.25        81.6661       76.15208         0.6673         0.3705        58.5442       1.661999      0.9181293              1
      3242.5000          0.826        12.3321        692.541        36.9379       146.7117        -999.25        82.1405       76.62648          0.675         0.3694        59.1279       2.240849       0.928223              1
