#------------------------------------------------------------------------------
# Created by    : vladimir.rabinovich
# Created on    : 09/19/2023 17:20:34
#------------------------------------------------------------------------------
~Version Information Section
VERS.           2.0     :   CWLS log ASCII Standard - VERSION 2.0
WRAP.           NO      :   One line per depth step
~Well Information Section
#MNEM       .UNIT                                         VALUE :DESCRIPTION
#------------------------------------------------------------------------------
STRT        .FT                                             500 :START DEPTH
STOP        .FT                                            9234 :STOP DEPTH
STEP        .FT                                             0.5 :STEP      
NULL        .                                           -999.25 :NULL      
COMP        .                                      SHELL OIL CO :COMPANY   
WELL        .                                OCS 00713 ST00BP00 :WELL      
FLD         .                                           WILDCAT :FIELD     
LOC         .                                                   :LOCATION  
CNTY        .                             GALVESTON LARGE BLOCK :LOCATION  
STAT        .                                             TEXAS :STATE     
CTRY        .                                     UNITED STATES :COUNTRY   
SRVC        .                                                   :SERVICE COMPANY
DATE        .                             9/13/2023 11:19:25 AM :LOG DATE  
API         .                                    42706000510000 :API NUMBER
UWI         .                                    42706000510000 :UNIQUE WELL ID
XCOORD      .                                  1104646.85179908 :SURFACE X 
YCOORD      .                                   10481381.387581 :SURFACE Y 
LAT         .                                         28.871549 :LATITUDE  
LON         .                                        -94.674396 :LONGITUDE 
ELEV        .FT                                              82 :ELEVATION VALUE
ELEV_TYPE   .                                                KB :ELEVATION REFERENCE TYPE
~Curve Information Section
#MNEM       .UNIT                                      API CODE :CURVE DESCRIPTION
#------------------------------------------------------------------------------
DEPT        .FT                                                 :DEPTH     
ASN         .OHMM                                               :          
ASN_1       .OHMM                                               :          
GR_NORM     .                                                   :GammaRay Normalized
ILD         .OHMM                                               :          
LAT         .OHMM                                               :          
LN          .OHMM                                               :          
SP          .MV                                                 :          
SP_1        .MV                                                 :          
SP_NORM     .MV                                                 :SP Normalized
VSH_SP      .V/V                                                :Volume of Shale from SP
~A        DEPTH            ASN          ASN_1        GR_NORM            ILD            LAT             LN             SP           SP_1        SP_NORM         VSH_SP
# ...
      5155.0000         1.0329        -999.25        -999.25         0.8603        -999.25        -999.25       -69.9878        -999.25      -4.577042      0.9079628
      5155.5000          1.041        -999.25        -999.25          0.854        -999.25        -999.25       -68.1617        -999.25      -2.752243      0.9731342
      5156.0000         1.0596        -999.25        -999.25         0.8443        -999.25        -999.25       -67.8276        -999.25      -2.419441        0.98502
      5156.5000         1.0449        -999.25        -999.25         0.8339        -999.25        -999.25       -68.6715        -999.25      -3.264648       0.954834
      5157.0000         1.0314        -999.25        -999.25         0.8232        -999.25        -999.25       -68.8477        -999.25      -3.442146      0.9484948
      5157.5000           1.02        -999.25        -999.25          0.813        -999.25        -999.25       -68.3087        -999.25      -2.904442      0.9676985
      5158.0000         1.0111        -999.25        -999.25         0.8085        -999.25        -999.25       -68.0309        -999.25      -2.627945      0.9775734
      5158.5000         1.0051        -999.25        -999.25         0.8007        -999.25        -999.25       -67.9891        -999.25       -2.58744        0.97902
      5159.0000         0.9981        -999.25        -999.25         0.7898        -999.25        -999.25         -67.91        -999.25      -2.509651      0.9817982
      5159.5000         0.9795        -999.25        -999.25         0.7779        -999.25        -999.25       -67.6189        -999.25      -2.219841      0.9921485
      5160.0000         0.9656        -999.25        -999.25         0.7654        -999.25        -999.25       -67.1338        -999.25      -1.736046              1
      5160.5000         0.9683        -999.25        -999.25         0.7598        -999.25        -999.25       -67.0466        -999.25      -1.650146              1
      5161.0000         0.9819        -999.25        -999.25         0.7615        -999.25        -999.25         -66.89        -999.25      -1.494843              1
      5161.5000         0.9979        -999.25        -999.25         0.7682        -999.25        -999.25       -66.8253        -999.25       -1.43145              1
      5162.0000         1.0056        -999.25        -999.25          0.778        -999.25        -999.25       -67.4219        -999.25      -2.029343       0.998952
      5162.5000         0.9962        -999.25        -999.25         0.7915        -999.25        -999.25        -67.907        -999.25      -2.515747      0.9815804
      5163.0000         0.9886        -999.25        -999.25         0.8021        -999.25        -999.25       -67.8527        -999.25      -2.462746      0.9834734
      5163.5000         0.9841        -999.25        -999.25         0.8068        -999.25        -999.25       -67.6682        -999.25      -2.279549      0.9900161
      5164.0000         0.9838        -999.25        -999.25         0.8038        -999.25        -999.25       -67.7823        -999.25      -2.394951      0.9858946
      5164.5000          0.979        -999.25        -999.25         0.7922        -999.25        -999.25       -68.2831        -999.25      -2.897041      0.9679628
      5165.0000           0.97        -999.25        -999.25         0.7767        -999.25        -999.25       -68.8717        -999.25      -3.486946      0.9468948
      5165.5000         0.9571        -999.25        -999.25         0.7596        -999.25        -999.25       -69.4597        -999.25      -4.076248      0.9258483
      5166.0000         0.9447        -999.25        -999.25         0.7436        -999.25        -999.25       -69.7148        -999.25      -4.332649      0.9166911
      5166.5000         0.9322        -999.25        -999.25         0.7282        -999.25        -999.25       -69.8329        -999.25      -4.452049      0.9124268
      5167.0000         0.9195        -999.25        -999.25         0.7203        -999.25        -999.25       -69.6881        -999.25      -4.308556      0.9175516
      5167.5000         0.9086        -999.25        -999.25         0.7134        -999.25        -999.25       -69.1854        -999.25      -3.807152      0.9354588
      5168.0000         0.9003        -999.25        -999.25         0.7108        -999.25        -999.25        -68.563        -999.25       -3.18605      0.9576411
      5168.5000         0.8935        -999.25        -999.25         0.7084        -999.25        -999.25       -67.3914        -999.25      -2.015755      0.9994373
      5169.0000         0.8891        -999.25        -999.25         0.7036        -999.25        -999.25       -66.7042        -999.25      -1.329849              1
      5169.5000         0.8825        -999.25        -999.25         0.6967        -999.25        -999.25       -66.2904        -999.25     -0.9173508              1
      5170.0000          0.875        -999.25        -999.25          0.692        -999.25        -999.25       -66.2169        -999.25     -0.8451538              1
      5170.5000         0.8705        -999.25        -999.25         0.6885        -999.25        -999.25       -66.1595        -999.25     -0.7890549              1
      5171.0000         0.8728        -999.25        -999.25         0.6933        -999.25        -999.25       -66.1138        -999.25     -0.7446518              1
      5171.5000         0.8669        -999.25        -999.25          0.703        -999.25        -999.25       -66.1484        -999.25     -0.7805557              1
      5172.0000         0.8586        -999.25        -999.25         0.7162        -999.25        -999.25       -66.1885        -999.25     -0.8219528              1
      5172.5000         0.8598        -999.25        -999.25         0.7298        -999.25        -999.25       -66.3151        -999.25      -0.949852              1
      5173.0000         0.8715        -999.25        -999.25         0.7428        -999.25        -999.25       -66.4177        -999.25      -1.053757              1
      5173.5000         0.8848        -999.25        -999.25          0.755        -999.25        -999.25       -66.2147        -999.25     -0.8520508              1
      5174.0000         0.8935        -999.25        -999.25         0.7633        -999.25        -999.25       -65.6785        -999.25     -0.3171539              1
      5174.5000          0.899        -999.25        -999.25         0.7708        -999.25        -999.25       -65.7971        -999.25     -0.4370499              1
      5175.0000         0.9046        -999.25        -999.25         0.7807        -999.25        -999.25       -66.0424        -999.25     -0.6836548              1
      5175.5000         0.9198        -999.25        -999.25         0.7915        -999.25        -999.25       -66.3759        -999.25      -1.018456              1
      5176.0000          0.938        -999.25        -999.25         0.8015        -999.25        -999.25       -66.6797        -999.25      -1.323555              1
      5176.5000          0.956        -999.25        -999.25         0.8107        -999.25        -999.25       -66.8966        -999.25      -1.541756              1
      5177.0000         0.9708        -999.25        -999.25         0.8207        -999.25        -999.25       -66.6812        -999.25      -1.327652              1
      5177.5000         0.9779        -999.25        -999.25         0.8308        -999.25        -999.25       -65.8385        -999.25     -0.4862595              1
      5178.0000         0.9787        -999.25        -999.25         0.8364        -999.25        -999.25       -65.6228        -999.25     -0.2718582              1
      5178.5000         0.9835        -999.25        -999.25          0.842        -999.25        -999.25       -65.8131        -999.25     -0.4634628              1
      5179.0000         1.0045        -999.25        -999.25         0.8379        -999.25        -999.25       -66.3702        -999.25      -1.021858              1
