#------------------------------------------------------------------------------
# Created by    : vladimir.rabinovich
# Created on    : 09/19/2023 17:22:41
#------------------------------------------------------------------------------
~Version Information Section
VERS.           2.0     :   CWLS log ASCII Standard - VERSION 2.0
WRAP.           NO      :   One line per depth step
~Well Information Section
#MNEM       .UNIT                                         VALUE :DESCRIPTION
#------------------------------------------------------------------------------
STRT        .FT                                            4470 :START DEPTH
STOP        .FT                                            9513 :STOP DEPTH
STEP        .FT                                             0.5 :STEP      
NULL        .                                           -999.25 :NULL      
COMP        .                 FAIRWAYS SPEC SALES & SERVICE INC :COMPANY   
WELL        .                               OCS G11315 ST00BP00 :WELL      
FLD         .                              GALVESTON BLOCK 0319 :FIELD     
LOC         .                                                   :LOCATION  
CNTY        .                             GALVESTON LARGE BLOCK :LOCATION  
STAT        .                                             TEXAS :STATE     
CTRY        .                                     UNITED STATES :COUNTRY   
SRVC        .                                                   :SERVICE COMPANY
DATE        .                             9/13/2023 11:19:34 AM :LOG DATE  
API         .                                    42706402650000 :API NUMBER
UWI         .                                    42706402650000 :UNIQUE WELL ID
XCOORD      .                                  1065572.18570413 :SURFACE X 
YCOORD      .                                  10465680.9820926 :SURFACE Y 
LAT         .                                         28.826802 :LATITUDE  
LON         .                                        -94.795723 :LONGITUDE 
ELEV        .FT                                              86 :ELEVATION VALUE
ELEV_TYPE   .                                                KB :ELEVATION REFERENCE TYPE
~Curve Information Section
#MNEM       .UNIT                                      API CODE :CURVE DESCRIPTION
#------------------------------------------------------------------------------
DEPT        .FT                                                 :DEPTH     
DCAL        .IN                                                 :          
DPHI        .%                                                  :          
DRHO        .G/C3                                               :          
GR          .GAPI                                               :          
GR_NORM     .GAPI                                               :GammaRay Normalized
ILD         .OHMM                                               :          
ILM         .OHMM                                               :          
NPHI        .%                                                  :          
SFL         .OHMM                                               :          
SP          .MV                                                 :          
SP_NORM     .MV                                                 :SP Normalized
VSH_GR      .V/V                                                :Volume of Shale from GR
VSH_SP      .V/V                                                :Volume of Shale from SP
~A        DEPTH           DCAL           DPHI           DRHO             GR        GR_NORM            ILD            ILM           NPHI            SFL             SP        SP_NORM         VSH_GR         VSH_SP
# ...
      8821.0000         0.3725        14.6517        -0.0173        68.1365       59.02199          1.759         1.7345        20.4865          1.987       -52.1446      -15.72725      0.5536593      0.7580423
      8821.5000         0.4165        14.3127        -0.0165        69.2526       60.21216         1.7004         1.6644         22.297         1.9281        -50.891      -14.47211      0.5789821      0.7773522
      8822.0000         0.4225        15.8044         -0.016         73.349        64.5813         1.6521         1.6189         24.748         1.7745       -50.8447      -14.42427      0.6719425      0.7780882
      8822.5000         0.3296        18.7686        -0.0162        76.1299       67.54725         1.6156         1.5981        25.6508         1.6038       -54.9491      -18.52713      0.7350479      0.7149673
      8823.0000         0.2391        21.5766        -0.0163        75.4498       66.82146         1.6164         1.5841        25.1389         1.7232       -58.9431      -22.51959      0.7196056      0.6535448
      8823.5000         0.1647        22.5822        -0.0152        70.8334       61.89696          1.627         1.6121         24.905         1.9413       -62.8978      -26.47274      0.6148289       0.592727
      8824.0000         0.1016        22.9902        -0.0137        66.3535       57.11807         1.6671         1.6433        24.5711         2.1037       -66.9391       -30.5125      0.5131504      0.5305768
      8824.5000         0.0565        22.8169        -0.0112         62.089       52.56892         1.7082         1.7065        24.0588         2.2531       -70.7992      -34.37106        0.41636      0.4712144
      8825.0000         0.0259        21.6834        -0.0081        59.9979       50.33806         1.7892         1.7744        22.5583         2.6124        -73.073      -36.64332      0.3688949      0.4362566
      8825.5000         0.0154        20.0881        -0.0058        60.0723       50.41708         1.8824         1.8597        21.3444         2.9944       -72.6348      -36.20358      0.3705763      0.4430218
      8826.0000          0.005         18.469        -0.0043        61.0505       51.46016         1.9686         1.9508        22.1854         2.8617       -70.5038      -34.07103      0.3927693      0.4758303
      8826.5000        -0.0045        18.7813        -0.0029        61.7686       52.22579         2.0591         2.0487        24.2763         2.4442        -67.786       -31.3517      0.4090593      0.5176662
      8827.0000        -0.0125        20.3846        -0.0018        60.5817       50.95942         2.1556         2.1516        25.5831         2.1519       -65.6274      -29.19156      0.3821154      0.5508991
      8827.5000        -0.0204        21.3009        -0.0011        59.7966       50.12163         2.2527         2.2546        25.7616         2.2285        -63.662      -27.22461      0.3642899      0.5811598
      8828.0000        -0.0118        20.0244        -0.0003         62.194       52.67851         2.3248         2.3619        25.3162         2.5751       -61.3498      -24.91087      0.4186918      0.6167558
      8828.5000         0.0104        17.8108         0.0006         66.406       57.17097         2.3989         2.4536        24.5185         2.5605       -59.0928      -22.65232       0.514276      0.6515027
      8829.0000         0.0294        17.4984         0.0014        70.1139       61.12572         2.4751         2.5491        26.3321         2.4332       -56.9343      -20.49228      0.5984196      0.6847341
      8829.5000         0.0445        19.3806         0.0021        72.7871        63.9768         2.6111         2.6948        27.2788         2.6677       -55.9269      -19.48334      0.6590808      0.7002563
      8830.0000         0.0535        21.3918         0.0028        69.2368       60.18946         2.8075         2.8859        25.0444         3.3859       -56.4951         -20.05      0.5784991      0.6915385
      8830.5000         0.0559        22.7193         0.0034        62.0155        52.4864         3.0766         3.1261        21.9623         5.4676       -57.8048      -21.35816      0.4146042      0.6714129
      8831.0000         0.0391        21.1973         0.0042        57.3571        47.5171         3.4328         3.4358        20.7798         6.5892       -59.0475      -22.59932      0.3088744      0.6523182
      8831.5000         0.0069         19.457         0.0051        54.4633       44.43003         3.7997         3.7354        21.6945         5.5753       -60.3001      -23.85037      0.2431922      0.6330712
      8832.0000         0.0252         18.424          0.006        59.0849        49.3594         4.0122         3.9691        22.9774         4.4989       -61.5645      -25.11323      0.3480723      0.6136426
      8832.5000          0.079        20.2156         0.0012        59.5681       49.87447         4.0234         4.0395         23.446         5.3281        -63.142      -26.68919      0.3590313      0.5893971
      8833.0000         0.1617         21.328        -0.0039        55.2484       45.26644         3.9286         3.9642        22.6013         7.1717       -64.9814      -28.52705      0.2609881      0.5611223
      8833.5000         0.2626        21.9133         -0.009        53.9171       43.84605         3.8181         3.8001        21.8467         8.1568       -66.4054      -29.94951       0.230767      0.5392383
      8834.0000         0.4749        22.1918        -0.0148        60.9283       51.32432          3.774         3.5154        22.0993         7.0555       -66.0804      -29.62296      0.3898791      0.5442621
      8834.5000         0.8335        23.9544        -0.0211        65.8494       56.57315         3.7435         3.1997        24.8054         3.9905       -64.2931      -27.83412      0.5015565      0.5717828
      8835.0000         0.8756        24.9871        -0.0268        69.9038        60.8975         3.7351         2.9944        27.4764         2.6573       -63.5645      -27.10398      0.5935638      0.5830157
      8835.5000         0.6792        25.0102         -0.032        68.2863       59.17183         3.7238         2.9124        27.8589          2.638       -64.5994      -28.13734      0.5568473      0.5671178
      8836.0000         0.3775        24.6438        -0.0354        63.8536       54.44326         3.6548         3.1617        25.5576         3.6392       -67.5221       -31.0585      0.4562397      0.5221769
      8836.5000         0.1787        24.7177        -0.0369        57.6407       47.81583           3.58         3.5498        23.4093         5.0327       -72.2725      -35.80735      0.3152304      0.4491176
      8837.0000         0.0624         24.913        -0.0339        53.3696       43.25964         3.4589         3.8865        22.3511         6.1268       -75.0316      -38.56491      0.2182903      0.4066936
      8837.5000         0.0284         25.262        -0.0293        52.4334       42.26069          3.306         3.8294         22.187          6.494       -75.5072      -39.03897      0.1970359      0.3994004
      8838.0000        -0.0055        25.7583        -0.0226        52.6382        42.4788         3.0777         3.4324        22.2815         6.3465       -74.5648      -38.09502      0.2016766      0.4139227
      8838.5000         0.1021        24.6301         -0.013        57.3413       47.49509         2.7182         2.9345        23.8428         5.5617       -71.6895      -35.21819      0.3084062      0.4581818
      8839.0000         0.2171        22.6539        -0.0025        69.6727       60.64824         2.3622         2.3906          27.98         3.8868       -67.6008      -31.12794      0.5882605      0.5211086
      8839.5000         0.4159        20.6013         0.0091        77.0044       68.46838         2.1635         1.9234        33.2901         1.8301       -63.1263      -26.65191      0.7546465      0.5899707
