#------------------------------------------------------------------------------
# Created by    : vladimir.rabinovich
# Created on    : 09/19/2023 17:20:10
#------------------------------------------------------------------------------
~Version Information Section
VERS.           2.0     :   CWLS log ASCII Standard - VERSION 2.0
WRAP.           NO      :   One line per depth step
~Well Information Section
#MNEM       .UNIT                                         VALUE :DESCRIPTION
#------------------------------------------------------------------------------
STRT        .FT                                            1664 :START DEPTH
STOP        .FT                                            5300 :STOP DEPTH
STEP        .FT                                             0.5 :STEP      
NULL        .                                           -999.25 :NULL      
COMP        .                       CORPUS CHRISTI OIL & GAS CO :COMPANY   
WELL        .                                ST TR 00597-L NE/4 :WELL      
FLD         .                                           WILDCAT :FIELD     
LOC         .                                                   :LOCATION  
CNTY        .                      MATAGORDA ISLAND LARGE BLOCK :LOCATION  
STAT        .                                             TEXAS :STATE     
CTRY        .                                     UNITED STATES :COUNTRY   
SRVC        .                                                   :SERVICE COMPANY
DATE        .                             9/13/2023 11:12:01 AM :LOG DATE  
API         .                                    42703301570000 :API NUMBER
UWI         .                                    42703301570000 :UNIQUE WELL ID
XCOORD      .                                   499677.54355151 :SURFACE X 
YCOORD      .                                  10240770.6634848 :SURFACE Y 
LAT         .                                        28.1741034 :LATITUDE  
LON         .                                       -96.5406837 :LONGITUDE 
ELEV        .FT                                              79 :ELEVATION VALUE
ELEV_TYPE   .                                                KB :ELEVATION REFERENCE TYPE
~Curve Information Section
#MNEM       .UNIT                                      API CODE :CURVE DESCRIPTION
#------------------------------------------------------------------------------
DEPT        .FT                                                 :DEPTH     
ASFL        .OHMM                                               :          
CILD        .MMHO                                               :          
ILD         .OHMM                                               :          
SP          .MV                                                 :          
SP_NORM     .MV                                                 :SP Normalized
VSH_SP      .V/V                                                :Volume of Shale from SP
~A        DEPTH           ASFL           CILD            ILD             SP        SP_NORM         VSH_SP
# ...
      2614.0000         0.9348       1084.228         0.9223       -79.8797      0.3750763              1
      2614.5000          0.988       1084.228         0.9223       -85.5562      -5.301422      0.8999569
      2615.0000         1.0413       1092.212         0.9156       -86.7506      -6.495827      0.8637629
      2615.5000         1.0765       1180.037         0.8474       -87.0487      -6.793922      0.8547297
      2616.0000         1.1126       1211.973         0.8251       -86.7496      -6.494827      0.8637931
      2616.5000         1.1126       1227.941         0.8144       -86.7484      -6.493622      0.8638296
      2617.0000         1.1005       1227.941         0.8144       -86.1501      -5.895325      0.8819599
      2617.5000         1.0885       1227.941         0.8144       -85.2529      -4.998123      0.9091478
      2618.0000         1.0925       1196.005         0.8361       -83.7582      -3.503426      0.9544417
      2618.5000         1.0405       1188.021         0.8417        -82.861      -2.606224      0.9816296
      2619.0000         1.0245       1140.117         0.8771       -81.9639      -1.709122              1
      2619.5000         1.0085       1100.196         0.9089       -80.1704     0.08437347              1
      2620.0000         1.0125       1044.308         0.9576       -77.1816       3.073174              1
      2620.5000         1.0285       1004.388         0.9956       -77.1809       3.073875              1
      2621.0000         1.0485       956.4838         1.0455       -78.3754       1.879379              1
      2621.5000         1.0525       924.5477         1.0816       -79.8686      0.3861771              1
      2622.0000         1.0845       892.6116         1.1203       -80.7643     -0.5095215              1
      2622.5000         1.1286       868.6595         1.1512       -81.0623     -0.8075256              1
      2623.0000         1.1646       836.7234         1.1951       -81.0616     -0.8068237              1
      2623.5000         1.2366       812.7713         1.2304       -81.6585      -1.403725              1
      2624.0000         1.2326       796.8032          1.255       -81.9565      -1.701721              1
      2624.5000         1.2065       788.8192         1.2677       -81.9558      -1.701027              1
      2625.0000         1.1804        756.883         1.3212       -82.2538      -1.999023              1
      2625.5000         1.1542        756.883         1.3212       -82.2531      -1.998322              1
      2626.0000         1.1281       764.8671         1.3074        -81.356      -1.101227              1
      2626.5000          1.102       780.8351         1.2807       -79.8612      0.3935776              1
      2627.0000         1.0759       836.7234         1.1951       -79.5617      0.6930771              1
      2627.5000         1.0497       860.6754         1.1619        -79.561       0.693779              1
      2628.0000         1.0236       884.6275         1.1304        -79.859      0.3957748              1
      2628.5000         0.9975       908.5796         1.1006       -79.5595      0.6952744              1
      2629.0000         0.9713       932.5317         1.0723       -80.1563      0.0984726              1
      2629.5000         0.9452       972.4519         1.0283       -78.3628       1.891975              1
      2630.0000         0.9191       1004.388         0.9956       -78.0633       2.191475              1
      2630.5000         0.8964       1012.372         0.9878       -77.7637       2.491074              1
      2631.0000         0.8924        1028.34         0.9724       -77.4642       2.790573              1
      2631.5000         0.8884       1044.308         0.9576       -77.1646       3.090179              1
      2632.0000         0.8804       1060.276         0.9432       -77.1639       3.090874              1
      2632.5000         0.8764       1076.244         0.9292        -77.462       2.792778              1
      2633.0000         0.8764       1084.228         0.9223       -77.4612       2.793579              1
      2633.5000         0.8724       1092.212         0.9156       -77.4605       2.792412              1
      2634.0000         0.8644       1100.196         0.9089       -77.4598       2.780182              1
      2634.5000         0.8604       1100.196         0.9089        -77.459       2.768059              1
      2635.0000         0.8564       1092.212         0.9156       -75.9635       4.250626              1
      2635.5000         0.8524       1092.212         0.9156       -74.7676       5.433594              1
      2636.0000         0.8804       1076.244         0.9292       -74.4681       5.720169              1
      2636.5000         0.8804       1052.292         0.9503       -75.0649       5.110435              1
      2637.0000         0.9245       1012.372         0.9878        -76.857       3.305405              1
      2637.5000         1.0445       964.4679         1.0368        -78.649       1.500481              1
      2638.0000         1.0765       908.5796         1.1006       -79.2459      0.8906479              1
      2638.5000         1.1166       844.7074         1.1838       -78.9464       1.177216              1
      2639.0000         1.1526       796.8032          1.255       -79.2444      0.8662872              1
      2639.5000         1.2166        748.899         1.3353       -79.2437      0.8540649              1
      2640.0000         1.2286        748.899         1.3353       -80.1393    -0.05446625              1
      2640.5000         1.2206       708.9788         1.4105       -80.7362      -0.664299              1
      2641.0000         1.2166       716.9629         1.3948       -80.7355     -0.6765213              1
      2641.5000         1.2006       732.9309         1.4172       -81.3323      -1.286255              1
      2642.0000         1.2006       788.8192         1.3972       -82.5268       -2.49369      0.9850397
      2642.5000         1.2271       812.7713         1.3573       -84.0201      -3.999916      0.9393965
      2643.0000         1.3247       836.7234         1.3373       -86.4431      -6.435844      0.8655805
      2643.5000         1.3527       876.6435         1.3174       -88.8662       -8.87188      0.7917612
      2644.0000         1.3607       932.5317         1.2575       -91.2893      -11.30791      0.7179422
      2644.5000         1.3329       1004.243         1.1776       -93.7123      -13.74384      0.6441262
      2645.0000         1.3607       1004.388         1.0778       -96.1354      -16.17986      0.5703072
      2645.5000         1.2731       1084.228          0.998       -98.5584       -18.6158       0.496491
      2646.0000         1.1855       1219.957         0.9182      -100.9815      -21.05182      0.4226722
      2646.5000         1.0979       1547.227         0.8184      -103.4046      -23.48785      0.3488529
      2647.0000         1.0103       1635.126         0.7585      -105.8276      -25.92378      0.2750369
      2647.5000         0.9227       1659.079         0.6587      -108.2507      -28.35981      0.2012179
      2648.0000         0.8351       1683.031         0.5788      -111.8003      -31.92234     0.09326241
      2648.5000         0.7124       1858.222          0.519      -111.7998      -31.93477      0.0928858
      2649.0000         0.7124       2033.412         0.4918      -111.7996      -31.94749     0.09250017
      2649.5000         0.7124       2208.603         0.4528      -110.2671      -30.42793      0.1385477
      2650.0000         0.7523       2305.785         0.4337      -108.2118      -28.38556      0.2004376
      2650.5000         0.7923       2313.769         0.4322       -109.255      -29.44169      0.1684337
      2651.0000         0.8323       2305.785         0.4337      -110.2982      -30.49782      0.1364298
      2651.5000         0.8804       2281.833         0.4382      -111.3414      -31.55395      0.1044258
