#------------------------------------------------------------------------------
# Created by    : vladimir.rabinovich
# Created on    : 09/19/2023 17:22:15
#------------------------------------------------------------------------------
~Version Information Section
VERS.           2.0     :   CWLS log ASCII Standard - VERSION 2.0
WRAP.           NO      :   One line per depth step
~Well Information Section
#MNEM       .UNIT                                         VALUE :DESCRIPTION
#------------------------------------------------------------------------------
STRT        .FT                                              41 :START DEPTH
STOP        .FT                                            7991 :STOP DEPTH
STEP        .FT                                             0.5 :STEP      
NULL        .                                           -999.25 :NULL      
COMP        .                           ENERGY DEVELOPMENT CORP :COMPANY   
WELL        .                               OCS G11200 ST00BP00 :WELL      
FLD         .                                           WILDCAT :FIELD     
LOC         .                                                   :LOCATION  
CNTY        .                    NORTH PADRE ISLAND LARGE BLOCK :LOCATION  
STAT        .                                             TEXAS :STATE     
CTRY        .                                     UNITED STATES :COUNTRY   
SRVC        .                                                   :SERVICE COMPANY
DATE        .                             9/13/2023 11:18:55 AM :LOG DATE  
API         .                                    42701400410000 :API NUMBER
UWI         .                                    42701400410000 :UNIQUE WELL ID
XCOORD      .                                   309944.09600436 :SURFACE X 
YCOORD      .                                  9740515.29665267 :SURFACE Y 
LAT         .                                          26.78454 :LATITUDE  
LON         .                                        -97.077486 :LONGITUDE 
ELEV        .FT                                              91 :ELEVATION VALUE
ELEV_TYPE   .                                                KB :ELEVATION REFERENCE TYPE
~Curve Information Section
#MNEM       .UNIT                                      API CODE :CURVE DESCRIPTION
#------------------------------------------------------------------------------
DEPT        .FT                                                 :DEPTH     
CALI        .IN                                                 :          
DRHO        .G/C3                                               :          
DT          .US/F                                               :          
GR          .GAPI                                               :          
GR_NORM     .GAPI                                               :GammaRay Normalized
ILD         .OHMM                                               :          
ILM         .OHMM                                               :          
NPHI        .%                                                  :          
RFOC        .OHMM                                               :          
RHOB        .G/C3                                               :          
SP          .MV                                                 :          
SP_NORM     .MV                                                 :SP Normalized
VSH_GR      .V/V                                                :Volume of Shale from GR
VSH_SP      .V/V                                                :Volume of Shale from SP
~A        DEPTH           CALI           DRHO             DT             GR        GR_NORM            ILD            ILM           NPHI           RFOC           RHOB             SP        SP_NORM         VSH_GR         VSH_SP
# ...
      3011.0000        -999.25        -999.25        -999.25        40.8181        -999.25        -999.25        -999.25        45.0182        -999.25        -999.25        -999.25        -999.25        -999.25        -999.25
      3011.5000        -999.25        -999.25        -999.25        38.8908        -999.25        -999.25        -999.25        44.8187        -999.25        -999.25        -999.25        -999.25        -999.25        -999.25
      3012.0000        -999.25        -999.25        -999.25        35.5974        -999.25        -999.25        -999.25        43.0601        -999.25        -999.25        -999.25        -999.25        -999.25        -999.25
      3012.5000        -999.25        -999.25        -999.25         29.338        -999.25        -999.25        -999.25        41.2157        -999.25        -999.25        -999.25        -999.25        -999.25        -999.25
      3013.0000        -999.25        -999.25        -999.25        26.6234        -999.25        -999.25        -999.25        42.0891        -999.25        -999.25        -999.25        -999.25        -999.25        -999.25
      3013.5000        -999.25        -999.25        -999.25        26.9976        -999.25        -999.25        -999.25        43.9379        -999.25        -999.25        -999.25        -999.25        -999.25        -999.25
      3014.0000        -999.25        -999.25        -999.25        37.9175        -999.25        -999.25        -999.25        45.1432        -999.25        -999.25        -999.25        -999.25        -999.25        -999.25
      3014.5000        -999.25        -999.25        -999.25        47.3296        -999.25        -999.25        -999.25        44.5782        -999.25        -999.25        -999.25        -999.25        -999.25        -999.25
      3015.0000        -999.25        -999.25        -999.25        49.8827        -999.25        -999.25        -999.25        43.4047        -999.25        -999.25        -999.25        -999.25        -999.25        -999.25
      3015.5000        -999.25        -999.25        -999.25        51.2612        -999.25        -999.25        -999.25        42.0197        -999.25        -999.25        -999.25        -999.25        -999.25        -999.25
      3016.0000        11.1709         0.0057            142        54.8395        -999.25         0.7349         0.5578        41.3812         0.6144         2.0478       -85.0867      -24.84573        -999.25      0.3173208
      3016.5000        11.5289        -0.0044       141.7444         56.637        -999.25         0.3653         0.4086        42.7831         0.6129         2.0276        -78.292      -18.05103        -999.25      0.5296552
      3017.0000        12.2567         0.0218       141.3577        56.7633        -999.25         0.3438         0.4333        43.3951         0.6371         1.9431       -72.7296      -12.48863        -999.25      0.7034802
      3017.5000        13.1143         0.0462       143.0063        56.6248        -999.25         0.3678         0.5038        43.7392         0.6661          1.921       -71.6044      -11.36343        -999.25      0.7386427
      3018.0000        11.6825         0.0628       144.8599        56.2747       78.73229         0.4627         0.5933        41.5564         0.7072          1.949        -72.485      -12.24403      0.9730275      0.7111239
      3018.5000        10.8326         0.0544       142.4861        55.4987       77.53565         0.5391         0.6971        37.5269         0.7782         2.0238       -75.7758      -15.53484       0.947567      0.6082864
      3019.0000        10.7755          0.043       134.4971        53.9349       75.12415         0.5766         0.7898         36.665         0.8643         2.1193       -78.8417      -18.60073      0.8962584      0.5124772
      3019.5000        11.0717         0.0408       121.8004        52.0483       72.21488         0.5918         0.8298        35.9949         0.9061         2.1602       -81.2617      -21.02074      0.8343592       0.436852
      3020.0000        11.3652         0.0348       113.8239        49.5469       68.35756         0.6103         0.8493        34.9875         0.9242         2.1829       -82.6718      -22.43083      0.7522885      0.3927865
      3020.5000        11.5738         0.0267       102.9098        49.6805       68.56356         0.6365         0.8661        34.4375         0.9459         2.2078       -82.7914      -22.55043      0.7566715      0.3890491
      3021.0000        11.7459         0.0201        98.9563        51.1475       70.82578         0.6697         0.8893        33.9822         0.9805         2.2341       -82.0979      -21.85693      0.8048039      0.4107208
      3021.5000        11.9032         0.0167        95.4585        52.4506       72.83526          0.712         0.9339        33.8834         1.0274         2.2652       -79.6007      -19.35973      0.8475587      0.4887583
      3022.0000        12.0313         0.0235         91.769        52.9772        73.6473          0.757         0.9834        34.6258         1.1059         2.3022       -76.9181      -16.67713      0.8648362      0.5725896
      3022.5000        12.1846         0.0365        87.5562        53.5422       74.51857          0.811         1.0052        37.1502         1.2362         2.3334       -73.8435      -13.60253      0.8833739      0.6686709
      3023.0000        12.4073         0.0496        86.2687        54.6349       76.20361         0.8707         0.9928        40.7134         1.3146         2.3359       -70.4031      -10.16213      0.9192256      0.7761834
      3023.5000         12.666         0.0495        85.7599         55.491       77.52378         0.9221         0.9615        44.8326         1.2262         2.2912       -67.2744      -7.033432      0.9473145      0.8739552
      3024.0000        13.1146         0.0137        89.2173        54.6866       76.28335         0.9423         0.9334        45.3732         1.0862         2.2109        -65.514      -5.273033      0.9209223      0.9289677
      3024.5000        13.6358         0.0167        97.6418        53.1414       73.90052          0.949         0.9138        45.7361         0.8941          1.938       -64.3822      -4.141235      0.8702238      0.9643364
      3025.0000        15.0426         0.0636       118.4794        52.8524       73.45486         0.9314          0.894        48.1895         0.7492         1.7739       -63.2504      -3.009434      0.8607418      0.9997052
      3025.5000        17.3257         0.0885       124.8961        54.1727       75.49086         0.8888         0.8549        49.4509         0.7345          1.785       -62.2696      -2.028633      0.9040608              1
      3026.0000        17.8556         0.0679       122.8634        54.9916       76.75365         0.8451         0.8181         48.194         0.7728         1.8471       -61.6732      -1.432232      0.9309286              1
      3026.5000        16.7485         0.0316        118.162        52.4057       72.07098         0.8054         0.8134        48.1088         0.8023         1.8428       -61.5072      -1.266232      0.8312975              1
      3027.0000        15.8564         0.0351       118.6736        48.1618       64.13274         0.7801         0.8425        50.8663         0.8041         1.8015       -61.7123      -1.471333      0.6623986              1
      3027.5000        15.8157         0.0554       126.1671        50.2098       65.89704         0.8175         0.8782        51.5569         0.7686         1.7881       -62.1596      -1.918633       0.699937              1
      3028.0000        15.2762         0.0708       132.7021        56.8369       74.72266         0.8616         0.9103        49.6034         0.7547         1.8114       -62.8339      -2.592934      0.8877161              1
      3028.5000        13.5195         0.0765       131.8232        59.5627       77.53217         0.9211         0.9511        40.8329         0.7788         1.9509       -64.2332      -3.992233       0.947493      0.9689927
