#------------------------------------------------------------------------------
# Created by    : vladimir.rabinovich
# Created on    : 09/19/2023 17:22:44
#------------------------------------------------------------------------------
~Version Information Section
VERS.           2.0     :   CWLS log ASCII Standard - VERSION 2.0
WRAP.           NO      :   One line per depth step
~Well Information Section
#MNEM       .UNIT                                         VALUE :DESCRIPTION
#------------------------------------------------------------------------------
STRT        .FT                                            3420 :START DEPTH
STOP        .FT                                           11707 :STOP DEPTH
STEP        .FT                                             0.5 :STEP      
NULL        .                                           -999.25 :NULL      
COMP        .                        TRI-UNION DEVELOPMENT CORP :COMPANY   
WELL        .                               OCS G08154 ST00BP00 :WELL      
FLD         .                                           WILDCAT :FIELD     
LOC         .                                                   :LOCATION  
CNTY        .                           HIGH ISLAND LARGE BLOCK :LOCATION  
STAT        .                                             TEXAS :STATE     
CTRY        .                                     UNITED STATES :COUNTRY   
SRVC        .                                                   :SERVICE COMPANY
DATE        .                             9/13/2023 11:19:57 AM :LOG DATE  
API         .                                    42708403520000 :API NUMBER
UWI         .                                    42708403520000 :UNIQUE WELL ID
XCOORD      .                                  1180527.91159004 :SURFACE X 
YCOORD      .                                  10524923.1623167 :SURFACE Y 
LAT         .                                        28.9940426 :LATITUDE  
LON         .                                       -94.4389714 :LONGITUDE 
ELEV        .FT                                             100 :ELEVATION VALUE
ELEV_TYPE   .                                                KB :ELEVATION REFERENCE TYPE
~Curve Information Section
#MNEM       .UNIT                                      API CODE :CURVE DESCRIPTION
#------------------------------------------------------------------------------
DEPT        .FT                                                 :DEPTH     
DCAL        .IN                                                 :          
DPHI        .%                                                  :          
DRHO        .G/C3                                               :          
GR          .GAPI                                               :          
GR_NORM     .GAPI                                               :GammaRay Normalized
ILD         .OHMM                                               :          
ILM         .OHMM                                               :          
NPHI        .%                                                  :          
SFL         .OHMM                                               :          
SP          .MV                                                 :          
SP_NORM     .MV                                                 :SP Normalized
VSH_GR      .V/V                                                :Volume of Shale from GR
VSH_SP      .V/V                                                :Volume of Shale from SP
~A        DEPTH           DCAL           DPHI           DRHO             GR        GR_NORM            ILD            ILM           NPHI            SFL             SP        SP_NORM         VSH_GR         VSH_SP
# ...
      5681.0000         0.3592        26.6549        -0.0049        88.4487       91.03772         0.7549         0.7234        44.8514         0.7335       -35.7432        -1.7809              1              1
      5681.5000         0.3713        26.3717        -0.0035        84.3434       86.37938         0.7611         0.7294        45.9297         0.7592       -35.6962        -1.7339              1              1
      5682.0000         0.3833        26.0581        -0.0007         80.243       81.72659         0.7648         0.7391        44.6156         0.7889       -35.6675        -1.7052              1              1
      5682.5000         0.3954        25.7677          0.002        77.8643       79.02753         0.7612         0.7534        42.5463         0.7953       -35.5693         -1.607      0.9793093              1
      5683.0000         0.4333        25.6163         0.0025        79.7094       81.12141         0.7579         0.7587        41.9925          0.787       -35.5535        -1.5912              1              1
      5683.5000         0.4892        25.6423         0.0023        81.9915        83.7112         0.7548         0.7643        43.2692          0.773       -35.7662        -1.8039              1              1
      5684.0000         0.5896        25.8224         0.0004         84.276       86.30369         0.7584         0.7701          45.05         0.7596       -35.9852        -2.0229              1      0.9993061
      5684.5000         0.6976        26.1691        -0.0014         85.583       87.78697         0.7613         0.7767        44.9767         0.7557       -36.1594        -2.1971              1      0.9940273
      5685.0000         0.7967        26.3747        -0.0031        85.4283       87.61159         0.7755         0.7857        43.9921         0.7654       -36.2572        -2.2949              1      0.9910637
      5685.5000         0.8468         25.962        -0.0038        84.0166       86.00981         0.7927          0.789        43.1728         0.7851       -36.3389        -2.3766              1      0.9885879
      5686.0000         0.8652         25.216        -0.0041        81.3055       82.93354         0.7109         0.7146        42.2423         0.8016       -36.5089        -2.5466              1      0.9834363
      5686.5000         0.8546        24.6771        -0.0039        78.5969       79.86012          0.689         0.6931        42.0229         0.8125       -37.1671        -3.2048      0.9970239      0.9634909
      5687.0000         0.8234        25.3578        -0.0038        75.8883       76.78669         0.6867          0.691        42.0051         0.8171       -38.3643         -4.402      0.9316317      0.9272121
      5687.5000         0.7761         26.217         -0.004        73.1771       73.71031         0.6984         0.6955        41.1361         0.8133       -39.6138        -5.6515      0.8661768      0.8893485
      5688.0000          0.689        26.5417        -0.0028        73.1647        73.6964         0.7165         0.7052         41.337         0.8091       -40.8646        -6.9023      0.8658809      0.8514454
      5688.5000         0.5668        25.7608         0.0005        76.6465       77.64754         0.7389         0.7236        43.2751         0.7965       -41.7941        -7.8318      0.9499476      0.8232788
      5689.0000         0.4274        24.5242         0.0053        77.5743       78.70052         0.7667         0.7505        44.9848         0.8021       -41.7145        -7.7522      0.9723516      0.8256909
      5689.5000          0.325        23.2875         0.0099        75.2249       76.03469         0.7924         0.7777        43.9899         0.8966        -41.018        -7.0557      0.9156317       0.846797
      5690.0000         0.3951        22.3032         0.0117        73.9965       74.64091         0.8109         0.7977        41.6944         0.9625       -39.8246        -5.8623      0.8859769      0.8829606
      5690.5000         0.5469        22.0798         0.0091        75.4194       76.25572         0.8132         0.8067        40.6453         0.9469       -38.9036        -4.9413      0.9203345      0.9108697
      5691.0000         0.7387        22.9935         0.0045        78.7815       80.07103         0.7942         0.7984        42.5812         0.8692       -38.1729        -4.2106              1      0.9330121
      5691.5000         0.9751         24.251        -0.0013        82.2732        84.0334         0.7698         0.7799        45.9769         0.7953       -37.7373         -3.775              1      0.9462121
      5692.0000         1.0952        25.5085        -0.0056        82.2732       84.03355         0.7454         0.7585        49.2376         0.7355       -37.7379        -3.7756              1      0.9461939
      5692.5000         1.0899        26.7659        -0.0071        77.7489       78.89976         0.7211          0.737        49.0967         0.7352       -38.0967        -4.1344      0.9765906      0.9353212
      5693.0000         0.9427        28.0233        -0.0077        73.2196       73.76028         0.7027         0.7151        45.1079         0.7532       -38.8344        -4.8721      0.8672401      0.9129667
      5693.5000         0.7518        29.2808        -0.0077        68.6903       68.62082          0.692         0.6997        41.0331         0.7748       -39.5807        -5.6184      0.7578897      0.8903515
      5694.0000         0.9225        30.5301        -0.0072        66.8882       66.57603         0.6894         0.6883        40.5927         0.7724       -40.2052        -6.2429      0.7143837      0.8714273
      5694.5000         1.4136        29.4664         -0.006        68.9098       68.87021         0.6939         0.6911         42.252         0.7498       -40.5628        -6.6005      0.7631959      0.8605909
      5695.0000          1.637        28.0694        -0.0046        73.9778       74.62129         0.7024         0.6952        44.1915         0.7332       -39.7285        -5.7662      0.8855594      0.8858727
      5695.5000          1.512        26.6709        -0.0035        79.0459       80.37249          0.712         0.7082        46.1296         0.7284       -38.5089        -4.5466              1      0.9228303
      5696.0000         1.2337        26.0043        -0.0029        84.1139       86.12357         0.7234         0.7221         47.949         0.7409       -37.4813         -3.519              1      0.9539697
      5696.5000         0.9757        25.9701        -0.0023         89.182       91.87476          0.739         0.7376        47.8771         0.7524       -36.6533         -2.691              1      0.9790606
      5697.0000         0.8243         26.013         -0.002         89.689       92.45024         0.7582         0.7391        46.3001         0.7567       -36.2343         -2.272              1      0.9917576
      5697.5000         0.8265         25.805        -0.0017        88.4449       91.03866         0.7708         0.7424        44.6022         0.7652       -35.9334        -1.9711              1              1
      5698.0000         0.8462        25.3685        -0.0028         86.007       88.27241         0.7772         0.7456        43.2017         0.7802       -35.8109        -1.8486              1              1
      5698.5000         0.8625        25.4914        -0.0069        83.3931       85.30643         0.7774         0.7537        42.8346         0.7918        -35.814        -1.8517              1              1
      5699.0000         0.8647        26.0496        -0.0122        82.0282       83.75777         0.7765         0.7537        42.7871          0.796        -35.993        -2.0307              1      0.9990697
      5699.5000          0.867        26.6248        -0.0167        81.4355       83.08537         0.7748         0.7476        42.6324         0.7952       -36.4575        -2.4952              1      0.9849939
