#------------------------------------------------------------------------------
# Created by    : vladimir.rabinovich
# Created on    : 09/19/2023 17:20:01
#------------------------------------------------------------------------------
~Version Information Section
VERS.           2.0     :   CWLS log ASCII Standard - VERSION 2.0
WRAP.           NO      :   One line per depth step
~Well Information Section
#MNEM       .UNIT                                         VALUE :DESCRIPTION
#------------------------------------------------------------------------------
STRT        .FT                                            3496 :START DEPTH
STOP        .FT                                           13495 :STOP DEPTH
STEP        .FT                                             0.5 :STEP      
NULL        .                                           -999.25 :NULL      
COMP        .                      TEXAS EASTERN EXPLORATION CO :COMPANY   
WELL        .                                ST TR 00798-L NE/4 :WELL      
FLD         .                                           WILDCAT :FIELD     
LOC         .                                                   :LOCATION  
CNTY        .                        MUSTANG ISLAND LARGE BLOCK :LOCATION  
STAT        .                                             TEXAS :STATE     
CTRY        .                                     UNITED STATES :COUNTRY   
SRVC        .                                                   :SERVICE COMPANY
DATE        .                             9/13/2023 11:18:55 AM :LOG DATE  
API         .                                    42702302040000 :API NUMBER
UWI         .                                    42702302040000 :UNIQUE WELL ID
XCOORD      .                                  329124.923046376 :SURFACE X 
YCOORD      .                                  10022065.1107101 :SURFACE Y 
LAT         .                                        27.5591082 :LATITUDE  
LON         .                                       -97.0466418 :LONGITUDE 
ELEV        .FT                                              82 :ELEVATION VALUE
ELEV_TYPE   .                                                KB :ELEVATION REFERENCE TYPE
~Curve Information Section
#MNEM       .UNIT                                      API CODE :CURVE DESCRIPTION
#------------------------------------------------------------------------------
DEPT        .FT                                                 :DEPTH     
ASFL        .OHMM                                               :          
CILD        .MMHO                                               :          
GR          .GAPI                                               :          
GR_NORM     .GAPI                                               :GammaRay Normalized
ILD         .OHMM                                               :          
SFL         .OHMM                                               :          
SP          .MV                                                 :          
SP_NORM     .MV                                                 :SP Normalized
VSH_GR      .V/V                                                :Volume of Shale from GR
VSH_SP      .V/V                                                :Volume of Shale from SP
~A        DEPTH           ASFL           CILD             GR        GR_NORM            ILD            SFL             SP        SP_NORM         VSH_GR         VSH_SP
# ...
      5480.5000         1.0695        895.418        68.2362       70.92127          1.092         1.1092       -46.9375      -2.189571      0.8068356      0.9814129
      5481.0000         1.0899       897.7021        67.1775       69.41304          1.116         1.1325       -47.1248      -2.378643      0.7747455      0.9784587
      5481.5000         1.0846       919.7012        65.2839       66.71777          1.111         1.1375       -48.3361      -3.591713      0.7173993      0.9595045
      5482.0000         1.0715       941.6758        64.1448       65.09525         1.0808         1.1091       -49.6894      -4.946785      0.6828775      0.9383315
      5482.5000         1.0585       963.6748        63.1103        63.6214         1.0506         1.0807       -51.4547      -6.713856      0.6515192       0.910721
      5483.0000         1.0338       985.6738        62.0745       62.14575         1.0204         1.0524       -50.7476      -6.008526      0.6201223      0.9217418
      5483.5000         0.9959       1007.648        60.5345       59.95323         0.9901          1.024       -49.7192      -4.981895       0.573473      0.9377829
      5484.0000         0.9619       1029.646        58.5327       57.10413         0.9602         0.9956       -48.6187      -3.883163      0.5128538      0.9549506
      5484.5000         0.9364       1058.945        56.8671       54.73303          0.933         0.9672       -47.4597      -2.725937      0.4624049      0.9730322
      5485.0000          0.911       1104.531         59.698       58.75492         0.9058         0.9366        -46.348      -1.616005       0.547977      0.9903749
      5485.5000         0.8856       1150.168        62.6036       62.88299         0.8785          0.904       -45.2805     -0.5502739      0.6358083              1
      5486.0000         0.8604       1200.424        65.7682       67.37931         0.8513         0.8715       -44.3456      0.3828545      0.7314747              1
      5486.5000         0.8351       1261.504        68.4248       71.15335         0.8241          0.839        -43.931      0.7956848      0.8117734              1
      5487.0000         0.8098       1322.287        70.7155        74.4072         0.7968         0.8064       -43.7108       1.014111      0.8810043              1
      5487.5000         0.7848       1382.125        73.0087       77.66459         0.7696         0.7765       -43.7623      0.9608421      0.9503104              1
      5488.0000         0.7606       1441.717         75.252       80.85104         0.7514         0.7533       -43.8139      0.9074707              1              1
      5488.5000         0.7335       1475.609        77.5128       84.06238         0.7341         0.7301       -43.8655      0.8540993              1              1
      5489.0000         0.7098       1509.525        78.8125       85.90723         0.7168          0.707       -43.9226      0.7952309              1              1
      5489.5000         0.6945        1536.59        79.9895       87.57765         0.6995         0.6891         -43.98      0.7360611              1              1
      5490.0000         0.6815       1558.838        79.2843       86.57203         0.6822          0.677       -44.0374      0.6768913              1              1
      5490.5000         0.6837       1540.688        76.6986       82.89277         0.6785          0.665       -44.0878      0.6247215              1              1
      5491.0000         0.7145       1513.201        78.2522       85.09859         0.6856         0.6558       -44.1202      0.5905495              1              1
      5491.5000         0.7375       1485.119        80.2684       87.96218         0.6926         0.6473       -44.1526      0.5563774              1              1
      5492.0000         0.7519       1455.795        80.9899       88.98497         0.6997         0.6647       -44.1682      0.5390053              1              1
      5492.5000         0.7659       1426.471        81.5338       89.75526         0.7068         0.6862       -44.1712      0.5342369              1              1
      5493.0000         0.7668       1397.146        82.1694       90.65594         0.7139         0.7076       -44.1742      0.5294685              1              1
      5493.5000         0.7583       1366.533        83.0178       91.85917         0.7209          0.729       -44.1576      0.5442963              1              1
      5494.0000         0.7489       1335.148         83.532       92.58723         0.7358         0.7506       -44.1378      0.5623283              1              1
      5494.5000         0.7655       1267.662        81.8875       90.24612         0.7576         0.7728       -44.1179      0.5804558              1              1
      5495.0000         0.7831       1218.871        80.2416       87.90304         0.7795         0.7951        -44.208      0.4885864              1              1
      5495.5000         0.8089       1189.945        75.5682       81.25555         0.8013         0.8174       -44.4875      0.2073174              1              1
      5496.0000         0.8491       1169.287        70.6436        74.2509         0.8231         0.8396       -44.7673    -0.07425308      0.8776788              1
      5496.5000         0.8734       1149.424        70.2642        73.7085          0.845         0.8619       -44.9134      -0.222126      0.8661384              1
      5497.0000         0.8977       1130.342        69.8849       73.16623         0.8707         0.8841       -44.8033     -0.1137962      0.8546006              1
      5497.5000         0.9029       1111.584        69.6097       72.77193         0.8975         0.9076       -44.5105      0.1772308      0.8462112              1
      5498.0000         0.8881       1120.074         69.397       72.46653         0.9241         0.9313       -44.0857      0.6002617      0.8397134              1
      5498.5000         0.8535       1142.371        69.2709       72.28423         0.9182         0.9275       -43.6608       1.023392      0.8358347              1
      5499.0000         0.8122       1169.113        69.2202       72.20914         0.9124         0.9112        -43.236       1.446423       0.834237              1
      5499.5000          0.798       1201.541        69.1619       72.12325         0.8888         0.8791        -42.246       2.434654      0.8324096              1
      5500.0000         0.7903       1233.969        68.8329       71.65249         0.8629         0.8472       -42.1903       2.488583      0.8223934              1
      5500.5000         0.7931       1268.803        68.5035       71.18116          0.837         0.8151       -42.6229       2.054214      0.8123651              1
      5501.0000         0.7976       1302.199        68.1746       70.71053         0.8112         0.7896       -43.0552        1.62014      0.8023518              1
      5501.5000         0.8023       1326.035        67.4476        69.6739         0.7853         0.7812       -43.6689       1.004669      0.7802958              1
      5502.0000         0.8083       1320.902        66.2998         68.039         0.7833         0.7729       -44.5335       0.138298      0.7455107              1
      5502.5000         0.8143       1314.533        65.7115       67.19957          0.783         0.7645       -45.3981     -0.7280731      0.7276504              1
      5503.0000         0.8204       1307.611        65.1731       66.43108         0.7958         0.7688       -46.2335      -1.565243      0.7112995      0.9911681
      5503.5000         0.8264       1276.326         64.634       65.66161         0.8117         0.7758        -47.067      -2.400513      0.6949279       0.978117
      5504.0000         0.8307       1245.066        64.1924       65.03075         0.8276         0.7827        -47.832      -3.167282      0.6815053      0.9661362
      5504.5000         0.8349       1213.781        63.7761       64.43586         0.8435         0.7896       -48.1727       -3.50975      0.6688481      0.9607852
