#------------------------------------------------------------------------------
# Created by    : vladimir.rabinovich
# Created on    : 09/19/2023 17:21:25
#------------------------------------------------------------------------------
~Version Information Section
VERS.           2.0     :   CWLS log ASCII Standard - VERSION 2.0
WRAP.           NO      :   One line per depth step
~Well Information Section
#MNEM       .UNIT                                         VALUE :DESCRIPTION
#------------------------------------------------------------------------------
STRT        .FT                                            3400 :START DEPTH
STOP        .FT                                            8653 :STOP DEPTH
STEP        .FT                                             0.5 :STEP      
NULL        .                                           -999.25 :NULL      
COMP        .                          KING RANCH OIL & GAS INC :COMPANY   
WELL        .                               OCS G13784 ST00BP00 :WELL      
FLD         .                                           WILDCAT :FIELD     
LOC         .                                                   :LOCATION  
CNTY        .                             GALVESTON LARGE BLOCK :LOCATION  
STAT        .                                             TEXAS :STATE     
CTRY        .                                     UNITED STATES :COUNTRY   
SRVC        .                                                   :SERVICE COMPANY
DATE        .                             9/13/2023 11:19:54 AM :LOG DATE  
API         .                                    42706403430000 :API NUMBER
UWI         .                                    42706403430000 :UNIQUE WELL ID
XCOORD      .                                   967589.17441186 :SURFACE X 
YCOORD      .                                  10424680.8833423 :SURFACE Y 
LAT         .                                         28.709654 :LATITUDE  
LON         .                                        -95.099391 :LONGITUDE 
ELEV        .FT                                             106 :ELEVATION VALUE
ELEV_TYPE   .                                                KB :ELEVATION REFERENCE TYPE
~Curve Information Section
#MNEM       .UNIT                                      API CODE :CURVE DESCRIPTION
#------------------------------------------------------------------------------
DEPT        .FT                                                 :DEPTH     
CALI        .IN                                                 :          
DPHI        .%                                                  :          
DRHO        .G/C3                                               :          
DTLN        .US/F                                               :          
GR          .GAPI                                               :          
GR_1        .GAPI                                               :          
GR_NORM     .GAPI                                               :GammaRay Normalized
ILD         .OHMM                                               :          
ILM         .OHMM                                               :          
NPHI        .%                                                  :          
SFL         .OHMM                                               :          
SP          .MV                                                 :          
SP_NORM     .MV                                                 :SP Normalized
VSH_GR      .V/V                                                :Volume of Shale from GR
VSH_SP      .V/V                                                :Volume of Shale from SP
~A        DEPTH           CALI           DPHI           DRHO           DTLN             GR           GR_1        GR_NORM            ILD            ILM           NPHI            SFL             SP        SP_NORM         VSH_GR         VSH_SP
# ...
      3417.0000        -999.25        -999.25        -999.25        -999.25        -999.25        41.9038       77.01231        -999.25        -999.25        -999.25        -999.25        -999.25        -999.25      0.9364322        -999.25
      3417.5000        -999.25        -999.25        -999.25        -999.25        -999.25        40.8176       80.94967        -999.25        -999.25        -999.25        -999.25        -999.25        -999.25              1        -999.25
      3418.0000        -999.25        -999.25        -999.25        -999.25        -999.25        38.2228       77.54121        -999.25        -999.25        -999.25        -999.25        -999.25        -999.25      0.9476854        -999.25
      3418.5000        -999.25        -999.25        -999.25        -999.25        -999.25        34.8146       82.85815        -999.25        -999.25        -999.25        -999.25        -999.25        -999.25              1        -999.25
      3419.0000        -999.25        -999.25        -999.25        -999.25        -999.25        32.6544       83.06393        -999.25        -999.25        -999.25        -999.25        -999.25        -999.25              1        -999.25
      3419.5000        -999.25        -999.25        -999.25        -999.25        -999.25        33.0394        83.1048        -999.25        -999.25        -999.25        -999.25        -999.25        -999.25              1        -999.25
      3420.0000        -999.25        -999.25        -999.25        -999.25        -999.25        34.4854        83.4845        -999.25        -999.25        -999.25        -999.25        -999.25        -999.25              1        -999.25
      3420.5000        -999.25        -999.25        -999.25        -999.25        -999.25        36.7737       79.38594        -999.25        -999.25        -999.25        -999.25        -999.25        -999.25      0.9869349        -999.25
      3421.0000        -999.25        -999.25        -999.25       230.1497        -999.25        40.5472       78.40315        -999.25        -999.25        -999.25        -999.25      -154.1279       -13.1443      0.9660245      0.7067289
      3421.5000        -999.25        -999.25        -999.25       212.4136        -999.25        44.8308       81.53179        -999.25        -999.25        -999.25        -999.25      -147.0908      -6.107208              1      0.8919156
      3422.0000        -999.25        -999.25        -999.25          182.2        -999.25        47.4973       79.73203        -999.25        -999.25        -999.25         0.4729      -139.9531       1.030502      0.9942986              1
      3422.5000        -999.25        -999.25        -999.25       187.4631        -999.25        49.3167       77.70673        -999.25        -999.25        -999.25         1.3573      -132.2026       8.780991      0.9512071              1
      3423.0000        -999.25        -999.25        -999.25       212.3281        -999.25        50.3281       76.94224        19.9116        16.0779        -999.25         0.9895      -129.0349        11.9487      0.9349412              1
      3423.5000        -999.25        -999.25        -999.25       212.6924        -999.25        50.3677       78.53772         1.6589         1.5094        -999.25         0.8151      -126.4567       14.52689      0.9688876              1
      3424.0000        -999.25        -999.25        -999.25       181.7781        -999.25        51.0128       82.96448         0.4716          0.665        -999.25         0.7564       -124.652        16.3316              1              1
      3424.5000        -999.25        -999.25        -999.25       149.5254        -999.25        51.8035       80.35751         0.3754         0.4129        -999.25          0.754      -122.4808        18.5028              1              1
      3425.0000        -999.25        -999.25        -999.25       136.1738        -999.25        52.7953       82.97912         0.4388         0.3952        -999.25         0.8151       -120.312       19.87311              1              1
      3425.5000        -999.25        -999.25        -999.25       144.2896        -999.25        54.7538       77.85722         0.5364         0.4257        -999.25         0.8937      -118.3505       20.93339      0.9544088              1
      3426.0000        -999.25        -999.25        -999.25        150.582        -999.25        57.6312       78.69161         0.5979         0.4979        -999.25         0.9379      -116.8174       21.56526      0.9721619              1
      3426.5000        -999.25        -999.25        -999.25        157.125        -999.25        59.6338       82.04129         0.6183         0.5852        -999.25         0.8225      -115.9758       21.50565              1              1
      3427.0000        -999.25        -999.25        -999.25       162.9146        -999.25        59.9108       79.08933         0.6234          0.612        -999.25         0.7282      -115.4628       21.11743      0.9806241              1
      3427.5000        -999.25        -999.25        -999.25       167.2361        -999.25        58.4648       77.36858         0.6128         0.6169        -999.25         0.6563       -115.026       20.65302      0.9440124              1
      3428.0000        -999.25        -999.25        -999.25        175.887        -999.25        56.6823       77.85709         0.5906         0.6067        -999.25         0.6389      -114.7346       20.04321      0.9544063              1
      3428.5000        -999.25        -999.25        -999.25        186.873        -999.25        56.1325       81.56907         0.5613         0.5918        -999.25         0.6211      -114.4974       19.37919              1              1
      3429.0000        -999.25        -999.25        -999.25       186.6924        -999.25        57.2088       77.90346         0.5325         0.5806        -999.25         0.6006      -114.2813       18.69407      0.9553927              1
      3429.5000        -999.25        -999.25        -999.25        180.864        -999.25        58.3471        78.5653         0.5102         0.5711        -999.25         0.5797      -114.0829       17.99126      0.9694745              1
      3430.0000        -999.25        -999.25        -999.25       172.7229        -999.25        60.4865        77.9605         0.5408         0.5642        -999.25         0.6129      -113.9005       17.27245      0.9566064              1
      3430.5000        -999.25        -999.25        -999.25       163.7131        -999.25        61.7017       79.29221         0.5697         0.5664        -999.25         0.6479      -113.7076       16.56413      0.9849407              1
      3431.0000        -999.25        -999.25        -999.25        156.019        -999.25        60.6446       82.14647         0.5896         0.5791        -999.25         0.6762      -113.5056       15.86491              1              1
      3431.5000        -999.25        -999.25        -999.25       151.1147        -999.25        58.8559        82.7177         0.6069         0.5943        -999.25         0.6996      -113.3298        15.1395              1              1
      3432.0000        -999.25        -999.25        -999.25       152.0364        -999.25         59.046       79.18767         0.6214         0.5929        -999.25         0.7095      -113.1769       14.39117      0.9827163              1
      3432.5000        -999.25        -999.25        -999.25       153.8896        -999.25        60.8763       78.06126         0.6282         0.5804        -999.25         0.6541      -112.9977       13.66916      0.9587503              1
      3433.0000        -999.25        -999.25        -999.25       155.3298        -999.25        63.6807       79.80111         0.6265         0.5723        -999.25         0.5897      -112.7485       13.01715      0.9957683              1
      3433.5000        -999.25        -999.25        -999.25       155.5249        -999.25        64.6627       77.33749         0.6241         0.5674        -999.25         0.5627      -112.5094       12.35503      0.9433509              1
