#------------------------------------------------------------------------------
# Created by    : vladimir.rabinovich
# Created on    : 09/19/2023 17:20:18
#------------------------------------------------------------------------------
~Version Information Section
VERS.           2.0     :   CWLS log ASCII Standard - VERSION 2.0
WRAP.           NO      :   One line per depth step
~Well Information Section
#MNEM       .UNIT                                         VALUE :DESCRIPTION
#------------------------------------------------------------------------------
STRT        .FT                                             780 :START DEPTH
STOP        .FT                                            9803 :STOP DEPTH
STEP        .FT                                             0.5 :STEP      
NULL        .                                           -999.25 :NULL      
COMP        .                                  SAMEDAN OIL CORP :COMPANY   
WELL        .                               OCS G04076 ST00BP00 :WELL      
FLD         .                            HIGH ISLAND BLOCK 0105 :FIELD     
LOC         .                                                   :LOCATION  
CNTY        .                           HIGH ISLAND LARGE BLOCK :LOCATION  
STAT        .                                             TEXAS :STATE     
CTRY        .                                     UNITED STATES :COUNTRY   
SRVC        .                                                   :SERVICE COMPANY
DATE        .                             9/13/2023 11:19:59 AM :LOG DATE  
API         .                                    42708401630000 :API NUMBER
UWI         .                                    42708401630000 :UNIQUE WELL ID
XCOORD      .                                  1167393.84075462 :SURFACE X 
YCOORD      .                                  10652000.2522841 :SURFACE Y 
LAT         .                                        29.3430877 :LATITUDE  
LON         .                                       -94.4850788 :LONGITUDE 
ELEV        .FT                                              87 :ELEVATION VALUE
ELEV_TYPE   .                                                KB :ELEVATION REFERENCE TYPE
~Curve Information Section
#MNEM       .UNIT                                      API CODE :CURVE DESCRIPTION
#------------------------------------------------------------------------------
DEPT        .FT                                                 :DEPTH     
ASFL        .OHMM                                               :          
CILD        .MMHO                                               :          
DT          .US/F                                               :          
GR          .GAPI                                               :          
GR_1        .GAPI                                               :          
GR_NORM     .GAPI                                               :GammaRay Normalized
ILD         .OHMM                                               :          
SP          .MV                                                 :          
SP_NORM     .MV                                                 :SP Normalized
VSH_GR      .V/V                                                :Volume of Shale from GR
VSH_SP      .V/V                                                :Volume of Shale from SP
~A        DEPTH           ASFL           CILD             DT             GR           GR_1        GR_NORM            ILD             SP        SP_NORM         VSH_GR         VSH_SP
# ...
      7980.0000         0.6146       1864.797        -999.25        -999.25        80.1005       96.30607         0.5789       -55.1833       8.139332              1              1
      7980.5000         0.6265       1906.176        -999.25        -999.25        81.3726       97.83515         0.5874       -54.8949       8.412037              1              1
      7981.0000         0.6377       1942.305        -999.25        -999.25        82.6936       99.42311         0.5958       -55.4999        7.79134              1              1
      7981.5000         0.6372       1965.154        -999.25        -999.25         82.364       99.02378         0.6011       -56.1049       7.170643              1              1
      7982.0000         0.6363       1987.342        -999.25        -999.25        79.3118       95.34653         0.5942       -56.7098       6.550045              1              1
      7982.5000         0.6344       1934.744        -999.25        -999.25        76.7136       92.21586         0.5874       -57.3831        5.86105              1              1
      7983.0000         0.6326       1843.148        -999.25        -999.25        74.1375        89.1109         0.5805       -58.6566       4.571854              1              1
      7983.5000         0.6308       1718.076        -999.25        -999.25        71.9764       86.50508         0.5675       -59.9312       3.281559              1              1
      7984.0000          0.629       1635.316        -999.25        -999.25        69.7397       83.80823          0.552       -60.4098       2.787258              1              1
      7984.5000         0.6271       1594.477        -999.25        -999.25         67.464       81.06442         0.5366       -60.8401       2.341263              1              1
      7985.0000         0.6281       1561.637        -999.25        -999.25        66.7522        80.2035         0.5232       -61.2711       1.894566              1              1
      7985.5000         0.6305        1535.08        -999.25        -999.25        66.4574       79.84466         0.5131       -61.3123       1.837669      0.9966949              1
      7986.0000         0.6329       1533.314        -999.25        -999.25        67.0142        80.5111         0.5029       -61.2623       1.871975              1              1
      7986.5000         0.6352       1561.391        -999.25        -999.25        67.5537       81.15673         0.5064       -61.1692       1.949375              1              1
      7987.0000         0.6407       1589.861        -999.25        -999.25        68.0641       81.76731         0.5164       -60.5013       2.601578              1              1
      7987.5000         0.6504        1616.32        -999.25        -999.25        68.5751       82.37862         0.5263       -59.8335       3.253681              1              1
      7988.0000           0.66       1644.789        -999.25        -999.25        69.0859       82.98968         0.5462       -59.1669       3.904587              1              1
      7988.5000         0.6697       1676.402        -999.25        -999.25        69.4218       83.39017         0.5663       -58.5192       4.536591              1              1
      7989.0000         0.6855       1710.762        -999.25        -999.25        69.2936        83.2319         0.5864       -57.8721       5.167992              1              1
      7989.5000         0.7027       1763.727        -999.25        -999.25        68.2112       81.92478         0.6065       -58.3745       4.649895              1              1
      7990.0000         0.7193       1816.396        -999.25        -999.25        66.7314       80.13922         0.6207       -59.1779       3.830799              1              1
      7990.5000         0.7353       1860.723        -999.25        -999.25        63.4253       76.15485         0.6329       -62.4963      0.4967041      0.9181884              1
      7991.0000         0.7205       1897.635        -999.25        -999.25         60.246       72.32314         0.6451       -66.2274      -3.250095      0.8366625      0.9659076
      7991.5000         0.7003       1937.004        -999.25        -999.25        56.6859       68.03295         0.6498       -68.0825      -5.120888       0.745382      0.9443123
      7992.0000         0.6661       1998.656        -999.25        -999.25        56.1389       67.37045          0.634       -67.8463      -4.900387      0.7312862      0.9472921
      7992.5000         0.6331       2098.008        -999.25        -999.25         59.699       71.65279         0.6181       -66.2152      -3.284988      0.8223999      0.9691218
      7993.0000         0.6057       2163.094        -999.25        -999.25        62.9589        75.5737         0.6023        -64.623      -1.708485      0.9058234      0.9904259
      7993.5000         0.5844       2212.723        -999.25        -999.25        65.2883        78.3743         0.5865       -63.2435      -0.344677      0.9654106              1
      7994.0000         0.5649       2253.121        -999.25        -999.25        67.6178       81.17503         0.5679       -61.8663       1.016827              1              1
      7994.5000         0.5511       2322.527        -999.25        -999.25        71.0681       85.32517         0.5485       -60.8725       1.994926              1              1
      7995.0000         0.5417       2463.605        -999.25        -999.25        74.3793       89.30785         0.5291       -60.1302       2.721531              1              1
      7995.5000         0.5322       2651.902        -999.25        -999.25        77.3827       92.91992         0.5097       -59.3879       3.448132              1              1
      7996.0000          0.526       2766.566        -999.25        -999.25        79.2604        95.1767         0.4902       -59.1339        3.68644              1              1
      7996.5000         0.5242       2990.797        -999.25        -999.25        79.8889       95.92948         0.4687       -60.7529       2.051743              1              1
      7997.0000         0.5225       3257.434        -999.25        -999.25        79.1652       95.05424         0.4453       -65.2604      -2.471455              1      0.9801155
      7997.5000         0.5221       3524.074        -999.25        -999.25        76.5403       91.89001         0.4218        -69.392      -6.618752              1       0.924071
      7998.0000         0.5249       3791.105        -999.25        -999.25        74.5575       89.49886         0.3983       -74.5491      -11.79155              1      0.8541682
      7998.5000         0.5278       3990.203        -999.25        -999.25        73.1119       87.75446         0.3749       -81.2787      -18.53685              1      0.7630156
      7999.0000         0.5303        4171.82        -999.25        -999.25          71.88       86.26735         0.3514       -88.4772      -25.75105              1      0.6655264
      7999.5000         0.5233       2427.555        -999.25        -999.25        68.1917       81.82283         0.3338       -95.8026      -33.09214              1      0.5663225
      8000.0000         0.5164       2509.598        -999.25        -999.25        59.6478        71.5323         0.3193      -101.9658      -39.27103      0.8198361      0.4828238
      8000.5000         0.5095       2703.258        -999.25        -999.25        56.1389       67.30374         0.3047      -114.1896      -51.51053      0.7298669      0.3174253
      8001.0000         0.5016       2948.809        -999.25        -999.25        54.2782       65.05959         0.2901      -118.3846      -55.72123      0.6821188       0.260524
      8001.5000         0.4935       3591.074        -999.25        -999.25        52.4566        62.8625         0.2755       -122.106      -59.45833      0.6353723      0.2100226
      8002.0000         0.4854       4243.125        -999.25        -999.25        50.6057       60.63015          0.261      -124.1669      -61.53492      0.5878756      0.1819605
