#------------------------------------------------------------------------------
# Created by    : vladimir.rabinovich
# Created on    : 09/19/2023 17:20:58
#------------------------------------------------------------------------------
~Version Information Section
VERS.           2.0     :   CWLS log ASCII Standard - VERSION 2.0
WRAP.           NO      :   One line per depth step
~Well Information Section
#MNEM       .UNIT                                         VALUE :DESCRIPTION
#------------------------------------------------------------------------------
STRT        .FT                                             521 :START DEPTH
STOP        .FT                                           11050 :STOP DEPTH
STEP        .FT                                             0.5 :STEP      
NULL        .                                           -999.25 :NULL      
COMP        .                                      SHELL OIL CO :COMPANY   
WELL        .                                     ST TR 00335-L :WELL      
FLD         .                                           WILDCAT :FIELD     
LOC         .                                                   :LOCATION  
CNTY        .                                BRAZOS LARGE BLOCK :LOCATION  
STAT        .                                             TEXAS :STATE     
CTRY        .                                     UNITED STATES :COUNTRY   
SRVC        .                                                   :SERVICE COMPANY
DATE        .                             9/13/2023 11:18:52 AM :LOG DATE  
API         .                                    42704000130000 :API NUMBER
UWI         .                                    42704000130000 :UNIQUE WELL ID
XCOORD      .                                  903482.990868916 :SURFACE X 
YCOORD      .                                   10450808.276789 :SURFACE Y 
LAT         .                                        28.7782296 :LATITUDE  
LON         .                                       -95.3008656 :LONGITUDE 
ELEV        .FT                                              81 :ELEVATION VALUE
ELEV_TYPE   .                                                DF :ELEVATION REFERENCE TYPE
~Curve Information Section
#MNEM       .UNIT                                      API CODE :CURVE DESCRIPTION
#------------------------------------------------------------------------------
DEPT        .FT                                                 :DEPTH     
ASN         .OHMM                                               :          
CILD        .MMHO                                               :          
ILD         .OHMM                                               :          
SP          .MV                                                 :          
SP_NORM     .MV                                                 :SP Normalized
VSH_SP      .V/V                                                :Volume of Shale from SP
~A        DEPTH            ASN           CILD            ILD             SP        SP_NORM         VSH_SP
# ...
      8919.0000         0.4228       3541.184         0.2498       -38.8076      0.2167931              1
      8919.5000         0.4217       3524.727         0.2498       -38.4982      0.5261917              1
      8920.0000         0.4199        3471.93         0.2498       -38.5153      0.5090904              1
      8920.5000         0.4182       3438.723         0.2498       -38.8417      0.1826897              1
      8921.0000         0.4165       3413.152         0.2498       -39.1688     -0.1444092       0.997937
      8921.5000          0.416       3385.391         0.2501       -39.4953     -0.4709091      0.9932727
      8922.0000         0.4177       3357.754         0.2506       -39.7274     -0.7030106       0.989957
      8922.5000          0.417       3335.488         0.2511       -39.9506     -0.9262085      0.9867684
      8923.0000         0.4164       3313.852         0.2517       -40.1739      -1.149509      0.9835784
      8923.5000         0.4165       3317.621         0.2522       -40.3968       -1.37241      0.9803941
      8924.0000          0.417       3358.555         0.2527        -40.422       -1.39761      0.9800342
      8924.5000         0.4176       3414.316         0.2533       -40.3598      -1.335407      0.9809228
      8925.0000         0.4173       3435.941         0.2523       -40.2976      -1.273209      0.9818113
      8925.5000         0.4169       3446.941         0.2505       -40.2355      -1.211109      0.9826984
      8926.0000         0.4164       3478.637         0.2486       -40.1733      -1.148911       0.983587
      8926.5000          0.416       3503.164         0.2468       -40.1111      -1.086708      0.9844756
      8927.0000         0.4155       3518.188          0.245        -40.049      -1.024609      0.9853627
      8927.5000         0.4151       3533.184         0.2431       -39.9868       -0.96241      0.9862513
      8928.0000         0.4146       3542.762          0.242       -39.9246     -0.9002075      0.9871399
      8928.5000          0.414       3551.293         0.2429       -39.8624     -0.8380089      0.9880285
      8929.0000         0.4133       3562.672         0.2439       -39.8313     -0.8069077      0.9884728
      8929.5000         0.4127       3574.629         0.2448       -39.8034      -0.779007      0.9888713
      8930.0000          0.412       3586.711         0.2457       -39.7755     -0.7511101      0.9892699
      8930.5000         0.4113       3602.316         0.2466       -39.7476     -0.7232094      0.9896684
      8931.0000         0.4107       3617.949         0.2475       -39.7197     -0.6953087       0.990067
      8931.5000           0.41       3631.051         0.2485       -39.6918      -0.667408      0.9904656
      8932.0000         0.4093        3644.25         0.2492       -39.6639     -0.6395073      0.9908642
      8932.5000         0.4087       3662.699         0.2478       -39.6359     -0.6115074      0.9912642
      8933.0000          0.408       3675.492         0.2464       -39.6366     -0.6122093      0.9912542
      8933.5000         0.4073       3672.934          0.245       -39.6381     -0.6137085      0.9912328
      8934.0000         0.4066       3670.371         0.2436       -39.6397     -0.6153107      0.9912099
      8934.5000         0.4058        3667.82         0.2422       -39.6412     -0.6168098      0.9911884
      8935.0000         0.4051       3665.898         0.2408       -39.6428     -0.6184082      0.9911656
      8935.5000         0.4043       3663.977         0.2394       -39.6444     -0.6200104      0.9911427
      8936.0000         0.4035       3662.055          0.238       -39.6459     -0.6215096      0.9911213
      8936.5000         0.4027       3660.133          0.234       -39.6467     -0.6223106      0.9911098
      8937.0000         0.4019       3662.941         0.2287       -39.6305     -0.6061096      0.9913413
      8937.5000         0.4012       3669.395         0.2235       -39.6142     -0.5898094      0.9915742
      8938.0000         0.4004       3675.836         0.2183        -39.598     -0.5736084      0.9918056
      8938.5000         0.3996       3691.285          0.213       -39.5817     -0.5573082      0.9920384
      8939.0000         0.3988       3714.063         0.2078       -39.5654      -0.541008      0.9922713
      8939.5000         0.3981       3745.539         0.2025       -39.5491     -0.5247078      0.9925042
      8940.0000         0.3973       3783.559         0.1977       -39.5329     -0.5085106      0.9927356
      8940.5000         0.3965       3819.242         0.1937       -39.5166     -0.4922104      0.9929684
      8941.0000         0.3958       3851.719         0.1897       -39.5262     -0.5018082      0.9928313
      8941.5000          0.395       3980.746         0.1857       -39.5978       -0.57341      0.9918084
      8942.0000         0.3942       3995.574         0.1817       -39.6694     -0.6450081      0.9907856
      8942.5000         0.3935       4007.266         0.1777        -39.741       -0.71661      0.9897627
      8943.0000         0.3927       4003.293         0.1737       -39.8125     -0.7881088      0.9887413
      8943.5000          0.392        3948.66          0.172       -39.8867     -0.8623085      0.9876813
      8944.0000         0.3912       3864.625         0.1725       -39.9611     -0.9367104      0.9866184
      8944.5000         0.3906       3843.844         0.1729       -40.0358       -1.01141      0.9855513
      8945.0000         0.3913       3821.043         0.1734       -40.1104       -1.08601      0.9844856
      8945.5000          0.392       3797.559         0.1738        -40.185       -1.16061      0.9834198
      8946.0000         0.3927         3771.5         0.1743       -40.2595      -1.235107      0.9823556
      8946.5000         0.3935       3744.715         0.1747       -40.1354      -1.111008      0.9841285
      8947.0000         0.3942       3708.254         0.1752       -40.0044     -0.9800072      0.9859999
      8947.5000          0.394        3683.41         0.1762       -39.8734     -0.8490105      0.9878713
      8948.0000         0.3935       3669.457         0.1783       -39.7423      -0.717907      0.9897442
      8948.5000         0.3929       3657.059         0.1803       -39.6559     -0.6315079      0.9909785
      8949.0000         0.3924       3645.633         0.1824       -39.6959     -0.6715088       0.990407
      8949.5000         0.3919       3661.094         0.1845       -39.7438     -0.7194099      0.9897227
      8950.0000         0.3913        3695.27         0.1866       -39.8176     -0.7932091      0.9886684
      8950.5000         0.3908       3744.664         0.1886       -39.8912     -0.8668098       0.987617
      8951.0000         0.3903       3767.711         0.1907        -39.965      -0.940609      0.9865627
      8951.5000         0.3897       3789.758         0.1917       -40.0386       -1.01421      0.9855113
      8952.0000         0.3883       3810.469         0.1927       -40.0367       -1.01231      0.9855384
      8952.5000         0.3868       3829.063         0.1937       -39.9063     -0.8819084      0.9874013
      8953.0000         0.3852       3847.637         0.1947       -39.7758     -0.7514076      0.9892656
      8953.5000         0.3837       3864.043         0.1957       -39.6454     -0.6210098      0.9911284
      8954.0000         0.3822       3880.402         0.1967       -39.5151     -0.4907074      0.9929899
      8954.5000         0.3807       3894.063         0.1977       -39.3929     -0.3685074      0.9947356
      8955.0000         0.3791       3908.988         0.1987       -39.4158      -0.391407      0.9944085
      8955.5000         0.3776       3925.809         0.1997       -39.4387     -0.4143105      0.9940813
      8956.0000         0.3761       3946.105         0.2007       -39.4616     -0.4372101      0.9937541
      8956.5000         0.3746       3963.559         0.2017        -39.476     -0.4516106      0.9935484
