#------------------------------------------------------------------------------
# Created by    : vladimir.rabinovich
# Created on    : 09/19/2023 17:20:23
#------------------------------------------------------------------------------
~Version Information Section
VERS.           2.0     :   CWLS log ASCII Standard - VERSION 2.0
WRAP.           NO      :   One line per depth step
~Well Information Section
#MNEM       .UNIT                                         VALUE :DESCRIPTION
#------------------------------------------------------------------------------
STRT        .FT                                            3532 :START DEPTH
STOP        .FT                                           13690 :STOP DEPTH
STEP        .FT                                             0.5 :STEP      
NULL        .                                           -999.25 :NULL      
COMP        .                              VASTAR RESOURCES INC :COMPANY   
WELL        .                                     ST TR 00023-L :WELL      
FLD         .                          HIGH ISLAND BLOCK 0024-L :FIELD     
LOC         .                                                   :LOCATION  
CNTY        .                           HIGH ISLAND LARGE BLOCK :LOCATION  
STAT        .                                             TEXAS :STATE     
CTRY        .                                     UNITED STATES :COUNTRY   
SRVC        .                                                   :SERVICE COMPANY
DATE        .                             9/13/2023 11:19:15 AM :LOG DATE  
API         .                                    42708300330000 :API NUMBER
UWI         .                                    42708300330000 :UNIQUE WELL ID
XCOORD      .                                  1290562.53578251 :SURFACE X 
YCOORD      .                                  10712997.1214806 :SURFACE Y 
LAT         .                                        29.5146054 :LATITUDE  
LON         .                                       -94.1002609 :LONGITUDE 
ELEV        .FT                                              79 :ELEVATION VALUE
ELEV_TYPE   .                                                KB :ELEVATION REFERENCE TYPE
~Curve Information Section
#MNEM       .UNIT                                      API CODE :CURVE DESCRIPTION
#------------------------------------------------------------------------------
DEPT        .FT                                                 :DEPTH     
ASN         .OHMM                                               :          
CILD        .MMHO                                               :          
ILD         .OHMM                                               :          
SP          .MV                                                 :          
SP_NORM     .MV                                                 :SP Normalized
VSH_SP      .V/V                                                :Volume of Shale from SP
~A        DEPTH            ASN           CILD            ILD             SP        SP_NORM         VSH_SP
# ...
      8928.0000         1.0682       1288.307         0.9076        -63.382      -6.303009      0.9328733
      8928.5000         1.0599       1293.174         0.9031       -63.2062      -6.129822      0.9350656
      8929.0000         1.0516       1299.119         0.8984       -63.0304      -5.956638      0.9372578
      8929.5000         1.0433       1309.203         0.8938       -62.8544      -5.783257      0.9394525
      8930.0000         1.0349       1319.285         0.8892       -62.7386      -5.670074      0.9408851
      8930.5000         1.0266       1329.369         0.8845        -62.728      -5.662086      0.9409863
      8931.0000         1.0183       1339.453         0.8799       -62.7173      -5.654003      0.9410886
      8931.5000           1.01       1349.537         0.8753       -62.7067      -5.646019      0.9411896
      8932.0000         1.0017       1362.883         0.8706        -62.696      -5.637936      0.9412919
      8932.5000         0.9934       1376.352          0.866       -62.6854      -5.629948      0.9413931
      8933.0000         0.9851       1389.797         0.8614       -62.6583      -5.605465       0.941703
      8933.5000         0.9768       1403.268         0.8568       -62.5528      -5.502583      0.9430053
      8934.0000         0.9686       1416.736         0.8521       -62.4474      -5.399796      0.9443064
      8934.5000         0.9603       1428.564         0.8475       -62.3419      -5.296913      0.9456087
      8935.0000          0.952       1437.752         0.8471       -62.2364      -5.194031       0.946911
      8935.5000         0.9429       1446.938         0.8526        -62.131      -5.091248       0.948212
      8936.0000          0.935       1435.834         0.8581       -62.0292      -4.992062      0.9494676
      8936.5000         0.9472       1383.324         0.8636       -61.9307      -4.896175      0.9506813
      8937.0000         0.9594       1306.439         0.8691       -61.9418      -4.909893      0.9505077
      8937.5000         0.9794       1229.553         0.8746       -62.5726      -5.543308      0.9424897
      8938.0000         1.0274       1178.762         0.8802       -63.2026      -6.175922       0.934482
      8938.5000         1.0755       1131.555         0.8857       -63.8334      -6.809341       0.926464
      8939.0000         1.1236       1084.447         0.8935       -64.4633       -7.44186      0.9184574
      8939.5000         1.1777       1046.652         0.9115       -65.2607      -8.241867      0.9083308
      8940.0000         1.2322       1012.891         0.9294       -66.0793      -9.063087      0.8979356
      8940.5000          1.267       984.5322         0.9474        -66.917      -9.903404      0.8872987
      8941.0000         1.2859       970.3398         0.9654        -67.785      -10.77402      0.8762782
      8941.5000         1.3047       976.1914         0.9834        -68.653      -11.64463      0.8652578
      8942.0000         1.3235       990.6572         1.0014       -69.2299      -12.22415      0.8579222
      8942.5000          1.317       1009.206         1.0194         -69.77      -12.76686      0.8510523
      8943.0000         1.3013       1027.754         1.0374       -70.3112      -13.31068      0.8441685
      8943.5000         1.2856       1046.279         1.0537       -71.2643       -14.2664      0.8320709
      8944.0000         1.2699       1064.828         1.0489       -72.2311      -15.23582      0.8197998
      8944.5000         1.2543       1083.377         1.0441       -73.1998      -16.20713      0.8075047
      8945.0000         1.2386       1101.926         1.0393       -74.1721      -17.18204       0.795164
      8945.5000         1.2229       1120.475         1.0345       -75.1519      -18.16446      0.7827283
      8946.0000         1.2057       1139.023         1.0297       -75.0914      -18.10658       0.783461
      8946.5000         1.1883       1160.014         1.0249       -73.6393      -16.65709       0.801809
      8947.0000         1.1708       1181.152         1.0193        -72.134      -15.15441      0.8208302
      8947.5000         1.1534       1202.291          1.005       -70.4915      -13.51453      0.8415883
      8948.0000          1.136       1223.428         0.9907        -68.849      -11.87464      0.8623463
      8948.5000         1.1185       1244.566         0.9763       -67.2083      -10.23655      0.8830816
      8949.0000         1.1011       1263.889          0.962       -65.5657      -8.596569      0.9038409
      8949.5000         1.0796       1278.229         0.9477       -64.6583      -7.691792      0.9152938
      8950.0000         1.0527       1275.914         0.9334       -63.9936      -7.029705      0.9236746
      8950.5000         1.0259       1259.281          0.919       -63.3289      -6.367619      0.9320555
      8951.0000         1.0031       1242.625         0.9047       -62.6841      -5.725437      0.9401844
      8951.5000         1.0201       1225.992         0.8904       -62.4891      -5.533054      0.9426196
      8952.0000         1.0371       1209.361         0.8761       -62.3865      -5.433067      0.9438852
      8952.5000          1.049       1193.477         0.8617       -62.5909      -5.640083      0.9412647
      8953.0000         1.0593       1179.086         0.8474       -62.7956      -5.847401      0.9386405
      8953.5000         1.0697       1181.799         0.8331            -63      -6.054417        0.93602
      8954.0000         1.0801       1192.605         0.8275       -63.2044      -6.261429      0.9333996
      8954.5000         1.0904       1203.424          0.828       -63.4088      -6.468445      0.9307792
      8955.0000         1.0906        1214.24         0.8285       -63.6132      -6.675465      0.9281587
      8955.5000         1.0843       1225.047          0.829       -63.8176      -6.882477      0.9255382
      8956.0000         1.0779       1235.865         0.8295        -64.022      -7.089497      0.9229178
      8956.5000         1.0715       1246.609           0.83       -64.2263      -7.296413      0.9202986
      8957.0000         1.0651       1256.705         0.8305       -64.3146      -7.387325      0.9191478
      8957.5000         1.0587       1266.801          0.831       -64.3044      -7.379738      0.9192438
      8958.0000         1.0524       1276.896         0.8315       -64.2944       -7.37236      0.9193372
      8958.5000          1.048       1286.994          0.832       -64.2844      -7.364975      0.9194307
      8959.0000         1.0444        1297.09         0.8321       -64.2743      -7.357491      0.9195254
      8959.5000         1.0407       1307.197         0.8306       -64.2643      -7.350101       0.919619
      8960.0000         1.0371       1317.295         0.8291       -64.2542      -7.342625      0.9197136
      8960.5000         1.0335       1324.539         0.8275       -63.9309      -7.021938      0.9237729
      8961.0000         1.0299       1330.627          0.826       -63.5926      -6.686253      0.9280221
      8961.5000         1.0263       1336.703         0.8245       -63.2543      -6.350567      0.9322713
      8962.0000         1.0226       1342.789         0.8229        -62.916      -6.014885      0.9365205
      8962.5000          1.019       1348.877         0.8214       -62.6144        -5.7159      0.9403051
      8963.0000         1.0178       1354.953         0.8199       -62.6936      -5.797714      0.9392694
      8963.5000           1.02       1358.283         0.8183       -62.7728      -5.879532      0.9382338
      8964.0000         1.0223       1352.855         0.8168        -62.852      -5.961349      0.9371981
      8964.5000         1.0245        1347.42         0.8153       -62.9311       -6.04306      0.9361638
      8965.0000         1.0267       1341.986         0.8137       -63.0103      -6.124878      0.9351282
      8965.5000         1.0289       1336.553         0.8108       -63.0895      -6.206696      0.9340925
