#------------------------------------------------------------------------------
# Created by    : vladimir.rabinovich
# Created on    : 09/19/2023 17:22:53
#------------------------------------------------------------------------------
~Version Information Section
VERS.           2.0     :   CWLS log ASCII Standard - VERSION 2.0
WRAP.           NO      :   One line per depth step
~Well Information Section
#MNEM       .UNIT                                         VALUE :DESCRIPTION
#------------------------------------------------------------------------------
STRT        .FT                                             252 :START DEPTH
STOP        .FT                                           11321 :STOP DEPTH
STEP        .FT                                             0.5 :STEP      
NULL        .                                           -999.25 :NULL      
COMP        .                          HUMBLE OIL & REFINING CO :COMPANY   
WELL        .                                OCS 00615 ST00BP00 :WELL      
FLD         .                                           WILDCAT :FIELD     
LOC         .                                                   :LOCATION  
CNTY        .                             GALVESTON LARGE BLOCK :LOCATION  
STAT        .                                             TEXAS :STATE     
CTRY        .                                     UNITED STATES :COUNTRY   
SRVC        .                                                   :SERVICE COMPANY
DATE        .                             9/13/2023 11:19:42 AM :LOG DATE  
API         .                                    42706000270000 :API NUMBER
UWI         .                                    42706000270000 :UNIQUE WELL ID
XCOORD      .                                  1043929.24471964 :SURFACE X 
YCOORD      .                                  10527500.2798036 :SURFACE Y 
LAT         .                                         28.995876 :LATITUDE  
LON         .                                        -94.866344 :LONGITUDE 
ELEV        .FT                                              67 :ELEVATION VALUE
ELEV_TYPE   .                                                KB :ELEVATION REFERENCE TYPE
~Curve Information Section
#MNEM       .UNIT                                      API CODE :CURVE DESCRIPTION
#------------------------------------------------------------------------------
DEPT        .FT                                                 :DEPTH     
LAT         .OHMM                                               :          
LN          .OHMM                                               :          
SN          .OHMM                                               :          
SP          .MV                                                 :          
SP_NORM     .MV                                                 :SP Normalized
VSH_SP      .V/V                                                :Volume of Shale from SP
~A        DEPTH            LAT             LN             SN             SP        SP_NORM         VSH_SP
# ...
      2456.0000         0.6695         0.6377           0.59      -117.5422      -3.389839      0.9653646
      2456.5000         0.6627         0.6393         0.5827      -116.9734      -2.837303      0.9733724
      2457.0000          0.656          0.641         0.5831      -116.4045      -2.284683      0.9813814
      2457.5000         0.6492         0.6427         0.5854      -115.8357      -1.732155      0.9893891
      2458.0000         0.6425         0.6443         0.5878      -115.2668       -1.17952      0.9973983
      2458.5000         0.6351         0.6509         0.5902      -115.6064      -1.535393      0.9922407
      2459.0000         0.6255         0.6661         0.5926      -116.6499      -2.595169      0.9768816
      2459.5000         0.6159         0.6813          0.595      -117.6934       -3.65493      0.9615228
      2460.0000         0.6063         0.6965         0.5974      -118.1895      -4.167305       0.954097
      2460.5000         0.5968         0.7117         0.6118      -118.0865      -4.080582      0.9553539
      2461.0000         0.5872          0.727         0.6295      -117.7397      -3.750053      0.9601442
      2461.5000         0.5796         0.7422         0.6472      -117.1208      -3.147415       0.968878
      2462.0000         0.5745         0.7574         0.6649      -116.5022       -2.54509      0.9776074
      2462.5000         0.5693         0.7726         0.6826      -115.8833      -1.942467      0.9863411
      2463.0000         0.5642         0.7776         0.7003      -115.2646      -1.340034      0.9950719
      2463.5000         0.5578         0.7783         0.7179      -115.3293      -1.421005      0.9938985
      2464.0000         0.5374         0.7791         0.7356      -115.5903       -1.69828        0.98988
      2464.5000         0.5267         0.7798         0.7533      -115.8512      -1.975441      0.9858631
      2465.0000         0.5386         0.7805          0.771      -116.1122      -2.252716      0.9818447
      2465.5000         0.5505         0.7812         0.7716      -116.1326      -2.289391      0.9813132
      2466.0000         0.5624         0.7819         0.7651      -116.0048      -2.177864      0.9829295
      2466.5000         0.5743         0.7827         0.7586       -115.877       -2.06633      0.9845459
      2467.0000         0.5863          0.773         0.7521       -115.749      -1.954605      0.9861652
      2467.5000         0.5982         0.7589         0.7384      -115.6212      -1.843079      0.9877815
      2468.0000         0.6101         0.7449         0.7218      -115.3389      -1.577042      0.9916371
      2468.5000          0.622         0.7309         0.7053      -114.4365      -0.690918              1
      2469.0000         0.6339         0.7169         0.6888      -113.5342      0.1951065              1
      2469.5000         0.6444         0.7029         0.6723      -112.6318       1.081245              1
      2470.0000         0.6503         0.6888         0.6557        -111.73       1.966766              1
      2470.5000         0.6563         0.6754         0.6482      -110.8276       2.852898              1
      2471.0000         0.6623         0.6647         0.6433      -110.2429       3.421326              1
      2471.5000         0.6682         0.6541         0.6385      -110.7922       2.855759              1
      2472.0000          0.674         0.6435         0.6336      -111.4834       2.148285              1
      2472.5000         0.6737         0.6329         0.6288      -112.5796       1.035812              1
      2473.0000         0.6735         0.6222         0.6215      -113.6758    -0.07665253              1
      2473.5000         0.6733         0.6487         0.6105       -114.772      -1.189133       0.997259
      2474.0000          0.673         0.6758         0.5994      -115.6069      -2.040306      0.9849231
      2474.5000         0.6728         0.7028         0.5884      -116.0637      -2.513367      0.9780672
      2475.0000         0.6729         0.7298         0.5773      -116.4799      -2.945839      0.9717994
      2475.5000         0.6784         0.7568         0.5721      -116.0762      -2.558418      0.9774143
      2476.0000          0.684         0.7838         0.5753      -115.6724      -2.170891      0.9830306
      2476.5000         0.6896         0.8108         0.5785      -115.2687      -1.783455      0.9886456
      2477.0000         0.6951         0.8145         0.5865       -114.865      -1.396027      0.9942605
      2477.5000         0.7007         0.8083         0.6123      -114.4613      -1.008606      0.9998752
      2478.0000         0.7063         0.8021         0.6382      -114.0576       -0.62117              1
      2478.5000         0.7043         0.7931          0.664      -113.6539     -0.2337418              1
      2479.0000         0.6778         0.7618         0.6898      -113.3849     0.01898193              1
      2479.5000         0.6493         0.7304         0.7157      -113.3688     0.01881409              1
      2480.0000         0.6207          0.699         0.7225      -113.3528     0.01854706              1
      2480.5000         0.5921         0.6677          0.725      -113.3367     0.01837158              1
      2481.0000         0.5732         0.6363         0.7082      -113.8574     -0.5186005              1
      2481.5000         0.5742         0.6049         0.6914      -114.5574      -1.234871      0.9965961
      2482.0000         0.5753          0.593         0.6746      -115.2573      -1.951042      0.9862168
      2482.5000         0.5875         0.6088         0.6577      -115.9573      -2.667313       0.975836
      2483.0000         0.6096         0.6247         0.6421      -115.5645      -2.290779      0.9812931
      2483.5000         0.6318         0.6405         0.6286      -114.5913      -1.333855      0.9951615
      2484.0000          0.654         0.6588          0.615      -113.6182     -0.3770294              1
      2484.5000         0.6762         0.6787         0.6014       -112.645      0.5799026              1
      2485.0000         0.6984         0.6987         0.5878      -111.6719       1.536736              1
      2485.5000         0.7206         0.7187          0.591       -110.752       2.440361              1
      2486.0000         0.7427         0.7387          0.598      -109.8564       3.319687              1
      2486.5000         0.7641         0.7586          0.605      -108.9609       4.198921              1
      2487.0000          0.761          0.768          0.612      -108.0654       5.078148              1
      2487.5000         0.7579         0.7559          0.619      -107.1699       5.957375              1
      2488.0000         0.7548         0.7439          0.626      -106.3376       6.773407              1
      2488.5000         0.7518         0.7318         0.6331      -106.8584       6.236336              1
      2489.0000         0.7487         0.7197         0.6403      -108.2556       4.822861              1
      2489.5000         0.7456         0.7076         0.6474       -108.991        4.07119              1
      2490.0000         0.7425         0.6956         0.6545      -109.7266       3.319321              1
      2490.5000         0.7383         0.6888         0.6616      -110.4622       2.567451              1
      2491.0000         0.7326         0.6822         0.6687      -111.1978       1.815575              1
      2491.5000         0.7269         0.6757         0.6696      -111.9333       1.063812              1
      2492.0000         0.7212         0.6691         0.6604      -112.6689      0.3119354              1
      2492.5000         0.7156         0.6625         0.6512      -113.4045     -0.4399414              1
      2493.0000         0.7099         0.6559         0.6419      -113.0598     -0.1115036              1
      2493.5000         0.7042         0.6493         0.6327      -112.6892      0.2428207              1
