#------------------------------------------------------------------------------
# Created by    : vladimir.rabinovich
# Created on    : 09/19/2023 17:20:38
#------------------------------------------------------------------------------
~Version Information Section
VERS.           2.0     :   CWLS log ASCII Standard - VERSION 2.0
WRAP.           NO      :   One line per depth step
~Well Information Section
#MNEM       .UNIT                                         VALUE :DESCRIPTION
#------------------------------------------------------------------------------
STRT        .FT                                             540 :START DEPTH
STOP        .FT                                            8409 :STOP DEPTH
STEP        .FT                                             0.5 :STEP      
NULL        .                                           -999.25 :NULL      
COMP        .                                      SHELL OIL CO :COMPANY   
WELL        .                                OCS 00706 ST00BP00 :WELL      
FLD         .                                           WILDCAT :FIELD     
LOC         .                                                   :LOCATION  
CNTY        .                             GALVESTON LARGE BLOCK :LOCATION  
STAT        .                                             TEXAS :STATE     
CTRY        .                                     UNITED STATES :COUNTRY   
SRVC        .                                                   :SERVICE COMPANY
DATE        .                             9/13/2023 11:19:25 AM :LOG DATE  
API         .                                    42706000280000 :API NUMBER
UWI         .                                    42706000280000 :UNIQUE WELL ID
XCOORD      .                                  1100625.96198943 :SURFACE X 
YCOORD      .                                  10499283.7203345 :SURFACE Y 
LAT         .                                         28.920625 :LATITUDE  
LON         .                                        -94.687754 :LONGITUDE 
ELEV        .FT                                              78 :ELEVATION VALUE
ELEV_TYPE   .                                                KB :ELEVATION REFERENCE TYPE
~Curve Information Section
#MNEM       .UNIT                                      API CODE :CURVE DESCRIPTION
#------------------------------------------------------------------------------
DEPT        .FT                                                 :DEPTH     
ASN         .OHMM                                               :          
DT          .US/F                                               :          
ILD         .OHMM                                               :          
LAT         .OHMM                                               :          
LN          .OHMM                                               :          
SP          .MV                                                 :          
SP_NORM     .MV                                                 :SP Normalized
VSH_SP      .V/V                                                :Volume of Shale from SP
~A        DEPTH            ASN             DT            ILD            LAT             LN             SP        SP_NORM         VSH_SP
# ...
      3165.5000         0.9372       153.3744         0.7519        -999.25        -999.25       -44.1557    -0.03525543              1
      3166.0000         0.9377       156.9727         0.7507        -999.25        -999.25       -44.0569     0.06008911              1
      3166.5000         0.9373       159.0658         0.7495        -999.25        -999.25       -43.7681      0.3454323              1
      3167.0000         0.9369       153.7639         0.7483        -999.25        -999.25       -43.4792      0.6308784              1
      3167.5000         0.9364       153.9586         0.7471        -999.25        -999.25       -43.2203       0.886322              1
      3168.0000          0.936       154.7506         0.7475        -999.25        -999.25       -43.1377      0.9654655              1
      3168.5000         0.9356       167.2823          0.749        -999.25        -999.25       -43.2416      0.8581085              1
      3169.0000         0.9338       167.3275         0.7505        -999.25        -999.25       -43.6693      0.4269562              1
      3169.5000         0.9303       167.5225         0.7521        -999.25        -999.25       -44.0973   -0.004501343              1
      3170.0000         0.9269       168.3849         0.7536        -999.25        -999.25       -44.5253      -0.435955              1
      3170.5000         0.9259       168.3837         0.7552        -999.25        -999.25       -44.8198     -0.7339134              1
      3171.0000         0.9265       168.8062         0.7567        -999.25        -999.25       -45.0153      -0.932869              1
      3171.5000         0.9271       169.0172         0.7583        -999.25        -999.25       -45.2108      -1.131824      0.9966199
      3172.0000          0.928       168.0226         0.7598        -999.25        -999.25       -45.4062      -1.330681       0.991521
      3172.5000         0.9289       165.0146         0.7606        -999.25        -999.25       -45.7476      -1.675537      0.9826785
      3173.0000         0.9297       165.0841         0.7613        -999.25        -999.25       -45.6174      -1.548794      0.9859284
      3173.5000         0.9306       167.6658          0.762        -999.25        -999.25       -45.3201      -1.254944       0.993463
      3174.0000         0.9314       168.6859         0.7626        -999.25        -999.25       -45.0227     -0.9610023              1
      3174.5000         0.9323       168.6558         0.7633        -999.25        -999.25       -44.6265     -0.5682564              1
      3175.0000         0.9332       168.3519          0.764        -999.25        -999.25       -44.7411     -0.6863136              1
      3175.5000         0.9351       167.3035         0.7646        -999.25        -999.25        -45.019     -0.9676704              1
      3176.0000         0.9372       166.6724         0.7653        -999.25        -999.25        -45.293      -1.245125      0.9937147
      3176.5000         0.9392        165.965          0.766        -999.25        -999.25       -45.5671      -1.522682      0.9865979
      3177.0000         0.9413       164.7484         0.7666        -999.25        -999.25       -45.7432      -1.702236       0.981994
      3177.5000         0.9434       161.9596          0.768        -999.25        -999.25       -45.6344      -1.596893       0.984695
      3178.0000         0.9473       156.5891         0.7701        -999.25        -999.25       -45.5257      -1.491646      0.9873937
      3178.5000         0.9527       150.9773         0.7722        -999.25        -999.25       -45.4169      -1.386303      0.9900948
      3179.0000          0.958       152.1052         0.7743        -999.25        -999.25       -45.5829      -1.555759      0.9857498
      3179.5000         0.9571       153.1696         0.7764        -999.25        -999.25       -45.7784      -1.754715      0.9806483
      3180.0000         0.9562        153.823         0.7785        -999.25        -999.25       -45.9738      -1.953571      0.9755495
      3180.5000         0.9539       153.8696         0.7807        -999.25        -999.25       -46.1694      -2.152626      0.9704455
      3181.0000         0.9513       153.0909         0.7828        -999.25        -999.25       -46.1422      -2.128883      0.9710543
      3181.5000         0.9488       153.2134         0.7855        -999.25        -999.25       -45.9701      -1.960239      0.9753785
      3182.0000         0.9462       153.2298         0.7888        -999.25        -999.25       -45.7979      -1.791492      0.9797053
      3182.5000         0.9436       153.0576         0.7905        -999.25        -999.25       -45.6252      -1.622246       0.984045
      3183.0000         0.9418       152.6355         0.7814        -999.25        -999.25       -45.4523      -1.452805      0.9883896
      3183.5000         0.9428       152.3776         0.7722        -999.25        -999.25       -45.2794       -1.28336      0.9927344
      3184.0000         0.9484       152.0541         0.7649        -999.25        -999.25       -45.3262      -1.333614      0.9914458
      3184.5000          0.954       151.7389         0.7715        -999.25        -999.25       -45.5624      -1.573273      0.9853007
      3185.0000           0.96       151.6603         0.7782        -999.25        -999.25       -45.7985      -1.812828      0.9791583
      3185.5000         0.9675       151.2414         0.7848        -999.25        -999.25       -45.7246      -1.742386      0.9809645
      3186.0000          0.975       151.2403         0.7918        -999.25        -999.25       -45.6016      -1.622841      0.9840297
      3186.5000         0.9824        151.239         0.8012        -999.25        -999.25       -45.5018      -1.526493      0.9865002
      3187.0000         0.9893       151.2374         0.8105        -999.25        -999.25       -45.4251      -1.453247      0.9883783
      3187.5000         0.9959       151.1656         0.8199        -999.25        -999.25       -45.3484      -1.380005      0.9902563
      3188.0000         1.0024       151.0936         0.8262        -999.25        -999.25       -45.3201       -1.35516      0.9908934
      3188.5000         1.0067       150.3911         0.8305        -999.25        -999.25       -45.6033      -1.641815      0.9835432
      3189.0000         1.0081       145.1546         0.8349        -999.25        -999.25       -45.8865      -1.928474       0.976193
      3189.5000         1.0093       144.4468          0.839        -999.25        -999.25       -46.1697       -2.21513      0.9688428
      3190.0000         1.0116       145.0812         0.8346        -999.25        -999.25        -46.453      -2.501884      0.9614902
      3190.5000          1.014       147.8899         0.8302        -999.25        -999.25       -46.7795      -2.831841      0.9530298
      3191.0000         1.0164        148.529         0.8258        -999.25        -999.25       -46.9058      -2.961594      0.9497027
      3191.5000         1.0189       148.8371         0.8214        -999.25        -999.25       -46.6047      -2.663948      0.9573346
      3192.0000         1.0126       154.0898         0.8169        -999.25        -999.25       -46.3038      -2.366505      0.9649614
      3192.5000         1.0076       160.4642         0.8125        -999.25        -999.25       -46.0027      -2.068863      0.9725932
      3193.0000         1.0038       160.9743         0.8087        -999.25        -999.25       -45.7451      -1.814716      0.9791098
      3193.5000              1       162.2661         0.8068        -999.25        -999.25       -45.5975      -1.670574      0.9828058
      3194.0000         0.9962       163.0919         0.8049        -999.25        -999.25       -45.5547      -1.631229      0.9838147
      3194.5000         0.9961       162.4667          0.803        -999.25        -999.25       -45.7359      -1.815887      0.9790798
