#------------------------------------------------------------------------------
# Created by    : vladimir.rabinovich
# Created on    : 09/19/2023 17:22:16
#------------------------------------------------------------------------------
~Version Information Section
VERS.           2.0     :   CWLS log ASCII Standard - VERSION 2.0
WRAP.           NO      :   One line per depth step
~Well Information Section
#MNEM       .UNIT                                         VALUE :DESCRIPTION
#------------------------------------------------------------------------------
STRT        .FT                                              10 :START DEPTH
STOP        .FT                                            7932 :STOP DEPTH
STEP        .FT                                             0.5 :STEP      
NULL        .                                           -999.25 :NULL      
COMP        .                                       ALLIED CORP :COMPANY   
WELL        .                               OCS G04069 ST00BP00 :WELL      
FLD         .                                           WILDCAT :FIELD     
LOC         .                                                   :LOCATION  
CNTY        .                             GALVESTON LARGE BLOCK :LOCATION  
STAT        .                                             TEXAS :STATE     
CTRY        .                                     UNITED STATES :COUNTRY   
SRVC        .                                                   :SERVICE COMPANY
DATE        .                             9/13/2023 11:18:53 AM :LOG DATE  
API         .                                    42706400790000 :API NUMBER
UWI         .                                    42706400790000 :UNIQUE WELL ID
XCOORD      .                                  993545.470392299 :SURFACE X 
YCOORD      .                                  10396443.6120929 :SURFACE Y 
LAT         .                                         28.633244 :LATITUDE  
LON         .                                        -95.016955 :LONGITUDE 
ELEV        .FT                                              82 :ELEVATION VALUE
ELEV_TYPE   .                                                KB :ELEVATION REFERENCE TYPE
~Curve Information Section
#MNEM       .UNIT                                      API CODE :CURVE DESCRIPTION
#------------------------------------------------------------------------------
DEPT        .FT                                                 :DEPTH     
CALI        .IN                                                 :          
CILD        .MMHO                                               :          
DPHI        .B                                                  :          
DRHO        .G/C3                                               :          
DT          .US/F                                               :          
GR          .GAPI                                               :          
GR_1        .GAPI                                               :          
GR_NORM     .GAPI                                               :GammaRay Normalized
ILD         .OHMM                                               :          
ILM         .OHMM                                               :          
NPHI        .%                                                  :          
SFL         .OHMM                                               :          
SP          .MV                                                 :          
SP_NORM     .MV                                                 :SP Normalized
VSH_GR      .V/V                                                :Volume of Shale from GR
VSH_SP      .V/V                                                :Volume of Shale from SP
~A        DEPTH           CALI           CILD           DPHI           DRHO             DT             GR           GR_1        GR_NORM            ILD            ILM           NPHI            SFL             SP        SP_NORM         VSH_GR         VSH_SP
# ...
      5898.0000        16.5133       1189.063        29.7688        -0.0173       114.7018        76.9661         65.996       91.50056         0.7856         0.9086        42.9971          1.062       -53.9434      -1.941748              1      0.9722608
      5898.5000        16.4893       1177.953        29.1522        -0.0202       114.1483        71.4272        72.0812       84.58091         0.8022         0.9289        42.2532         1.0549       -54.0476      -1.941748              1      0.9722608
      5899.0000        16.4498       1164.092        28.9229        -0.0212       113.1523        66.4281        72.5181       78.33601         0.8193         0.9448        41.3629         1.0801        -54.277      -1.941748       0.964596      0.9722608
      5899.5000        16.3972       1146.654        28.0763        -0.0131       111.9999        62.8762        72.4185       73.90011         0.8397         0.9599        40.4188          1.103       -54.7946      -1.941748      0.8702151      0.9722608
      5900.0000        16.3358       1129.227        25.9143        -0.0029       110.8608        61.4976        71.6412       72.18082         0.8615         0.9715        39.7181         1.1125        -55.067      -1.941748      0.8336346      0.9722608
      5900.5000          16.26       1113.955        24.4897         0.0104       109.7817        66.5507        70.0757       78.50117         0.8839         0.9785          40.37          1.122       -54.8356      -1.941748      0.9681101      0.9722608
      5901.0000        16.1558       1110.184        23.8724         0.0219       109.3051        69.9481        70.7095       82.75189         0.8955         0.9852        41.4706         1.1048       -54.5541      -1.941748              1      0.9722608
      5901.5000        16.0494       1106.414         23.084         0.0317       109.8346        70.4187        69.8816       83.34412         0.9058          0.987        42.7242          1.081       -54.3585      -1.941748              1      0.9722608
      5902.0000        15.8479       1108.598        22.0015         0.0382       111.1884        71.0103         68.833       84.08759         0.9062         0.9888        45.1555         1.0795       -54.2493      -1.941748              1      0.9722608
      5902.5000        15.6838         1114.6         21.358         0.0433       111.9412        70.0364        68.8472       82.87419         0.8838         0.9833        48.0746         1.0782       -54.6655      -3.587269              1      0.9487533
      5903.0000        15.6292       1120.594        21.0407         0.0449       112.0181        67.3651        68.2743       79.53903          0.862         0.9714        48.9183         1.1124       -54.6566      -3.582989      0.9901922      0.9488145
      5903.5000        15.6215       1126.594        21.6128         0.0375       111.6836        66.0785         65.996       77.93476         0.8458         0.9596        45.7728         1.1477       -53.5981      -2.529106      0.9560587      0.9638699
      5904.0000        15.6188        1132.59        22.6632         0.0239       111.2545        66.5103        63.1475       78.47848         0.8337         0.9545         41.772         1.1405       -52.0049     -0.9405327      0.9676272      0.9865638
      5904.5000        15.6181       1130.881        24.1832         0.0059       111.3545        66.6476        62.8839       78.65408         0.8218         0.9495        40.6364         1.1311       -51.0838    -0.02405167      0.9713635      0.9996564
      5905.0000        15.6289       1128.146        25.0589        -0.0075       112.6392        66.1868        64.2485       78.08205         0.8148         0.9599        41.8448         1.1074       -51.1453    -0.09017181      0.9591925      0.9987118
      5905.5000        15.6397       1125.414        25.1649        -0.0063       113.6545        66.3066        65.1836       78.23578          0.824         0.9744        42.7963         1.0815       -51.3253     -0.2747917      0.9624634      0.9960744
      5906.0000        15.6505       1111.045        25.2708        -0.0023       114.2362         67.424        65.3713        79.6365         0.8334         0.9932        40.6306         1.0609       -51.3534     -0.3075142      0.9922659       0.995607
      5906.5000        15.6613       1095.934        24.4205         0.0062       113.8995        67.8014        65.2949       80.11222         0.8452         1.0135        39.8226         1.0823       -51.2868      -0.245533              1      0.9964924
      5907.0000        15.6708       1080.822        22.8714         0.0156       112.6768        68.1034        64.7432        80.4937         0.8646         1.0351        42.1185         1.1042       -50.8397      0.1969452              1              1
      5907.5000        15.6804       1065.713        20.8841         0.0233       110.5103        68.3966        65.6887       80.86417         0.8846         1.0594        44.5229         1.1324       -50.7628      0.2692261              1              1
      5908.0000          15.69       1047.443        19.6859         0.0309       108.0696        69.8046        66.9434       82.62814          0.907         1.0824        42.3427         1.1671       -50.8691      0.1583061              1              1
      5908.5000        15.6995       1028.592        19.4376         0.0378       106.5192        71.7019        67.7015       85.00373         0.9396         1.0955         39.559         1.2025       -52.2526       -1.22982              1      0.9824311
      5909.0000         15.702       1009.717        19.5811         0.0432       105.7231        71.1182        66.2664       84.27809         0.9733         1.1072        38.3557         1.2222       -53.7052      -2.687038              1      0.9616137
      5909.5000         15.702       989.5029        20.1999         0.0428       105.7195        68.1991        64.6467       80.63317         1.0011         1.1068         38.699         1.2422       -53.5426      -2.529057              1      0.9638706
      5910.0000        15.7018       960.4209        23.0607         0.0383       106.1128        66.4918        63.3441       78.50303         1.0261         1.1065        39.0498         1.2574        -53.202      -2.193081      0.9681495      0.9686702
      5910.5000        15.6963       948.6914        24.7022         0.0096       106.6757        65.2985        62.8434       77.01537          1.039         1.0959        39.2846         1.2467       -53.7263         -2.722      0.9364973      0.9611143
      5911.0000        15.6838       964.6816        24.7277        -0.0074       107.3696         63.671        62.8557       74.98497         1.0357           1.08        44.3489         1.2362       -54.4321      -3.432419      0.8932973      0.9509655
      5911.5000        15.6713       986.3564        23.8891         0.0106       108.3861        58.9122        63.8824       69.04044         1.0325         1.0642        45.5341         1.2225       -54.5903      -3.595245      0.7668179      0.9486393
      5912.0000        15.6545       1009.419        23.3188         0.0179       109.8528        55.8116        65.8805       65.16867         1.0153         1.0412        44.2485            1.2       -54.3282      -3.337765      0.6844398      0.9523177
      5912.5000        15.6358        1032.48        24.5909         0.0155       111.7573        59.1943        67.8245       69.40102         0.9938         1.0187        43.0241         1.1779        -55.157      -4.171185      0.7744897      0.9404116
      5913.0000        15.6151       1053.896         25.012         0.0138       113.2032        61.9833        69.4674       72.89124         0.9729         0.9964        42.9297         1.1543       -56.4202      -5.439007      0.8487497      0.9222999
      5913.5000        15.5893       1069.898        21.9367         0.0281       113.5504        64.2731        70.5547       75.75746         0.9485         0.9747        42.8177         1.1227       -57.0065      -6.029926      0.9097332      0.9138582
