#------------------------------------------------------------------------------
# Created by    : vladimir.rabinovich
# Created on    : 09/19/2023 17:20:03
#------------------------------------------------------------------------------
~Version Information Section
VERS.           2.0     :   CWLS log ASCII Standard - VERSION 2.0
WRAP.           NO      :   One line per depth step
~Well Information Section
#MNEM       .UNIT                                         VALUE :DESCRIPTION
#------------------------------------------------------------------------------
STRT        .FT                                            3149 :START DEPTH
STOP        .FT                                           10186 :STOP DEPTH
STEP        .FT                                             0.5 :STEP      
NULL        .                                           -999.25 :NULL      
COMP        .                                  SAMEDAN OIL CORP :COMPANY   
WELL        .                                     ST TR 00817-L :WELL      
FLD         .                                           WILDCAT :FIELD     
LOC         .                                                   :LOCATION  
CNTY        .                        MUSTANG ISLAND LARGE BLOCK :LOCATION  
STAT        .                                             TEXAS :STATE     
CTRY        .                                     UNITED STATES :COUNTRY   
SRVC        .                                                   :SERVICE COMPANY
DATE        .                             9/13/2023 11:18:55 AM :LOG DATE  
API         .                                    42702300080000 :API NUMBER
UWI         .                                    42702300080000 :UNIQUE WELL ID
XCOORD      .                                  304914.569303086 :SURFACE X 
YCOORD      .                                  10013906.4088957 :SURFACE Y 
LAT         .                                        27.5345201 :LATITUDE  
LON         .                                       -97.1203623 :LONGITUDE 
ELEV        .FT                                              65 :ELEVATION VALUE
ELEV_TYPE   .                                                KB :ELEVATION REFERENCE TYPE
~Curve Information Section
#MNEM       .UNIT                                      API CODE :CURVE DESCRIPTION
#------------------------------------------------------------------------------
DEPT        .FT                                                 :DEPTH     
ASFL        .OHMM                                               :          
CILD        .MMHO                                               :          
DT          .US/F                                               :          
GR          .GAPI                                               :          
ILD         .OHMM                                               :          
SP          .MV                                                 :          
SP_NORM     .MV                                                 :SP Normalized
VSH_SP      .V/V                                                :Volume of Shale from SP
~A        DEPTH           ASFL           CILD             DT             GR            ILD             SP        SP_NORM         VSH_SP
# ...
      3621.0000          0.755       1908.383       125.2886        -999.25         0.5804       -62.7961      -5.751514      0.9340068
      3621.5000         0.7665       1898.447       126.5391        -999.25         0.6157       -61.4646      -4.423531       0.952451
      3622.0000         0.7779       1873.422       127.4177        -999.25         0.6523        -60.134      -3.096447      0.9708827
      3622.5000         0.7712       1846.297        128.124        -999.25          0.689       -59.0067      -1.972664      0.9864908
      3623.0000         0.7641       1819.158       128.5991        -999.25          0.736       -58.0374      -1.006882      0.9999044
      3623.5000         0.7737       1784.797       127.4634        -999.25         0.7894       -57.5985     -0.5714989              1
      3624.0000          0.792       1747.188       124.3833        -999.25         0.8367       -57.8252     -0.8017159              1
      3624.5000         0.8398       1380.736       119.6978        -999.25          0.882        -58.052      -1.032028      0.9995552
      3625.0000         0.8801       1289.092       112.8757        -999.25         0.9273       -58.2788      -1.262348      0.9963562
      3625.5000         0.9262       1255.809       105.7943        -999.25         0.9602       -58.5602      -1.547264      0.9923991
      3626.0000         0.9905       1234.865       101.9559        -999.25         0.9181       -59.5041      -2.494682      0.9792405
      3626.5000         1.0572       1236.379       100.4832        -999.25         0.8683       -60.5379      -3.531998      0.9648334
      3627.0000         1.1002       1285.598       103.4108        -999.25         0.8481       -62.0296      -5.027214      0.9440665
      3627.5000         1.1247       1381.445       108.7311        -999.25         0.8279       -61.4193      -4.420433       0.952494
      3628.0000         0.9985       1603.539         118.28        -999.25         0.8037       -60.7557      -3.760349      0.9616618
      3628.5000         0.9185       1825.635       132.5664        -999.25          0.766       -60.0909      -3.099068      0.9708463
      3629.0000         0.8534       2047.729       140.4827        -999.25         0.6881       -59.4092      -2.420883      0.9802655
      3629.5000         0.7978       2269.723         143.55        -999.25         0.5982       -58.9005      -1.915703      0.9872819
      3630.0000         0.7554       2342.305       141.9473        -999.25         0.5299        -59.035      -2.053719       0.985365
      3630.5000         0.7271       2400.566       139.5898        -999.25         0.4673       -59.3335      -2.355732      0.9811704
      3631.0000         0.7004       2441.867        136.459        -999.25          0.425       -61.1624      -4.188148      0.9557202
      3631.5000          0.682        2469.75       132.1392        -999.25         0.4138        -62.984      -6.013268      0.9303713
      3632.0000         0.7036        2462.98       126.2185        -999.25         0.4112       -64.8047      -7.837486      0.9050349
      3632.5000         0.7516       2392.109       117.9095        -999.25         0.4145       -67.1418       -10.1781      0.8725264
      3633.0000           0.82        2331.16        110.386        -999.25         0.4179       -70.9249      -13.96471      0.8199345
      3633.5000         0.9818        2269.48       105.0879        -999.25         0.4212       -94.2858      -37.32913      0.4954287
      3634.0000         1.1608       2226.445       102.8895        -999.25         0.4245       -92.1619      -35.20876      0.5248784
      3634.5000          1.268       2177.496       101.7883        -999.25         0.4327       -89.9999      -33.05027      0.5548574
      3635.0000         1.3718       2127.176       101.8756        -999.25         0.4464       -86.5309      -29.58479      0.6029891
      3635.5000         1.4373       2078.813       103.0476        -999.25           0.46        -90.254       -33.3114      0.5512305
      3636.0000         1.4743       2079.645       106.5427        -999.25          0.464       -96.8853      -39.94622      0.4590803
      3636.5000         1.5065       2311.023       108.8756        -999.25          0.466         -99.59      -42.65443      0.4214662
      3637.0000         1.5324       2424.762       109.5419        -999.25         0.4515      -101.0568      -44.12475      0.4010451
      3637.5000         1.4222       2600.813       110.0062        -999.25          0.424       -100.995      -44.06647      0.4018546
      3638.0000         1.3944       2776.867       110.9559        -999.25         0.3975       -99.0608      -42.13578      0.4286697
      3638.5000         1.3139       2952.918       113.7253        -999.25         0.3725       -97.1122       -40.1907      0.4556847
      3639.0000         1.1631       3128.875       116.9265        -999.25         0.3475       -95.1643      -38.24632        0.48269
      3639.5000         1.0173       3304.926       121.9702        -999.25         0.3225       -92.9098      -35.99533      0.5139537
      3640.0000         0.9782        3480.98       125.8962        -999.25         0.2994      -101.8282      -44.91726      0.3900381
      3640.5000          0.953       4000.145       126.9911        -999.25         0.2792      -111.8685      -54.96107      0.2505407
      3641.0000         0.9342       4039.566       124.9342        -999.25          0.259      -113.4968      -56.59289      0.2278765
      3641.5000         0.9165       4070.039       122.1715        -999.25         0.2601      -114.3359       -57.4355      0.2161735
      3642.0000         0.9041       4098.633       119.4742        -999.25         0.2638      -114.6339      -57.73703      0.2119858
      3642.5000         0.8992        3957.82       117.0043        -999.25          0.284       -114.519      -57.62564      0.2135328
      3643.0000         0.9078       3738.949       114.8085        -999.25         0.3143      -114.1921      -57.30225      0.2180243
      3643.5000         0.9546       3508.254       112.6682        -999.25         0.3446      -113.5731      -56.68677      0.2265727
      3644.0000         1.0267       3277.359       110.1587        -999.25         0.3813      -112.7694      -55.88659      0.2376863
      3644.5000         1.1682       3046.664       106.8934        -999.25         0.4181      -111.9216       -55.0423      0.2494124
      3645.0000           1.25       2815.773       100.7579        -999.25         0.4513      -111.0353      -54.15952      0.2616733
      3645.5000         1.2994       2584.879        99.3307        -999.25         0.4843      -110.1417      -53.26944      0.2740356
      3646.0000         1.3274       2383.313       100.9865        -999.25         0.5173       -109.324      -52.45525      0.2853437
      3646.5000          1.352       2176.859       103.9097        -999.25         0.5515      -108.5066      -51.64137      0.2966476
      3647.0000          1.374       1970.406       106.6415        -999.25         0.5864      -107.6888      -50.82709      0.3079571
      3647.5000         1.3961       1763.951        105.204        -999.25         0.6213      -106.5316      -49.67341      0.3239805
      3648.0000         1.4065       1557.498       101.5582        -999.25         0.6681       -105.024      -48.16933      0.3448704
      3648.5000          1.323       1386.137        97.6779        -999.25          0.715      -103.3195      -46.46835      0.3684952
      3649.0000         1.2643       1350.285        95.6908        -999.25         0.7615       -101.575      -44.72736      0.3926756
      3649.5000         1.1837           1254        96.5355        -999.25          0.806       -97.7802      -40.93607      0.4453324
      3650.0000         1.0491       1237.299       100.4418        -999.25         0.8312       -88.2463      -31.40569      0.5776988
