#------------------------------------------------------------------------------
# Created by    : vladimir.rabinovich
# Created on    : 09/19/2023 17:22:29
#------------------------------------------------------------------------------
~Version Information Section
VERS.           2.0     :   CWLS log ASCII Standard - VERSION 2.0
WRAP.           NO      :   One line per depth step
~Well Information Section
#MNEM       .UNIT                                         VALUE :DESCRIPTION
#------------------------------------------------------------------------------
STRT        .FT                                            1202 :START DEPTH
STOP        .FT                                           11047 :STOP DEPTH
STEP        .FT                                             0.5 :STEP      
NULL        .                                           -999.25 :NULL      
COMP        .                                 MESA PETROLEUM CO :COMPANY   
WELL        .                               OCS G03305 ST00BP00 :WELL      
FLD         .                                           WILDCAT :FIELD     
LOC         .                                                   :LOCATION  
CNTY        .                      MATAGORDA ISLAND LARGE BLOCK :LOCATION  
STAT        .                                             TEXAS :STATE     
CTRY        .                                     UNITED STATES :COUNTRY   
SRVC        .                                                   :SERVICE COMPANY
DATE        .                             9/13/2023 11:12:09 AM :LOG DATE  
API         .                                    42703400870000 :API NUMBER
UWI         .                                    42703400870000 :UNIQUE WELL ID
XCOORD      .                                  540264.325087739 :SURFACE X 
YCOORD      .                                   10226560.637492 :SURFACE Y 
LAT         .                                         28.138272 :LATITUDE  
LON         .                                        -96.413655 :LONGITUDE 
ELEV        .FT                                              80 :ELEVATION VALUE
ELEV_TYPE   .                                                KB :ELEVATION REFERENCE TYPE
~Curve Information Section
#MNEM       .UNIT                                      API CODE :CURVE DESCRIPTION
#------------------------------------------------------------------------------
DEPT        .FT                                                 :DEPTH     
CILD        .MMHO                                               :          
DPHI        .%                                                  :          
GR          .GAPI                                               :          
GR_NORM     .GAPI                                               :GammaRay Normalized
ILD         .OHMM                                               :          
ILM         .OHMM                                               :          
SFL         .OHMM                                               :          
SP          .MV                                                 :          
SP_NORM     .MV                                                 :SP Normalized
VSH_GR      .V/V                                                :Volume of Shale from GR
VSH_SP      .V/V                                                :Volume of Shale from SP
~A        DEPTH           CILD           DPHI             GR        GR_NORM            ILD            ILM            SFL             SP        SP_NORM         VSH_GR         VSH_SP
# ...
      8402.0000        -999.25        22.8706        60.7982       88.80196         0.5231         0.7051           0.68       -41.1161      -1.162159              1      0.9969971
      8402.5000        -999.25        22.5199        60.4128        87.8855         0.5405         0.7211         0.6879       -40.4862     -0.5313988              1              1
      8403.0000        -999.25        21.7925        59.7425       86.29153         0.5512         0.7318          0.691       -40.1729      -0.217247              1              1
      8403.5000        -999.25        20.9838        59.3026       85.24545         0.5553          0.741         0.6922       -40.0485    -0.09198761              1              1
      8404.0000        -999.25        20.5276        60.0366       86.99084         0.5577         0.7446         0.6927        -40.431      -0.473629              1              1
      8404.5000        -999.25        20.4076          61.55       90.58971         0.5587         0.7393          0.704       -40.8184     -0.8601723              1              1
      8405.0000        -999.25        20.4497        61.3748       90.17312          0.572         0.7262         0.7149       -41.2831      -1.324017              1      0.9939997
      8405.5000        -999.25        20.4944        60.6481       88.44501         0.5823         0.7323         0.7209       -41.6867      -1.726757              1      0.9865415
      8406.0000        -999.25        20.2512         58.718       83.85524         0.5884         0.7417         0.7271       -41.9028      -1.942001              1      0.9825555
      8406.5000        -999.25        19.3936        57.7781       81.62018         0.5899         0.7559         0.7254       -41.5723      -1.610641              1      0.9886918
      8407.0000        -999.25        18.2408         57.566       81.11665         0.5847         0.7709         0.7224        -41.113      -1.150486              1      0.9972132
      8407.5000        -999.25        17.1575         57.492       80.94241         0.5748         0.7712         0.7139       -40.5507     -0.5873299              1              1
      8408.0000        -999.25        17.3677        57.8719       81.84754         0.5621         0.7657          0.701       -40.5347     -0.5704689              1              1
      8408.5000        -999.25        19.2086        58.6396       83.67487         0.5531         0.7589         0.6882       -40.9111     -0.9460106              1              1
      8409.0000        -999.25        20.4799        59.7939       86.42155         0.5453         0.7503         0.6832       -41.3064      -1.340454              1      0.9936953
      8409.5000        -999.25        21.1754        60.7449       88.68476         0.5385         0.7418         0.6794       -41.4441      -1.477299              1      0.9911611
      8410.0000        -999.25        20.9308        60.4581        88.0045         0.5337          0.737         0.6756       -41.3391      -1.371441              1      0.9931214
      8410.5000        -999.25        20.3163        59.7609       86.34831         0.5291         0.7338         0.6735       -41.2339      -1.265381              1      0.9950855
      8411.0000        -999.25        19.7562        58.7254        83.8877         0.5275         0.7307         0.6715       -41.1365      -1.167126              1      0.9969051
      8411.5000        -999.25        19.4047        58.2879       82.84904         0.5259         0.7254         0.6695       -41.0392       -1.06897              1      0.9987228
      8412.0000        -999.25        19.1391        57.5894       81.18977         0.5242         0.7193         0.6653       -40.9788      -1.007713              1      0.9998572
      8412.5000        -999.25        18.9216        56.3701       78.29199         0.5225         0.7133         0.6609       -41.0826      -1.110653      0.9636594      0.9979509
      8413.0000        -999.25        19.4173        55.7905       76.91547         0.5209         0.7071         0.6585       -41.1881      -1.215294      0.9343717      0.9960131
      8413.5000        -999.25        20.2794         56.212       77.91956         0.5181         0.7008         0.6589        -41.278       -1.30434      0.9557354      0.9943641
      8414.0000        -999.25        20.8557        56.6821       79.03919         0.5149         0.6944         0.6594       -41.3393       -1.36478      0.9795573      0.9932448
      8414.5000        -999.25        20.8757        56.7249       79.14272         0.5124         0.6882         0.6611       -41.3267      -1.351322      0.9817601       0.993494
      8415.0000        -999.25        20.1084        56.3627        78.2832         0.5114          0.688         0.6632       -41.3339      -1.357666      0.9634724      0.9933766
      8415.5000        -999.25        19.3507        56.1532       77.78671         0.5106         0.6923         0.6652       -41.4324      -1.455307      0.9529088      0.9915684
      8416.0000        -999.25        19.2822         56.379       78.32544         0.5103         0.6966         0.6644       -41.6772      -1.699253       0.964371      0.9870509
      8416.5000        -999.25         19.299        56.9338       79.64648         0.5092         0.6977         0.6633        -42.067      -2.088196      0.9924783      0.9798482
      8417.0000        -999.25        19.3859        57.8198       81.75515         0.5075         0.6971         0.6622       -42.0856      -2.105938              1      0.9795197
      8417.5000        -999.25         19.774        58.8847        84.2892         0.5084         0.6964         0.6601       -41.6269      -1.646378              1        0.98803
      8418.0000        -999.25        20.0929        59.6782        86.1779         0.5099         0.6936         0.6576       -41.2165      -1.235123              1      0.9956459
      8418.5000        -999.25         20.343        59.5983       85.98963         0.5106         0.6908         0.6551       -41.0056      -1.023365              1      0.9995673
      8419.0000        -999.25        20.5319        59.6052       86.00779         0.5105          0.688         0.6539       -41.4439      -1.460808              1      0.9914665
      8419.5000        -999.25        20.6586        60.0464        87.0587         0.5104         0.6847         0.6543       -41.7653      -1.781349              1      0.9855306
      8420.0000        -999.25        20.6877         60.914        89.1236         0.5104         0.7066         0.6547       -41.9529      -1.968094              1      0.9820724
      8420.5000        -999.25          20.36        61.7473       91.10693         0.5104         0.7046         0.6579       -42.0919      -2.106236              1      0.9795142
      8421.0000        -999.25        19.8287        62.2583       92.32386         0.5101         0.7037         0.6612       -42.1202      -2.133678              1      0.9790059
      8421.5000        -999.25        19.5877        62.6921       93.35715         0.5089         0.6998         0.6634       -42.0437       -2.05632              1      0.9804385
      8422.0000        -999.25        19.4321        63.1664       94.48679         0.5077         0.6974         0.6646       -41.7963      -1.808064              1      0.9850358
      8422.5000        -999.25        19.1106        61.5953       90.75249         0.5065          0.697         0.6658       -41.3985      -1.409405              1      0.9924184
      8423.0000        -999.25         18.999        60.5206        88.1986         0.5071         0.7001         0.6656       -40.8718     -0.8818474              1              1
      8423.5000        -999.25        19.3714        60.5317       88.22674         0.5088         0.7033         0.6629       -40.7616     -0.7707901              1              1
      8424.0000        -999.25        19.9412        61.5647       90.68497         0.5164         0.7079         0.6605        -40.898     -0.9063301              1              1
