#------------------------------------------------------------------------------
# Created by    : vladimir.rabinovich
# Created on    : 09/19/2023 17:21:25
#------------------------------------------------------------------------------
~Version Information Section
VERS.           2.0     :   CWLS log ASCII Standard - VERSION 2.0
WRAP.           NO      :   One line per depth step
~Well Information Section
#MNEM       .UNIT                                         VALUE :DESCRIPTION
#------------------------------------------------------------------------------
STRT        .FT                                            3400 :START DEPTH
STOP        .FT                                            8653 :STOP DEPTH
STEP        .FT                                             0.5 :STEP      
NULL        .                                           -999.25 :NULL      
COMP        .                          KING RANCH OIL & GAS INC :COMPANY   
WELL        .                               OCS G13784 ST00BP00 :WELL      
FLD         .                                           WILDCAT :FIELD     
LOC         .                                                   :LOCATION  
CNTY        .                             GALVESTON LARGE BLOCK :LOCATION  
STAT        .                                             TEXAS :STATE     
CTRY        .                                     UNITED STATES :COUNTRY   
SRVC        .                                                   :SERVICE COMPANY
DATE        .                             9/13/2023 11:19:54 AM :LOG DATE  
API         .                                    42706403430000 :API NUMBER
UWI         .                                    42706403430000 :UNIQUE WELL ID
XCOORD      .                                   967589.17441186 :SURFACE X 
YCOORD      .                                  10424680.8833423 :SURFACE Y 
LAT         .                                         28.709654 :LATITUDE  
LON         .                                        -95.099391 :LONGITUDE 
ELEV        .FT                                             106 :ELEVATION VALUE
ELEV_TYPE   .                                                KB :ELEVATION REFERENCE TYPE
~Curve Information Section
#MNEM       .UNIT                                      API CODE :CURVE DESCRIPTION
#------------------------------------------------------------------------------
DEPT        .FT                                                 :DEPTH     
CALI        .IN                                                 :          
DPHI        .%                                                  :          
DRHO        .G/C3                                               :          
DTLN        .US/F                                               :          
GR          .GAPI                                               :          
GR_1        .GAPI                                               :          
GR_NORM     .GAPI                                               :GammaRay Normalized
ILD         .OHMM                                               :          
ILM         .OHMM                                               :          
NPHI        .%                                                  :          
SFL         .OHMM                                               :          
SP          .MV                                                 :          
SP_NORM     .MV                                                 :SP Normalized
VSH_GR      .V/V                                                :Volume of Shale from GR
VSH_SP      .V/V                                                :Volume of Shale from SP
~A        DEPTH           CALI           DPHI           DRHO           DTLN             GR           GR_1        GR_NORM            ILD            ILM           NPHI            SFL             SP        SP_NORM         VSH_GR         VSH_SP
# ...
      7225.0000        -999.25        -999.25        -999.25       109.5625         33.368        69.6565        76.3661         0.8283         0.8306         59.378         0.7434       -50.6241      -6.562527      0.9226831      0.8806813
      7225.5000        -999.25        -999.25        -999.25       109.1316        32.4054        71.9904       79.28368         0.8377         0.8365        56.0139         0.7391       -50.4882      -6.427834      0.9847592      0.8831303
      7226.0000        -999.25        -999.25        -999.25       107.6278        31.4772        74.1027       81.92428         0.8472          0.843        55.0623         0.7363       -50.3524       -6.29324              1      0.8855774
      7226.5000        -999.25        -999.25        -999.25       106.0815        30.6951        74.6222       82.57386         0.8571         0.8563        55.0986         0.7678       -50.3491      -6.291142              1      0.8856156
      7227.0000        -999.25        -999.25        -999.25       104.3677        31.0794        72.9087       80.43221         0.8597         0.8767         55.214         0.8056       -50.5379      -6.481148              1       0.882161
      7227.5000        -999.25        -999.25        -999.25       104.9507        32.7025        71.3232       78.45054         0.8585         0.8781        55.1251         0.8297       -50.5685      -6.512959      0.9670327      0.8815826
      7228.0000        -999.25        -999.25        -999.25       107.0273        33.8696        70.0308       76.83526         0.8525         0.8599        54.3543         0.8372       -50.3978      -6.343464      0.9326651      0.8846643
      7228.5000        -999.25        -999.25        -999.25       109.0928        34.1759        70.1243       76.95235         0.8435          0.831        55.9332         0.7868       -50.2939      -6.240768      0.9351563      0.8865315
      7229.0000        -999.25        -999.25        -999.25       110.0496        32.4398        70.9071       77.93106         0.8292         0.8033        58.6289         0.7244        -50.246      -6.194073        0.95598      0.8873805
      7229.5000        -999.25        -999.25        -999.25       110.3063        30.9174        70.4763       77.39278          0.801         0.7828        59.9426         0.6955       -50.3471      -6.296379      0.9445271      0.8855204
      7230.0000        -999.25        -999.25        -999.25        110.791        29.9008        69.8282       76.58287         0.7789         0.7633        61.6985         0.7205       -50.4243       -6.37479      0.9272951      0.8840947
      7230.5000        -999.25        -999.25        -999.25       111.4666        29.2632        69.8535        76.6147         0.7595         0.7415        61.9762         0.7448       -50.1877      -6.139393      0.9279724      0.8883747
      7231.0000        -999.25        -999.25        -999.25       112.3342        29.2144        72.8152       80.31705         0.7446         0.7227        62.5638         0.7185       -49.9544      -5.907299              1      0.8925946
      7231.5000        -999.25        -999.25        -999.25       113.2699        30.1169        74.2882       82.15851         0.7299         0.7103        63.0527         0.6895       -49.8517      -5.805805              1      0.8944399
      7232.0000        -999.25        -999.25        -999.25       113.7191         31.961        73.6891       81.40984         0.7183         0.6991        59.6411         0.6621         -49.83      -5.785313              1      0.8948125
      7232.5000        -999.25        -999.25        -999.25       112.9672        33.1507        71.5116       78.68819         0.7115         0.6915         57.231         0.6385       -49.7637      -5.720219      0.9720891       0.895996
      7233.0000        -999.25        -999.25        -999.25       111.5586        33.6486        70.3495       77.23578         0.7118         0.6958        56.6932         0.6222       -49.7289      -5.686626      0.9411868      0.8966068
      7233.5000        -999.25        -999.25        -999.25        110.402        34.2667        69.2515       75.86349         0.7163         0.7047         56.381         0.6465       -49.8155      -5.774429      0.9119893      0.8950104
      7234.0000        -999.25        -999.25        -999.25       110.2538        34.9481        67.8544       74.11732          0.722         0.7173        55.1198         0.6781       -49.9053      -5.865437      0.8748367      0.8933557
      7234.5000        -999.25        -999.25        -999.25       110.3558        32.8965        66.4504       72.36255         0.7314           0.73        53.4026         0.6849       -50.0303      -5.991642       0.837501      0.8910611
      7235.0000        -999.25        -999.25        -999.25       110.4039        32.2535        67.4014        73.5515         0.7411          0.744        53.6658         0.6792       -50.1551      -6.117653      0.8627979      0.8887699
      7235.5000        -999.25        -999.25        -999.25       108.2108        32.0294        69.0485        75.6106         0.7518         0.7585        53.8354         0.6764         -50.28      -6.243755      0.9066084      0.8864772
      7236.0000        -999.25        -999.25        -999.25       106.1235        31.6522        69.6294       76.33694         0.7627         0.7707        52.4928         0.6906        -50.405      -6.369961      0.9220625      0.8841825
      7236.5000        -999.25        -999.25        -999.25       105.8574        31.1936        68.0784       74.39841         0.7739         0.7816         51.931         0.7167       -50.9897      -6.955868      0.8808172      0.8735297
      7237.0000        -999.25        -999.25        -999.25        105.951        30.5822        66.7502       72.73836         0.7808         0.7903        54.2167         0.7695       -51.5331      -7.500473       0.845497      0.8636278
      7237.5000        -999.25        -999.25        -999.25        106.012        30.5981        68.3418       74.72808         0.7878         0.7979        55.2831         0.7997       -52.0126      -7.981182      0.8878315      0.8548876
      7238.0000        -999.25        -999.25        -999.25       105.7628         32.791        70.1686        77.0118         0.7946         0.8053        55.0117         0.8124       -52.4797      -8.449486      0.9364212       0.846373
      7238.5000        -999.25        -999.25        -999.25       105.5706        35.1286        69.7303       76.46414         0.8003         0.8118        56.1066         0.8196       -52.6619      -8.632893       0.924769      0.8430383
      7239.0000        -999.25        -999.25        -999.25       105.9164        37.5326        66.5447       72.48235         0.8055         0.8183        57.7991         0.8251        -52.722      -8.694199      0.8400499      0.8419237
      7239.5000        -999.25        -999.25        -999.25       107.4302        38.7432        64.5677       70.01132         0.8078         0.8163        59.0326         0.8231       -52.7179      -8.691303      0.7874749      0.8419763
      7240.0000        -999.25        -999.25        -999.25       109.2241         37.454         64.084        69.4069         0.8019          0.794        56.3398         0.8018       -52.7139      -8.688515      0.7746149       0.842027
      7240.5000        -999.25        -999.25        -999.25       110.7404        35.9979        66.6776       72.64912         0.7784         0.7663        53.6067         0.7801       -52.7098      -8.685619      0.8435982      0.8420796
      7241.0000        -999.25        -999.25        -999.25       111.7625        35.3069        69.4103       76.06521         0.7556         0.7388        51.5524         0.7476       -52.7057      -8.682724       0.916281      0.8421323
      7241.5000        -999.25        -999.25        -999.25       112.6995        35.4876        71.2715       78.39191          0.729          0.713        50.2408         0.6946       -52.7017      -8.679928      0.9657854      0.8421831
