#------------------------------------------------------------------------------
# Created by    : vladimir.rabinovich
# Created on    : 09/19/2023 17:22:34
#------------------------------------------------------------------------------
~Version Information Section
VERS.           2.0     :   CWLS log ASCII Standard - VERSION 2.0
WRAP.           NO      :   One line per depth step
~Well Information Section
#MNEM       .UNIT                                         VALUE :DESCRIPTION
#------------------------------------------------------------------------------
STRT        .FT                                            2432 :START DEPTH
STOP        .FT                                            8088 :STOP DEPTH
STEP        .FT                                             0.5 :STEP      
NULL        .                                           -999.25 :NULL      
COMP        .                                  XTO OFFSHORE INC :COMPANY   
WELL        .                               OCS G23162 ST00BP00 :WELL      
FLD         .                                 BRAZOS BLOCK 0398 :FIELD     
LOC         .                                                   :LOCATION  
CNTY        .                                BRAZOS LARGE BLOCK :LOCATION  
STAT        .                                             TEXAS :STATE     
CTRY        .                                     UNITED STATES :COUNTRY   
SRVC        .                                                   :SERVICE COMPANY
DATE        .                             9/13/2023 11:09:58 AM :LOG DATE  
API         .                                    42704403400000 :API NUMBER
UWI         .                                    42704403400000 :UNIQUE WELL ID
XCOORD      .                                  869002.191083907 :SURFACE X 
YCOORD      .                                  10369331.9113669 :SURFACE Y 
LAT         .                                        28.5523806 :LATITUDE  
LON         .                                       -95.4033279 :LONGITUDE 
ELEV        .FT                                             100 :ELEVATION VALUE
ELEV_TYPE   .                                                KB :ELEVATION REFERENCE TYPE
~Curve Information Section
#MNEM       .UNIT                                      API CODE :CURVE DESCRIPTION
#------------------------------------------------------------------------------
DEPT        .FT                                                 :DEPTH     
CO12        .MMHO                                               :          
DCAL        .IN                                                 :          
DPHI        .FRAC                                               :          
DRHO        .G/CC                                               :          
GR          .GAPI                                               :          
GR_NORM     .GAPI                                               :GammaRay Normalized
HO01        .OHMM                                               :          
HO02        .OHMM                                               :          
HO03        .OHMM                                               :          
HO06        .OHMM                                               :          
HO09        .OHMM                                               :          
HO12        .OHMM                                               :          
NPHI        .FRAC                                               :          
RWA         .OHMM                                               :          
SP          .MV                                                 :          
SP_NORM     .MV                                                 :SP Normalized
TENS        .LB/F                                               :          
VSH_GR      .V/V                                                :Volume of Shale from GR
VSH_SP      .V/V                                                :Volume of Shale from SP
~A        DEPTH           CO12           DCAL           DPHI           DRHO             GR        GR_NORM           HO01           HO02           HO03           HO06           HO09           HO12           NPHI            RWA             SP        SP_NORM           TENS         VSH_GR         VSH_SP
# ...
      2864.0000       1404.963         3.6266         0.3164          0.058        79.4521       65.17242         0.7066         0.6903         0.6895         0.6704         0.7169         0.7137         0.4817         0.0993        68.8776     -0.1358032       2745.603      0.6845196              1
      2864.5000        1415.84         3.6189         0.3159         0.0671        80.9878       66.80837         0.6496         0.6537         0.6611         0.6458         0.6844         0.6828         0.4806         0.0947        68.9009     -0.1104126       2747.637      0.7193271              1
      2865.0000       1385.359         3.6189         0.3172         0.0756         81.409       67.25868         0.6714         0.6823         0.6899         0.6696         0.7249         0.7237         0.4652         0.0999        68.4228     -0.5864182       2747.411      0.7289081              1
      2865.5000       1324.861         3.6189         0.3221         0.0785        80.4934       66.28688         0.7339         0.7466         0.7482         0.7201         0.7657         0.7635          0.465          0.108        67.8319      -1.175224        2744.02      0.7082315              1
      2866.0000        1305.79         3.6035         0.3284         0.0762        80.4252       66.21655         0.7715         0.7656         0.7614          0.732         0.7833         0.7794         0.4839         0.1116        67.4004       -1.60463        2741.76      0.7067352              1
      2866.5000       1316.825         3.5036         0.3294          0.073        81.5899       67.45782         0.7617         0.7513          0.747         0.7167         0.7599         0.7549         0.4669         0.1158        67.2244      -1.778534       2743.794      0.7331451              1
      2867.0000       1357.553         3.4959         0.3276         0.0684        82.3991       68.32091         0.7471         0.7341         0.7316         0.7032         0.7504         0.7447         0.4544         0.1057         67.261      -1.739838        2745.15      0.7515087              1
      2867.5000       1393.808          3.542         0.3232         0.0663        81.7746       67.65878         0.7257         0.7053         0.7024         0.6777         0.7175         0.7117         0.4492         0.1011        67.3141      -1.684647       2742.212      0.7374207              1
      2868.0000       1430.404         3.6266         0.3218         0.0664        79.8085        65.5694         0.7216         0.6887         0.6839         0.6609          0.704         0.6976         0.4482         0.0989        67.0983      -1.898354       2737.917       0.692966              1
      2868.5000       1440.082         3.7572         0.3258         0.0682        79.6281       65.37971         0.7412         0.6956         0.6857         0.6603         0.6955         0.6884         0.4429         0.1006        66.6867      -2.307861       2736.561      0.6889301      0.9828966
      2869.0000       1417.752         3.8879         0.3348         0.0709        81.0941       66.94153          0.761         0.7025         0.6902         0.6663         0.7055         0.6973         0.4599         0.1093        66.3447      -2.647758       2739.726      0.7221602      0.9640134
      2869.5000       1380.084         3.9724         0.3468         0.0719        85.1434       71.25153         0.8255         0.7321         0.7157          0.688         0.7416         0.7318         0.4612         0.1222         66.212      -2.778374       2741.534      0.8138623       0.956757
      2870.0000       1349.276         4.0647           0.36         0.0693        86.6108       72.81481         0.8832         0.7729         0.7442         0.7118         0.7566         0.7465         0.4603         0.1348        66.2518      -2.736473       2737.013      0.8471237      0.9590848
      2870.5000       1340.716         4.1646         0.3741         0.0672        87.2489       73.49587         0.8698         0.7715         0.7419         0.7025         0.7545         0.7453         0.4704         0.1454        66.5074      -2.478783       2728.649      0.8616143       0.973401
      2871.0000       1338.177         4.2645         0.3906         0.0659        86.2973       72.48577         0.8393         0.7661         0.7417         0.7068         0.7538         0.7459         0.4697         0.1585         66.939      -2.045082        2723.45      0.8401228      0.9974954
      2871.5000       1360.996         4.1262         0.4092         0.0598        86.6449       72.85777         0.8157         0.7713         0.7417         0.7025         0.7577         0.7507         0.4767          0.178        67.4701      -1.511894       2724.128      0.8480377              1
      2872.0000       1401.476         3.8956         0.4195         0.0497        84.3775       70.44788         0.8094         0.7329          0.701         0.6703         0.7152         0.7091         0.4986         0.1909        67.7655      -1.214394       2727.293      0.7967635              1
      2872.5000       1436.694         3.8956         0.4173         0.0355        80.8425       66.68948         0.7593         0.6868         0.6618         0.6361         0.6904         0.6839         0.5014          0.178        67.4435      -1.534309       2730.005      0.7167974              1
      2873.0000       1408.677         3.9109         0.4036         0.0273        76.5748        62.1516         0.7417         0.7005         0.6858         0.6588         0.7041         0.6956         0.4898         0.1625        66.5174      -2.458305       2733.622      0.6202468      0.9745386
      2873.5000       1367.506         4.0339         0.3895         0.0282        74.5336       59.98233         0.8603         0.7702          0.743         0.7125         0.7667          0.754         0.4993         0.1493        65.5945       -3.37912       2739.726      0.5740922      0.9233822
      2874.0000       1337.592         4.4413         0.3836         0.0338        76.0654       61.61414         0.9497         0.7979         0.7528         0.7179         0.7615          0.747         0.4947         0.1466        65.4252      -3.546318       2743.794      0.6088115      0.9140934
      2874.5000        1350.68         4.4567         0.3835          0.041        81.0882       66.95979         0.9117         0.7797         0.7412         0.7067         0.7571         0.7419         0.4993         0.1558        65.8335      -3.135925        2744.02      0.7225486       0.936893
      2875.0000       1344.947          4.449         0.3906         0.0456        87.5044       73.78775         0.8755         0.7435         0.7188         0.7028         0.7467         0.7324         0.5179         0.1569        66.3281      -2.639229       2742.438      0.8678245      0.9644873
      2875.5000       1331.273          4.449         0.3985         0.0506         90.487       76.96296         0.8724         0.7319         0.7195         0.7227         0.7702         0.7567         0.5497         0.1681        66.8427      -2.122543        2744.02      0.9353821       0.993192
      2876.0000       1347.892          4.349          0.407         0.0518        90.0058       76.45327         0.8509         0.7296          0.717         0.7214          0.776         0.7652         0.5319         0.1741        67.5033      -1.459839       2748.993      0.9245377              1
      2876.5000       1408.843         4.2876         0.4129         0.0484        88.6978       75.06402         0.7169         0.6673          0.667         0.6633         0.7128         0.7066         0.5342         0.1721        68.1639     -0.7971497        2751.48      0.8949791              1
      2877.0000       1474.164         4.2722         0.4142           0.04        89.6738       76.10454         0.6256         0.6079         0.6211         0.6236         0.6677         0.6648         0.5382         0.1663        68.5722     -0.3867569       2749.671      0.9171178              1
