#------------------------------------------------------------------------------
# Created by    : vladimir.rabinovich
# Created on    : 09/19/2023 17:19:58
#------------------------------------------------------------------------------
~Version Information Section
VERS.           2.0     :   CWLS log ASCII Standard - VERSION 2.0
WRAP.           NO      :   One line per depth step
~Well Information Section
#MNEM       .UNIT                                         VALUE :DESCRIPTION
#------------------------------------------------------------------------------
STRT        .FT                                             782 :START DEPTH
STOP        .FT                                            8251 :STOP DEPTH
STEP        .FT                                             0.5 :STEP      
NULL        .                                           -999.25 :NULL      
COMP        .                                     TALOS ERT LLC :COMPANY   
WELL        .                               OCS G06037 ST00BP00 :WELL      
FLD         .                       MATAGORDA ISLAND BLOCK 0619 :FIELD     
LOC         .                                                   :LOCATION  
CNTY        .                      MATAGORDA ISLAND LARGE BLOCK :LOCATION  
STAT        .                                             TEXAS :STATE     
CTRY        .                                     UNITED STATES :COUNTRY   
SRVC        .                                                   :SERVICE COMPANY
DATE        .                             9/13/2023 11:18:52 AM :LOG DATE  
API         .                                    42703402240000 :API NUMBER
UWI         .                                    42703402240000 :UNIQUE WELL ID
XCOORD      .                                  606760.800591327 :SURFACE X 
YCOORD      .                                  10227689.0556145 :SURFACE Y 
LAT         .                                        28.1463556 :LATITUDE  
LON         .                                       -96.2076889 :LONGITUDE 
ELEV        .FT                                              77 :ELEVATION VALUE
ELEV_TYPE   .                                                KB :ELEVATION REFERENCE TYPE
~Curve Information Section
#MNEM       .UNIT                                      API CODE :CURVE DESCRIPTION
#------------------------------------------------------------------------------
DEPT        .FT                                                 :DEPTH     
ASFL        .OHMM                                               :          
CALI        .IN                                                 :          
CILD        .MMHO                                               :          
DRHO        .G/C3                                               :          
DT          .US/F                                               :          
GR          .GAPI                                               :          
GR_NORM     .GAPI                                               :GammaRay Normalized
ILD         .OHMM                                               :          
ILM         .OHMM                                               :          
NPHI        .%                                                  :          
RHOB        .G/C3                                               :          
SFL         .OHMM                                               :          
SP          .MV                                                 :          
SP_NORM     .MV                                                 :SP Normalized
VSH_GR      .V/V                                                :Volume of Shale from GR
VSH_SP      .V/V                                                :Volume of Shale from SP
~A        DEPTH           ASFL           CALI           CILD           DRHO             DT             GR        GR_NORM            ILD            ILM           NPHI           RHOB            SFL             SP        SP_NORM         VSH_GR         VSH_SP
# ...
      5758.0000         1.0957        11.7414       938.2852         0.0234       112.4536         60.762       67.35413         1.0434         1.0858        39.9908         2.2506         1.0649       -45.8332       -1.52182       0.730939              1
      5758.5000         1.1131        11.7534       932.3242         0.0164       113.0706        60.1694       66.18426         1.0545         1.1005        38.2936         2.2418         1.0783       -46.2485      -1.937122       0.706048              1
      5759.0000         1.1298         11.861       910.8389         0.0167       111.5188         59.876       65.60532         1.0681          1.117        37.6059          2.237         1.1027       -45.9819      -1.670521      0.6937301              1
      5759.5000          1.145        11.9739       889.3525         0.0223       106.3372        59.7396       65.33646         1.1014          1.146        37.3199          2.241         1.1335       -45.6925      -1.381123      0.6880099              1
      5760.0000         1.1602        12.0558       869.7158         0.0297       101.9718        59.6255       65.11169         1.2481          1.184        36.4346         2.2465         1.1703       -45.8583      -1.546921      0.6832274              1
      5760.5000         1.1782        12.1231       856.3926         0.0358        99.4861         59.523       64.90979         1.2545         1.1987        35.4899         2.2488           1.29       -46.0674      -1.756023      0.6789317              1
      5761.0000         1.1992        12.1365       843.0566          0.038       101.0479         59.648       65.15729         1.1739          1.172        35.8983         2.2414         1.4318       -46.1642      -1.852821      0.6841976              1
      5761.5000          1.221        12.1445       855.3379         0.0373        106.298        60.7551       67.34451         1.1105          1.133         37.623         2.2227         1.2821       -45.9993       -1.68792      0.7307343              1
      5762.0000         1.2231        12.1533       872.1719         0.0356       108.8033        63.6216       73.00677         1.0752         1.1017        40.2701         2.2085         1.0987       -45.6658       -1.35442      0.8512078              1
      5762.5000          1.198        12.1502       896.9697         0.0333       109.3458         65.025       75.77921          1.048         1.0733        41.5969         2.1969         0.9795        -45.525      -1.213623      0.9101959              1
      5763.0000         1.1675        12.1422       934.4336         0.0293       109.3544        63.2075       72.18999         1.0255         1.0484        41.6597          2.188         0.9724       -45.4446      -1.133221      0.8338295              1
      5763.5000         1.1075         12.134        969.168         0.0221         109.15        61.2964       68.41592         1.0034         1.0197           41.2         2.1816         1.0083       -45.2694     -0.9580231      0.7535301              1
      5764.0000          1.084        12.1371       991.5469         0.0158       109.5231        59.1634       64.20355         0.9765         0.9925        40.1958         2.1758         1.0548        -44.967     -0.6556206      0.6639054              1
      5764.5000         1.0757        12.1042        1013.95         0.0137       111.6898        58.1821       62.26591         0.9502          0.971        39.2696         2.1764         1.0819       -44.2846     0.02677917      0.6226791              1
      5765.0000         1.0674        12.0454       1035.162         0.0175       113.4766        58.6332       63.15749         0.9211         0.9549         38.512         2.1836         1.0699       -44.3139   -0.002521515      0.6416487              1
      5765.5000         1.0596        12.0452       1055.408         0.0249       114.7317        59.5626       64.99374         0.9148         0.9431        37.9763         2.1869         1.0438       -45.1834     -0.8720207      0.6807179              1
      5766.0000          1.068        12.0705       1040.199         0.0198       114.6461        59.6979       65.26154         0.9644          0.948        38.0381         2.1788          1.023       -45.8344      -1.523022      0.6864158              1
      5766.5000         1.0765        12.1159       990.3066         0.0116       113.7943        58.4199       62.73789         1.0209         0.9719         39.566         2.1738         0.9575       -45.6315      -1.320122       0.632721              1
      5767.0000          1.085        12.1488       937.4102         0.0041       109.7101        55.4935        56.9585         1.0822         1.0281        41.3767         2.1913         0.9376       -45.1911     -0.8797226      0.5097553              1
      5767.5000         1.1162        12.2101       909.5732        -0.0017       102.3188        52.4173       50.88319         1.1243         1.1177        42.1417         2.2325          1.159        -45.018     -0.7066231      0.3804934              1
      5768.0000         1.1694        12.2287       890.0977        -0.0024        97.4086        51.7225       49.51143          1.134         1.2024        40.5627         2.2822         1.5829       -45.0966     -0.7852211       0.351307              1
      5768.5000         1.2369        12.1593       881.4492         0.0046        96.0325        55.0943       56.17173         1.1014         1.2074        36.3217         2.3369         1.7989       -45.4146      -1.103222      0.4930154              1
      5769.0000         1.2716        12.1097       881.4971         0.0124        99.8209        59.7472       65.36233         1.0801         1.1368        35.3012          2.312         1.6923       -45.8427      -1.531322      0.6885602              1
      5769.5000         1.2694        12.1159       881.5449         0.0106       107.2463        63.2899       72.36016         1.0838         1.0476        36.4212         2.2681         1.4326        -46.098      -1.786621      0.8374502              1
      5770.0000         1.2327        12.1247       881.5937         0.0053        111.597        66.2263       78.16048         0.9892         0.9905         38.746          2.209         1.1987       -46.1382       -1.82682      0.9608612              1
      5770.5000         1.1424        12.1033       912.1289        -0.0031       114.6156        66.2506       78.20908         0.9122         0.9451        41.7734         2.1394         0.9249       -46.1122      -1.800823      0.9618954              1
      5771.0000         1.0622        12.0669       947.3096        -0.0051       115.1887        65.7335       77.18828         0.8794         0.9249        42.1982         2.1369         0.8818       -46.1346      -1.823223      0.9401761              1
      5771.5000          0.999        12.0567       997.5508        -0.0058       115.3096        65.0461       75.83113         0.8631         0.9058        41.1791         2.1445         0.9057       -46.3791      -2.067722      0.9113007      0.9975814
      5772.0000         0.9812         12.073       1055.904         -0.006       115.1488        64.0183        73.8017         0.8495         0.8923        40.5076         2.1533         0.9414       -46.7555      -2.444122      0.8681214      0.9841385
      5772.5000         0.9972        12.1099       1115.201        -0.0081        114.629        62.4307       70.66656         0.8416         0.8838         41.298         2.1522         0.9734       -46.8324      -2.521023      0.8014161       0.981392
      5773.0000         1.0131        12.1452       1150.332        -0.0097       113.9716        62.7759       71.34896         0.8562         0.8902        42.7471         2.1519         1.0053       -45.6187       -1.30732      0.8159353              1
      5773.5000          1.029        12.1624       1121.949        -0.0063       112.8777         64.889       75.52315         0.8828         0.9029        42.2877         2.1606           1.04       -44.7102     -0.3988228      0.9047478              1
