#------------------------------------------------------------------------------
# Created by    : vladimir.rabinovich
# Created on    : 09/19/2023 17:22:33
#------------------------------------------------------------------------------
~Version Information Section
VERS.           2.0     :   CWLS log ASCII Standard - VERSION 2.0
WRAP.           NO      :   One line per depth step
~Well Information Section
#MNEM       .UNIT                                         VALUE :DESCRIPTION
#------------------------------------------------------------------------------
STRT        .FT                                            2877 :START DEPTH
STOP        .FT                                            8775 :STOP DEPTH
STEP        .FT                                             0.5 :STEP      
NULL        .                                           -999.25 :NULL      
COMP        .                                       APACHE CORP :COMPANY   
WELL        .                                  HIGH ISLAND 10-L :WELL      
FLD         .                                           WILDCAT :FIELD     
LOC         .                                                   :LOCATION  
CNTY        .                           HIGH ISLAND LARGE BLOCK :LOCATION  
STAT        .                                             TEXAS :STATE     
CTRY        .                                     UNITED STATES :COUNTRY   
SRVC        .                                                   :SERVICE COMPANY
DATE        .                             9/13/2023 11:19:15 AM :LOG DATE  
API         .                                    42708303590000 :API NUMBER
UWI         .                                    42708303590000 :UNIQUE WELL ID
XCOORD      .                                  1323081.96300683 :SURFACE X 
YCOORD      .                                  10736101.4448574 :SURFACE Y 
LAT         .                                        29.5789626 :LATITUDE  
LON         .                                       -93.9986282 :LONGITUDE 
ELEV        .FT                                             100 :ELEVATION VALUE
ELEV_TYPE   .                                                KB :ELEVATION REFERENCE TYPE
~Curve Information Section
#MNEM       .UNIT                                      API CODE :CURVE DESCRIPTION
#------------------------------------------------------------------------------
DEPT        .FT                                                 :DEPTH     
CNCSS       .%                                                  :          
DCAL        .IN                                                 :          
GRR         .GAPI                                               :          
ILD         .OHMM                                               :          
ILM         .OHMM                                               :          
PORZSS      .%                                                  :          
RFOC        .OHMM                                               :          
SP          .MV                                                 :          
SP_NORM     .MV                                                 :SP Normalized
TENR        .LB                                                 :          
VSH_SP      .V/V                                                :Volume of Shale from SP
ZCOR        .G/CM3                                              :          
~A        DEPTH          CNCSS           DCAL            GRR            ILD            ILM         PORZSS           RFOC             SP        SP_NORM           TENR         VSH_SP           ZCOR
# ...
      4148.0000        44.5278         0.2477        51.2332         0.4581         0.4816        30.3125         0.8838       -28.8745      -22.35685           1240      0.7091879         0.0015
      4148.5000        41.3556         0.2182        57.6977         0.4624         0.4884        30.3097         0.8073       -20.9002      -14.38404           1240      0.8230851         0.0215
      4149.0000        40.5797         0.1787        61.0138         0.4731         0.4952        29.9475          0.733       -16.5028      -9.988145           1230      0.8858836         0.0295
      4149.5000        41.2314         0.1693        67.1829         0.4798         0.5044        29.4645          0.713       -17.4656      -10.95244           1220       0.872108         0.0395
      4150.0000        41.3476         0.1797        69.2948         0.4821         0.5045        29.0415         0.7605       -21.8134      -15.30174           1210      0.8099751         0.0416
      4150.5000        39.0883           0.15           67.8         0.4756         0.4977          28.62          0.841       -27.6033      -21.09314       1199.703      0.7272408         0.0257
      4151.0000        38.4328           0.09          62.85         0.4482         0.4691          28.14         0.8802       -30.6073      -24.09864       1209.208      0.6843051         0.0256
      4151.5000        39.0259           0.05           61.2         0.4322         0.4401          27.48         0.8645        -33.009      -26.50184       1228.713      0.6499738         0.0215
      4152.0000        39.7981              0           59.7          0.413         0.4322             27         0.8416       -38.2032      -31.69754       1228.218      0.5757494         0.0135
      4152.5000        39.8565           0.02          55.65         0.4074         0.4283          27.12         0.8266       -43.1683      -36.66414       1227.723       0.504798         0.0114
      4153.0000        38.9024           0.01          51.75         0.4037         0.4263          28.08          0.812       -44.5545      -38.05184       1217.228      0.4849738         0.0074
      4153.5000        38.1261          -0.02          50.25         0.3982         0.4205          29.28         0.7866       -39.2026      -32.70144       1236.733       0.561408         0.0053
      4154.0000        37.5875          -0.04           55.8         0.3945          0.413          29.46         0.7831       -32.8272      -26.32754       1276.238      0.6524637         0.0092
      4154.5000        38.0029          -0.06          62.55         0.3891         0.4037          29.22         0.7833       -28.2503      -21.75214       1285.743      0.7178266         0.0229
      4155.0000        39.3737          -0.11           65.4          0.382         0.3963          28.98         0.7871       -30.0476      -23.55094       1285.248      0.6921295         0.0228
      4155.5000         40.089          -0.13          67.05         0.3716         0.3855           29.1         0.7801       -36.0211      -29.52593       1284.703      0.6067724         0.0227
      4156.0000        39.4309          -0.13          62.25         0.3549         0.3682          29.64         0.7486       -41.1881      -34.69443       1274.208      0.5329367         0.0246
      4156.5000         39.609          -0.13          57.15         0.3453         0.3582        30.2981         0.7217       -43.7624      -37.27023       1273.713      0.4961395         0.0265
      4157.0000        40.5647          -0.15          52.35         0.3299         0.3422        30.9536         0.7559       -44.3564      -37.86573       1283.218      0.4876324         0.0284
      4157.5000        41.1623          -0.15           49.5         0.3151         0.3314        31.5488          0.799       -43.3663      -36.87713       1282.723      0.5017553         0.0263
      4158.0000        41.9401          -0.15          48.15         0.3196          0.347        31.8456         0.8065       -39.0077      -32.52003       1282.228      0.5639995         0.0163
      4158.5000        43.2497          -0.16          52.05         0.3361          0.365        32.0232         0.7392       -29.4872      -23.00103       1271.733      0.6999853         0.0083
      4159.0000        44.5576          -0.17          61.05         0.3551         0.3839        32.0817         0.6931       -19.3766      -12.89193       1281.238       0.844401         0.0161
      4159.5000        45.7453          -0.17           74.1         0.3735         0.4037        32.0807         0.6648       -11.5916      -5.108429       1300.743      0.9555939         0.0417
      4160.0000        47.0507          -0.17         84.505         0.3946         0.4225        31.9014         0.6967        -8.3981      -1.916428       1300.248              1         0.0575
      4160.5000          48.36           -0.2        93.2673         0.4148         0.4442        31.8416         0.7196             -7     -0.5198269           1280              1         0.0574
      4161.0000          50.52          -0.21         95.198         0.4381         0.4606        32.0792         0.7163           -6.6      -0.121326           1270              1         0.0574
      4161.5000          52.26          -0.25         94.604         0.4586         0.4691        32.5545          0.713             -6      0.4771748           1280              1         0.0614
      4162.0000          49.68          -0.25        93.8614         0.4544         0.4586        32.6139          0.713           -5.4       1.075675           1300              1         0.0634
      4162.5000        47.5248          -0.25        91.6337         0.4482         0.4503        32.5545          0.713           -5.4       1.074176           1280              1         0.0653
      4163.0000             51          -0.23        89.1089         0.4422         0.4422        32.5545          0.713           -5.6      0.8726768           1250              1         0.0673
      4163.5000           57.9          -0.19        87.6238         0.4381         0.4362        31.9604         0.7032             -6      0.4711776           1230              1         0.0733
      4164.0000           58.5          -0.15         89.703         0.4381         0.4586        30.1188         0.6775           -6.8     -0.3303218           1240              1          0.095
      4164.5000          54.06          -0.15        91.7822         0.4606         0.4887          27.78         0.6618           -8.4       -1.93182           1250              1         0.1921
      4165.0000          49.44          -0.05        92.6733         0.4865         0.5209          24.06         0.7196            -12       -5.53332           1240       0.949524         0.1921
      4165.5000        44.7327           0.01        83.7624         0.5115         0.5527          20.64         0.8409          -17.4      -10.93482           1230      0.8723598         0.1624
      4166.0000           41.1           0.08           74.1         0.5428         0.5892          21.54         0.9684       -21.3861      -14.92242           1240       0.815394         0.0911
      4166.5000          38.76           0.13           66.9         0.5733         0.6316           22.5         1.0231       -24.5545      -18.09232           1250      0.7701097         0.0634
      4167.0000          38.16           0.14          64.05         0.6056         0.6526           22.8         1.0562       -27.3267      -20.86602           1260      0.7304855         0.0554
      4167.5000          37.38           0.16          61.05         0.6346         0.6618          22.98         1.1055       -30.6931      -24.23392           1260      0.6823726         0.0455
      4168.0000        35.1089           0.16             57         0.6376         0.6588          23.28         1.1892       -34.0594      -27.60172           1240      0.6342612         0.0356
