#------------------------------------------------------------------------------
# Created by    : vladimir.rabinovich
# Created on    : 09/19/2023 17:20:33
#------------------------------------------------------------------------------
~Version Information Section
VERS.           2.0     :   CWLS log ASCII Standard - VERSION 2.0
WRAP.           NO      :   One line per depth step
~Well Information Section
#MNEM       .UNIT                                         VALUE :DESCRIPTION
#------------------------------------------------------------------------------
STRT        .FT                                             510 :START DEPTH
STOP        .FT                                            9509 :STOP DEPTH
STEP        .FT                                             0.5 :STEP      
NULL        .                                           -999.25 :NULL      
COMP        .                       BLUE DOLPHIN EXPLORATION CO :COMPANY   
WELL        .                                OCS 00714 ST00BP00 :WELL      
FLD         .                              GALVESTON BLOCK 0288 :FIELD     
LOC         .                                                   :LOCATION  
CNTY        .                             GALVESTON LARGE BLOCK :LOCATION  
STAT        .                                             TEXAS :STATE     
CTRY        .                                     UNITED STATES :COUNTRY   
SRVC        .                                                   :SERVICE COMPANY
DATE        .                             9/13/2023 11:19:25 AM :LOG DATE  
API         .                                    42706000660000 :API NUMBER
UWI         .                                    42706000660000 :UNIQUE WELL ID
XCOORD      .                                  1093932.46617998 :SURFACE X 
YCOORD      .                                  10479390.8980397 :SURFACE Y 
LAT         .                                         28.865655 :LATITUDE  
LON         .                                       -94.7077791 :LONGITUDE 
ELEV        .FT                                              83 :ELEVATION VALUE
ELEV_TYPE   .                                                KB :ELEVATION REFERENCE TYPE
~Curve Information Section
#MNEM       .UNIT                                      API CODE :CURVE DESCRIPTION
#------------------------------------------------------------------------------
DEPT        .FT                                                 :DEPTH     
ASN         .OHMM                                               :          
CALI        .IN                                                 :          
DT          .US/F                                               :          
IL          .OHMM                                               :          
SP          .MV                                                 :          
SP_NORM     .MV                                                 :SP Normalized
VSH_SP      .V/V                                                :Volume of Shale from SP
~A        DEPTH            ASN           CALI             DT             IL             SP        SP_NORM         VSH_SP
# ...
      8282.0000         1.1656        -999.25        -999.25         0.6171       -71.8928      -30.17835      0.2584645
      8282.5000         1.1258        -999.25        -999.25         0.6172        -72.094      -30.38153      0.2531176
      8283.0000          1.115        -999.25        -999.25         0.6182       -70.0225      -28.31201      0.3075787
      8283.5000         1.1719        -999.25        -999.25         0.6208       -67.6484      -25.93989       0.370003
      8284.0000         1.2419        -999.25        -999.25         0.6257       -66.0265      -24.31997      0.4126325
      8284.5000         1.3363        -999.25        -999.25         0.6437       -66.5559      -24.85135      0.3986487
      8285.0000         1.5115        -999.25        -999.25           0.68       -71.2589      -29.55633      0.2748334
      8285.5000         1.7051        -999.25        -999.25         0.7202       -74.4242      -32.72361      0.1914839
      8286.0000         1.8524        -999.25        -999.25          0.762       -75.6595      -33.96089      0.1589239
      8286.5000         1.9113        -999.25        -999.25         0.7948       -75.3639      -33.66727      0.1666508
      8287.0000         1.8214        -999.25        -999.25         0.8245       -72.4144      -30.71975      0.2442171
      8287.5000         1.7264        -999.25        -999.25         0.8203       -69.7324      -28.03973      0.3147439
      8288.0000         1.5771        -999.25        -999.25          0.809       -68.0283      -26.33761      0.3595366
      8288.5000         1.3612        -999.25        -999.25         0.7896       -66.7672      -25.07849      0.3926714
      8289.0000         1.2471        -999.25        -999.25         0.7525       -65.1846      -23.49787      0.4342665
      8289.5000         1.1447        -999.25        -999.25         0.7308       -62.8286      -21.14385      0.4962144
      8290.0000         1.0921        -999.25        -999.25         0.7199       -61.0874      -19.40463      0.5419834
      8290.5000         1.0189        -999.25        -999.25          0.709       -62.1159      -20.43511      0.5148656
      8291.0000         0.9751        -999.25        -999.25         0.7032       -62.8083      -21.12949      0.4965924
      8291.5000         0.9727        -999.25        -999.25         0.7009       -59.7262      -18.04937      0.5776482
      8292.0000         1.0438        -999.25        -999.25         0.7069       -56.5744      -14.89955      0.6605381
      8292.5000         1.0815        -999.25        -999.25         0.7038       -51.0598      -9.386929      0.8056071
      8293.0000         1.0515        -999.25        -999.25         0.7053       -51.3566      -9.685711      0.7977445
      8293.5000         1.0734        -999.25        -999.25         0.7214       -52.8605      -11.19159      0.7581161
      8294.0000         1.1079        -999.25        -999.25          0.769       -52.5143      -10.84737      0.7671745
      8294.5000         1.1267        -999.25        -999.25         0.8177       -50.0819       -8.41695      0.8311329
      8295.0000         1.1412        -999.25        -999.25         0.8602        -48.219       -6.55603      0.8801045
      8295.5000          1.175        -999.25        -999.25         0.8588       -48.5881      -6.927109      0.8703392
      8296.0000         1.1994        -999.25        -999.25         0.8439       -50.9182       -9.25919      0.8089687
      8296.5000         1.1908        -999.25        -999.25         0.8389       -52.6852      -11.02817      0.7624167
      8297.0000         1.2125        -999.25        -999.25         0.8621       -52.5728      -10.91775      0.7653223
      8297.5000         1.0798        -999.25        -999.25         0.8677       -49.8211       -8.16803      0.8376834
      8298.0000         1.0115        -999.25        -999.25         0.8517       -47.5978      -5.946712      0.8961391
      8298.5000         1.0434        -999.25        -999.25         0.7924       -47.1639       -5.51479      0.9075055
      8299.0000         1.0969        -999.25        -999.25         0.7426        -47.863       -6.21587       0.889056
      8299.5000         1.0705        -999.25        -999.25         0.7044       -50.8463      -9.201149      0.8104961
      8300.0000         1.0898        -999.25        -999.25         0.6855       -55.0187      -13.37553       0.700644
      8300.5000         1.1829        -999.25        -999.25         0.6547       -61.3853      -19.74411      0.5330498
      8301.0000         1.2271        -999.25        -999.25         0.6353       -67.3652      -25.72599      0.3756319
      8301.5000         1.2001        -999.25        -999.25         0.6205       -70.3102      -28.67297      0.2980796
      8302.0000         1.0561        -999.25        -999.25         0.6345       -69.8201      -28.18485       0.310925
      8302.5000         0.9836        -999.25        -999.25         0.6672       -65.5217      -23.88843      0.4239887
      8303.0000         0.9512        -999.25        -999.25         0.7105       -57.8873      -16.25601      0.6248419
      8303.5000         0.9367        -999.25        -999.25         0.7071       -51.8624      -10.23309      0.7833397
      8304.0000         0.9505        -999.25        -999.25         0.6959       -48.6768      -7.049469      0.8671193
      8304.5000         0.9765        -999.25        -999.25         0.6695       -49.3895      -7.764149      0.8483119
      8305.0000         0.9878        -999.25        -999.25         0.6362       -53.6249      -12.00153      0.7368019
      8305.5000         0.9788        -999.25        -999.25         0.6094       -59.4429      -17.82151      0.5836444
      8306.0000         0.9876        -999.25        -999.25          0.588       -67.9677      -26.34829      0.3592556
      8306.5000         0.9991        -999.25        -999.25         0.5753       -70.0247      -28.40726       0.305072
      8307.0000         1.0073        -999.25        -999.25         0.5655       -70.6417      -29.02625      0.2887829
      8307.5000          1.077        -999.25        -999.25         0.5814       -71.9659      -30.35242      0.2538836
      8308.0000         1.1032        -999.25        -999.25         0.6011       -69.7032      -28.09171      0.3133761
      8308.5000         1.1269        -999.25        -999.25         0.6367       -65.5532      -23.94369      0.4225344
      8309.0000         1.1849        -999.25        -999.25         0.6837       -60.7558      -19.14827      0.5487297
      8309.5000         1.1909        -999.25        -999.25         0.7407       -55.4256      -13.82005      0.6889461
      8310.0000          1.145        -999.25        -999.25         0.7949       -53.5439      -11.94033      0.7384124
      8310.5000         1.1214        -999.25        -999.25         0.8406       -53.3073      -11.70571      0.7445865
      8311.0000         1.1336        -999.25        -999.25         0.8756       -52.8605      -11.26089      0.7562923
      8311.5000         1.1562        -999.25        -999.25          0.906       -50.0325      -8.434872      0.8306613
      8312.0000         1.1749        -999.25        -999.25         0.9333       -46.8941       -5.29845      0.9131986
      8312.5000         1.1981        -999.25        -999.25         0.9561       -44.9619      -3.368229       0.963994
      8313.0000         1.1891        -999.25        -999.25         0.9547       -44.5457       -2.95401      0.9748945
      8313.5000         1.1856        -999.25        -999.25         0.9532       -45.5138      -3.924091       0.949366
      8314.0000         1.3149        -999.25        -999.25          0.948       -48.2632      -6.675468      0.8769614
      8314.5000         1.3015        -999.25        -999.25         0.9333       -49.8099      -8.224148      0.8362066
      8315.0000         1.2046        -999.25        -999.25         0.9268       -50.8834      -9.299629      0.8079045
