#------------------------------------------------------------------------------
# Created by    : vladimir.rabinovich
# Created on    : 09/19/2023 17:20:06
#------------------------------------------------------------------------------
~Version Information Section
VERS.           2.0     :   CWLS log ASCII Standard - VERSION 2.0
WRAP.           NO      :   One line per depth step
~Well Information Section
#MNEM       .UNIT                                         VALUE :DESCRIPTION
#------------------------------------------------------------------------------
STRT        .FT                                             325 :START DEPTH
STOP        .FT                                           10896 :STOP DEPTH
STEP        .FT                                             0.5 :STEP      
NULL        .                                           -999.25 :NULL      
COMP        .                                      GETTY OIL CO :COMPANY   
WELL        .                               OCS G03737 ST00BP00 :WELL      
FLD         .                                           WILDCAT :FIELD     
LOC         .                                                   :LOCATION  
CNTY        .                             GALVESTON LARGE BLOCK :LOCATION  
STAT        .                                             TEXAS :STATE     
CTRY        .                                     UNITED STATES :COUNTRY   
SRVC        .                                                   :SERVICE COMPANY
DATE        .                             9/13/2023 11:10:15 AM :LOG DATE  
API         .                                    42706400540000 :API NUMBER
UWI         .                                    42706400540000 :UNIQUE WELL ID
XCOORD      .                                  1098214.74516992 :SURFACE X 
YCOORD      .                                   10573216.961531 :SURFACE Y 
LAT         .                                         29.123847 :LATITUDE  
LON         .                                        -94.698615 :LONGITUDE 
ELEV        .FT                                              99 :ELEVATION VALUE
ELEV_TYPE   .                                                KB :ELEVATION REFERENCE TYPE
~Curve Information Section
#MNEM       .UNIT                                      API CODE :CURVE DESCRIPTION
#------------------------------------------------------------------------------
DEPT        .FT                                                 :DEPTH     
ASFL        .OHMM                                               :          
DT          .US/F                                               :          
DTL         .US/F                                               :          
GR          .GAPI                                               :          
GR_1        .GAPI                                               :          
GR_NORM     .GAPI                                               :GammaRay Normalized
ILD         .OHMM                                               :          
RHOB        .G/CC                                               :          
SP          .MV                                                 :          
SP_NORM     .MV                                                 :SP Normalized
VSH_GR      .V/V                                                :Volume of Shale from GR
VSH_SP      .V/V                                                :Volume of Shale from SP
~A        DEPTH           ASFL             DT            DTL             GR           GR_1        GR_NORM            ILD           RHOB             SP        SP_NORM         VSH_GR         VSH_SP
# ...
      3133.5000         0.9662       106.2098       111.9325        47.4423        46.1116        65.6249         0.6125         2.1953       -51.4985         0.3081         0.6941              1
      3134.0000         0.9742       101.2922       117.1136        44.1451        47.8918        60.8471         0.6146         2.2084       -51.3151         0.4861         0.5925              1
      3134.5000         0.9813       100.6862       121.4496        43.6233        48.7201        60.0925         0.6168          2.228       -51.1038          0.692         0.5764              1
      3135.0000         0.9789       103.0868       121.2551        44.8023        49.5483        61.8032         0.6183         2.2346       -50.8987         0.8917         0.6128              1
      3135.5000         0.9763       106.6583       119.8878        47.9864        50.3416        66.4204         0.6173         2.2105       -50.6934         1.0916         0.7111              1
      3136.0000         0.9735       109.9661       117.9108         50.204        50.7328        69.6366         0.6163         2.1542       -50.4882         1.2915         0.7795              1
      3136.5000         0.9708       113.5238       116.6015         51.222        51.1241         71.114         0.6153         2.0849       -50.3289         1.4454         0.8109              1
      3137.0000         0.9715       116.2744       114.0661        51.4028        51.5152        71.3778         0.6143         2.0754       -50.1791         1.5898         0.8165              1
      3137.5000          0.973       116.4553       111.0311         51.337        51.8008        71.2841         0.6126         2.0753       -50.0467         1.7168         0.8146              1
      3138.0000         0.9771       116.3651       110.1368        51.5218        51.4865        71.5537         0.6097         2.0825       -49.9572         1.8009         0.8203              1
      3138.5000         0.9825       116.4554        112.197        52.0734        50.8945         72.355         0.6069         2.0894       -49.8675         1.8852         0.8373              1
      3139.0000         0.9879       113.0062       112.2667        52.5067        49.9073        72.9848          0.604         2.0951       -49.7779         1.9695         0.8507              1
      3139.5000         0.9933       106.2426       110.0057        52.0588        48.9214        72.3372         0.6011         2.1067       -49.6883         2.0537          0.837              1
      3140.0000         0.9994       101.7162       111.5185        48.7393        47.9432        67.5272         0.5982         2.1292       -49.5987         2.1379         0.7346              1
      3140.5000         0.9949        99.5969       121.9433        44.6793        46.9658        61.6437         0.5929          2.142       -49.4958         2.2354         0.6094              1
      3141.0000          0.982         105.74       125.5458        43.0289        46.1052        59.2531         0.5858         2.1293       -49.3902         2.3356         0.5586              1
      3141.5000         0.9691       127.6505       123.5062        42.7501        45.9584        58.8506         0.5787         2.1042       -49.2845          2.436           0.55              1
      3142.0000         0.9552        129.241        120.227        42.8517        46.4353        58.9996         0.5715         2.0836       -49.1789         2.5362         0.5532              1
      3142.5000         0.9398       123.2272       118.7189        43.4618        46.9431        59.8857         0.5644         2.0867       -49.0825         2.6272          0.572              1
      3143.0000         0.9244       116.8379       122.4279        44.3315        47.4512        61.1481         0.5573         2.1038       -48.9941         2.7102         0.5989              1
      3143.5000         0.9105       113.2977       126.4974        45.5837        48.2207        62.9649         0.5501         2.1206       -48.9056         2.7933         0.6376              1
      3144.0000         0.8985       112.1112        126.376        47.5056        49.0652        65.7525         0.5435         2.1428       -48.8172         2.8763         0.6969              1
      3144.5000         0.8865       111.4165       125.1658        49.9952        49.9097         69.363         0.5369         2.1641       -48.7288         2.9594         0.7737              1
      3145.0000         0.8777       113.2236       122.1529        51.8836        50.7628        72.1021         0.5304          2.177          -48.6         3.0828          0.832              1
      3145.5000         0.8787       115.4673       118.4873        52.7715        51.6278        73.3908         0.5238         2.1777       -48.4647         3.2127         0.8594              1
      3146.0000         0.8809       116.1581       115.6937        50.1854        52.4935        69.6439         0.5173         2.1802       -48.3293         3.3427         0.7797              1
      3146.5000          0.883       114.1796        112.172        47.3068        52.7299        65.4729         0.5107         2.1909        -48.194         3.4726         0.6909              1
      3147.0000         0.8851       108.7374       108.9255        47.6224        52.8214        65.9321         0.5043         2.2232       -48.0583          3.603         0.7007              1
      3147.5000         0.8867       106.3741       109.1279        49.3033        52.9128        68.3703         0.5002         2.2408       -47.9222         3.7337         0.7526              1
      3148.0000         0.8863       108.6144       115.2831        52.7669        52.9828        73.3927         0.4962         2.2248       -47.8956         3.7549         0.8594              1
      3148.5000         0.8858       123.1317       122.6958        54.1527        52.8763        75.4032         0.4921         2.1966       -48.0228         3.6223         0.9022              1
      3149.0000         0.8854       123.3226       125.5745        54.7531        52.7698        76.2752          0.488         2.1886       -48.2803         3.3594         0.9207              1
      3149.5000         0.8848       119.2675       125.1571          55.28        52.6633        77.0407         0.4842         2.1948       -48.5583          3.076          0.937              1
      3150.0000         0.8832       116.2097       123.9287        55.5931        52.5568        77.4963         0.4874         2.2033       -48.8361         2.7929         0.9467              1
      3150.5000         0.8815       119.6782       121.7454        53.9061        52.3135        75.0526         0.4907         2.2118       -49.2024         2.4212         0.8947              1
      3151.0000         0.8798       120.2557       118.7182        51.2687        51.9949        71.2312         0.4939         2.2115       -49.5947         2.0235         0.8134              1
      3151.5000         0.8798       119.1908       115.9211        50.6981        51.6763        70.4058         0.4972         2.1974       -49.9871         1.6257         0.7959              1
      3152.0000         0.8838       117.4835       113.4444          51.35        51.3576        71.3525         0.5004          2.176        -50.335         1.2724          0.816              1
      3152.5000          0.889        117.114       112.0125        51.9897         51.039        72.2815         0.5037          2.169        -50.638          0.964         0.8358              1
      3153.0000         0.9026       116.6855       112.3166        51.5556        50.5034        71.6539         0.5072         2.1728        -50.941         0.6557         0.8224              1
      3153.5000         0.9161       115.7361       113.3393        50.5046        49.8381        70.1322         0.5116         2.1799       -51.2488         0.3425           0.79              1
