#------------------------------------------------------------------------------
# Created by    : vladimir.rabinovich
# Created on    : 09/19/2023 17:20:40
#------------------------------------------------------------------------------
~Version Information Section
VERS.           2.0     :   CWLS log ASCII Standard - VERSION 2.0
WRAP.           NO      :   One line per depth step
~Well Information Section
#MNEM       .UNIT                                         VALUE :DESCRIPTION
#------------------------------------------------------------------------------
STRT        .FT                                             546 :START DEPTH
STOP        .FT                                            8737 :STOP DEPTH
STEP        .FT                                             0.5 :STEP      
NULL        .                                           -999.25 :NULL      
COMP        .                                      SHELL OIL CO :COMPANY   
WELL        .                                OCS 00702 ST00BP00 :WELL      
FLD         .                                           WILDCAT :FIELD     
LOC         .                                                   :LOCATION  
CNTY        .                             GALVESTON LARGE BLOCK :LOCATION  
STAT        .                                             TEXAS :STATE     
CTRY        .                                     UNITED STATES :COUNTRY   
SRVC        .                                                   :SERVICE COMPANY
DATE        .                             9/13/2023 11:19:42 AM :LOG DATE  
API         .                                    42706000140000 :API NUMBER
UWI         .                                    42706000140000 :UNIQUE WELL ID
XCOORD      .                                  1138683.88536091 :SURFACE X 
YCOORD      .                                  10533063.1188688 :SURFACE Y 
LAT         .                                         29.014964 :LATITUDE  
LON         .                                        -94.570199 :LONGITUDE 
ELEV        .FT                                              72 :ELEVATION VALUE
ELEV_TYPE   .                                                KB :ELEVATION REFERENCE TYPE
~Curve Information Section
#MNEM       .UNIT                                      API CODE :CURVE DESCRIPTION
#------------------------------------------------------------------------------
DEPT        .FT                                                 :DEPTH     
ASN         .OHMM                                               :          
CILD        .MMHO                                               :          
ILD         .OHMM                                               :          
SP          .MV                                                 :          
SP_NORM     .MV                                                 :SP Normalized
VSH_SP      .V/V                                                :Volume of Shale from SP
~A        DEPTH            ASN           CILD            ILD             SP        SP_NORM         VSH_SP
# ...
      8184.0000         0.8393       2318.746         0.5446       -85.9373      -43.03506     0.04569626
      8184.5000         0.8393       2294.047         0.5493       -86.0831      -43.18275     0.04226152
      8185.0000          0.828       2269.887          0.555       -86.2449      -43.34646     0.03845445
      8185.5000           0.82       2267.891         0.5606       -86.3177      -43.42115     0.03671735
      8186.0000         0.8145       2274.836         0.5662       -86.0649      -43.17025     0.04255224
      8186.5000         0.8089       2285.445         0.5718       -85.8121      -42.91935     0.04838713
      8187.0000         0.8034       2321.555         0.5601       -85.5593      -42.66845     0.05422211
      8187.5000         0.7979        2366.98         0.5476       -85.3046      -42.41565     0.06010118
      8188.0000         0.7924       2425.109         0.5352        -84.735      -41.84794     0.07330367
      8188.5000         0.7842       2461.488          0.523       -84.1659      -41.28074     0.08649436
      8189.0000         0.7371        2493.34         0.5121       -83.5962      -40.71294     0.09969915
      8189.5000         0.6857        2511.84         0.5011       -82.8829      -40.00153      0.1162434
      8190.0000         0.6603       2529.543         0.4909       -82.1735      -39.29404      0.1326968
      8190.5000         0.6142       2533.176         0.4824       -81.8383      -38.96074       0.140448
      8191.0000         0.5724       2532.191          0.474        -81.507      -38.63134      0.1481085
      8191.5000          0.535       2463.449         0.4903       -81.2179      -38.34413      0.1547876
      8192.0000          0.509       2305.996         0.5172       -80.9283      -38.05643      0.1614784
      8192.5000         0.5108       2073.383         0.5441       -80.2401      -37.37012       0.177439
      8193.0000         0.5663       2028.625         0.5709       -79.5084      -36.64032      0.1944111
      8193.5000         0.5963       2006.086         0.5978       -77.9125      -35.04632      0.2314809
      8194.0000         0.6159       2003.102         0.6402       -75.1974      -32.33312      0.2945786
      8194.5000         0.5716       1970.756         0.6948       -74.2516      -31.38922      0.3165298
      8195.0000          0.519       1717.367         0.7493       -74.2888      -31.42832      0.3156205
      8195.5000         0.5271       1606.455         0.8038       -73.6895      -30.83091      0.3295136
      8196.0000         0.5159       1518.189         0.8544       -71.5533      -28.69661      0.3791486
      8196.5000         0.5122       1397.291         0.8889       -62.0046      -19.14981      0.6011672
      8197.0000         0.5078        1327.48         0.9233       -57.7971      -14.94421      0.6989719
      8197.5000         0.5034       1300.643         0.9487       -56.3337       -13.4827      0.7329603
      8198.0000         0.4989       1273.852         0.9687       -52.7164      -9.867306      0.8170394
      8198.5000         0.4927        1245.32         0.9887       -51.0548        -8.2076      0.8556372
      8199.0000         0.5205       1216.746         1.0049       -48.6693      -5.824001      0.9110698
      8199.5000         0.5767       1196.773         1.0106       -47.2582      -4.414799      0.9438419
      8200.0000         0.6366       1176.781         1.0163       -46.1947      -3.353195      0.9685304
      8200.5000         0.6866       1156.809         0.9964       -45.7715      -2.931896       0.978328
      8201.0000          0.752       1127.053           0.97       -45.3616      -2.523891      0.9878165
      8201.5000         0.8062       1091.969         0.9437       -45.5638      -2.727993        0.98307
      8202.0000         0.8541       1200.252         0.9143       -45.7795      -2.945587      0.9780096
      8202.5000         0.8754       1314.195         0.8844       -45.9594      -3.127388      0.9737816
      8203.0000          0.885       1428.139         0.8544       -46.7271      -3.896984      0.9558841
      8203.5000         0.8936       1542.084         0.8244       -49.0858      -6.257584      0.9009864
      8204.0000         0.9025       1656.027         0.7601       -54.1553      -11.32898      0.7830469
      8204.5000         0.9115       1769.971         0.6775       -60.2138      -17.38938      0.6421075
      8205.0000         0.8819       1993.668         0.5993        -66.397      -23.57448      0.4982679
      8205.5000         0.7944       2046.125         0.5436       -72.4644      -29.64378      0.3571215
      8206.0000          0.729       2137.129         0.5091       -75.7341      -32.91537      0.2810378
      8206.5000         0.7388       2450.789         0.4782       -77.7966      -34.97977      0.2330286
      8207.0000         0.7485       2504.906         0.4711        -78.946      -36.13107      0.2062542
      8207.5000         0.7583       2535.719         0.4641       -80.2223      -37.40927      0.1765287
      8208.0000         0.7683       2540.359          0.457       -81.0331      -38.22196      0.1576288
      8208.5000         0.7815       2544.996         0.4499       -81.7437      -38.93446       0.141059
      8209.0000         0.6255       2549.063         0.4535        -82.561      -39.75366      0.1220079
      8209.5000         0.5427       2530.586         0.4662       -81.7704      -38.96496      0.1403497
      8210.0000         0.5036       2471.473         0.4788       -80.6566      -37.85306       0.166208
      8210.5000         0.4946       2317.766         0.4914       -80.1332      -37.33156      0.1783359
      8211.0000         0.4825       2208.992          0.504       -80.8405      -38.04076      0.1618429
      8211.5000         0.4544       2046.189         0.5166       -81.3983      -38.60045      0.1488267
      8212.0000         0.4817         1966.5         0.5444       -75.9658      -33.16985      0.2751198
      8212.5000         0.5177       1834.254         0.5731       -71.9855      -29.19144      0.3676408
      8213.0000          0.543       1865.727         0.6018       -63.8845      -21.09235      0.5559919
      8213.5000         0.5984        1923.77         0.6305       -56.2205      -13.43024      0.7341804
      8214.0000         0.6323       1965.139         0.6592       -56.2026      -13.41424      0.7345525
      8214.5000         0.6612       1992.576         0.6879        -56.268      -13.48154      0.7329873
      8215.0000         0.6797       2001.902          0.718       -61.6393      -18.85474      0.6080293
      8215.5000         0.6758       2004.188         0.7492       -67.4304      -24.64774      0.4733085
      8216.0000         0.6719       1972.717         0.7805       -71.8094      -29.02864      0.3714271
      8216.5000         0.7353        1767.92         0.8117       -77.7555      -34.97663      0.2331015
      8217.0000         0.7876       1678.764          0.843         -75.83      -33.05303      0.2778365
      8217.5000         0.8636       1560.449          0.877       -73.9344      -31.15933       0.321876
      8218.0000         0.9635       1434.736         0.9178       -71.7294      -28.95623      0.3731109
      8218.5000         1.0635        1312.77         0.9585       -55.9462      -13.17493       0.740118
      8219.0000          1.117       1254.639         0.9543       -55.2757      -12.50632      0.7556669
      8219.5000         0.8598       1198.379         0.9036       -54.2422      -11.47472      0.7796577
      8220.0000         0.7103       1191.158         0.8413       -53.0038      -10.23822      0.8084135
      8220.5000         0.6561       1361.449         0.7791       -52.3701      -9.606415      0.8231066
      8221.0000         0.6463       1410.352         0.7241       -51.7364      -8.974617      0.8377996
      8221.5000         0.6355        1462.91         0.7133       -51.1746      -8.414715      0.8508206
