#------------------------------------------------------------------------------
# Created by    : vladimir.rabinovich
# Created on    : 09/19/2023 17:20:57
#------------------------------------------------------------------------------
~Version Information Section
VERS.           2.0     :   CWLS log ASCII Standard - VERSION 2.0
WRAP.           NO      :   One line per depth step
~Well Information Section
#MNEM       .UNIT                                         VALUE :DESCRIPTION
#------------------------------------------------------------------------------
STRT        .FT                                             598 :START DEPTH
STOP        .FT                                           10008 :STOP DEPTH
STEP        .FT                                             0.5 :STEP      
NULL        .                                           -999.25 :NULL      
COMP        .                                        SUN OIL CO :COMPANY   
WELL        .                               OCS G01712 ST00BP00 :WELL      
FLD         .                                           WILDCAT :FIELD     
LOC         .                                                   :LOCATION  
CNTY        .                                BRAZOS LARGE BLOCK :LOCATION  
STAT        .                                             TEXAS :STATE     
CTRY        .                                     UNITED STATES :COUNTRY   
SRVC        .                                                   :SERVICE COMPANY
DATE        .                             9/13/2023 11:18:52 AM :LOG DATE  
API         .                                    42704300120000 :API NUMBER
UWI         .                                    42704300120000 :UNIQUE WELL ID
XCOORD      .                                   818594.06951761 :SURFACE X 
YCOORD      .                                  10373365.4427938 :SURFACE Y 
LAT         .                                         28.560597 :LATITUDE  
LON         .                                        -95.560517 :LONGITUDE 
ELEV        .FT                                              89 :ELEVATION VALUE
ELEV_TYPE   .                                                KB :ELEVATION REFERENCE TYPE
~Curve Information Section
#MNEM       .UNIT                                      API CODE :CURVE DESCRIPTION
#------------------------------------------------------------------------------
DEPT        .FT                                                 :DEPTH     
ASN         .OHMM                                               :          
CALI        .IN                                                 :          
CILD        .MMHO                                               :          
ILD         .OHMM                                               :          
SP          .MV                                                 :          
SP_NORM     .MV                                                 :SP Normalized
VSH_SP      .V/V                                                :Volume of Shale from SP
~A        DEPTH            ASN           CALI           CILD            ILD             SP        SP_NORM         VSH_SP
       598.0000         0.1042         15.438         3.0002         0.0506       -50.5839      -2.964851      0.9396968
       598.5000         0.1152        15.4418         3.2908          0.059       -50.5856      -2.966553      0.9395905
       599.0000           0.13         15.444         3.5812         0.0645       -50.5874      -2.968349      0.9394782
       599.5000         0.1828        15.4549         3.8716         0.0774       -50.5892       -2.97015      0.9393656
       600.0000         0.5142        15.4692         4.1486         0.1016        -50.591      -2.971951      0.9392531
       600.5000         0.7065        15.4763         4.4174         0.1342       -50.5928      -2.973751      0.9391406
       601.0000         0.7793        15.4676         4.6859         0.9381       -50.6113      -2.992252      0.9379842
       601.5000         1.2877        15.4526         8.4084         1.5859       -50.6312       -3.01215      0.9367406
       602.0000         1.7961        15.4361       219.5242          1.724       -50.8062      -3.187149      0.9258032
       602.5000         2.1508        15.4294       614.5166         2.0361        -51.173      -3.553951       0.902878
       603.0000         2.2515          15.41       621.6172         2.2568       -52.3803       -4.76125      0.8274219
       603.5000         2.3376        15.2162       417.9526         2.4609       -54.5819      -6.962852      0.6898217
       604.0000         2.5032         15.005       370.7852          3.401       -55.7233      -8.104252      0.6184843
       604.5000         2.6017        15.2616       355.9727         3.7155       -56.4321      -8.813049      0.5741844
       605.0000         2.7021         15.414       327.9556         3.8366        -56.888      -9.268951      0.5456905
       605.5000         2.8005        15.3992       319.6646         4.0004       -57.2912       -9.67215      0.5204906
       606.0000         2.8905        15.4326       326.7202         3.9747       -58.2116      -10.59255      0.4629655
       606.5000         2.9372        15.4492       349.4419          3.947       -59.6383      -12.01925      0.3737967
       607.0000         2.9662        15.4432       382.8799         3.9272       -59.7351      -12.11605      0.3677468
       607.5000         2.9777        15.4289        402.085         3.9005       -59.3739      -11.75485      0.3903217
       608.0000         2.9622        15.4232       408.8135         3.8688         -59.03      -11.41095      0.4118156
       608.5000         2.9467        15.4176       413.5313         3.8139       -58.7618      -11.14275      0.4285781
       609.0000         2.9237        15.4076       418.2485         3.7596       -58.4366      -10.81755      0.4489031
       609.5000         2.8862         15.408       422.9658         3.7053       -57.9906      -10.37155       0.476778
       610.0000         2.8487         15.412       437.3379          3.647       -57.3776      -9.758553      0.5150905
       610.5000         2.8092         15.414       453.7695         3.5268       -56.8867      -9.267651      0.5457718
       611.0000         2.7576        15.4157       470.1113         3.3405       -56.3938       -8.77475      0.5765781
       611.5000         2.7178        15.4194       481.5317         3.1609       -55.9587      -8.339649      0.6037719
       612.0000         2.7153        15.4236       492.2134         3.0755       -55.6313      -8.012253      0.6242342
       612.5000         2.7236        15.4215       500.0991         3.0278       -55.4208       -7.80175      0.6373906
       613.0000          2.732        15.4193       507.3125         2.9943       -55.5115      -7.892452      0.6317217
       613.5000         2.7403        15.4211          513.5         2.9818       -55.3782      -7.759151       0.640053
       614.0000         2.7487        15.4221       506.9858         2.9879       -54.9324      -7.313351      0.6679156
       614.5000         2.7802        15.4195       500.3359          2.994       -53.8757      -6.256653      0.7339592
       615.0000         2.8144        15.4173       493.7407         3.0054       -53.4842       -5.86515      0.7584281
       615.5000         2.8487        15.4155       487.1455         3.0241       -52.9578      -5.338753       0.791328
       616.0000         2.8829        15.4134       480.5503         3.0456        -52.588      -4.968952      0.8144405
       616.5000         2.9172         15.405       474.0894         3.0689       -52.3301      -4.711052      0.8305593
       617.0000         2.9464        15.3966       468.9844          3.098       -52.0075      -4.388451      0.8507218
       617.5000         2.9676        15.3903       463.8794         3.1267       -51.6913       -4.07225      0.8704844
       618.0000         2.9887        15.3854       458.7739         3.1571       -51.6057      -3.986652      0.8758342
       618.5000         2.9999        15.3807       453.7837         3.1845       -51.7786       -4.15955      0.8650281
       619.0000         2.9911        15.3805       452.7007         3.2012       -51.9515      -4.332451      0.8542218
       619.5000         2.9822        15.3803       451.6182         3.2143       -52.1244      -4.505352      0.8434155
       620.0000         2.9734        15.3825        454.688         3.2268       -52.3242      -4.705151      0.8309281
       620.5000         2.9622        15.3855       458.7949         3.2232       -52.5552       -4.93615      0.8164907
       621.0000         2.9456        15.3901       462.9019         3.2073       -52.7588      -5.139751      0.8037655
       621.5000         2.9289        15.3982       467.0088         3.1808       -53.0531      -5.434052      0.7853718
       622.0000         2.9123        15.3991       471.5957         3.1487       -52.8759      -5.256851      0.7964468
       622.5000         2.8932        15.3966       477.0435         3.1211       -52.5389      -4.919849      0.8175094
       623.0000         2.8716        15.3916       482.4912         3.0787       -52.2264      -4.607349      0.8370407
       623.5000         2.8499        15.3904       487.3052         3.0396       -51.9628       -4.34375      0.8535156
       624.0000         2.8283        15.3961       491.8906         3.0106       -51.6991      -4.080051      0.8699968
       624.5000          2.807        15.3954       496.4766          2.984       -51.5287      -3.909653      0.8806467
       625.0000           2.79        15.3758        501.062         2.9641       -51.3876      -3.768551      0.8894656
       625.5000         2.7731        15.3312       505.6479         2.9376       -51.1683      -3.549252      0.9031718
       626.0000          2.759        15.2016       509.1074         2.9165       -50.8787      -3.259651      0.9212718
       626.5000         2.7537        15.0515       512.4268         2.8967       -50.5474      -2.928352       0.941978
       627.0000         2.7483        15.0214       515.0986          2.878       -50.1996      -2.580551      0.9637156
       627.5000         2.7429        15.0291         515.96          2.861       -49.8583       -2.23925      0.9850469
       628.0000          2.736         15.255       516.1865         2.8501        -49.692      -2.072952      0.9954405
       628.5000         2.7281        15.3928       515.6133         2.8408       -49.6075      -1.988449              1
       629.0000         2.7203        15.4031         515.04         2.8394       -49.5475      -1.928452              1
       629.5000         2.7125        15.4044       514.4668          2.838       -49.4875       -1.86845              1
       630.0000         2.6982        15.4113        513.752         2.8414        -49.311      -1.691952              1
       630.5000         2.6793        15.4115       512.4307         2.8486        -49.039      -1.419952              1
       631.0000         2.6605        15.4021       511.1099         2.8557       -48.8023       -1.18325              1
