#------------------------------------------------------------------------------
# Created by    : vladimir.rabinovich
# Created on    : 09/19/2023 17:19:56
#------------------------------------------------------------------------------
~Version Information Section
VERS.           2.0     :   CWLS log ASCII Standard - VERSION 2.0
WRAP.           NO      :   One line per depth step
~Well Information Section
#MNEM       .UNIT                                         VALUE :DESCRIPTION
#------------------------------------------------------------------------------
STRT        .FT                                            3966 :START DEPTH
STOP        .FT                                           12200 :STOP DEPTH
STEP        .FT                                             0.5 :STEP      
NULL        .                                           -999.25 :NULL      
COMP        .                       HOUSTON OIL & MINERALS CORP :COMPANY   
WELL        .                                ST TR 00526-L SW/4 :WELL      
FLD         .                                           CAVALLO :FIELD     
LOC         .                                                   :LOCATION  
CNTY        .                      MATAGORDA ISLAND LARGE BLOCK :LOCATION  
STAT        .                                             TEXAS :STATE     
CTRY        .                                     UNITED STATES :COUNTRY   
SRVC        .                                                   :SERVICE COMPANY
DATE        .                             9/13/2023 11:19:05 AM :LOG DATE  
API         .                                    42703302090000 :API NUMBER
UWI         .                                    42703302090000 :UNIQUE WELL ID
XCOORD      .                                  601997.830501628 :SURFACE X 
YCOORD      .                                  10286578.1750905 :SURFACE Y 
LAT         .                                        28.3077871 :LATITUDE  
LON         .                                       -96.2273179 :LONGITUDE 
ELEV        .FT                                             113 :ELEVATION VALUE
ELEV_TYPE   .                                                KB :ELEVATION REFERENCE TYPE
~Curve Information Section
#MNEM       .UNIT                                      API CODE :CURVE DESCRIPTION
#------------------------------------------------------------------------------
DEPT        .FT                                                 :DEPTH     
ASFL        .OHMM                                               :          
CILD        .MMHO                                               :          
ILD         .OHMM                                               :          
SP          .MV                                                 :          
SP_NORM     .MV                                                 :SP Normalized
VSH_SP      .V/V                                                :Volume of Shale from SP
~A        DEPTH           ASFL           CILD            ILD             SP        SP_NORM         VSH_SP
# ...
     10540.0000         1.4239       1032.012         1.0196       -49.7059       -7.78973      0.8849198
     10540.5000         1.3681       1100.047           0.98       -52.0654      -10.14923      0.8449283
     10541.0000         1.3124       1140.042           0.96        -54.724      -12.80783      0.7998673
     10541.5000         1.2518       1178.691           0.92       -57.0927      -15.17653      0.7597198
     10542.0000          1.196           1220           0.88        -59.761      -17.84483      0.7144943
     10542.5000         1.1363       1243.704           0.84       -62.1714      -20.25523      0.6736402
     10543.0000         1.1283       1255.668           0.84       -64.8857      -22.96953      0.6276351
     10543.5000         1.1363       1263.725           0.82          -67.3      -25.38383      0.5867147
     10544.0000         1.4781       1263.619            0.8       -70.0143      -28.09813      0.5407097
     10544.5000          1.812        1263.65           0.78       -72.4286      -30.51243      0.4997894
     10545.0000          1.812       1263.681           0.78       -75.3062      -33.39003      0.4510165
     10545.5000         1.6717       1263.712           0.78       -80.3156      -38.39943      0.3661114
     10546.0000         1.5331       1263.829           0.78       -81.5341      -39.61794      0.3454587
     10546.5000          1.439       1259.803           0.78       -81.5424      -39.62623      0.3453182
     10547.0000         1.3004       1251.855           0.78       -80.9473      -39.03114      0.3554045
     10547.5000         1.1602       1239.798           0.78       -78.5448      -36.62863      0.3961249
     10548.0000         1.0637       1239.919           0.78       -75.8459      -33.92973      0.4418689
     10548.5000          1.404       1234.634            0.8       -73.1571      -31.24093      0.4874419
     10549.0000          1.404       1223.975           0.82       -70.4714      -28.55523      0.5329622
     10549.5000         1.7402       1207.996           0.86       -67.7857      -25.86953      0.5784826
     10550.0000         1.4398           1200           0.88          -64.8      -22.88383      0.6290876
     10550.5000         1.1602           1192         0.9191          -62.1      -20.18383      0.6748503
     10551.0000         1.0598       1180.157         0.9381       -59.4012      -17.48503      0.7205927
     10551.5000         1.0359       1172.235         0.9771       -56.7099      -14.79373      0.7662079
     10552.0000          1.008       1168.314         0.9961       -54.0239      -12.10773      0.8117334
     10552.5000          1.008       1152.471         1.0148       -51.0448      -9.128632      0.8622266
     10553.0000         1.0159       1136.627         1.0335       -50.7555      -8.839333        0.86713
     10553.5000         1.2916       1120.784         1.0523       -50.7646      -8.848431      0.8669757
     10554.0000         1.5681        1053.02         1.0711       -51.0714      -9.155231      0.8617758
     10554.5000         1.5681       1033.412         1.0702       -51.3776      -9.461433      0.8565859
     10555.0000         1.5681       993.8823         1.0891       -51.9802      -10.06403      0.8463723
     10555.5000         1.5602       950.2745         1.0684       -52.5816      -10.66543      0.8361791
     10556.0000         1.5402       902.7451         1.0675       -53.1818      -11.26563      0.8260062
     10556.5000         1.5203       879.2157         1.0665        -54.077      -12.16083      0.8108334
     10557.0000         1.5203       879.2157         1.0457       -54.9704      -13.05423       0.795691
     10557.5000         1.6629       883.2157         1.0448       -54.9754      -13.05923      0.7956063
     10558.0000         1.8048       887.1373         1.0239        -54.685      -12.76883      0.8005282
     10558.5000         1.8008       895.0588          1.003       -54.3953      -12.47913      0.8054384
     10559.0000          1.647       1020.863         0.9823       -53.5167      -11.60053        0.82033
     10559.5000         1.4151       1081.177         0.9617       -52.3454      -10.42923      0.8401825
     10560.0000         1.1841       1081.177         0.9608       -51.1765       -9.26033      0.8599944
     10560.5000         1.0239       1081.177         0.9412            -50      -8.083832       0.879935
     10561.0000         1.1124       1073.333         0.9412       -49.1176      -7.201431       0.894891
     10561.5000            1.2       1045.725         0.9412       -47.9412      -6.025032        0.91483
     10562.0000           1.29       1006.118         0.9412       -46.7647      -4.848534      0.9347706
     10562.5000         1.3761       990.1177         0.9608       -45.5882      -3.672031      0.9547113
     10563.0000         1.4637       990.1177         0.9804       -45.2941      -3.377934      0.9596961
     10563.5000         1.5562       950.5098              1       -45.2941      -3.377934      0.9596961
     10564.0000         1.5562       902.9804           1.02       -45.8824      -3.966232      0.9497249
     10564.5000         1.5562       902.9804           1.04       -47.6471       -5.73093      0.9198148
     10565.0000         1.5482       895.0588           1.08       -49.7059       -7.78973      0.8849198
     10565.5000         1.4741       887.1373           1.08       -51.4706      -9.554432      0.8550096
     10566.0000            1.4       887.1373           1.08       -53.5294      -11.61323      0.8201147
     10566.5000          1.349       887.1373           1.08       -55.5882      -13.67203      0.7852198
     10567.0000          1.341       902.9804           1.08       -57.3529      -15.43673      0.7553096
     10567.5000          1.341       918.8235           1.08       -59.4118      -17.49563       0.720413
     10568.0000         1.5681       942.5883           1.06          -61.5      -19.58383      0.6850198
     10568.5000         1.5681       958.4314           1.04          -63.3      -21.38383      0.6545113
     10569.0000         1.5323       999.9477           1.02          -65.4      -23.48383      0.6189181
     10569.5000         1.4558       1021.725              1          -67.5      -25.58383      0.5833249
     10570.0000         1.4159       1049.412         0.9608          -67.8      -25.88383      0.5782401
     10570.5000          1.392       1069.177         0.9608          -67.8      -25.88383      0.5782401
     10571.0000          1.345       1092.941         0.9412          -67.5      -25.58383      0.5833249
     10571.5000          1.298       1108.863         0.9216          -66.9      -24.98383      0.5934944
     10572.0000          1.251       1116.784          0.902          -64.8      -22.88383      0.6290876
     10572.5000          1.204       1128.627          0.902          -62.7      -20.78383      0.6646808
     10573.0000         1.1562       1140.549         0.8824          -60.3      -18.38383      0.7053588
     10573.5000         1.1163       1148.471         0.8627       -58.2353      -16.31913      0.7403537
     10574.0000          1.208       1156.392         0.8431       -56.1765      -14.26033      0.7752486
     10574.5000          1.302       1160.392         0.8431       -53.8235      -11.90733      0.8151299
     10575.0000          1.392       1168.314         0.8333       -54.2647      -12.34853       0.807652
     10575.5000         1.4876       1184.209         0.8039       -56.7647      -14.84853      0.7652791
     10576.0000         1.5801       1192.078         0.8039       -58.5294      -16.61323       0.735369
     10576.5000         1.6749           1200         0.7843            -60      -18.08383      0.7104436
     10577.0000         1.6669           1208         0.7843          -61.8      -19.88383       0.679935
     10577.5000         1.5004           1216         0.7647          -63.3      -21.38383      0.6545113
