#------------------------------------------------------------------------------
# Created by    : vladimir.rabinovich
# Created on    : 09/19/2023 17:20:38
#------------------------------------------------------------------------------
~Version Information Section
VERS.           2.0     :   CWLS log ASCII Standard - VERSION 2.0
WRAP.           NO      :   One line per depth step
~Well Information Section
#MNEM       .UNIT                                         VALUE :DESCRIPTION
#------------------------------------------------------------------------------
STRT        .FT                                             510 :START DEPTH
STOP        .FT                                            8711 :STOP DEPTH
STEP        .FT                                             0.5 :STEP      
NULL        .                                           -999.25 :NULL      
COMP        .                                      SHELL OIL CO :COMPANY   
WELL        .                                OCS 00708 ST00BP00 :WELL      
FLD         .                                           WILDCAT :FIELD     
LOC         .                                                   :LOCATION  
CNTY        .                             GALVESTON LARGE BLOCK :LOCATION  
STAT        .                                             TEXAS :STATE     
CTRY        .                                     UNITED STATES :COUNTRY   
SRVC        .                                                   :SERVICE COMPANY
DATE        .                             9/13/2023 11:19:25 AM :LOG DATE  
API         .                                    42706000300000 :API NUMBER
UWI         .                                    42706000300000 :UNIQUE WELL ID
XCOORD      .                                  1082576.09526943 :SURFACE X 
YCOORD      .                                  10493698.2734572 :SURFACE Y 
LAT         .                                         28.904546 :LATITUDE  
LON         .                                        -94.743912 :LONGITUDE 
ELEV        .FT                                              92 :ELEVATION VALUE
ELEV_TYPE   .                                                KB :ELEVATION REFERENCE TYPE
~Curve Information Section
#MNEM       .UNIT                                      API CODE :CURVE DESCRIPTION
#------------------------------------------------------------------------------
DEPT        .FT                                                 :DEPTH     
ASN         .OHMM                                               :          
CILD        .MMHO                                               :          
DT          .US/F                                               :          
ILD         .OHMM                                               :          
SP          .MV                                                 :          
SP_NORM     .MV                                                 :SP Normalized
VSH_SP      .V/V                                                :Volume of Shale from SP
~A        DEPTH            ASN           CILD             DT            ILD             SP        SP_NORM         VSH_SP
# ...
      2687.5000         0.7663       1323.494        -999.25           0.75       -77.2024      -6.577827      0.7138858
      2688.0000         0.7701       1319.965        -999.25         0.7492       -77.3416      -6.720886      0.7049446
      2688.5000          0.774       1310.623        -999.25         0.7484       -76.9762      -6.359352      0.7275405
      2689.0000         0.7778       1297.723        -999.25         0.7476       -76.4528      -5.839813      0.7600117
      2689.5000         0.7816       1284.043        -999.25         0.7469       -75.3522       -4.74308      0.8285575
      2690.0000         0.7855       1272.318        -999.25         0.7461       -73.8937      -3.288437      0.9194727
      2690.5000         0.7893       1262.025        -999.25         0.7476       -72.9707      -2.369301      0.9769187
      2691.0000         0.7931        1252.65        -999.25         0.7526       -72.7203      -2.122757      0.9923277
      2691.5000          0.797       1248.803        -999.25         0.7575       -72.9708      -2.377121      0.9764299
      2692.0000         0.8008       1244.955        -999.25         0.7624        -73.245       -2.65519      0.9590507
      2692.5000         0.8046       1249.939        -999.25         0.7674        -73.533      -2.947044      0.9408097
      2693.0000         0.8063       1258.342        -999.25         0.7723       -73.8209      -3.238808      0.9225745
      2693.5000         0.8056       1264.791        -999.25         0.7773        -74.109      -3.530769      0.9043269
      2694.0000         0.8048       1267.273        -999.25         0.7822       -74.3046      -3.730232      0.8918605
      2694.5000         0.8041       1269.752        -999.25         0.7872       -74.4943       -3.92379      0.8797631
      2695.0000         0.8033       1271.004        -999.25         0.7896       -74.1556      -3.588951      0.9006906
      2695.5000         0.8028       1271.783        -999.25          0.791       -73.5975      -3.034714      0.9353304
      2696.0000         0.8027       1272.564        -999.25         0.7925       -73.0596      -2.500679      0.9687076
      2696.5000         0.8027       1273.344        -999.25          0.794       -72.5806      -2.025536       0.998404
      2697.0000         0.8026       1273.734        -999.25         0.7954       -72.1016        -1.5504              1
      2697.5000         0.8026       1270.729        -999.25         0.7969       -71.6226      -1.075256              1
      2698.0000         0.8025       1267.721        -999.25         0.7983       -71.2112      -0.667717              1
      2698.5000         0.8054       1259.789        -999.25         0.8005       -70.8354      -0.295784              1
      2699.0000         0.8086       1246.592        -999.25         0.8026       -71.8337      -1.297943              1
      2699.5000         0.8133       1231.102        -999.25         0.8047       -72.6748      -2.142906      0.9910684
      2700.0000         0.8192       1215.209        -999.25         0.8068       -73.3051      -2.777069      0.9514332
      2700.5000         0.8252       1200.402        -999.25          0.809       -73.3643      -2.840134      0.9474916
      2701.0000         0.8311       1188.992        -999.25         0.8111       -73.1071      -2.586792      0.9633255
      2701.5000          0.837       1178.824        -999.25         0.8132       -72.8635      -2.347054      0.9783092
      2702.0000         0.8357       1172.682        -999.25         0.8154       -72.6333      -2.120712      0.9924555
      2702.5000         0.8328       1166.578        -999.25         0.8154       -72.4032       -1.89447              1
      2703.0000         0.8298       1161.721        -999.25         0.8153       -72.1572      -1.652336              1
      2703.5000         0.8269       1156.857        -999.25         0.8153       -71.6226      -1.121597              1
      2704.0000         0.8279           1152        -999.25         0.8152       -71.2168     -0.7196579              1
      2704.5000         0.8289       1144.311        -999.25         0.8151       -71.0455     -0.5522232              1
      2705.0000           0.83       1126.904        -999.25         0.8151       -71.5209      -1.031479              1
      2705.5000         0.8329       1102.582        -999.25          0.815       -71.9958      -1.510239              1
      2706.0000         0.8399       1090.443        -999.25          0.815       -72.0167      -1.535004              1
      2706.5000          0.847       1081.023        -999.25         0.8149       -71.9056      -1.427765              1
      2707.0000          0.854       1071.672        -999.25         0.8149       -71.7944      -1.320435              1
      2707.5000         0.8606       1067.336        -999.25         0.8146       -71.6833      -1.213188              1
      2708.0000         0.8578       1065.875        -999.25         0.8142       -72.1399      -1.673653              1
      2708.5000         0.8487       1075.184        -999.25         0.8137       -72.6379      -2.175514      0.9890304
      2709.0000         0.8416       1084.498        -999.25         0.8133       -72.8701      -2.411575      0.9742765
      2709.5000         0.8346       1093.807        -999.25         0.8129       -73.0637      -2.609032      0.9619355
      2710.0000         0.8276       1111.672        -999.25         0.8125       -72.5773      -2.126495       0.992094
      2710.5000         0.8228       1144.689        -999.25         0.8121       -72.0905      -1.643562              1
      2711.0000         0.8235       1152.943        -999.25         0.8117       -71.6744      -1.231323              1
      2711.5000         0.8241       1158.744        -999.25         0.8112       -71.3024     -0.8631821              1
      2712.0000         0.8247       1163.096        -999.25         0.8108       -70.9302     -0.4948425              1
      2712.5000         0.8253       1167.445        -999.25         0.8103       -70.5581     -0.1266022              1
      2713.0000          0.826        1171.34        -999.25         0.8094       -70.2308      0.1968384              1
      2713.5000         0.8266       1174.973        -999.25         0.8086       -70.4841    -0.06032562              1
      2714.0000         0.8265       1178.508        -999.25         0.8078       -70.9269     -0.5069885              1
      2714.5000         0.8265       1179.223        -999.25         0.8069        -71.463      -1.046951              1
      2715.0000         0.8265       1179.939        -999.25         0.8061       -71.7712      -1.359016              1
      2715.5000         0.8264       1180.654        -999.25         0.8053       -71.7489      -1.340576              1
      2716.0000         0.8264       1181.459        -999.25         0.8045       -71.5128      -1.108337              1
      2716.5000         0.8263       1182.283        -999.25         0.8036       -71.1619     -0.7612991              1
      2717.0000         0.8263       1183.105        -999.25         0.8028       -70.8107     -0.4139557              1
      2717.5000         0.8269       1183.928        -999.25          0.802       -70.4594    -0.06651306              1
      2718.0000         0.8275       1184.625        -999.25         0.8011       -70.6787     -0.2896881              1
      2718.5000         0.8281       1184.906        -999.25         0.8003       -71.0775     -0.6923447              1
      2719.0000         0.8288       1185.189        -999.25         0.7995       -71.4763      -1.095009              1
      2719.5000         0.8306        1185.08        -999.25         0.7987       -71.2374     -0.8599625              1
      2720.0000         0.8324       1183.689        -999.25         0.7978       -70.8748     -0.5012283              1
      2720.5000         0.8342       1182.299        -999.25         0.7979       -70.5529     -0.1831894              1
