#------------------------------------------------------------------------------
# Created by    : vladimir.rabinovich
# Created on    : 09/19/2023 17:20:34
#------------------------------------------------------------------------------
~Version Information Section
VERS.           2.0     :   CWLS log ASCII Standard - VERSION 2.0
WRAP.           NO      :   One line per depth step
~Well Information Section
#MNEM       .UNIT                                         VALUE :DESCRIPTION
#------------------------------------------------------------------------------
STRT        .FT                                             500 :START DEPTH
STOP        .FT                                            9234 :STOP DEPTH
STEP        .FT                                             0.5 :STEP      
NULL        .                                           -999.25 :NULL      
COMP        .                                      SHELL OIL CO :COMPANY   
WELL        .                                OCS 00713 ST00BP00 :WELL      
FLD         .                                           WILDCAT :FIELD     
LOC         .                                                   :LOCATION  
CNTY        .                             GALVESTON LARGE BLOCK :LOCATION  
STAT        .                                             TEXAS :STATE     
CTRY        .                                     UNITED STATES :COUNTRY   
SRVC        .                                                   :SERVICE COMPANY
DATE        .                             9/13/2023 11:19:25 AM :LOG DATE  
API         .                                    42706000510000 :API NUMBER
UWI         .                                    42706000510000 :UNIQUE WELL ID
XCOORD      .                                  1104646.85179908 :SURFACE X 
YCOORD      .                                   10481381.387581 :SURFACE Y 
LAT         .                                         28.871549 :LATITUDE  
LON         .                                        -94.674396 :LONGITUDE 
ELEV        .FT                                              82 :ELEVATION VALUE
ELEV_TYPE   .                                                KB :ELEVATION REFERENCE TYPE
~Curve Information Section
#MNEM       .UNIT                                      API CODE :CURVE DESCRIPTION
#------------------------------------------------------------------------------
DEPT        .FT                                                 :DEPTH     
ASN         .OHMM                                               :          
ASN_1       .OHMM                                               :          
GR_NORM     .                                                   :GammaRay Normalized
ILD         .OHMM                                               :          
LAT         .OHMM                                               :          
LN          .OHMM                                               :          
SP          .MV                                                 :          
SP_1        .MV                                                 :          
SP_NORM     .MV                                                 :SP Normalized
VSH_SP      .V/V                                                :Volume of Shale from SP
~A        DEPTH            ASN          ASN_1        GR_NORM            ILD            LAT             LN             SP           SP_1        SP_NORM         VSH_SP
# ...
      2239.5000        -999.25         0.8012        -999.25        -999.25          0.735         0.5487        -999.25       -89.7137      -11.62569       0.629781
      2240.0000        -999.25          0.814        -999.25        -999.25          0.755         0.5499        -999.25       -90.5721      -12.49252      0.5964417
      2240.5000        -999.25         0.8247        -999.25        -999.25         0.7802         0.5508        -999.25       -90.9702      -12.89904      0.5808061
      2241.0000        -999.25         0.8339        -999.25        -999.25         0.8058         0.5519        -999.25       -89.7588      -11.69606      0.6270746
      2241.5000        -999.25         0.8408        -999.25        -999.25         0.8298         0.5539        -999.25       -88.1669      -10.11259      0.6879774
      2242.0000        -999.25         0.8467        -999.25        -999.25           0.85          0.563        -999.25        -86.349      -8.303108      0.7575728
      2242.5000        -999.25         0.8581        -999.25        -999.25         0.8702         0.5721        -999.25       -85.3206      -7.283134      0.7968025
      2243.0000        -999.25         0.8915        -999.25        -999.25         0.8842         0.5828        -999.25       -84.8264      -6.797356      0.8154863
      2243.5000        -999.25         0.9209        -999.25        -999.25         0.8913         0.5927        -999.25       -84.9502      -6.929573       0.810401
      2244.0000        -999.25         0.9354        -999.25        -999.25         0.8983         0.5964        -999.25       -85.7633      -7.751091      0.7788042
      2244.5000        -999.25         0.9391        -999.25        -999.25         0.9026         0.5994        -999.25       -87.4552      -9.451416      0.7134071
      2245.0000        -999.25         0.9364        -999.25        -999.25         0.8918         0.6017        -999.25       -88.0529      -10.05754      0.6900946
      2245.5000        -999.25         0.9258        -999.25        -999.25          0.881         0.6072        -999.25       -88.3011      -10.31416      0.6802245
      2246.0000        -999.25         0.9072        -999.25        -999.25         0.8585         0.6177        -999.25       -87.9131      -9.934586      0.6948236
      2246.5000        -999.25         0.8855        -999.25        -999.25         0.8333         0.6282        -999.25       -86.9448      -8.974709       0.731742
      2247.0000        -999.25         0.8598        -999.25        -999.25         0.8196         0.6409        -999.25       -86.0104      -8.048729      0.7673566
      2247.5000        -999.25         0.8363        -999.25        -999.25         0.8082         0.6554        -999.25       -84.9934      -7.040154      0.8061479
      2248.0000        -999.25         0.8174        -999.25        -999.25         0.8091         0.6609        -999.25       -83.9672      -6.022377      0.8452932
      2248.5000        -999.25         0.8012        -999.25        -999.25         0.8178         0.6622        -999.25       -82.9225      -4.986099        0.88515
      2249.0000        -999.25         0.7912        -999.25        -999.25         0.8302          0.663        -999.25       -82.1904      -4.262421      0.9129838
      2249.5000        -999.25         0.7832        -999.25        -999.25          0.847          0.663        -999.25       -82.3411      -4.421547      0.9068636
      2250.0000        -999.25         0.7753        -999.25        -999.25         0.8562         0.6544        -999.25       -83.1088       -5.19767      0.8770127
      2250.5000        -999.25         0.7621        -999.25        -999.25         0.8468         0.6458        -999.25       -82.7095      -4.806793      0.8920464
      2251.0000        -999.25         0.7627        -999.25        -999.25         0.8248          0.637        -999.25       -82.6418      -4.747513      0.8943264
      2251.5000        -999.25          0.775        -999.25        -999.25         0.8119         0.6282        -999.25       -83.1423      -5.256439      0.8747523
      2252.0000        -999.25         0.7837        -999.25        -999.25         0.8007         0.6236        -999.25       -84.7769       -6.89946      0.8115593
      2252.5000        -999.25         0.7841        -999.25        -999.25         0.8067          0.626        -999.25       -85.6876      -7.818581      0.7762085
      2253.0000        -999.25         0.7797        -999.25        -999.25         0.8355         0.6285        -999.25       -85.7585      -7.897903      0.7731575
      2253.5000        -999.25         0.7764        -999.25        -999.25         0.8741         0.6335        -999.25       -84.6604      -6.808228      0.8150682
      2254.0000        -999.25         0.7781        -999.25        -999.25         0.9086         0.6399        -999.25       -83.7255      -5.881752      0.8507019
      2254.5000        -999.25         0.7829        -999.25        -999.25         0.9364         0.6463        -999.25       -84.3496      -6.514275      0.8263741
      2255.0000        -999.25         0.7846        -999.25        -999.25          0.956         0.6514        -999.25       -84.8752      -7.048294      0.8058348
      2255.5000        -999.25         0.7875        -999.25        -999.25         0.9566         0.6536        -999.25       -85.2667      -7.448212      0.7904534
      2256.0000        -999.25         0.7948        -999.25        -999.25         0.9539         0.6558        -999.25       -85.3594      -7.549332      0.7865642
      2256.5000        -999.25          0.818        -999.25        -999.25         0.9506         0.6556        -999.25       -84.8217      -7.020058      0.8069209
      2257.0000        -999.25         0.8426        -999.25        -999.25         0.9522         0.6503        -999.25       -84.7788       -6.98558      0.8082469
      2257.5000        -999.25         0.8549        -999.25        -999.25         0.9538          0.645        -999.25       -84.8463      -7.061501      0.8053269
      2258.0000        -999.25         0.8503        -999.25        -999.25         0.9742         0.6395        -999.25       -84.5927      -6.816322      0.8147568
      2258.5000        -999.25         0.8355        -999.25        -999.25         0.9969          0.634        -999.25       -84.0452      -6.277245      0.8354906
      2259.0000        -999.25         0.8217        -999.25        -999.25         1.0258         0.6345        -999.25       -83.4182      -5.658669       0.859282
      2259.5000        -999.25         0.8219        -999.25        -999.25         1.0521         0.6404        -999.25       -82.9387      -5.187592      0.8774003
      2260.0000        -999.25         0.8412        -999.25        -999.25         1.0567         0.6477        -999.25       -83.5127       -5.77002      0.8549992
      2260.5000        -999.25         0.8595        -999.25        -999.25          1.046         0.6671        -999.25       -84.2037      -6.469437      0.8280986
      2261.0000        -999.25         0.8771        -999.25        -999.25         1.0108         0.6896        -999.25       -84.9349      -7.209061      0.7996515
      2261.5000        -999.25         0.8901        -999.25        -999.25          0.971         0.7436        -999.25       -85.8063      -8.088882      0.7658122
      2262.0000        -999.25         0.8978        -999.25        -999.25         0.9373          0.788        -999.25       -87.0912       -9.38221      0.7160689
      2262.5000        -999.25         0.8993        -999.25        -999.25         0.9056         0.8236        -999.25        -88.986      -11.28543       0.642868
      2263.0000        -999.25         0.8958        -999.25        -999.25         0.8751         0.8464        -999.25       -91.0081      -13.31596      0.5647709
      2263.5000        -999.25         0.8882        -999.25        -999.25         0.8467         0.8462        -999.25        -92.588      -14.90427      0.5036818
