#------------------------------------------------------------------------------
# Created by    : vladimir.rabinovich
# Created on    : 09/19/2023 17:19:38
#------------------------------------------------------------------------------
~Version Information Section
VERS.           2.0     :   CWLS log ASCII Standard - VERSION 2.0
WRAP.           NO      :   One line per depth step
~Well Information Section
#MNEM       .UNIT                                         VALUE :DESCRIPTION
#------------------------------------------------------------------------------
STRT        .FT                                            9400 :START DEPTH
STOP        .FT                                           17100 :STOP DEPTH
STEP        .FT                                             0.5 :STEP      
NULL        .                                           -999.25 :NULL      
COMP        .                                   FOREST OIL CORP :COMPANY   
WELL        .                               OCS G18937 ST00BP00 :WELL      
FLD         .                            HIGH ISLAND BLOCK 0116 :FIELD     
LOC         .                                                   :LOCATION  
CNTY        .                           HIGH ISLAND LARGE BLOCK :LOCATION  
STAT        .                                             TEXAS :STATE     
CTRY        .                                     UNITED STATES :COUNTRY   
SRVC        .                                                   :SERVICE COMPANY
DATE        .                             9/13/2023 11:19:48 AM :LOG DATE  
API         .                                    42708405250000 :API NUMBER
UWI         .                                    42708405250000 :UNIQUE WELL ID
XCOORD      .                                  1337259.97993026 :SURFACE X 
YCOORD      .                                  10628189.4209318 :SURFACE Y 
LAT         .                                         29.282461 :LATITUDE  
LON         .                                        -93.951246 :LONGITUDE 
ELEV        .FT                                              93 :ELEVATION VALUE
ELEV_TYPE   .                                                KB :ELEVATION REFERENCE TYPE
~Curve Information Section
#MNEM       .UNIT                                      API CODE :CURVE DESCRIPTION
#------------------------------------------------------------------------------
DEPT        .FT                                                 :DEPTH     
AHT10       .OHMM                                               :          
AHT20       .OHMM                                               :          
AHT30       .OHMM                                               :          
AHT60       .OHMM                                               :          
AHT90       .OHMM                                               :          
CALI        .IN                                                 :          
COND        .MMHO                                               :          
DTCO        .US/F                                               :          
GR          .GAPI                                               :          
GR_NORM     .GAPI                                               :GammaRay Normalized
HDRA        .G/CC                                               :          
NPOR        .FRAC                                               :          
RHOZ        .G/CC                                               :          
VSH_GR      .V/V                                                :Volume of Shale from GR
~A        DEPTH          AHT10          AHT20          AHT30          AHT60          AHT90           CALI           COND           DTCO             GR        GR_NORM           HDRA           NPOR           RHOZ         VSH_GR
# ...
     12982.0000          1.874          1.429          1.058          1.207          1.036          8.729        965.251          84.69         82.515       87.14183         -0.006          0.276          2.451              1
     12982.5000          1.851           1.35          0.979          1.047          0.913          8.718        1095.29         85.191          78.61       83.04259         -0.008          0.252          2.453              1
     12983.0000          1.896          1.282          0.919          0.903          0.799          8.741       1251.564         82.526         74.843       79.08827         -0.007           0.25          2.455      0.9806015
     12983.5000          2.004          1.267          0.886          0.805          0.719          8.623       1390.821         92.372         60.867       64.41449         -0.006          0.278          2.451      0.6683934
     12984.0000          1.855          1.152          0.805          0.695          0.628          8.541       1592.357         90.088         45.695       48.48491         -0.006          0.239          2.423      0.3294662
     12984.5000          1.429          0.893          0.653          0.549          0.506          8.529       1976.285         88.804         34.716       36.95798         -0.009          0.231          2.361     0.08421228
     12985.0000          1.058          0.678          0.524          0.438          0.409          8.517       2444.988         88.974         29.194       31.16089         -0.012          0.245          2.294              0
     12985.5000          0.861          0.559          0.447          0.374          0.353          8.411       2832.861         90.106          27.94       29.84522         -0.012          0.241           2.25              0
     12986.0000          0.761          0.484          0.396          0.332          0.315            8.6       3174.603         90.375         28.521       30.45629          -0.01          0.266          2.237              0
     12986.5000          0.698          0.449           0.37           0.31          0.295            8.6       3389.831         90.192          26.89       28.74475         -0.009          0.246          2.231              0
     12987.0000          0.686          0.443          0.367          0.304          0.289          8.576       3460.208         89.714          26.89       28.74577         -0.009          0.248          2.223              0
     12987.5000          0.714          0.437          0.369          0.303          0.288          8.576       3472.222         90.457         26.153       27.97294         -0.009          0.249          2.217              0
     12988.0000          0.764          0.437          0.369          0.303          0.288          8.576       3472.222          89.28         30.296       32.32411         -0.009          0.255          2.213              0
     12988.5000          0.781          0.447          0.368          0.304          0.289          8.588       3460.208         89.741         30.316       32.34613         -0.007          0.245          2.212              0
     12989.0000          0.771          0.451           0.37          0.308          0.292            8.6       3424.657         89.858         30.274       32.30305         -0.007          0.218          2.212              0
     12989.5000          0.781          0.445          0.373          0.313          0.296            8.6       3378.378         89.524         28.616       30.56316         -0.011          0.249          2.213              0
     12990.0000          0.794           0.45          0.377          0.317            0.3          8.576       3333.333          89.04         28.064       29.98459         -0.012           0.24          2.221              0
     12990.5000          0.811          0.463          0.382          0.323          0.305            8.6       3278.688          88.03         29.505       31.49866         -0.013          0.238          2.218              0
     12991.0000          0.819          0.465          0.386          0.327          0.309          8.588       3236.246         87.867         28.474       30.41713         -0.014           0.24          2.216              0
     12991.5000          0.817          0.466          0.387           0.33          0.311          8.576       3215.434         88.523         30.042       32.06454         -0.016          0.244          2.222              0
     12992.0000          0.809          0.466          0.387          0.331          0.312            8.6       3205.128         86.603         29.564       31.56367         -0.016          0.253          2.231              0
     12992.5000          0.801          0.464          0.385           0.33          0.311          8.576       3215.434         86.674         28.731       30.69004         -0.013          0.278          2.242              0
     12993.0000          0.803          0.464          0.384          0.329           0.31            8.6       3225.806         88.087         26.243       28.07866         -0.013          0.245          2.235              0
     12993.5000          0.799          0.462          0.383          0.328          0.309            8.6       3236.246         87.933         25.063       26.84067         -0.013          0.243          2.232              0
     12994.0000          0.796           0.46          0.382          0.326          0.307            8.6       3257.329         88.644         27.186       29.07084         -0.012           0.24          2.228              0
     12994.5000          0.792          0.459          0.382          0.325          0.306          8.588       3267.974         88.816         28.017       29.94442          -0.01           0.24          2.229              0
     12995.0000          0.765          0.455          0.382          0.324          0.305          8.576       3278.688         88.852          27.81       29.72808          -0.01          0.243          2.225              0
     12995.5000          0.751          0.448          0.382          0.324          0.305          8.576       3278.688         88.637         29.284        31.2768          -0.01          0.234          2.225              0
     12996.0000          0.823          0.456          0.387          0.326          0.307            8.6       3257.329         88.154         30.112       32.14721          -0.01          0.239          2.229              0
     12996.5000          0.953          0.487          0.395           0.33          0.311          8.588       3215.434         87.621         30.527       32.58399          -0.01          0.238          2.232              0
     12997.0000          0.987          0.507          0.398          0.332          0.312          8.576       3205.128         88.434         28.684       30.64986         -0.009           0.25          2.234              0
     12997.5000          0.905          0.491          0.394          0.331          0.311          8.553       3215.434         87.774         29.099       31.08663          -0.01          0.229          2.235              0
     12998.0000          0.831          0.467           0.39           0.33          0.311          8.553       3215.434          87.67         29.142       31.13279         -0.007           0.24          2.239              0
     12998.5000          0.812          0.458          0.388           0.33           0.31          8.553       3225.806         88.115         32.774       34.94741         -0.007           0.23          2.241     0.04143435
     12999.0000           0.84          0.455          0.383          0.327          0.307          8.541       3257.329         87.097         29.601       31.61678         -0.006          0.248          2.243              0
     12999.5000          0.888          0.467          0.383          0.326          0.306          8.553       3267.974         87.397         31.215        33.3125          -0.01          0.259           2.24    0.006648936
