#------------------------------------------------------------------------------
# Created by    : vladimir.rabinovich
# Created on    : 09/19/2023 17:20:25
#------------------------------------------------------------------------------
~Version Information Section
VERS.           2.0     :   CWLS log ASCII Standard - VERSION 2.0
WRAP.           NO      :   One line per depth step
~Well Information Section
#MNEM       .UNIT                                         VALUE :DESCRIPTION
#------------------------------------------------------------------------------
STRT        .FT                                             293 :START DEPTH
STOP        .FT                                            8505 :STOP DEPTH
STEP        .FT                                             0.5 :STEP      
NULL        .                                           -999.25 :NULL      
COMP        .                                        TEXACO USA :COMPANY   
WELL        .                                     ST TR 00058-L :WELL      
FLD         .                                           WILDCAT :FIELD     
LOC         .                                                   :LOCATION  
CNTY        .                           HIGH ISLAND LARGE BLOCK :LOCATION  
STAT        .                                             TEXAS :STATE     
CTRY        .                                     UNITED STATES :COUNTRY   
SRVC        .                                                   :SERVICE COMPANY
DATE        .                             9/13/2023 11:19:15 AM :LOG DATE  
API         .                                    42708000230000 :API NUMBER
UWI         .                                    42708000230000 :UNIQUE WELL ID
XCOORD      .                                  1179226.38702832 :SURFACE X 
YCOORD      .                                  10699123.4735792 :SURFACE Y 
LAT         .                                        29.4730929 :LATITUDE  
LON         .                                        -94.449778 :LONGITUDE 
ELEV        .FT                                              80 :ELEVATION VALUE
ELEV_TYPE   .                                                KB :ELEVATION REFERENCE TYPE
~Curve Information Section
#MNEM       .UNIT                                      API CODE :CURVE DESCRIPTION
#------------------------------------------------------------------------------
DEPT        .FT                                                 :DEPTH     
ASN         .OHMM                                               :          
CILD        .MMHO                                               :          
ILD         .OHMM                                               :          
LAT         .OHMM                                               :          
LN          .OHMM                                               :          
SP          .MV                                                 :          
SP_NORM     .MV                                                 :SP Normalized
VSH_SP      .V/V                                                :Volume of Shale from SP
~A        DEPTH            ASN           CILD            ILD            LAT             LN             SP        SP_NORM         VSH_SP
# ...
      6281.5000         0.7881        -999.25        -999.25         0.6843         1.0256       -38.6123    -0.09331894              1
      6282.0000         0.7902        -999.25        -999.25         0.6375         1.0113       -38.6439     -0.1260071              1
      6282.5000         0.7939        -999.25        -999.25         0.5908          0.997       -38.6464     -0.1295929              1
      6283.0000         0.7976        -999.25        -999.25         0.5442         0.9885       -38.5885    -0.07278061              1
      6283.5000         0.8013        -999.25        -999.25         0.5057         0.9928       -38.5307     -0.0160675              1
      6284.0000         0.8044        -999.25        -999.25         0.5339          0.997       -38.4728     0.04074097              1
      6284.5000         0.8065        -999.25        -999.25         0.5621         1.0012        -38.415     0.09745407              1
      6285.0000         0.8033        -999.25        -999.25         0.5902         1.0054       -38.5249    -0.01353073              1
      6285.5000           0.79        -999.25        -999.25         0.6158          1.007       -38.6627       -0.15242              1
      6286.0000         0.7767        -999.25        -999.25         0.6299         1.0051       -38.8005     -0.2913055              1
      6286.5000         0.7873        -999.25        -999.25         0.6439         1.0033       -38.9384      -0.430294              1
      6287.0000         0.8224        -999.25        -999.25          0.662         1.0014       -39.0762     -0.5691795              1
      6287.5000         0.8575        -999.25        -999.25         0.6879         0.9852       -39.2141     -0.7081718              1
      6288.0000          0.889        -999.25        -999.25           0.73         0.9576       -39.3519     -0.8470573              1
      6288.5000         0.9048        -999.25        -999.25          0.794           0.93       -39.3096     -0.8058472              1
      6289.0000         0.9144        -999.25        -999.25         0.9194         0.9028        -38.924     -0.4213333              1
      6289.5000         0.9118        -999.25        -999.25         1.1213          0.876       -38.5389    -0.03731918              1
      6290.0000         0.9201        -999.25        -999.25         1.2855         0.8492       -38.1532      0.3472939              1
      6290.5000         0.9433        -999.25        -999.25         1.4591         0.8223       -37.7681      0.7313042              1
      6291.0000         0.9942        -999.25        -999.25         1.6072         0.7955       -37.1824       1.315914              1
      6291.5000         1.0275        -999.25        -999.25         1.8032         0.7691       -36.0532       2.444027              1
      6292.0000         1.0328        -999.25        -999.25         1.8898          0.756       -35.9241       2.572041              1
      6292.5000         1.0436        -999.25        -999.25          1.965         0.7428       -36.4344       2.060654              1
      6293.0000         1.1506        -999.25        -999.25         2.0427         0.7297       -36.9941       1.499866              1
      6293.5000         1.2325        -999.25        -999.25         1.9924         0.7165       -37.5537      0.9391785              1
      6294.0000         1.2499        -999.25        -999.25         1.8516          0.734       -38.1133      0.3784866              1
      6294.5000         1.2158        -999.25        -999.25         1.7993         0.7613        -38.673     -0.1823006              1
      6295.0000         1.1705        -999.25        -999.25          1.755         0.7886       -39.2326     -0.7429886              1
      6295.5000         1.1031        -999.25        -999.25         1.5685         0.8158        -39.175     -0.6864738              1
      6296.0000         1.0732        -999.25        -999.25         1.2398         0.8431       -38.9016     -0.4141617              1
      6296.5000         1.0415        -999.25        -999.25          0.911         0.8912       -38.1233      0.3630524              1
      6297.0000         1.0163        -999.25        -999.25         0.7733         0.9504       -37.1392       1.346066              1
      6297.5000         1.0109        -999.25        -999.25         0.6204         1.0096       -36.1519       2.332272              1
      6298.0000         0.9792        -999.25        -999.25         0.4951         1.0688       -35.1478       3.335285              1
      6298.5000         0.9278        -999.25        -999.25         0.4101          1.128       -34.1449       4.337097              1
      6299.0000         0.8696        -999.25        -999.25         0.3586         1.1765        -33.142       5.338913              1
      6299.5000         0.8105        -999.25        -999.25         0.3332         1.2242       -32.3724       6.107426              1
      6300.0000         0.8041        -999.25        -999.25         0.3241         1.2083        -31.749       6.729736              1
      6300.5000         0.8538        -999.25        -999.25         0.3399         1.1834       -31.1251       7.352551              1
      6301.0000         0.8999        -999.25        -999.25         0.3578         1.1471       -31.2531       7.223459              1
      6301.5000         0.9398        -999.25        -999.25         0.3758         1.1107       -31.7435       6.731972              1
      6302.0000         0.9796        -999.25        -999.25         0.4007         1.0743       -32.3785       6.095882              1
      6302.5000         1.0063        -999.25        -999.25         0.4258         1.0379       -35.1223       3.350998              1
      6303.0000         1.0264        -999.25        -999.25           0.45         1.0016       -37.8662      0.6060104              1
      6303.5000         0.8029        -999.25        -999.25         0.4743         0.9653       -41.6385      -3.167377      0.9820403
      6304.0000         0.8648        -999.25        -999.25         0.5056         0.9525       -44.7081      -6.238068       0.934799
      6304.5000         0.9265        -999.25        -999.25         0.5436         0.9499       -42.8231      -4.354156      0.9637822
      6305.0000         1.0195        -999.25        -999.25         0.5935         0.9474       -41.3559      -2.888042      0.9863378
      6305.5000         1.1135        -999.25        -999.25         0.5923         0.9566       -39.8886      -1.421829              1
      6306.0000         1.1578        -999.25        -999.25         0.5661         0.9773       -38.4592    0.006481171              1
      6306.5000         1.1879        -999.25        -999.25           0.54          0.998       -38.6144     -0.1498032              1
      6307.0000         1.2044        -999.25        -999.25         0.5138         1.0187       -38.7695     -0.3059921              1
      6307.5000         1.2209        -999.25        -999.25         0.4794         1.0394       -38.9248     -0.4623833              1
      6308.0000          1.238        -999.25        -999.25         0.4521         1.0496         -39.08     -0.6186714              1
      6308.5000         1.2585        -999.25        -999.25         0.5035         1.0505       -38.9855     -0.5252571              1
      6309.0000         1.2789        -999.25        -999.25         0.5558         1.0514       -38.5328    -0.07364273              1
      6309.5000         1.1938        -999.25        -999.25          0.613         1.0523       -38.0806      0.3774681              1
      6310.0000         1.0577        -999.25        -999.25         0.6702         1.0532       -37.6279      0.8290825              1
      6310.5000         1.0076        -999.25        -999.25         0.7251         1.0541       -37.1758       1.280094              1
