#------------------------------------------------------------------------------
# Created by    : vladimir.rabinovich
# Created on    : 09/19/2023 17:20:09
#------------------------------------------------------------------------------
~Version Information Section
VERS.           2.0     :   CWLS log ASCII Standard - VERSION 2.0
WRAP.           NO      :   One line per depth step
~Well Information Section
#MNEM       .UNIT                                         VALUE :DESCRIPTION
#------------------------------------------------------------------------------
STRT        .FT                                             880 :START DEPTH
STOP        .FT                                           10998 :STOP DEPTH
STEP        .FT                                             0.5 :STEP      
NULL        .                                           -999.25 :NULL      
COMP        .                        HUGHES TEXAS PETROLEUM LTD :COMPANY   
WELL        .                                ST TR 00564-L NE/4 :WELL      
FLD         .                       MATAGORDA ISLAND BLOCK 0565 :FIELD     
LOC         .                                                   :LOCATION  
CNTY        .                      MATAGORDA ISLAND LARGE BLOCK :LOCATION  
STAT        .                                             TEXAS :STATE     
CTRY        .                                     UNITED STATES :COUNTRY   
SRVC        .                                                   :SERVICE COMPANY
DATE        .                             9/13/2023 11:12:01 AM :LOG DATE  
API         .                                    42703303560000 :API NUMBER
UWI         .                                    42703303560000 :UNIQUE WELL ID
XCOORD      .                                  580856.659723482 :SURFACE X 
YCOORD      .                                  10268633.8274002 :SURFACE Y 
LAT         .                                         28.256926 :LATITUDE  
LON         .                                       -96.2914173 :LONGITUDE 
ELEV        .FT                                              25 :ELEVATION VALUE
ELEV_TYPE   .                                                KB :ELEVATION REFERENCE TYPE
~Curve Information Section
#MNEM       .UNIT                                      API CODE :CURVE DESCRIPTION
#------------------------------------------------------------------------------
DEPT        .FT                                                 :DEPTH     
ASFL        .OHMM                                               :          
GR          .GAPI                                               :          
GR_NORM     .GAPI                                               :GammaRay Normalized
ILD         .OHMM                                               :          
SP          .MV                                                 :          
SP_NORM     .MV                                                 :SP Normalized
VSH_GR      .V/V                                                :Volume of Shale from GR
VSH_SP      .V/V                                                :Volume of Shale from SP
~A        DEPTH           ASFL             GR        GR_NORM            ILD             SP        SP_NORM         VSH_GR         VSH_SP
# ...
      3623.5000         0.6918        41.0226       46.69644          0.463       -82.2703      -30.31483      0.2914136     0.05436017
      3624.0000         0.7027        40.1683       45.11212         0.4587       -82.7133      -30.73046      0.2577046     0.04095299
      3624.5000         0.7089        37.5756       40.30028         0.4543       -83.0125      -31.00228      0.1553251      0.0321846
      3625.0000         0.7013        37.4066        39.9883         0.4499       -83.2714       -31.2338      0.1486873     0.02471604
      3625.5000         0.6898        37.8033       40.72661         0.4442       -83.5302      -31.46522      0.1643959     0.01725092
      3626.0000         0.6782         37.774       40.67401         0.4385       -83.7867      -31.69434      0.1632767    0.009859885
      3626.5000         0.6737        37.3188       39.83068         0.4328       -83.9033      -31.78357      0.1453336    0.006981757
      3627.0000         0.6708        36.8175       38.90175         0.4272         -84.02      -31.87289      0.1255692    0.004100307
      3627.5000         0.6673        35.9871        37.3618         0.4215       -84.1366      -31.96211     0.09280428     0.00122218
      3628.0000         0.6612        35.2171         35.934         0.4158       -83.7914      -31.58953     0.06242549     0.01324081
      3628.5000          0.655        36.0415       37.46639         0.4104       -83.4169      -31.18766     0.09502963     0.02620451
      3629.0000         0.6488        36.8336       38.93881         0.4052       -83.0424      -30.78578      0.1263577     0.03916833
      3629.5000         0.6346        37.6138       40.38913         0.4001       -82.6678      -30.38381      0.1572155     0.05213522
      3630.0000         0.6204        38.3934       41.83834         0.3949       -82.1931      -29.88173      0.1880499     0.06833132
      3630.5000         0.6056        39.1729       43.28738         0.3897       -81.7187      -29.37995      0.2188804     0.08451781
      3631.0000         0.5924        39.9525       44.73658         0.3845       -81.2444      -28.87827      0.2497144      0.1007009
      3631.5000         0.5836        40.7009       46.12786         0.3792         -80.77       -28.3765      0.2793161      0.1168872
      3632.0000         0.5749          38.77       42.54473         0.3734       -80.4268      -28.00592      0.2030794      0.1288411
      3632.5000         0.5661        37.2228       39.67396         0.3675       -80.3091      -27.86084      0.1419992      0.1335213
      3633.0000         0.5591        35.8574       37.14073         0.3617       -80.2872      -27.81157     0.08810068      0.1351108
      3633.5000         0.5546        34.4913        34.6062         0.3558       -80.7081      -28.20509     0.03417449      0.1224165
      3634.0000           0.55        34.0454       33.78015           0.35       -81.1293      -28.59892     0.01659897      0.1097124
      3634.5000         0.5521        35.2314       35.98388         0.3441       -81.5502      -28.99244     0.06348679     0.09701821
      3635.0000         0.5583        36.4175        38.1878         0.3384       -82.1277      -29.54256      0.1103787     0.07927236
      3635.5000         0.5645        37.6036       40.39172         0.3344       -82.7766      -30.16408      0.1572707     0.05922318
      3636.0000         0.5727        38.7168       42.46029         0.3305       -83.2847       -30.6448      0.2012828     0.04371606
      3636.5000         0.5824        39.6536       44.20136         0.3265       -83.5029      -30.83562      0.2383269     0.03756049
      3637.0000         0.5921        40.5939       45.94893         0.3226       -82.8591      -30.16445      0.2755092     0.05921136
      3637.5000         0.6019        41.8087       48.20614         0.3186       -82.0918      -29.36977      0.3235349     0.08484625
      3638.0000         0.6116        43.0791       50.56657         0.3146       -81.2842      -28.53479      0.3737568      0.1117808
      3638.5000         0.6104        43.0062       50.43303         0.3146       -80.1859      -27.40911      0.3709155      0.1480931
      3639.0000         0.6023        41.5612       47.75201          0.315       -78.4929      -25.68874      0.3138725      0.2035892
      3639.5000         0.5862        40.2065       45.23866         0.3155       -76.8441      -24.01256      0.2603969      0.2576593
      3640.0000         0.5701        41.1577       47.00645         0.3159       -73.1854      -20.32648      0.2980097       0.376565
      3640.5000         0.5437         43.482       51.32357         0.3298       -70.9174      -18.03111      0.3898632      0.4506095
      3641.0000         0.5391        45.0238        54.1879         0.3468       -68.8489      -15.93523      0.4508064      0.5182184
      3641.5000         0.5597        46.0072       56.01548         0.3638       -67.8361      -14.89505      0.4896911      0.5517726
      3642.0000         0.5802        46.9907       57.84325         0.3809       -68.0948      -15.12638      0.5285798      0.5443104
      3642.5000         0.6036        47.8892       59.51322         0.3979       -68.3536       -15.3578      0.5641111      0.5368453
      3643.0000         0.6404         48.643       60.91452         0.5063       -68.2916      -15.26842      0.5939259      0.5397282
      3643.5000         0.6757        48.0099       59.74089         0.5251       -67.1062      -14.05564      0.5689552      0.5788502
      3644.0000         0.6969         45.841        55.7159         0.5438       -65.8729      -12.79497       0.483317      0.6195171
      3644.5000         0.7181        46.4807       56.90536          0.572       -62.1616      -9.056286      0.5086247      0.7401198
      3645.0000         0.7284        48.0106       59.74757         0.6037       -57.4412      -4.308514      0.5690972      0.8932738
      3645.5000         0.7364        49.2253        62.0046         0.6354       -56.2169      -3.056835      0.6171191      0.9336505
      3646.0000         0.7399        50.0796       63.59248         0.6671       -55.0021      -1.814659      0.6509039      0.9737207
      3646.5000         0.7739        43.1867       50.79684         0.6988       -54.9175      -1.702679      0.3786563      0.9773329
      3647.0000         0.8165        41.1672        47.0492         0.7324       -55.4699      -2.227699      0.2989191      0.9603968
      3647.5000         0.8618        39.7307       44.38398         0.8044        -55.916      -2.646427      0.2422123      0.9468895
      3648.0000         0.9041        38.4591       42.02489         0.8764       -56.2351      -2.938148       0.192019      0.9374791
      3648.5000          0.939        38.4591        42.0267         0.9561       -56.5543      -3.229969      0.1920573      0.9280655
      3649.0000          0.969         39.421       43.81436         1.0447       -56.5074      -3.155693      0.2300928      0.9304615
      3649.5000         1.0237        40.4917       45.80402         1.1329       -56.1819      -2.802814       0.272426      0.9418447
      3650.0000         1.2244        41.6838       48.01909         1.2058       -55.5742       -2.16774      0.3195552       0.962331
      3650.5000         1.3702        42.8764       50.23508         1.2787       -54.9665      -1.532661      0.3667038      0.9828174
      3651.0000         1.4166        44.0189       52.35806         1.3516       -54.3588      -0.897583      0.4118735              1
      3651.5000         1.4423        45.0752         54.321         1.4449       -53.8854     -0.3968048      0.4536384              1
      3652.0000         1.4629        45.7256       55.53033         1.5434       -53.6497     -0.1337318      0.4793687              1
      3652.5000         1.4734        45.3185        54.7763          1.641        -53.504     0.03934479      0.4633256              1
