#------------------------------------------------------------------------------
# Created by    : vladimir.rabinovich
# Created on    : 09/19/2023 17:22:53
#------------------------------------------------------------------------------
~Version Information Section
VERS.           2.0     :   CWLS log ASCII Standard - VERSION 2.0
WRAP.           NO      :   One line per depth step
~Well Information Section
#MNEM       .UNIT                                         VALUE :DESCRIPTION
#------------------------------------------------------------------------------
STRT        .FT                                             394 :START DEPTH
STOP        .FT                                            7700 :STOP DEPTH
STEP        .FT                                             0.5 :STEP      
NULL        .                                           -999.25 :NULL      
COMP        .                                   MARATHON OIL CO :COMPANY   
WELL        .                                     ST TR 00248-L :WELL      
FLD         .                                           WILDCAT :FIELD     
LOC         .                                                   :LOCATION  
CNTY        .                             GALVESTON LARGE BLOCK :LOCATION  
STAT        .                                             TEXAS :STATE     
CTRY        .                                     UNITED STATES :COUNTRY   
SRVC        .                                                   :SERVICE COMPANY
DATE        .                             9/13/2023 11:19:42 AM :LOG DATE  
API         .                                    42706000210000 :API NUMBER
UWI         .                                    42706000210000 :UNIQUE WELL ID
XCOORD      .                                  969160.596945075 :SURFACE X 
YCOORD      .                                  10521676.5956168 :SURFACE Y 
LAT         .                                        28.9764138 :LATITUDE  
LON         .                                       -95.0998408 :LONGITUDE 
ELEV        .FT                                              10 :ELEVATION VALUE
ELEV_TYPE   .                                                KB :ELEVATION REFERENCE TYPE
~Curve Information Section
#MNEM       .UNIT                                      API CODE :CURVE DESCRIPTION
#------------------------------------------------------------------------------
DEPT        .FT                                                 :DEPTH     
LAT         .OHMM                                               :          
LN          .OHMM                                               :          
SN          .OHMM                                               :          
SP          .MV                                                 :          
SP_NORM     .MV                                                 :SP Normalized
VSH_SP      .V/V                                                :Volume of Shale from SP
~A        DEPTH            LAT             LN             SN             SP        SP_NORM         VSH_SP
# ...
      2332.0000         0.3383         0.5673          0.949      -105.9114      -7.364136      0.8921333
      2332.5000          0.338          0.568         0.9446      -106.4652      -7.738083      0.8857952
      2333.0000         0.3377         0.5687         0.9403      -107.0189      -8.111923      0.8794589
      2333.5000         0.3373         0.5694          0.936      -107.5096       -8.42276      0.8741905
      2334.0000          0.334         0.5696         0.9316      -107.8489      -8.582207       0.871488
      2334.5000         0.3303         0.5696         0.9273       -108.188      -8.741447       0.868789
      2335.0000         0.3266         0.5696          0.923      -108.5273      -8.900887      0.8660867
      2335.5000         0.3229         0.5695         0.9186      -108.8666      -9.060333      0.8633842
      2336.0000         0.3192         0.5695         0.9143      -108.4865      -8.500374       0.872875
      2336.5000         0.3155         0.5695           0.91      -107.7206      -7.554611      0.8889049
      2337.0000         0.3117         0.5695         0.9056      -106.9547      -6.608849      0.9049348
      2337.5000          0.308         0.5694         0.9013      -106.1892      -5.663498      0.9209577
      2338.0000         0.3043         0.5694          0.897      -105.4232      -4.717644      0.9369891
      2338.5000         0.2998         0.5694         0.8926      -104.6573      -3.771881       0.953019
      2339.0000         0.2877         0.5694         0.8883      -103.8915      -2.826225       0.969047
      2339.5000         0.2757         0.5693          0.884       -104.323      -3.077858      0.9647821
      2340.0000         0.2636         0.5693         0.8794      -104.9182      -3.493202      0.9577423
      2340.5000         0.2516         0.5693         0.8746      -105.5134      -3.908546      0.9507026
      2341.0000         0.2395         0.5693         0.8699      -106.1086      -4.323883       0.943663
      2341.5000         0.2275         0.5692         0.8651       -106.704      -4.739433      0.9366198
      2342.0000         0.2211         0.5692         0.8604      -107.2992      -5.154778        0.92958
      2342.5000          0.228         0.5692         0.8556      -107.8944      -5.570114      0.9225404
      2343.0000         0.2349         0.5692         0.8509      -108.1653      -5.661156      0.9209974
      2343.5000         0.2418         0.5687         0.8461      -108.2106      -5.526596       0.923278
      2344.0000         0.2487         0.5674         0.8414      -108.2559      -5.392036      0.9255587
      2344.5000         0.2555         0.5661         0.8366       -108.301      -5.257286      0.9278426
      2345.0000         0.2624         0.5649         0.8319      -108.3463      -5.122719      0.9301234
      2345.5000         0.2693         0.5636         0.8271      -108.3916      -4.988167       0.932404
      2346.0000         0.2762         0.5623         0.8224      -108.4369        -4.8536      0.9346848
      2346.5000         0.2831          0.561         0.8176      -108.4822      -4.719048      0.9369653
      2347.0000           0.29         0.5598         0.8129      -108.4873      -4.544289      0.9399273
      2347.5000         0.2968         0.5585         0.8081      -108.4158      -4.292931      0.9441876
      2348.0000         0.3038         0.5572         0.8034      -108.3442      -4.041473      0.9484496
      2348.5000         0.3109          0.556         0.7987      -108.2727      -3.790108        0.95271
      2349.0000         0.3179         0.5547         0.7939      -108.2012      -3.538757      0.9569702
      2349.5000         0.3249         0.5534         0.7892      -108.3624      -3.520096      0.9572865
      2350.0000          0.332         0.5521         0.7844      -108.6124      -3.820808      0.9521897
      2350.5000          0.339         0.5509         0.7818      -108.8623      -4.178627       0.946125
      2351.0000         0.3461         0.5496         0.7819      -109.1123      -4.536545      0.9400586
      2351.5000         0.3531         0.5483         0.7819      -109.3623      -4.894455      0.9339923
      2352.0000         0.3602          0.547          0.782      -109.6122      -5.252274      0.9279276
      2352.5000         0.3672         0.5458          0.782      -109.7397      -5.487694      0.9239374
      2353.0000         0.3742         0.5445         0.7821      -109.7317      -5.587601      0.9222441
      2353.5000         0.3813         0.5432         0.7821      -109.7236      -5.687424      0.9205521
      2354.0000         0.3883         0.5419         0.7822      -109.7156      -5.787331      0.9188588
      2354.5000         0.3954         0.5406         0.7822      -109.7075      -5.887146       0.917167
      2355.0000         0.3814         0.5392         0.7822      -109.6995      -5.987068      0.9154734
      2355.5000         0.3627         0.5378         0.7823      -109.6914      -6.086876      0.9137818
      2356.0000         0.3439         0.5364         0.7823      -110.2186      -6.721992      0.9030171
      2356.5000         0.3252         0.5349         0.7824      -110.8466      -7.457916      0.8905438
      2357.0000         0.3065         0.5335         0.7824      -111.4745      -8.193726      0.8780724
      2357.5000           0.31         0.5321         0.7825      -112.1023      -8.929443      0.8656027
      2358.0000         0.3279         0.5307         0.7825      -112.7302       -9.66526      0.8531312
      2358.5000         0.3457         0.5293         0.7826       -113.358      -10.40097      0.8406615
      2359.0000         0.3636         0.5279         0.7826      -113.8715      -11.02238      0.8301291
      2359.5000         0.3815         0.5265         0.7827      -113.7687       -11.0275      0.8300423
      2360.0000         0.3993         0.5251         0.7827       -113.666      -11.03271       0.829954
      2360.5000         0.4172         0.5237         0.7827      -113.5632      -11.03783      0.8298672
      2361.0000         0.3981         0.5223         0.7823      -113.4606      -11.04315      0.8297771
      2361.5000         0.3727         0.5208         0.7779      -113.3579      -11.04836      0.8296888
      2362.0000         0.3473         0.5194         0.7734      -113.2551      -11.05347      0.8296021
      2362.5000          0.322          0.518          0.769      -113.1525      -11.05878      0.8295121
      2363.0000         0.2966         0.5166         0.7646      -113.0498        -11.064      0.8294237
      2363.5000         0.2712         0.5152         0.7602       -112.947      -11.06912      0.8293369
      2364.0000         0.2458         0.5138         0.7558      -112.8444      -11.07443      0.8292469
      2364.5000         0.2204         0.5126         0.7514      -112.7034      -11.04135      0.8298076
      2365.0000          0.195         0.5121          0.747      -112.4794      -10.92527      0.8317751
      2365.5000         0.1781         0.5116         0.7426      -112.2552      -10.80898      0.8337461
      2366.0000         0.1722         0.5112         0.7382       -112.031       -10.6927       0.835717
      2366.5000         0.1663         0.5107         0.7338      -111.8069      -10.57652      0.8376862
      2367.0000         0.1605         0.5102         0.7294      -111.5828      -10.46033      0.8396555
      2367.5000         0.1546         0.5097         0.7249      -111.3586      -10.34404      0.8416265
      2368.0000         0.1487         0.5092         0.7205      -111.1345      -10.22786      0.8435956
      2368.5000         0.1429         0.5087         0.7161      -110.9104      -10.11167      0.8455649
      2369.0000         0.1699         0.5082         0.7117      -111.0237      -10.33289      0.8418155
      2369.5000         0.2029         0.5077         0.7073      -111.4817       -10.8988      0.8322237
