#------------------------------------------------------------------------------
# Created by    : vladimir.rabinovich
# Created on    : 09/19/2023 17:21:45
#------------------------------------------------------------------------------
~Version Information Section
VERS.           2.0     :   CWLS log ASCII Standard - VERSION 2.0
WRAP.           NO      :   One line per depth step
~Well Information Section
#MNEM       .UNIT                                         VALUE :DESCRIPTION
#------------------------------------------------------------------------------
STRT        .FT                                            4296 :START DEPTH
STOP        .FT                                         10848.5 :STOP DEPTH
STEP        .FT                                             0.5 :STEP      
NULL        .                                           -999.25 :NULL      
COMP        .                                 CHEVRON U S A INC :COMPANY   
WELL        .                               OCS G07271 ST00BP00 :WELL      
FLD         .                                           WILDCAT :FIELD     
LOC         .                                                   :LOCATION  
CNTY        .                           HIGH ISLAND LARGE BLOCK :LOCATION  
STAT        .                                             TEXAS :STATE     
CTRY        .                                     UNITED STATES :COUNTRY   
SRVC        .                                                   :SERVICE COMPANY
DATE        .                             9/13/2023 11:19:59 AM :LOG DATE  
API         .                                    42708403180000 :API NUMBER
UWI         .                                    42708403180000 :UNIQUE WELL ID
XCOORD      .                                  1325118.04890174 :SURFACE X 
YCOORD      .                                  10672078.9744079 :SURFACE Y 
LAT         .                                          29.40291 :LATITUDE  
LON         .                                        -93.990507 :LONGITUDE 
ELEV        .FT                                              89 :ELEVATION VALUE
ELEV_TYPE   .                                                KB :ELEVATION REFERENCE TYPE
~Curve Information Section
#MNEM       .UNIT                                      API CODE :CURVE DESCRIPTION
#------------------------------------------------------------------------------
DEPT        .FT                                                 :DEPTH     
CALI        .IN                                                 :          
DRHO        .G/C3                                               :          
DTLN        .US/F                                               :          
GR          .GAPI                                               :          
GR_1        .GAPI                                               :          
GR_NORM     .GAPI                                               :GammaRay Normalized
ILD         .OHMM                                               :          
ILM         .OHMM                                               :          
NPHI        .%                                                  :          
RHOB        .G/C3                                               :          
SFL         .OHMM                                               :          
SP          .MV                                                 :          
SP_NORM     .MV                                                 :SP Normalized
VSH_GR      .V/V                                                :Volume of Shale from GR
VSH_SP      .V/V                                                :Volume of Shale from SP
~A        DEPTH           CALI           DRHO           DTLN             GR           GR_1        GR_NORM            ILD            ILM           NPHI           RHOB            SFL             SP        SP_NORM         VSH_GR         VSH_SP
# ...
      9974.0000        15.5605        -0.0086        -999.25        -999.25        62.2438       79.40168         0.6839         0.6791        37.6033         2.3119          0.701       -25.5696      -0.732214      0.9872698      0.9895398
      9974.5000        15.6108        -0.0088        -999.25        -999.25        63.4565       80.89884         0.6919         0.6763        40.1122         2.3161         0.7274       -25.6928      -0.861412              1      0.9876941
      9975.0000        15.5801        -0.0088        -999.25        -999.25        63.6177       81.09785         0.7003         0.6837        40.7335         2.3184         0.7444        -25.816     -0.9906101              1      0.9858484
      9975.5000          15.43         -0.009        -999.25        -999.25        63.2709        80.6697         0.7075         0.6912          42.84         2.3184         0.7505       -26.1113      -1.291906              1      0.9815442
      9976.0000        15.2274         -0.009        -999.25        -999.25        62.4036       79.59896         0.7109         0.6961         43.262         2.3128         0.7444       -26.4345      -1.621105      0.9914672      0.9768413
      9976.5000        15.0663        -0.0095        -999.25        -999.25         61.511       78.49699         0.7143          0.701        43.5235         2.2983         0.7074       -26.6873      -1.879904      0.9680212      0.9731442
      9977.0000        15.0149        -0.0114        -999.25        -999.25        61.1337       78.03119         0.7121         0.7045        43.8164           2.29         0.6673       -26.7315      -1.930101      0.9581104      0.9724271
      9977.5000        15.0751        -0.0147        -999.25        -999.25        62.8388       80.13625         0.7063         0.7003        43.0634         2.2889           0.62       -26.7757      -1.980299              1        0.97171
      9978.0000        15.1496        -0.0178        -999.25        -999.25        66.2834       84.38884         0.6997         0.6962        42.0294         2.2932         0.6163       -26.6852      -1.895796              1      0.9729172
      9978.5000        15.2212        -0.0198        -999.25        -999.25        67.7169        86.1586         0.6874         0.6921        40.7587          2.294         0.6427       -26.3127      -1.529295              1      0.9781529
      9979.0000        15.2934        -0.0198        -999.25        -999.25        68.1654       86.71229         0.6753         0.6739          40.63         2.2855         0.6789       -25.9402      -1.162794              1      0.9833887
      9979.5000        15.3654        -0.0159        -999.25        -999.25        67.6136       86.03106         0.6615         0.6561        42.8312         2.2745         0.6979       -25.5831     -0.8116894              1      0.9884045
      9980.0000        15.4338        -0.0116        -999.25        -999.25        66.8577       85.09785         0.6462         0.6445        44.1056         2.2717         0.7038       -25.2347     -0.4692879              1      0.9932959
      9980.5000         15.504        -0.0083        -999.25        -999.25        66.1605       84.23711         0.6312         0.6301        43.4525         2.2773         0.7097       -24.9652     -0.2057877              1      0.9970602
      9981.0000        15.5813        -0.0054        -999.25        -999.25        65.6467       83.60278         0.6184         0.6122        41.7661         2.2866         0.7008       -24.9149     -0.1614838              1      0.9976931
      9981.5000        15.6435        -0.0028        -999.25        -999.25        65.0873       82.91217         0.6134         0.6047        40.8741         2.2936         0.6793       -24.8615     -0.1140823              1      0.9983702
      9982.0000        15.6879        -0.0006        -999.25        -999.25        64.1296       81.72983         0.6084          0.607        40.7942         2.2972         0.6579        -24.761    -0.01957893              1      0.9997203
      9982.5000        15.6722         0.0037        -999.25        -999.25        63.0798       80.43377         0.6228         0.6193        41.7646         2.2967          0.637       -24.6603     0.07512283              1              1
      9983.0000        15.5866         0.0056        -999.25        -999.25        62.6753       79.93439         0.6394         0.6407        42.6462         2.2999         0.6592       -24.8302     -0.1007767      0.9986041      0.9985603
      9983.5000        15.4836         0.0087        -999.25        -999.25        62.7842       80.06884         0.6551         0.6611        42.9052         2.3048         0.7032       -25.0813     -0.3578739              1      0.9948875
      9984.0000        15.4016         0.0107        -999.25        -999.25        62.5069        79.7265         0.6693         0.6732        42.1122         2.3095          0.751       -25.3324     -0.6149712      0.9941809      0.9912147
      9984.5000         15.389         0.0115        -999.25        -999.25        61.5209       78.50921         0.6837         0.6856        40.8903         2.3095         0.7783       -25.5217     -0.8102703       0.968281      0.9884247
      9985.0000        15.4224         0.0112        -999.25        -999.25         59.999       76.63033         0.6943         0.6933        42.8364         2.3075         0.7995       -25.7026     -0.9971676      0.9283048      0.9857547
      9985.5000        15.4593           0.01        -999.25        -999.25        58.2557        74.4781         0.6907         0.6919        43.0479         2.3048           0.79       -25.8221      -1.122665      0.8825127      0.9839619
      9986.0000        15.4922         0.0075        -999.25        -999.25        56.2567       72.01019         0.6872         0.6904        43.5472         2.3028         0.7805       -25.6928     -0.9993629      0.8300041      0.9857234
      9986.5000         15.524          0.004        -999.25        -999.25        54.3192       69.61822         0.6837         0.6809        42.0708         2.3012         0.7378       -25.5638     -0.8763618       0.779111      0.9874805
      9987.0000        15.5484        -0.0002        -999.25        -999.25        54.5528       69.90662         0.6669         0.6666        41.0042         2.3001         0.6916       -25.3975     -0.7160587      0.7852473      0.9897706
      9987.5000         15.573        -0.0043        -999.25        -999.25        56.0748       71.78562         0.6497         0.6586        40.9731         2.2992         0.6494       -25.1961     -0.5206566       0.825226      0.9925621
      9988.0000        15.5895        -0.0065        -999.25        -999.25           57.1       73.05131         0.6364         0.6405        42.5146         2.2982         0.6334       -24.9943     -0.3248558      0.8521555      0.9953592
      9988.5000        15.5811        -0.0071        -999.25        -999.25        58.3589        74.6055         0.6264         0.6268        43.8845         2.2948         0.6381       -24.7827     -0.1192513      0.8852234      0.9982964
      9989.0000        15.5255        -0.0064        -999.25        -999.25        59.6363       76.18254         0.6165          0.628         44.204         2.2871         0.6642       -24.5702     0.08724976      0.9187775              1
      9989.5000        15.4415        -0.0051        -999.25        -999.25         60.091       76.74389         0.6046         0.6344        43.1832         2.2831          0.691       -24.4747      0.1767502       0.930721              1
      9990.0000        15.3689        -0.0043        -999.25        -999.25        59.9869       76.61538          0.592         0.6497        40.3371         2.2828         0.6866       -24.3826      0.2628536      0.9279868              1
      9990.5000        15.3544        -0.0045        -999.25        -999.25        60.0859        76.7376         0.5815          0.661        39.2091          2.289         0.6679       -24.4842      0.1552563      0.9305873              1
