#------------------------------------------------------------------------------
# Created by    : vladimir.rabinovich
# Created on    : 09/19/2023 17:20:02
#------------------------------------------------------------------------------
~Version Information Section
VERS.           2.0     :   CWLS log ASCII Standard - VERSION 2.0
WRAP.           NO      :   One line per depth step
~Well Information Section
#MNEM       .UNIT                                         VALUE :DESCRIPTION
#------------------------------------------------------------------------------
STRT        .FT                                             994 :START DEPTH
STOP        .FT                                           14137 :STOP DEPTH
STEP        .FT                                             0.5 :STEP      
NULL        .                                           -999.25 :NULL      
COMP        .                                   MARATHON OIL CO :COMPANY   
WELL        .                                     ST TR 00841-L :WELL      
FLD         .                                           WILDCAT :FIELD     
LOC         .                                                   :LOCATION  
CNTY        .                        MUSTANG ISLAND LARGE BLOCK :LOCATION  
STAT        .                                             TEXAS :STATE     
CTRY        .                                     UNITED STATES :COUNTRY   
SRVC        .                                                   :SERVICE COMPANY
DATE        .                             9/13/2023 11:18:55 AM :LOG DATE  
API         .                                    42702301400000 :API NUMBER
UWI         .                                    42702301400000 :UNIQUE WELL ID
XCOORD      .                                  272565.632686387 :SURFACE X 
YCOORD      .                                  9953986.84876921 :SURFACE Y 
LAT         .                                         27.367086 :LATITUDE  
LON         .                                       -97.2136853 :LONGITUDE 
ELEV        .FT                                              88 :ELEVATION VALUE
ELEV_TYPE   .                                                KB :ELEVATION REFERENCE TYPE
~Curve Information Section
#MNEM       .UNIT                                      API CODE :CURVE DESCRIPTION
#------------------------------------------------------------------------------
DEPT        .FT                                                 :DEPTH     
ASFL        .OHMM                                               :          
CILD        .MMHO                                               :          
GR          .GAPI                                               :          
GR_NORM     .GAPI                                               :GammaRay Normalized
ILD         .OHMM                                               :          
SP          .MV                                                 :          
SP_NORM     .MV                                                 :SP Normalized
VSH_GR      .V/V                                                :Volume of Shale from GR
VSH_SP      .V/V                                                :Volume of Shale from SP
~A        DEPTH           ASFL           CILD             GR        GR_NORM            ILD             SP        SP_NORM         VSH_GR         VSH_SP
# ...
      8864.5000         0.8973       1199.551        55.6183       82.92788         0.9014        -65.593      0.5982285              1              1
      8865.0000         0.8786       1245.547        55.0636        81.8937         0.8834       -65.7722      0.4154282              1              1
      8865.5000         0.9219       1276.811        54.4615       80.77157         0.8654       -65.9514      0.2326279              1              1
      8866.0000         0.9505       1292.336        53.8594       79.64941         0.8474        -66.202    -0.02157593      0.9925407              1
      8866.5000         0.9683       1297.703        53.2213        78.4604         0.8445       -67.1344     -0.9575729      0.9672426              1
      8867.0000         0.9828       1298.234        53.5241       79.01832         0.8505       -68.0668       -1.89357      0.9791132      0.9796916
      8867.5000         0.9952       1283.002         53.923       79.75463         0.8684       -67.4149       -1.24527      0.9947794      0.9944257
      8868.0000         1.0075       1257.533        54.3219       80.49098          0.893       -66.4364     -0.2703705              1              1
      8868.5000         1.0239       1219.428        54.7208       81.22726         0.9177       -65.4565      0.7059326              1              1
      8869.0000         1.0457       1179.176         54.928       81.60769         0.9423       -64.9287       1.230125              1              1
      8869.5000         1.0679       1147.912        54.8054        81.3758          0.967       -64.8844       1.270828              1              1
      8870.0000         1.0954       1121.045        54.0988       80.05964         0.9916       -65.5937      0.5579376              1              1
      8870.5000         1.1225       1096.324        53.2337       78.44918         1.0154        -66.303     -0.1549683      0.9670038              1
      8871.0000         1.1454       1076.871        52.3686       76.83875         1.0383        -67.006     -0.8615646      0.9327394              1
      8871.5000         1.1682        1057.42        51.5048       75.23073         1.0611       -67.0441     -0.9032669      0.8985261              1
      8872.0000         1.1803       1037.967        50.5886       73.52543          1.084       -66.5155      -0.378273      0.8622432              1
      8872.5000         1.1676       1004.633        49.6637       71.80392         1.1036       -65.9869      0.1467285      0.8256154              1
      8873.0000         1.1549       979.1621          49.87       72.18267         1.0979       -65.9197      0.2103348      0.8336738              1
      8873.5000         1.1326       971.2969        50.2576       72.89803         1.0923       -66.3759     -0.2494659      0.8488942              1
      8874.0000         1.1092       982.2461        50.6447       73.61243         1.0866       -66.8328     -0.7099686      0.8640942              1
      8874.5000         1.0868       993.1836        51.0323       74.32777          1.081       -67.2889       -1.16967      0.8793144      0.9961439
      8875.0000         1.0655       1011.724        51.4194        75.0422         1.0731       -67.2592       -1.14357      0.8945149      0.9967371
      8875.5000         1.0426       1035.945        51.8071       75.75771          1.051       -67.1835      -1.071472      0.9097384      0.9983757
      8876.0000         1.0082       1060.217        53.2661       78.46224          1.029       -67.0503      -0.941864      0.9672818              1
      8876.5000          0.987       1084.438        54.7158       81.14948          1.007       -66.5966     -0.4917679              1              1
      8877.0000         0.9783       1108.658        55.7479        83.0614          0.985       -66.1422    -0.04096222              1              1
      8877.5000         0.9696       1132.531          56.78       84.97334         0.9519       -65.6766      0.4210358              1              1
      8878.0000          0.961        1145.99        55.6569        82.8839         0.9548       -65.6012       0.492836              1              1
      8878.5000         0.9668       1150.959        54.5126        80.7551         0.9686       -66.1304     -0.0399704              1              1
      8879.0000         0.9781       1130.982        53.3683       78.62629         0.9824       -66.7417     -0.6548615      0.9707721              1
      8879.5000         0.9894       1111.006        52.3611       76.75204         0.9962       -67.6317      -1.548462      0.9308944      0.9875349
      8880.0000         1.0007       1091.029          51.85       75.79883           1.01       -67.5566      -1.476967      0.9106134      0.9891598
      8880.5000           1.01       1075.498        52.3736       76.76668         1.0238        -67.303      -1.226967      0.9312059      0.9948416
      8881.0000         1.0092       1105.162        52.8965        77.7332         1.0203       -67.0493     -0.9768677      0.9517702              1
      8881.5000         0.9987       1134.777        53.4194       78.69975         0.9919       -66.7957     -0.7268677      0.9723352              1
      8882.0000         0.9864       1164.443        53.9423       79.66628         0.9636       -66.5055     -0.4402618      0.9928997              1
      8882.5000         0.9742       1194.107        54.4659       80.63414         0.9354       -66.1989     -0.1372604              1              1
      8883.0000         0.9651       1233.861        55.4575       82.47087         0.9133       -65.8922      0.1658401              1              1
      8883.5000         0.9698       1267.266         56.186       83.81913         0.8913       -65.6891      0.3653336              1              1
      8884.0000         0.9746       1264.455        56.6672       84.70824         0.8693       -66.1104    -0.05956268              1              1
      8884.5000         0.9862       1261.643        56.6498       84.67165         0.8473       -66.5323     -0.4850616              1              1
      8885.0000         0.9978       1258.834        56.2428       83.91172         0.8453       -66.9536     -0.9099579              1              1
      8885.5000         1.0095       1256.025        55.8358       83.15182         0.8469       -67.4473      -1.407265              1       0.990744
      8886.0000         1.0211       1253.271        55.4288       82.39188         0.8485       -68.0393      -2.002861              1      0.9772077
      8886.5000         1.0328       1254.484        55.0218       81.63195         0.8501       -67.4298      -1.396965              1      0.9909781
      8887.0000         1.0478       1255.697        54.6148       80.87203         0.8516       -66.8091     -0.7798615              1              1
      8887.5000         1.0648        1256.91        53.7397       79.24303         0.8587       -65.8617      0.1639404      0.9838942              1
      8888.0000         1.0817       1258.121        52.2689       76.50806         0.8665       -65.9135      0.1085434      0.9257035              1
      8888.5000         1.0961       1259.334        51.3072       74.71828         0.8743       -66.1422     -0.1237564      0.8876229              1
      8889.0000         1.0878       1260.547        50.9289       74.01161         0.8867       -66.3708      -0.355957      0.8725875              1
      8889.5000         1.0767       1261.758        51.1358       74.39146         0.9098       -66.5996     -0.5883636      0.8806695              1
      8890.0000         1.0583       1262.971        51.6064       75.26093         0.9329       -66.0238    -0.01616669      0.8991686              1
      8890.5000          1.022       1264.182        52.0769       76.13019         0.9561       -65.3594      0.6446457      0.9176636              1
