#------------------------------------------------------------------------------
# Created by    : vladimir.rabinovich
# Created on    : 09/19/2023 17:19:55
#------------------------------------------------------------------------------
~Version Information Section
VERS.           2.0     :   CWLS log ASCII Standard - VERSION 2.0
WRAP.           NO      :   One line per depth step
~Well Information Section
#MNEM       .UNIT                                         VALUE :DESCRIPTION
#------------------------------------------------------------------------------
STRT        .FT                                            1601 :START DEPTH
STOP        .FT                                            6340 :STOP DEPTH
STEP        .FT                                             0.5 :STEP      
NULL        .                                           -999.25 :NULL      
COMP        .                 FAIRWAYS OFFSHORE EXPLORATION INC :COMPANY   
WELL        .                                ST TR 00629-L SE/4 :WELL      
FLD         .                                       BLOCK 630-L :FIELD     
LOC         .                                                   :LOCATION  
CNTY        .                      MATAGORDA ISLAND LARGE BLOCK :LOCATION  
STAT        .                                             TEXAS :STATE     
CTRY        .                                     UNITED STATES :COUNTRY   
SRVC        .                                                   :SERVICE COMPANY
DATE        .                             9/13/2023 11:19:05 AM :LOG DATE  
API         .                                    42703302840100 :API NUMBER
UWI         .                                    42703302840100 :UNIQUE WELL ID
XCOORD      .                                  449566.970470722 :SURFACE X 
YCOORD      .                                  10204940.3648147 :SURFACE Y 
LAT         .                                        28.0716107 :LATITUDE  
LON         .                                       -96.6925833 :LONGITUDE 
ELEV        .FT                                              82 :ELEVATION VALUE
ELEV_TYPE   .                                                KB :ELEVATION REFERENCE TYPE
~Curve Information Section
#MNEM       .UNIT                                      API CODE :CURVE DESCRIPTION
#------------------------------------------------------------------------------
DEPT        .FT                                                 :DEPTH     
ASFL        .OHMM                                               :          
CILD        .MMHO                                               :          
GR          .GAPI                                               :          
GR_NORM     .GAPI                                               :GammaRay Normalized
ILD         .OHMM                                               :          
SP          .MV                                                 :          
SP_NORM     .MV                                                 :SP Normalized
VSH_GR      .V/V                                                :Volume of Shale from GR
VSH_SP      .V/V                                                :Volume of Shale from SP
~A        DEPTH           ASFL           CILD             GR        GR_NORM            ILD             SP        SP_NORM         VSH_GR         VSH_SP
# ...
      2873.0000         0.6902       1975.758        68.8298       79.28062         0.4443       -32.9174       4.208347      0.9846939              1
      2873.5000         0.7122       1834.574         71.899       83.20696         0.4824       -32.4903       4.635448              1              1
      2874.0000         0.7234       1522.666        75.4218       87.71429          0.521       -32.3636       4.762146              1              1
      2874.5000         0.7301       1253.061        76.8253       89.50717         0.5605       -32.2369       4.888847              1              1
      2875.0000         0.7328       1182.271        77.8867       90.86189         0.5999        -32.142       4.983749              1              1
      2875.5000         0.7357       1173.793        78.2963       91.38176         0.6393       -32.0943       5.031448              1              1
      2876.0000         0.7386       1170.424        78.1942       91.24623         0.6781       -32.0467       5.079048              1              1
      2876.5000         0.7415       1167.613        77.9695       90.95368         0.7067        -31.999       5.126747              1              1
      2877.0000         0.7471       1164.576        77.5096       90.35989         0.7348       -31.9785       5.147247              1              1
      2877.5000         0.7538       1159.256        76.8241       89.47713         0.7618       -31.9814       5.144348              1              1
      2878.0000         0.7606       1141.492        76.2966       88.79676         0.7883       -31.9843       5.141447              1              1
      2878.5000         0.7732       1102.725        76.6805       89.28371         0.8127       -32.1324       4.993347              1              1
      2879.0000          0.786       1068.803        77.5873       88.07156         0.8371       -32.3604       4.765347              1              1
      2879.5000         0.8077       1047.494        78.4941       89.43805         0.8597       -32.7362       4.389549              1              1
      2880.0000         0.8314        1037.09        79.4797       90.92381         0.8813       -33.1658       3.959949              1              1
      2880.5000         0.8457       1027.621        80.4714        92.4188         0.8987       -33.5953       3.530449              1              1
      2881.0000         0.8501       1019.614        81.3782        93.7853         0.9113       -34.0995       3.026249              1              1
      2881.5000         0.8493       1025.414        82.3871        95.3063          0.924       -34.6121       2.513649              1              1
      2882.0000         0.8452       1037.439        83.5199       97.01479         0.9285       -35.1135       2.012249              1              1
      2882.5000         0.8388       1056.773        82.6565       95.70274         0.9304       -35.5993       1.526447              1              1
      2883.0000         0.8323       1072.281        79.7993       91.37376         0.9324       -36.0551       1.070648              1              1
      2883.5000         0.8221       1095.426        77.9453       88.56277         0.9366       -36.3661      0.7596474              1              1
      2884.0000         0.8107       1122.525        76.3187       86.09589         0.9464       -36.6773      0.4484482              1              1
      2884.5000         0.7991       1142.389        75.3301       84.59436         0.9219       -36.4395      0.6862488              1              1
      2885.0000          0.787        1161.98         74.548       83.40533         0.8912       -36.1101       1.015648              1              1
      2885.5000         0.7749       1184.357        75.9131       85.46531         0.8673       -35.6835       1.442249              1              1
      2886.0000         0.7653        1200.73        77.7675       88.26568         0.8434       -35.5399       1.585846              1              1
      2886.5000         0.7579       1211.412        77.2179       87.42846         0.8277       -35.3978       1.727947              1              1
      2887.0000         0.7555       1219.838        76.4905       86.32218         0.8144       -35.4413       1.684448              1              1
      2887.5000         0.7541       1222.002        75.7631       85.21589         0.8089       -35.4969       1.628849              1              1
      2888.0000         0.7536       1223.482        75.0615       84.14866         0.8072       -35.6873       1.438446              1              1
      2888.5000         0.7537        1206.92        74.3756       83.10518         0.8056       -35.8776       1.248146              1              1
      2889.0000         0.7539       1179.402        73.8998        82.3796         0.8084       -36.1555      0.9702492              1              1
      2889.5000         0.7547        1153.65        74.6531       83.51386         0.8125        -36.457      0.6687469              1              1
      2890.0000         0.7571       1127.703        76.6169       86.47976         0.8168       -36.9692      0.1565475              1              1
      2890.5000         0.7596       1094.457        78.6218       89.50787         0.8236       -37.5754     -0.4496536              1              1
      2891.0000         0.7705       1061.197        78.2216       88.89671         0.8305       -38.1987      -1.072952              1      0.9985695
      2891.5000         0.7857       1028.576        75.6198       84.95417         0.8373       -38.8262      -1.700451              1      0.9862657
      2892.0000         0.8088       996.1143        69.8807       76.26446         0.8518       -39.7137      -2.587952      0.9205204      0.9688637
      2892.5000         0.8237       962.4873         68.517       74.19537         0.8681       -40.7333      -3.607552      0.8764973      0.9488716
      2893.0000         0.8359       927.1426        67.0724       72.00388         0.8844        -41.549      -4.423252      0.8298699      0.9328774
      2893.5000         0.8469       883.5166        64.7334       68.45901         0.8939       -42.1204      -4.994652       0.754447      0.9216735
      2894.0000         0.8606       834.1494        61.9751       64.27967         0.9168       -42.6202      -5.494453      0.6655249      0.9118735
      2894.5000         0.8767       795.5781        59.8303       61.02867         0.9937       -42.8242      -5.698452      0.5963547      0.9078735
      2895.0000         0.8959       757.7178          55.03        53.7595          1.194       -42.9905      -5.864754      0.4416915      0.9046127
      2895.5000         0.9507       707.0508        52.2803       49.59318         1.3163       -42.8755      -5.749752      0.3530464      0.9068676
      2896.0000         1.0891       665.6084        52.4263       49.80849         1.3896       -42.7771      -5.651352      0.3576274       0.908797
      2896.5000         1.2468         636.25        53.3331         51.175         1.4523       -42.7126      -5.586853       0.386702      0.9100617
      2897.0000         1.3104       620.7676        54.3322       52.68118           1.48        -42.847      -5.721252      0.4187485      0.9074264
      2897.5000         1.3221       609.8213        56.9297       56.60597         1.4968       -43.0751      -5.949352      0.5022547      0.9029539
      2898.0000         1.3213       618.2471        57.0394       56.76635         1.4851       -43.6339      -6.508152      0.5056669       0.891997
      2898.5000         1.3164       638.5205        56.3223       55.67565         1.4482        -44.292      -7.166252      0.4824606      0.8790931
      2899.0000         1.3101       661.9893        54.9017       53.52047         1.3911       -45.1246      -7.998852      0.4366058      0.8627676
