#------------------------------------------------------------------------------
# Created by    : vladimir.rabinovich
# Created on    : 09/19/2023 17:22:52
#------------------------------------------------------------------------------
~Version Information Section
VERS.           2.0     :   CWLS log ASCII Standard - VERSION 2.0
WRAP.           NO      :   One line per depth step
~Well Information Section
#MNEM       .UNIT                                         VALUE :DESCRIPTION
#------------------------------------------------------------------------------
STRT        .FT                                             873 :START DEPTH
STOP        .FT                                           11612 :STOP DEPTH
STEP        .FT                                             0.5 :STEP      
NULL        .                                           -999.25 :NULL      
COMP        .                                   MARATHON OIL CO :COMPANY   
WELL        .                               OCS G04137 ST00BP04 :WELL      
FLD         .                       MATAGORDA ISLAND BLOCK 0527 :FIELD     
LOC         .                                                   :LOCATION  
CNTY        .                      MATAGORDA ISLAND LARGE BLOCK :LOCATION  
STAT        .                                             TEXAS :STATE     
CTRY        .                                     UNITED STATES :COUNTRY   
SRVC        .                                                   :SERVICE COMPANY
DATE        .                             9/13/2023 11:19:05 AM :LOG DATE  
API         .                                    42703400590000 :API NUMBER
UWI         .                                    42703400590000 :UNIQUE WELL ID
XCOORD      .                                  609906.580547661 :SURFACE X 
YCOORD      .                                  10277311.7025511 :SURFACE Y 
LAT         .                                         28.282909 :LATITUDE  
LON         .                                        -96.202007 :LONGITUDE 
ELEV        .FT                                              95 :ELEVATION VALUE
ELEV_TYPE   .                                                KB :ELEVATION REFERENCE TYPE
~Curve Information Section
#MNEM       .UNIT                                      API CODE :CURVE DESCRIPTION
#------------------------------------------------------------------------------
DEPT        .FT                                                 :DEPTH     
GR          .GAPI                                               :          
GR_NORM     .GAPI                                               :GammaRay Normalized
ILD         .OHMM                                               :          
SP          .MV                                                 :          
SP_NORM     .MV                                                 :SP Normalized
VSH_GR      .V/V                                                :Volume of Shale from GR
VSH_SP      .V/V                                                :Volume of Shale from SP
~A        DEPTH             GR        GR_NORM            ILD             SP        SP_NORM         VSH_GR         VSH_SP
# ...
      9482.5000        55.1306       69.01337          1.251        -60.713       -11.6112       0.766242      0.8034962
      9483.0000        56.2143       71.15036         1.2498        -60.282       -11.1802      0.8117098      0.8114777
      9483.5000        54.9136       68.58434         1.2485       -59.3663       -10.2645      0.7571137      0.8284352
      9484.0000        53.7963       66.38007         1.2474       -57.6251        -8.5233      0.7102142      0.8606796
      9484.5000        53.1729       65.14997         1.2463       -57.3922      -8.290401      0.6840419      0.8649926
      9485.0000        53.7963       66.37907         1.2452       -57.3174      -8.215603      0.7101929      0.8663777
      9485.5000        54.5797       67.92373         1.2405       -56.9548      -7.853001      0.7430581      0.8730926
      9486.0000        54.6354       68.03309          1.235       -56.6659      -7.564102      0.7453849      0.8784425
      9486.5000        54.7869       68.33141         1.2298       -56.4189      -7.317101      0.7517321      0.8830166
      9487.0000        54.9774       68.70666         1.2272       -55.7432      -6.641399      0.7597161      0.8955296
      9487.5000         55.672       70.07616         1.2245       -55.1265        -6.0247      0.7888544        0.90695
      9488.0000        56.5624       71.83187         1.2219       -54.8207      -5.718903        0.82621      0.9126129
      9488.5000        57.6489       73.97438         1.2194       -54.6733      -5.571503      0.8717954      0.9153426
      9489.0000        58.7316        76.1094         1.2173       -54.3224        -5.2206      0.9172212      0.9218407
      9489.5000        59.5727       77.76788         1.2153       -53.5394      -4.437599       0.952508      0.9363407
      9490.0000        57.2049       73.09711         1.2132       -52.9265      -3.824699      0.8531299      0.9476907
      9490.5000        55.4167       69.56956         1.2044       -53.1268      -4.025002      0.7780759      0.9439815
      9491.0000        53.8949       66.56747         1.1902       -53.4105      -4.308701      0.7142014      0.9387278
      9491.5000        53.1044       65.00777         1.1763       -53.6223        -4.5205      0.6810163      0.9348056
      9492.0000        52.8461        64.4978          1.162       -53.7937      -4.691902       0.670166      0.9316314
      9492.5000        53.2968       65.38623         1.1476       -53.8793        -4.7775      0.6890687      0.9300463
      9493.0000        54.2032       67.17351         1.1333       -53.8372      -4.735401      0.7270959      0.9308259
      9493.5000        55.1096       68.96078         1.1189       -53.4759        -4.3741      0.7651231      0.9375167
      9494.0000         55.627        69.9808         1.1024       -53.0868      -3.985001      0.7868256      0.9447222
      9494.5000        56.0617       70.83768         1.0862       -52.6218          -3.52      0.8050569      0.9533333
      9495.0000        56.6265       71.95116         1.0695       -52.3015      -3.199699      0.8287482      0.9592648
      9495.5000        57.7056       74.07911         1.0519        -52.033      -2.931202      0.8740236       0.964237
      9496.0000        59.4321       77.48393         1.0366       -51.7123        -2.6105      0.9464666      0.9701759
      9496.5000        61.3214       81.20991          1.022       -51.5656      -2.463802              1      0.9728925
      9497.0000        62.5477       83.62815         1.0076        -51.651      -2.549202              1      0.9713111
      9497.5000         62.517       83.56707         1.0156       -51.8292      -2.727402              1      0.9680111
      9498.0000        62.3101        83.1585         1.0251       -52.0071        -2.9053              1      0.9647167
      9498.5000        62.0773       82.69881         1.0424       -51.8915        -2.7897              1      0.9668574
      9499.0000        61.6544       81.86417         1.0604       -51.7419      -2.640102              1      0.9696277
      9499.5000        60.0314       78.66248         1.0772       -51.7388      -2.637001      0.9715421      0.9696851
      9500.0000        58.8969       76.42428         1.0855       -51.7356      -2.633801      0.9239208      0.9697444
      9500.5000        58.0977        74.8474         1.0939       -51.6146      -2.512802      0.8903703      0.9719852
      9501.0000        58.5109       75.66193         1.1024       -51.4586        -2.3568      0.9077005      0.9748741
      9501.5000        59.0486       76.72194          1.115       -51.2758         -2.174       0.930254      0.9782593
      9502.0000        59.6701       77.94733         1.1284       -51.2089      -2.107101      0.9563262      0.9794981
      9502.5000         60.616       79.81247         1.1418       -51.3407      -2.238899        0.99601      0.9770574
      9503.0000         61.166       80.89678         1.1532       -51.4821      -2.380302              1      0.9744388
      9503.5000        59.2767       77.16982         1.1647       -51.6636      -2.561802      0.9397835      0.9710777
      9504.0000        57.8289       74.31367         1.1759       -51.6088         -2.507      0.8790142      0.9720926
      9504.5000        56.7283       72.14235         1.1868       -51.4146      -2.312801      0.8328159      0.9756889
      9505.0000        57.0026       72.68287         1.1979       -51.1685        -2.0667      0.8443164      0.9802463
      9505.5000         57.446       73.55693         1.2061       -50.8596      -1.757801      0.8629134      0.9859666
      9506.0000        58.1569       74.95858         1.2072       -50.5975      -1.495701      0.8927357      0.9908203
      9506.5000        59.9377       78.47053         1.2083       -50.4384      -1.336601       0.967458      0.9937667
      9507.0000        61.7185       81.98247          1.207       -50.2531      -1.151302              1      0.9971981
      9507.5000         63.445       85.38733         1.1941       -50.0521     -0.9503021              1              1
      9508.0000        64.0961       86.67105         1.1814       -49.8887     -0.7868996              1              1
      9508.5000        62.3696       83.26521         1.1445       -49.7225     -0.6207008              1              1
      9509.0000        60.3521       79.28535         1.1064       -49.5298     -0.4321632      0.9847946              1
      9509.5000        58.3345       75.30536         1.0695       -49.0381     0.04750443       0.900114              1
      9510.0000        59.0473       76.71079         1.0562       -48.5543      0.5192719      0.9300169              1
      9510.5000        60.1449       78.87518         1.0435       -48.5364       0.525135      0.9760675              1
      9511.0000        60.7405       80.04942         1.0324       -48.5461      0.5034027              1              1
      9511.5000          61.33       81.21164         1.0263       -48.5957      0.4417686              1              1
      9512.0000         62.118        82.7654         1.0203       -48.7033      0.3221321              1              1
      9512.5000         62.985       84.47495         1.0127        -48.843      0.1704025              1              1
      9513.0000        63.4536        85.3987         1.0051       -48.9421     0.05926514              1              1
      9513.5000         63.847       86.17411         0.9968       -48.9471     0.04223251              1              1
      9514.0000        64.1799       86.83025         0.9878        -48.952     0.02529907              1              1
      9514.5000        64.3723       87.20921         0.9788       -48.6793       0.285965              1              1
      9515.0000        64.1593       86.78862         0.9713       -48.2926      0.6606331              1              1
      9515.5000        63.9466       86.36856          0.964       -48.0986       0.842598              1              1
