#------------------------------------------------------------------------------
# Created by    : vladimir.rabinovich
# Created on    : 09/19/2023 17:20:37
#------------------------------------------------------------------------------
~Version Information Section
VERS.           2.0     :   CWLS log ASCII Standard - VERSION 2.0
WRAP.           NO      :   One line per depth step
~Well Information Section
#MNEM       .UNIT                                         VALUE :DESCRIPTION
#------------------------------------------------------------------------------
STRT        .FT                                             582 :START DEPTH
STOP        .FT                                            8015 :STOP DEPTH
STEP        .FT                                             0.5 :STEP      
NULL        .                                           -999.25 :NULL      
COMP        .                                CONTINENTAL OIL CO :COMPANY   
WELL        .                                OCS 00719 ST00BP00 :WELL      
FLD         .                                           WILDCAT :FIELD     
LOC         .                                                   :LOCATION  
CNTY        .                             GALVESTON LARGE BLOCK :LOCATION  
STAT        .                                             TEXAS :STATE     
CTRY        .                                     UNITED STATES :COUNTRY   
SRVC        .                                                   :SERVICE COMPANY
DATE        .                             9/13/2023 11:19:25 AM :LOG DATE  
API         .                                    42706000350000 :API NUMBER
UWI         .                                    42706000350000 :UNIQUE WELL ID
XCOORD      .                                  1010979.62119212 :SURFACE X 
YCOORD      .                                  10432235.4027546 :SURFACE Y 
LAT         .                                          28.73246 :LATITUDE  
LON         .                                        -94.964458 :LONGITUDE 
ELEV        .FT                                              63 :ELEVATION VALUE
ELEV_TYPE   .                                                KB :ELEVATION REFERENCE TYPE
~Curve Information Section
#MNEM       .UNIT                                      API CODE :CURVE DESCRIPTION
#------------------------------------------------------------------------------
DEPT        .FT                                                 :DEPTH     
ASN         .OHMM                                               :          
DT          .US/F                                               :          
LN          .OHMM                                               :          
SP          .MV                                                 :          
SP_NORM     .MV                                                 :SP Normalized
VSH_SP      .V/V                                                :Volume of Shale from SP
~A        DEPTH            ASN             DT             LN             SP        SP_NORM         VSH_SP
# ...
      7992.0000         0.5497        -999.25          0.479       -45.1246      -7.726319       0.909106
      7992.5000         0.5491        -999.25         0.4823       -45.0432      -7.603596       0.911054
      7993.0000         0.5476        -999.25         0.4856       -44.9447      -7.455084      0.9134114
      7993.5000         0.5461        -999.25         0.4889       -44.8554      -7.320449      0.9155484
      7994.0000         0.5445        -999.25         0.4923       -44.7864      -7.216418      0.9171997
      7994.5000          0.543        -999.25         0.4956       -44.2064       -6.34196        0.93108
      7995.0000         0.5416        -999.25         0.4989       -43.5596      -5.366783       0.946559
      7995.5000          0.544        -999.25         0.5022       -42.9554      -4.455832      0.9610186
      7996.0000         0.5464        -999.25         0.5055       -42.5278      -3.811147      0.9712517
      7996.5000         0.5487        -999.25         0.5088       -42.2151      -3.339688      0.9787351
      7997.0000          0.549        -999.25         0.5122       -41.9019      -2.867482      0.9862304
      7997.5000         0.5493        -999.25         0.5138       -41.6682      -2.515135      0.9918233
      7998.0000         0.5496        -999.25         0.5155       -42.0178      -3.042221      0.9834568
      7998.5000         0.5498        -999.25         0.5171       -42.5121      -3.787474      0.9716274
      7999.0000         0.5501        -999.25         0.5188       -43.0698      -4.628316      0.9582807
      7999.5000         0.5487        -999.25         0.5204       -43.6274      -5.469002      0.9449365
      8000.0000         0.5474        -999.25         0.5221       -44.0444       -6.09771       0.934957
      8000.5000         0.5461        -999.25         0.5238       -44.1881      -6.314364       0.931518
      8001.0000         0.5447        -999.25         0.5254        -44.332      -6.531324      0.9280742
      8001.5000         0.5434        -999.25         0.5271        -44.196      -6.326275       0.931329
      8002.0000         0.5421        -999.25         0.5287       -44.2131      -6.352059      0.9309197
      8002.5000         0.5407        -999.25         0.5304       -44.6855      -7.064294      0.9196144
      8003.0000         0.5408        -999.25          0.532       -45.2667      -7.940564      0.9057053
      8003.5000         0.5433        -999.25         0.5337       -45.9572      -8.981623      0.8891806
      8004.0000         0.5458        -999.25         0.5347       -46.2559      -9.431974      0.8820322
      8004.5000         0.5483        -999.25         0.5353       -46.4061       -9.65843      0.8784376
      8005.0000         0.5539        -999.25         0.5359       -46.7272      -10.14255      0.8707532
      8005.5000         0.5533        -999.25         0.5365       -47.0993      -10.70356      0.8618482
      8006.0000          0.546        -999.25         0.5371       -47.4838      -11.28327      0.8526466
      8006.5000         0.5404        -999.25         0.5377       -47.8761      -11.87473      0.8432582
      8007.0000         0.5374        -999.25         0.5382       -46.9929      -10.54314      0.8643945
      8007.5000         0.5345        -999.25         0.5388       -46.3943      -9.640635      0.8787201
      8008.0000         0.5315        -999.25         0.5394       -45.7969      -8.739944      0.8930168
      8008.5000           0.53        -999.25           0.54        -46.364      -9.594951      0.8794453
      8009.0000         0.5362        -999.25         0.5406       -47.4053      -11.16491      0.8545251
      8009.5000         0.5423        -999.25         0.5412       -48.2897      -12.49832      0.8333601
      8010.0000         0.5485        -999.25         0.5418       -49.5574      -14.40962      0.8030219
      8010.5000         0.5551        -999.25         0.5423       -52.1612      -18.33535      0.7407087
      8011.0000         0.5473        -999.25         0.5414        -52.938      -19.50652      0.7221187
      8011.5000         0.5371        -999.25         0.5404       -53.1801      -19.87153      0.7163249
      8012.0000         0.5275        -999.25         0.5394       -51.8059      -17.79967      0.7492117
      8012.5000         0.5212        -999.25         0.5385       -50.6929       -16.1216      0.7758476
      8013.0000          0.523        -999.25         0.5375       -49.8611       -14.8675      0.7957539
      8013.5000         0.5304        -999.25         0.5366       -49.1875      -13.85192      0.8118742
      8014.0000         0.5369        -999.25         0.5356       -48.5385      -12.87343      0.8274058
      8014.5000          0.542        -999.25         0.5346       -48.2656      -12.46198      0.8339369
      8015.0000         0.5471        -999.25         0.5337         -48.03      -12.10677      0.8395751
