#------------------------------------------------------------------------------
# Created by    : vladimir.rabinovich
# Created on    : 09/19/2023 17:22:33
#------------------------------------------------------------------------------
~Version Information Section
VERS.           2.0     :   CWLS log ASCII Standard - VERSION 2.0
WRAP.           NO      :   One line per depth step
~Well Information Section
#MNEM       .UNIT                                         VALUE :DESCRIPTION
#------------------------------------------------------------------------------
STRT        .FT                                            2877 :START DEPTH
STOP        .FT                                            8775 :STOP DEPTH
STEP        .FT                                             0.5 :STEP      
NULL        .                                           -999.25 :NULL      
COMP        .                                       APACHE CORP :COMPANY   
WELL        .                                  HIGH ISLAND 10-L :WELL      
FLD         .                                           WILDCAT :FIELD     
LOC         .                                                   :LOCATION  
CNTY        .                           HIGH ISLAND LARGE BLOCK :LOCATION  
STAT        .                                             TEXAS :STATE     
CTRY        .                                     UNITED STATES :COUNTRY   
SRVC        .                                                   :SERVICE COMPANY
DATE        .                             9/13/2023 11:19:15 AM :LOG DATE  
API         .                                    42708303590000 :API NUMBER
UWI         .                                    42708303590000 :UNIQUE WELL ID
XCOORD      .                                  1323081.96300683 :SURFACE X 
YCOORD      .                                  10736101.4448574 :SURFACE Y 
LAT         .                                        29.5789626 :LATITUDE  
LON         .                                       -93.9986282 :LONGITUDE 
ELEV        .FT                                             100 :ELEVATION VALUE
ELEV_TYPE   .                                                KB :ELEVATION REFERENCE TYPE
~Curve Information Section
#MNEM       .UNIT                                      API CODE :CURVE DESCRIPTION
#------------------------------------------------------------------------------
DEPT        .FT                                                 :DEPTH     
CNCSS       .%                                                  :          
DCAL        .IN                                                 :          
GRR         .GAPI                                               :          
ILD         .OHMM                                               :          
ILM         .OHMM                                               :          
PORZSS      .%                                                  :          
RFOC        .OHMM                                               :          
SP          .MV                                                 :          
SP_NORM     .MV                                                 :SP Normalized
TENR        .LB                                                 :          
VSH_SP      .V/V                                                :Volume of Shale from SP
ZCOR        .G/CM3                                              :          
~A        DEPTH          CNCSS           DCAL            GRR            ILD            ILM         PORZSS           RFOC             SP        SP_NORM           TENR         VSH_SP           ZCOR
# ...
      8740.0000        -999.25         6.8812        -999.25         0.7364         0.4276        71.9985         0.6843            0.6      -6.376744       1393.812      0.9220762         -0.004
      8740.5000        -999.25         6.7819        -999.25         0.7534         0.4275        72.4754         0.6904         0.8057      -6.171044       1483.168      0.9250574         -0.006
      8741.0000        -999.25         6.6428        -999.25         0.7602         0.4316        72.9512         0.6872         0.8153      -6.161444       1532.673      0.9251965         -0.012
      8741.5000        -999.25         6.5235        -999.25           0.76         0.4357        73.0112         0.6839          1.424      -5.552744       1532.673      0.9340182         -0.012
      8742.0000        -999.25         6.5032        -999.25         0.7599         0.4398        72.8926         0.6807         2.0322      -4.944544       1522.772      0.9428327         -0.012
      8742.5000        -999.25          6.473        -999.25         0.7527         0.4462        -999.25         0.6653         2.6398      -4.336944       1483.168      0.9516385        -999.25
      8743.0000        -999.25         6.4725        -999.25         0.7457         0.4569        -999.25         0.6531         3.4462      -3.530544       1463.366      0.9633254        -999.25
      8743.5000        -999.25          6.472        -999.25         0.7152         0.4634        -999.25         0.6442         4.0524      -2.924344       1463.366      0.9721109        -999.25
      8744.0000        -999.25         6.4715        -999.25         0.6862         0.4723        -999.25          0.644         4.2596      -2.717144       1463.366      0.9751139        -999.25
      8744.5000        -999.25          6.471        -999.25         0.6861         0.4814        -999.25         0.6587         4.6657      -2.311044       1463.366      0.9809994        -999.25
      8745.0000        -999.25         6.4606        -999.25          0.718         0.4953        -999.25         0.6645         4.8723      -2.104444       1463.366      0.9839936        -999.25
      8745.5000        -999.25         6.4502        -999.25         0.8238         0.5534        -999.25          0.632         4.8798      -2.096944       1443.564      0.9841022        -999.25
      8746.0000        -999.25         6.4497        -999.25         1.0442         0.6703        -999.25         0.6233         5.0862      -1.890544       1443.564      0.9870936        -999.25
      8746.5000        -999.25         6.4492        -999.25         1.3193         0.8014        -999.25         0.6581         4.8948      -2.081944       1443.564      0.9843196        -999.25
      8747.0000        -999.25         6.4487        -999.25         1.6442         0.9566        -999.25          0.724          4.505      -2.471744       1443.564      0.9786704        -999.25
      8747.5000        -999.25         6.4483        -999.25          1.721         1.0292        -999.25         0.8343         4.3141      -2.662644       1443.564      0.9759037        -999.25
      8748.0000        -999.25         6.4478        -999.25         1.4653         0.8768        -999.25         0.8847         4.1233      -2.853444       1453.465      0.9731385        -999.25
      8748.5000        -999.25         6.4473        -999.25         1.0478         0.7472        -999.25         0.8153         4.1312      -2.845544       1433.663       0.973253        -999.25
      8749.0000        -999.25         6.4468        -999.25         0.7436         0.6368        -999.25         0.7436         3.9408      -3.035944        1403.96      0.9704936        -999.25
      8749.5000        -999.25         6.4463        -999.25         0.6252         0.6112        -999.25         0.7299         3.9487      -3.028044        1403.96      0.9706081        -999.25
      8750.0000        -999.25         6.4458        -999.25         0.6222         0.6083        -999.25         0.7783         4.7489      -2.227844       1483.168      0.9822052        -999.25
      8750.5000        -999.25         6.4457        -999.25         0.6193         0.6082        -999.25         0.8295         5.7388      -1.237944        1572.03      0.9965515        -999.25
      8751.0000        -999.25         6.4459        -999.25         0.6659         0.6082        -999.25         0.8447         6.3263      -0.650444       1670.545              1        -999.25
      8751.5000        -999.25         6.4362        -999.25         0.7229          0.611        -999.25         0.7535         6.1213      -0.855444       1709.653              1        -999.25
      8752.0000        -999.25         6.4562        -999.25         0.7927          0.611        -999.25         0.6781         5.7177      -1.259044        1629.95      0.9962457        -999.25
      8752.5000        -999.25         6.4664        -999.25         0.7963         0.6055        -999.25          0.625         4.9168      -2.059944       1540.347      0.9846385        -999.25
      8753.0000        -999.25         6.4468        -999.25         0.8073         0.5973        -999.25         0.6659          4.115      -2.861744       1480.446      0.9730182        -999.25
      8753.5000        -999.25         6.4371        -999.25         0.8371         0.5785        -999.25          0.733         3.1139      -2.983256       1450.248      0.9712572        -999.25
      8754.0000        -999.25         6.4373        -999.25         0.8485         0.5603        -999.25         0.7746          1.913       -3.00276       1439.851      0.9709745        -999.25
      8754.5000        -999.25         6.4375        -999.25         0.8485         0.5403        -999.25          0.789        -0.2848      -4.019165       1429.455       0.956244        -999.25
      8755.0000        -999.25         6.4377        -999.25         0.8563         0.5233        -999.25         0.7927        -3.0811      -5.634069       1419.059      0.9328396        -999.25
      8755.5000        -999.25         6.4379        -999.25         0.8601         0.5046        -999.25         0.7782        -6.0737      -7.445274       1468.069      0.9065902        -999.25
      8756.0000        -999.25         6.4382        -999.25         0.8601          0.486        -999.25         0.7432        -7.8702      -8.060379       1556.683      0.8976757        -999.25
      8756.5000        -999.25         6.4384        -999.25         0.8485          0.486        -999.25          0.713        -9.0687      -8.077483       1566.089      0.8974278        -999.25
      8757.0000        -999.25         6.4286        -999.25         0.8409         0.4953        -999.25          0.733        -9.8687      -7.696089       1535.891      0.9029552        -999.25
      8757.5000        -999.25         6.4388        -999.25         0.8524         0.5023        -999.25         0.7711       -10.2708      -6.916793       1485.891      0.9142494        -999.25
      8758.0000        -999.25          6.439        -999.25         0.8759         0.5069        -999.25         0.7818       -10.6726      -6.137197       1485.396      0.9255478        -999.25
      8758.5000        -999.25         6.4392        -999.25          0.868            0.5        -999.25         0.7746       -10.8755      -5.158702        1574.01       0.939729        -999.25
      8759.0000        -999.25         6.4395        -999.25         0.8485          0.486        -999.25         0.7535       -11.0783      -4.180108       1712.129      0.9539115        -999.25
      8759.5000        -999.25         6.4397        -999.25         0.8447         0.4723        -999.25         0.7263        -11.479      -3.399412       1780.941      0.9652259        -999.25
      8760.0000        -999.25         6.4399        -999.25         0.8485         0.4678        -999.25         0.7065       -11.8793      -2.618317       1760.644      0.9765461        -999.25
