#------------------------------------------------------------------------------
# Created by    : vladimir.rabinovich
# Created on    : 09/19/2023 17:22:30
#------------------------------------------------------------------------------
~Version Information Section
VERS.           2.0     :   CWLS log ASCII Standard - VERSION 2.0
WRAP.           NO      :   One line per depth step
~Well Information Section
#MNEM       .UNIT                                         VALUE :DESCRIPTION
#------------------------------------------------------------------------------
STRT        .FT                                            1687 :START DEPTH
STOP        .FT                                            6155 :STOP DEPTH
STEP        .FT                                             0.5 :STEP      
NULL        .                                           -999.25 :NULL      
COMP        .                       AMERICAN COASTAL ENERGY INC :COMPANY   
WELL        .                                ST TR 00596-L NE/4 :WELL      
FLD         .                        SHERMAN OFFSHORE SOUTHWEST :FIELD     
LOC         .                                                   :LOCATION  
CNTY        .                      MATAGORDA ISLAND LARGE BLOCK :LOCATION  
STAT        .                                             TEXAS :STATE     
CTRY        .                                     UNITED STATES :COUNTRY   
SRVC        .                                                   :SERVICE COMPANY
DATE        .                             9/13/2023 11:12:01 AM :LOG DATE  
API         .                                    42703302820000 :API NUMBER
UWI         .                                    42703302820000 :UNIQUE WELL ID
XCOORD      .                                  484247.709270029 :SURFACE X 
YCOORD      .                                   10242127.767654 :SURFACE Y 
LAT         .                                        28.1765839 :LATITUDE  
LON         .                                       -96.5886238 :LONGITUDE 
ELEV        .FT                                              79 :ELEVATION VALUE
ELEV_TYPE   .                                                KB :ELEVATION REFERENCE TYPE
~Curve Information Section
#MNEM       .UNIT                                      API CODE :CURVE DESCRIPTION
#------------------------------------------------------------------------------
DEPT        .FT                                                 :DEPTH     
CILD        .MMHO                                               :          
DT          .US/F                                               :          
ILD         .OHMM                                               :          
SN          .OHMM                                               :          
SP          .MV                                                 :          
SP_NORM     .MV                                                 :SP Normalized
VSH_SP      .V/V                                                :Volume of Shale from SP
~A        DEPTH           CILD             DT            ILD             SN             SP        SP_NORM         VSH_SP
# ...
      5238.0000       1626.997        99.4796         0.6645         1.3471       -63.9119        -47.871      0.3716302
      5238.5000       1483.587        95.8947         0.7021         1.3471       -62.5708       -46.5277      0.3900315
      5239.0000       1435.798        95.0985         0.7216         1.3165       -57.5982       -41.5529      0.4581795
      5239.5000       1419.882         95.497         0.7418         1.2749        -50.735       -34.6876      0.5522247
      5240.0000       1380.061        97.6888         0.7555         1.2632       -46.3591       -30.3095      0.6121987
      5240.5000       1356.177        99.9808         0.7695         1.2807       -45.4644       -29.4127      0.6244835
      5241.0000       1356.196        99.8815         0.7766         1.3044       -46.2607       -30.2068      0.6136055
      5241.5000       1332.312        99.4835         0.7837         1.3164       -47.0569       -31.0008      0.6027288
      5242.0000       1324.364        98.8867         0.7837         1.3103       -47.3558       -31.2976       0.598663
      5242.5000       1324.384        98.8331         0.7801         1.2923        -48.152       -32.0916      0.5877863
      5243.0000        1340.34        98.7878         0.7801         1.2864       -49.2465       -33.1839      0.5728233
      5243.5000       1356.296        98.5891         0.7694         1.2864       -50.1422       -34.0775      0.5605822
      5244.0000       1372.252        98.3904         0.7658         1.2923       -50.8389        -34.772      0.5510685
      5244.5000       1340.399        98.1917           0.78         1.2982       -51.5354       -35.4663      0.5415576
      5245.0000       1284.642        97.8934         0.8241         1.3041       -50.3426       -34.2714       0.557926
      5245.5000       1212.949        97.5951         0.8668         1.3222       -49.6469       -33.5735      0.5674863
      5246.0000        1165.16        97.2963         0.9363         1.3405       -49.9457       -33.8701      0.5634233
      5246.5000       1109.419        96.8984         0.9278         1.3842        -51.637       -35.5593      0.5402836
      5247.0000       1173.168        95.1061         0.8747         1.4163       -54.1239        -38.044      0.5062466
      5247.5000        1292.71        92.3177         0.7728         1.4098       -57.4065       -41.3245      0.4613082
      5248.0000       1396.315         91.123         0.7082         1.3841       -61.8823       -45.7981       0.400026
      5248.5000       1571.634        91.7211         0.6286         1.3099       -66.0598       -49.9734      0.3428301
      5249.0000       1695.176        94.0129         0.5682         1.2511       -69.6406       -53.5521      0.2938068
      5249.5000       1858.544        98.2958         0.5328         1.2283       -71.2324       -55.1417      0.2720315
      5250.0000       1918.325       100.4876         0.5112         1.2283       -70.2381       -54.1452      0.2856822
      5250.5000       1986.056       101.6835         0.5303         1.1732       -61.6768       -45.5818      0.4029891
      5251.0000       1834.685         99.294         0.5578         1.1154       -52.9342        -36.837      0.5227808
      5251.5000       1675.339       100.8879         0.6086         1.0752       -41.4978       -25.3984       0.679474
      5252.0000       1571.773       106.8641         0.6952         1.0364       -35.6307       -19.5292       0.759874
      5252.5000        1412.43       110.0519         0.7761         1.0604       -30.4599       -14.3562       0.830737
      5253.0000       1300.896       109.2556         0.8126         1.0702       -27.5767       -11.4708       0.870263
      5253.5000       1213.267       107.8617         0.8745           1.08       -28.3726       -12.2646      0.8593891
      5254.0000        1157.51       108.4598         0.9197         1.1359        -29.865       -13.7548      0.8389754
      5254.5000       1093.801       108.4602         0.9621         1.1622       -28.7719       -12.6596      0.8539781
      5255.0000       1117.713       107.6638         0.9579         1.1569       -29.5678       -13.4533      0.8431055
      5255.5000       1117.733       107.0669         0.9576         1.1675       -30.6623       -14.5456      0.8281425
      5256.0000       1109.785       108.8601         0.9576         1.2393       -28.9732       -12.8544      0.8513096
      5256.5000        1073.97       113.4428         0.9576         1.1837       -29.3834       -13.2624      0.8457205
      5257.0000       1089.916        115.634         0.9409         1.1358       -29.3718       -13.2486      0.8459096
      5257.5000       1129.781       118.6226         0.9029         1.1049       -29.0741       -12.9488      0.8500164
      5258.0000       1173.625       120.8148         0.8663         1.0505       -29.5719       -13.4444      0.8432274
      5258.5000       1245.342       120.0166         0.8312         1.0079       -30.2686       -14.1389      0.8337137
      5259.0000       1293.171       119.0229         0.7825         0.9805       -33.5504       -17.4186      0.7887863
      5259.5000       1356.936       117.1309         0.7567         0.9069       -36.8326       -20.6986      0.7438548
      5260.0000       1532.254       114.4418         0.6977         0.8236        -39.717       -23.5809      0.7043712
      5260.5000       1715.541       114.4423          0.608         0.7902       -42.7008       -26.5625      0.6635274
      5261.0000       1994.445       113.8452         0.4596         0.7866       -51.2534       -35.1129      0.5463986
      5261.5000       2608.034       109.5634         0.3621         0.7938        -60.303       -44.1604      0.4224603
      5262.0000       3046.295       108.0697         0.3022         0.7902       -75.8164       -59.6716      0.2099781
      5262.5000       3588.129        108.269         0.2639         0.7617       -83.9708       -67.8238     0.09830412
      5263.0000       3962.663       109.2655         0.2407          0.711       -88.9432       -72.7941     0.03021784
      5263.5000       4130.001       113.4493         0.2331         0.6486       -90.3356       -74.1843     0.01117393
      5264.0000       4130.021       116.4378         0.2331         0.6139       -89.6398       -73.4863     0.02073565
      5264.5000       4066.314       116.6375         0.2418         0.6138       -87.1543       -70.9987     0.05481229
      5265.0000       3827.272       116.2399         0.2602         0.6368       -85.3646       -69.2068     0.07935887
      5265.5000       3452.791       113.8497         0.2865         0.6821       -82.3818       -66.2218      0.1202493
      5266.0000       3221.735       112.0573         0.3126         0.7307       -79.9956       -63.8335      0.1529658
      5266.5000       2871.157       109.0698         0.3604         0.7864       -78.0073        -61.843      0.1802329
      5267.0000       2584.325       108.0743         0.3969         0.7973       -78.7042       -62.5378      0.1707151
      5267.5000       2369.205        108.274          0.433         0.7864       -78.4063       -62.2377       0.174826
      5268.0000       2225.807       109.4697         0.4451         0.7615       -75.0253       -58.8545      0.2211712
      5268.5000       2265.659       112.3592         0.4451         0.7476       -67.2697       -51.0968      0.3274411
      5269.0000       2369.265       113.2639         0.4251         0.7374       -57.2273       -41.0522      0.4650384
      5269.5000       2448.966       113.8541         0.4079         0.7545       -53.9463        -37.769      0.5100137
      5270.0000       2492.826       114.1534         0.4042         0.8045       -60.7083       -44.5289      0.4174123
      5270.5000       2393.229       114.1539         0.4212         0.8982       -76.5192       -60.3376      0.2008548
      5271.0000       2289.663       113.0583          0.439         0.9755       -82.5843       -66.4005      0.1178014
