#------------------------------------------------------------------------------
# Created by    : vladimir.rabinovich
# Created on    : 09/19/2023 17:21:15
#------------------------------------------------------------------------------
~Version Information Section
VERS.           2.0     :   CWLS log ASCII Standard - VERSION 2.0
WRAP.           NO      :   One line per depth step
~Well Information Section
#MNEM       .UNIT                                         VALUE :DESCRIPTION
#------------------------------------------------------------------------------
STRT        .FT                                            2893 :START DEPTH
STOP        .FT                                           11505 :STOP DEPTH
STEP        .FT                                             0.5 :STEP      
NULL        .                                           -999.25 :NULL      
COMP        .                               SEAGULL ENERGY CORP :COMPANY   
WELL        .                               OCS G06105 ST00BP00 :WELL      
FLD         .                              GALVESTON BLOCK 0343 :FIELD     
LOC         .                                                   :LOCATION  
CNTY        .                             GALVESTON LARGE BLOCK :LOCATION  
STAT        .                                             TEXAS :STATE     
CTRY        .                                     UNITED STATES :COUNTRY   
SRVC        .                                                   :SERVICE COMPANY
DATE        .                             9/13/2023 11:19:54 AM :LOG DATE  
API         .                                    42706403720000 :API NUMBER
UWI         .                                    42706403720000 :UNIQUE WELL ID
XCOORD      .                                  915246.934514234 :SURFACE X 
YCOORD      .                                  10428990.3748243 :SURFACE Y 
LAT         .                                         28.718869 :LATITUDE  
LON         .                                        -95.262866 :LONGITUDE 
ELEV        .FT                                              96 :ELEVATION VALUE
ELEV_TYPE   .                                                KB :ELEVATION REFERENCE TYPE
~Curve Information Section
#MNEM       .UNIT                                      API CODE :CURVE DESCRIPTION
#------------------------------------------------------------------------------
DEPT        .FT                                                 :DEPTH     
CAL         .IN                                                 :          
CNCSS       .%                                                  :          
CORR        .G/CM3                                              :          
DT24        .US/FT                                              :          
GR_NORM     .GAPI                                               :GammaRay Normalized
GRR         .GAPI                                               :          
ILD         .OHMM                                               :          
ILM         .OHMM                                               :          
PORDSS      .%                                                  :          
RFOC        .OHMM                                               :          
SP          .MV                                                 :          
SP_NORM     .MV                                                 :SP Normalized
VSH_GR      .V/V                                                :Volume of Shale from GR
VSH_SP      .V/V                                                :Volume of Shale from SP
~A        DEPTH            CAL          CNCSS           CORR           DT24        GR_NORM            GRR            ILD            ILM         PORDSS           RFOC             SP        SP_NORM         VSH_GR         VSH_SP
# ...
      4675.0000        16.8775        41.8787         0.0286       114.7059       73.98914             58         0.7774          0.868        19.4972         1.0659          -10.5         -9.825      0.8721093      0.9060228
      4675.5000        16.8775        38.9717         0.0286          109.4       68.89871           54.6         0.9079         0.9487         17.588         1.1677          -10.2        -9.5298      0.7638024      0.9103086
      4676.0000         16.799        36.4333         0.0286          106.4       63.80833           51.2          0.974         1.0277        16.7603         1.1677          -11.4       -10.7347      0.6554964      0.8931657
      4676.5000        16.7598        34.8758         0.0327          104.4       62.60755           50.4         1.0562         1.0467        16.4076         1.1571          -13.8       -13.1395      0.6299479        0.85888
      4677.0000        16.6814        33.6821         0.0367          104.4        66.7924           53.2         1.1259         1.0372        16.2927         1.1466       -17.9412       -17.2856      0.7189873        0.79972
      4677.5000        16.6422        32.8482         0.0204            105       70.37886           55.6         1.1362         1.0277        16.4163         1.1362       -22.9412       -22.2904      0.7952949      0.7282915
      4678.0000        16.5637        32.0132         0.0082          105.6       66.48528             53         1.1362         1.0184        16.8986         1.1466       -27.6471       -27.0012      0.7124528      0.6610643
      4678.5000        16.5245        30.5795        -0.0039          105.6       59.35327        48.2353         1.1362         1.0372        17.0231         1.2001       -30.8824       -30.2413      0.5607078      0.6148457
      4679.0000        16.5245          29.28        -0.0118          104.4        54.0693        44.7059         1.1259         1.0855        16.0703         1.3147       -32.3529       -31.7167      0.4482829      0.5938386
      4679.5000        16.5245        27.7565        -0.0118          103.2       49.95862        41.9608         1.1157         1.1157        15.1157         1.4534       -32.9412       -32.3098      0.3608218      0.5854343
      4680.0000        16.5245        26.8212        -0.0078          101.6       45.82447           39.2         1.1055         1.0855        14.7589         1.5213       -32.3529       -31.7264      0.2728612      0.5938386
      4680.5000        16.5236        26.1176        -0.0039             99       41.93087           36.6         1.0955         1.0467        14.4021         1.5352       -30.5882       -29.9665      0.1900186      0.6190486
      4681.0000        16.5219        25.6471        -0.0039             96        41.0293             36         1.0562         0.9826        13.8066         1.4802       -27.3529        -26.736      0.1708363      0.6652672
      4681.5000        16.5596        25.7647        -0.0078             93       43.41896           37.6         1.0092          0.924         13.691         1.3512       -22.9412       -22.3292      0.2216801      0.7282915
      4682.0000        16.6363        26.4706        -0.0118           95.4       48.47211        40.9804         0.9655         0.8919        14.5322         1.2001       -18.8235       -18.2163      0.3291939      0.7871157
      4682.5000        16.7136        28.1176        -0.0157            101       56.09481        46.0784          0.924         0.8601        15.8497         1.0467       -15.8824       -15.2801       0.491379      0.8291314
      4683.0000        16.8304          35.52        -0.0157            108       64.05202           51.4         0.8759         0.8295        17.8807         1.0092          -13.2       -12.6025      0.6606812      0.8674514
      4683.5000        16.7895        44.1317        -0.0118       113.7255       70.33128           55.6         0.8295            0.8          18.48         1.0092          -10.8       -10.2074      0.7942825      0.9017372
      4684.0000        16.7091        48.5259        -0.0039       116.6667       74.81535           58.6         0.7849         0.7924          19.32         1.0092           -9.9        -9.3122      0.8896884      0.9145943
      4684.5000        16.6285        48.8918         0.0041       116.0784       77.21743        60.2083         0.7412         0.7774          20.28         1.0184          -10.5        -9.9171      0.9407964      0.9060228
      4685.0000        16.5477        46.1566         0.0204        114.902       75.40583             59         0.7067         0.7627          21.12         1.0659          -11.4       -10.8219      0.9022517      0.8931657
      4685.5000        16.4668        42.5944         0.0041        115.098       72.40985             57         0.6812         0.7203          21.72         1.1259          -11.4       -10.8268      0.8385075      0.8931657
      4686.0000        16.3857         43.309        -0.0118       116.6667       72.70509           57.2         0.6629         0.6874          22.44         1.0467           -9.6        -9.0316      0.8447891        0.91888
      4686.5000        16.3839        45.8121         0.0041          123.6       76.29152           59.6         0.6451         0.6569          23.52         0.9826           -6.9        -6.3365      0.9210961      0.9574514
      4687.0000        16.3821        47.2459         0.0122       133.0612       79.69101         61.875         0.6278         0.6222        24.5882         0.9404           -4.8        -4.2413      0.9934257      0.9874514
      4687.5000        16.3405        48.5671         0.0245       135.7143       84.05046        64.7917         0.6165         0.5892        25.0588         0.9159           -3.9        -3.3462              1              1
      4688.0000        16.1786        48.8141         0.0245       137.9592       87.78653        67.2917            0.6         0.5838        25.0588            0.9           -3.3         -2.751              1              1
      4688.5000        16.0167          48.82         0.0163       138.1633       91.52259        69.7917         0.5892         0.5785        24.5882         0.8919             -3        -2.4559              1              1
      4689.0000        15.9747        48.8259         0.0122       138.1633       91.20683        69.5833         0.5946         0.5838        25.0588         0.8759             -3        -2.4607              1              1
      4689.5000        15.9727        48.9518         0.0122       138.1633       90.89126         69.375            0.6         0.5892        25.8824         0.8759           -3.3        -2.7656              1              1
      4690.0000        15.9308        49.3176         0.0122       138.3673       92.99562        70.7843         0.6165            0.6        26.7059         0.8759           -3.6        -3.0704              1              1
      4690.5000        15.8498        49.5609         0.0122       138.3673       96.21046        72.9359         0.6222          0.611        27.2941         0.8836        -3.9072        -3.3825              1              1
      4691.0000        15.8093        49.8029         0.0122       137.9592       100.0031        75.4737         0.6335         0.6165        27.5294         0.8912        -4.5174        -3.9975              1      0.9914886
      4691.5000        15.7687        49.8047         0.0245       136.7347       102.3316        77.0328          0.651         0.6278        27.4118          0.907         -4.827         -4.312              1      0.9870657
      4692.0000        15.7683        48.7226         0.0245       134.4898       104.3666        78.3958            0.7         0.6569        27.1765         0.9147        -5.7339        -5.2237              1        0.97411
      4692.5000         15.808        47.2833         0.0041       132.8571       104.9348        78.7782         0.7475         0.7066        27.1765         0.9144        -6.0418        -5.5365              1      0.9697114
