#------------------------------------------------------------------------------
# Created by    : vladimir.rabinovich
# Created on    : 09/19/2023 17:22:46
#------------------------------------------------------------------------------
~Version Information Section
VERS.           2.0     :   CWLS log ASCII Standard - VERSION 2.0
WRAP.           NO      :   One line per depth step
~Well Information Section
#MNEM       .UNIT                                         VALUE :DESCRIPTION
#------------------------------------------------------------------------------
STRT        .FT                                             862 :START DEPTH
STOP        .FT                                           11792 :STOP DEPTH
STEP        .FT                                             0.5 :STEP      
NULL        .                                           -999.25 :NULL      
COMP        .                     FREEPORT-MCMORAN OIL & GAS CO :COMPANY   
WELL        .                               OCS G08155 ST00BP00 :WELL      
FLD         .                            HIGH ISLAND BLOCK 0262 :FIELD     
LOC         .                                                   :LOCATION  
CNTY        .                           HIGH ISLAND LARGE BLOCK :LOCATION  
STAT        .                                             TEXAS :STATE     
CTRY        .                                     UNITED STATES :COUNTRY   
SRVC        .                                                   :SERVICE COMPANY
DATE        .                             9/13/2023 11:19:59 AM :LOG DATE  
API         .                                    42708403380000 :API NUMBER
UWI         .                                    42708403380000 :UNIQUE WELL ID
XCOORD      .                                  1194111.75057656 :SURFACE X 
YCOORD      .                                  10524686.1808471 :SURFACE Y 
LAT         .                                         28.993839 :LATITUDE  
LON         .                                         -94.39647 :LONGITUDE 
ELEV        .FT                                              98 :ELEVATION VALUE
ELEV_TYPE   .                                                KB :ELEVATION REFERENCE TYPE
~Curve Information Section
#MNEM       .UNIT                                      API CODE :CURVE DESCRIPTION
#------------------------------------------------------------------------------
DEPT        .FT                                                 :DEPTH     
DT          .US/F                                               :          
GR          .GAPI                                               :          
GR_NORM     .GAPI                                               :GammaRay Normalized
ILD         .OHMM                                               :          
ILM         .OHMM                                               :          
SFL         .OHMM                                               :          
SP          .MV                                                 :          
SP_NORM     .MV                                                 :SP Normalized
VSH_GR      .V/V                                                :Volume of Shale from GR
VSH_SP      .V/V                                                :Volume of Shale from SP
~A        DEPTH             DT             GR        GR_NORM            ILD            ILM            SFL             SP        SP_NORM         VSH_GR         VSH_SP
# ...
      3091.5000       141.2561        66.4811       79.66189         0.8005         0.7467         0.7003       -75.4509     -0.9669037      0.9928061              1
      3092.0000       141.1274        66.0085       79.01408         0.7827         0.7336         0.6881       -75.1307     -0.6506653       0.979023              1
      3092.5000       142.1033        65.7188       78.61173         0.7653         0.7246         0.6862       -74.8696     -0.3935318      0.9704624              1
      3093.0000       143.1819        65.7286       78.61125         0.7523         0.7171         0.6886       -74.6846     -0.2124939      0.9704522              1
      3093.5000        143.863         66.222       79.25972          0.741         0.7154         0.6955       -74.6101     -0.1419525      0.9842494              1
      3094.0000       143.7048        66.9786       80.26136         0.7311         0.7156         0.7019        -74.636     -0.1718216              1              1
      3094.5000       142.7144         67.201       80.54617         0.7256         0.7181         0.7021       -74.7249      -0.264679              1              1
      3095.0000       141.7346        66.7729       79.95809         0.7201         0.7213         0.7023       -74.8604     -0.4041367      0.9991083              1
      3095.5000       141.7361        66.2692       79.26858          0.719         0.7204         0.6976       -74.8678     -0.4154968      0.9844378              1
      3096.0000       142.5591        66.3105       79.31036         0.7192          0.719         0.6906       -74.8372     -0.3888626      0.9853269              1
      3096.5000       143.8105         67.334       80.67015         0.7195         0.7159         0.6825       -74.7784     -0.3340225              1              1
      3097.0000        144.854        67.9004       81.41656          0.721         0.7129         0.6729       -74.6411     -0.2006836              1              1
      3097.5000        145.366        67.0181       80.21901         0.7235         0.7105         0.6649       -74.4688    -0.03235626              1              1
      3098.0000       145.0994        65.3102        77.9136          0.726         0.7128         0.6642       -74.2781      0.1543884      0.9556086              1
      3098.5000       143.8872        64.0505       76.20963         0.7285         0.7151         0.6712        -74.104      0.3245316      0.9193539              1
      3099.0000       142.7549        64.3256       76.56515          0.731         0.7194         0.6831       -73.9584      0.4661713       0.926918              1
      3099.5000       142.1609        65.4893       78.11308         0.7335         0.7261         0.6984       -73.8358      0.5848007      0.9598528              1
      3100.0000       141.7349        66.6522        79.6599          0.736          0.731         0.7126       -73.7804      0.6362381      0.9927639              1
      3100.5000       141.2979        67.5055       80.79131         0.7385         0.7317         0.7197        -73.725      0.6876831              1              1
      3101.0000       140.9819        67.2668       80.45738         0.7417         0.7324         0.7269       -73.6672      0.7415161              1              1
      3101.5000       141.3994        65.8939       78.60151         0.7452         0.7311         0.7305       -73.5712      0.8335571      0.9702449              1
      3102.0000       142.4119        64.0822       76.15681         0.7487         0.7296          0.732       -73.4751      0.9256973      0.9182299              1
      3102.5000       143.3384        62.9705       74.65144         0.7522         0.7281          0.729       -73.4583      0.9385376      0.8862008              1
      3103.0000         143.78        63.7662       75.70554         0.7518         0.7267         0.7228        -73.457      0.9358673      0.9086286              1
      3103.5000       143.9104        64.7303       76.98563         0.7507         0.7252         0.7156         -73.47      0.9189072      0.9358644              1
      3104.0000       144.0701        67.2288       80.32466         0.7496         0.7237         0.7067       -73.4845      0.9004517              1              1
      3104.5000       143.9858        69.4216       83.25352         0.7476         0.7223          0.698       -73.4954       0.885582              1              1
      3105.0000       143.7156        68.3634       81.81992         0.7433          0.719         0.6906       -73.4941      0.8829193              1              1
      3105.5000        143.292        64.3591       76.43303          0.739         0.7148         0.6871       -73.4827      0.8903656       0.924107              1
      3106.0000        142.939        60.9118       71.79356         0.7347         0.7119         0.6859       -73.4412      0.9279022      0.8253948              1
      3106.5000       142.7727        62.7731       74.27759         0.7316         0.7109         0.6907       -73.4297      0.9354324      0.8782465              1
      3107.0000       142.9143        64.7916       76.97253         0.7286         0.7099         0.7008       -73.5779      0.7832718      0.9355859              1
      3107.5000       143.3591        66.1855       78.82935         0.7263         0.7089         0.7084       -73.7616      0.5956192      0.9750925              1
      3108.0000       143.5383        67.1603       80.12379          0.726         0.7101          0.706       -74.1022      0.2510452              1              1
      3108.5000        143.582         67.524       80.59819         0.7257         0.7131         0.7036       -74.3652    -0.01590729              1              1
      3109.0000       143.6672        67.4028       80.42195         0.7253         0.7162         0.7023       -74.3737    -0.02837372              1              1
      3109.5000       143.7217        67.0677       79.95866         0.7257         0.7189         0.7012       -73.9852      0.3561707      0.9991204              1
      3110.0000       142.8315         66.098       78.64381         0.7261         0.7208         0.7021       -73.6333      0.7041016       0.971145              1
      3110.5000        142.052        64.2407       76.13793         0.7265         0.7226         0.7055       -73.3085        1.02494      0.9178283              1
      3111.0000       141.4167        62.5072       73.79819          0.727         0.7245         0.7086       -73.0651       1.264381      0.8680465              1
      3111.5000       141.1648        61.4956       72.42711         0.7274         0.7258         0.7109       -73.0963       1.229218      0.8388746              1
      3112.0000       141.4534        62.9731       74.39612         0.7279         0.7262         0.7132       -73.1274       1.194153      0.8807685              1
      3112.5000       142.2251        64.4402       76.35116         0.7283         0.7267         0.7157       -73.1917       1.125893      0.9223651              1
      3113.0000       142.4106        65.8367       78.21146         0.7288         0.7271         0.7183       -73.2755       1.038139      0.9619459              1
      3113.5000       142.5151        66.8199       79.51717         0.7296         0.7275         0.7208       -73.3601      0.9495697      0.9897271              1
      3114.0000       142.5815        67.2094       80.02621         0.7304         0.7292         0.7217       -73.4487      0.8570099              1              1
      3114.5000        143.126        66.5409       79.11555         0.7312         0.7309         0.7214       -73.5374      0.7643509      0.9811819              1
      3115.0000       143.7942        67.3889       80.23983          0.732         0.7327         0.7211       -73.6279      0.6698837              1              1
      3115.5000       144.4883        66.9377       79.62075          0.732         0.7344         0.7207       -73.7223      0.5715256      0.9919308              1
