#------------------------------------------------------------------------------
# Created by    : vladimir.rabinovich
# Created on    : 09/19/2023 17:20:32
#------------------------------------------------------------------------------
~Version Information Section
VERS.           2.0     :   CWLS log ASCII Standard - VERSION 2.0
WRAP.           NO      :   One line per depth step
~Well Information Section
#MNEM       .UNIT                                         VALUE :DESCRIPTION
#------------------------------------------------------------------------------
STRT        .FT                                             642 :START DEPTH
STOP        .FT                                           11989 :STOP DEPTH
STEP        .FT                                             0.5 :STEP      
NULL        .                                           -999.25 :NULL      
COMP        .                       CORPUS CHRISTI OIL & GAS CO :COMPANY   
WELL        .                               OCS G05177 ST00BP00 :WELL      
FLD         .                              GALVESTON BLOCK 0151 :FIELD     
LOC         .                                                   :LOCATION  
CNTY        .                             GALVESTON LARGE BLOCK :LOCATION  
STAT        .                                             TEXAS :STATE     
CTRY        .                                     UNITED STATES :COUNTRY   
SRVC        .                                                   :SERVICE COMPANY
DATE        .                             9/13/2023 11:19:27 AM :LOG DATE  
API         .                                    42706401010000 :API NUMBER
UWI         .                                    42706401010000 :UNIQUE WELL ID
XCOORD      .                                   1130272.6689428 :SURFACE X 
YCOORD      .                                  10609756.0111422 :SURFACE Y 
LAT         .                                         29.225567 :LATITUDE  
LON         .                                        -94.599775 :LONGITUDE 
ELEV        .FT                                              83 :ELEVATION VALUE
ELEV_TYPE   .                                                KB :ELEVATION REFERENCE TYPE
~Curve Information Section
#MNEM       .UNIT                                      API CODE :CURVE DESCRIPTION
#------------------------------------------------------------------------------
DEPT        .FT                                                 :DEPTH     
ASN         .OHMM                                               :          
CILD        .MMHO                                               :          
DT          .US/F                                               :          
ILD         .OHMM                                               :          
RHOB        .G/CC                                               :          
SP          .MV                                                 :          
SP_NORM     .MV                                                 :SP Normalized
VSH_SP      .V/V                                                :Volume of Shale from SP
~A        DEPTH            ASN           CILD             DT            ILD           RHOB             SP        SP_NORM         VSH_SP
# ...
      1409.0000         1.1286       792.9609         160.64         1.2219        -999.25       -81.6499      -1.740288              1
      1409.5000         1.1321       797.6338       163.1237         1.2138        -999.25       -81.6108      -1.707771              1
      1410.0000         1.1355       802.7217       168.0823         1.2058        -999.25       -81.5718      -1.675354              1
      1410.5000         1.1384       807.8096       169.7925         1.1991        -999.25       -81.7212      -1.831345              1
      1411.0000         1.1413       812.8975       171.6575         1.1955        -999.25       -82.0192      -2.135933      0.9830084
      1411.5000         1.1445       817.1523       173.3678         1.1948        -999.25        -82.317      -2.440315      0.9449606
      1412.0000         1.1479        819.873       175.3875         1.2282        -999.25       -82.1935      -2.323402      0.9595747
      1412.5000         1.1537       822.5928       176.4791         1.2706        -999.25       -81.9916       -2.12809      0.9839888
      1413.0000         1.1675       804.0361       176.7973         1.3526        -999.25       -81.5182      -1.661278              1
      1413.5000         1.2084       783.6914       177.1154         1.4443        -999.25       -80.9818      -1.131462              1
      1414.0000         1.2576       756.7832       177.1243         1.5417        -999.25        -80.446     -0.6022491              1
      1414.5000         1.2871        729.874       177.4425         1.5797        -999.25       -79.9102    -0.07303619              1
      1415.0000           1.31       706.3535        177.606         1.6101        -999.25       -79.5677      0.2628784              1
      1415.5000         1.3298       685.4551         177.46         1.6245        -999.25       -80.7555     -0.9315109              1
      1416.0000         1.3446       665.2686       177.1595         1.6349        -999.25       -81.3571      -1.539696              1
      1416.5000         1.3554       646.8447       176.2404         1.6454        -999.25       -81.6689      -1.858078              1
      1417.0000          1.363        629.416       174.0837         1.6502        -999.25       -81.8331       -2.02887      0.9963913
      1417.5000         1.3688       613.4873       171.7723         1.6471        -999.25       -81.9602      -2.162552       0.979681
      1418.0000         1.3746       602.7246       170.0797         1.6439        -999.25       -81.9871      -2.196037      0.9754953
      1418.5000         1.3753       596.9277       168.0777         1.6236        -999.25       -81.9832       -2.19873      0.9751587
      1419.0000         1.3595       592.0908       166.0757          1.599        -999.25       -81.9792      -2.201317      0.9748354
      1419.5000         1.3436       599.0459       164.2284         1.5724        -999.25       -81.9601      -2.188797      0.9764004
      1420.0000         1.3244        609.043       162.3811         1.5382        -999.25       -81.8763      -2.111588      0.9860516
      1420.5000         1.2983       629.7354       161.3072          1.504        -999.25       -81.7925      -2.034378      0.9957027
      1421.0000         1.2732       650.4346       159.7692         1.4693        -999.25       -81.7087      -1.957161              1
      1421.5000         1.2519       670.3066       159.1592         1.4276        -999.25        -81.625      -1.880051              1
      1422.0000         1.2307       688.1406       160.4056          1.386        -999.25       -81.5707      -1.832336              1
      1422.5000         1.2145       705.9736        167.839         1.3481        -999.25       -81.5228      -1.791016              1
      1423.0000         1.2055       723.8076       179.7581         1.3138        -999.25       -81.4749       -1.74971              1
      1423.5000         1.2003       739.2354       194.4615         1.2796        -999.25        -81.427      -1.708397              1
      1424.0000         1.2104       753.1338       194.4703         1.2769        -999.25       -81.5018       -1.78978              1
      1424.5000         1.2352       767.0332        193.087         1.3486        -999.25       -81.5985      -1.893074              1
      1425.0000         1.2733       726.3125       189.3835         1.4467        -999.25       -82.0096      -2.310753      0.9611559
      1425.5000         1.3137       693.1875        184.752         1.5808        -999.25       -82.5215      -2.829239      0.8963451
      1426.0000         1.4009       662.5869       180.2751         1.7607        -999.25       -83.1094      -3.423729      0.8220339
      1426.5000         1.4186       631.9863       175.3342         1.8552        -999.25       -83.2299      -3.550812      0.8061485
      1427.0000         1.4362        604.583       167.4545         1.9114        -999.25       -82.5846      -2.912102      0.8859873
      1427.5000         1.4389       587.0693       160.8121         1.9487        -999.25       -82.0226      -2.356689      0.9554138
      1428.0000         1.4278       569.5527       156.1805         1.9879        -999.25       -81.5715      -1.912178              1
      1428.5000         1.4167       552.0371       151.8584         1.9769        -999.25       -80.9677      -1.314957              1
      1429.0000         1.4016       534.5859       148.7736         1.9472        -999.25       -80.1658     -0.5196533              1
      1429.5000         1.3727       517.8242       147.8544         1.8763        -999.25       -80.5062     -0.8666382              1
      1430.0000         1.3366       513.6562       147.8632         1.8054        -999.25       -81.0558      -1.422821              1
      1430.5000         1.3082       529.5068        147.872         1.6922        -999.25       -81.2966      -1.670212              1
      1431.0000         1.2749       545.3545       148.0355          1.555        -999.25       -81.4705      -1.850693              1
      1431.5000         1.2299       574.1465        148.045         1.4529        -999.25       -81.5828      -1.969582              1
      1432.0000         1.1512       640.5078       148.3626         1.3732        -999.25       -81.5923      -1.985672              1
      1432.5000          1.125       704.8799       148.0593         1.3101        -999.25       -81.6019      -2.001854      0.9997683
      1433.0000         1.1039       760.5742       146.9865         1.2489        -999.25       -81.5887      -1.995239              1
      1433.5000         1.0845        804.832       146.6876         1.1947        -999.25       -81.5626      -1.975731              1
      1434.0000         1.0647       834.6807       147.1629         1.1501        -999.25       -81.5364      -1.956116              1
      1434.5000         1.0474       860.9121       148.4149         1.1214        -999.25       -81.5233        -1.9496              1
      1435.0000          1.033       872.3057       150.7539         1.0978        -999.25       -81.5095       -1.94239              1
      1435.5000         1.0252       875.4229       153.5421         1.1014        -999.25       -81.4666      -1.906075              1
      1436.0000         1.0174       874.0889       156.6494          1.105        -999.25        -81.364      -1.810059              1
      1436.5000         1.0135       872.7549       157.8775         1.1086        -999.25       -81.1705      -1.623154              1
      1437.0000         1.0096       871.4209       156.4855         1.1122        -999.25       -80.9357      -1.394936              1
      1437.5000         1.0094       870.0566       155.1016         1.1216        -999.25       -80.7454       -1.21122              1
      1438.0000         1.0073       866.5732       154.1917         1.1321        -999.25       -80.8799       -1.35231              1
