#------------------------------------------------------------------------------
# Created by    : vladimir.rabinovich
# Created on    : 09/19/2023 17:20:05
#------------------------------------------------------------------------------
~Version Information Section
VERS.           2.0     :   CWLS log ASCII Standard - VERSION 2.0
WRAP.           NO      :   One line per depth step
~Well Information Section
#MNEM       .UNIT                                         VALUE :DESCRIPTION
#------------------------------------------------------------------------------
STRT        .FT                                             712 :START DEPTH
STOP        .FT                                            9469 :STOP DEPTH
STEP        .FT                                             0.5 :STEP      
NULL        .                                           -999.25 :NULL      
COMP        .                                 MESA PETROLEUM CO :COMPANY   
WELL        .                                ST TR 00279-L SW/4 :WELL      
FLD         .                                           WILDCAT :FIELD     
LOC         .                                                   :LOCATION  
CNTY        .                             GALVESTON LARGE BLOCK :LOCATION  
STAT        .                                             TEXAS :STATE     
CTRY        .                                     UNITED STATES :COUNTRY   
SRVC        .                                                   :SERVICE COMPANY
DATE        .                             9/13/2023 11:18:53 AM :LOG DATE  
API         .                                    42706300950000 :API NUMBER
UWI         .                                    42706300950000 :UNIQUE WELL ID
XCOORD      .                                  947289.050530544 :SURFACE X 
YCOORD      .                                  10490529.0152507 :SURFACE Y 
LAT         .                                         28.889695 :LATITUDE  
LON         .                                        -95.166438 :LONGITUDE 
ELEV        .FT                                              84 :ELEVATION VALUE
ELEV_TYPE   .                                                KB :ELEVATION REFERENCE TYPE
~Curve Information Section
#MNEM       .UNIT                                      API CODE :CURVE DESCRIPTION
#------------------------------------------------------------------------------
DEPT        .FT                                                 :DEPTH     
ASFL        .OHMM                                               :          
CILD        .MMHO                                               :          
GR          .GAPI                                               :          
GR_NORM     .GAPI                                               :GammaRay Normalized
ILD         .OHMM                                               :          
SP          .MV                                                 :          
SP_NORM     .MV                                                 :SP Normalized
VSH_GR      .V/V                                                :Volume of Shale from GR
VSH_SP      .V/V                                                :Volume of Shale from SP
~A        DEPTH           ASFL           CILD             GR        GR_NORM            ILD             SP        SP_NORM         VSH_GR         VSH_SP
# ...
      3627.0000         1.5073       1796.092        23.7844       42.08966         0.6133      -101.7428       -67.9012       0.193397     0.09465068
      3627.5000         1.5374       1810.709        24.0436       42.36205         0.6028      -101.9197      -68.07167      0.1991924     0.09237773
      3628.0000           1.53        1824.08        24.1012       42.40534          0.604      -102.0493      -68.19484      0.2001136     0.09073547
      3628.5000         1.5086       1837.451        24.1479       42.43614         0.6077      -102.1788      -68.31792      0.2007689     0.08909445
      3629.0000         1.4616       1841.908        24.1307       42.39443         0.6113      -102.3085      -68.44119      0.1998815     0.08745077
      3629.5000         1.4097       1838.855        23.8501       42.05341          0.615      -102.4194      -68.54567      0.1926257     0.08605774
      3630.0000         1.3562       1835.803        23.5695       41.71239         0.6187      -102.3929      -68.51273      0.1853699     0.08649689
      3630.5000         1.3271       1830.908        23.2888       41.37125         0.6224      -102.3665       -68.4799      0.1781117     0.08693461
      3631.0000         1.3644       1816.117        23.0082       41.03023         0.6266        -102.34      -68.44698      0.1708559     0.08737366
      3631.5000         1.4017       1801.326        22.7724       40.74012         0.6466      -102.3135      -68.41405      0.1646833      0.0878126
      3632.0000         1.4168       1786.535        22.6836       40.61693         0.6666       -102.287      -68.38113      0.1620624     0.08825155
      3632.5000         1.4283       1771.732        22.5948       40.49386         0.6866      -102.2485       -68.3362      0.1594439     0.08885071
      3633.0000         1.4398       1756.943        22.3846       40.23284         0.7066      -102.1927      -68.27397      0.1538902     0.08968038
      3633.5000         1.4513        1718.67        21.8527       39.60625         0.7267      -102.1371      -68.21194      0.1405585      0.0905074
      3634.0000         1.4713       1665.754        21.3208       38.97966         0.7467      -102.0813      -68.14972      0.1272268     0.09133708
      3634.5000         1.4918       1609.332        20.7887       38.35284         0.7657      -102.0256      -68.08759      0.1138902     0.09216553
      3635.0000         1.5317       1520.244        20.2568       37.72625         0.7822      -101.9698      -68.02537      0.1005585      0.0929951
      3635.5000         1.5782       1436.537         19.739       37.11557         0.7987      -101.9142      -67.96333     0.08756524     0.09382223
      3636.0000         1.6216       1375.203        19.3865       36.69284         0.8153      -101.8866      -67.92931     0.07857116     0.09427592
      3636.5000         1.6722       1313.867        19.0339          36.27         0.8318      -101.9158      -67.95209     0.06957448     0.09397217
      3637.0000         1.7917       1269.594        18.6813       35.84716         0.8483      -101.9451      -67.97495     0.06057788      0.0936673
      3637.5000         1.8456       1233.197        18.3286       35.42421         0.8648      -101.9744      -67.99783     0.05157885     0.09336222
      3638.0000         1.8937       1196.777        17.9762       35.00159         0.8814      -102.0035      -68.02051     0.04258712      0.0930599
      3638.5000         1.9007       1160.355        17.8723       34.86136          0.895      -102.0328      -68.04337     0.03960346     0.09275503
      3639.0000         1.9076       1127.813        17.7934       34.74943         0.9027       -102.062      -68.06615     0.03722195     0.09245138
      3639.5000         1.9121       1098.033        17.7145       34.63762         0.9105      -102.1342      -68.13192     0.03484287      0.0915744
      3640.0000         1.9151       1068.279        17.6356       34.52579         0.9182      -102.2312      -68.22249     0.03246372     0.09036682
      3640.5000          1.918       1053.803        17.5547       34.41171          0.926      -102.3281      -68.31297     0.03003628     0.08916036
      3641.0000         1.9221       1048.133        17.4635       34.28591         0.9337       -102.425      -68.40344     0.02735974      0.0879541
      3641.5000          1.927       1042.467        17.3724       34.16022         0.9415       -102.522      -68.49402     0.02468564     0.08674642
      3642.0000         1.9319       1036.801        17.2814       34.03455         0.9492      -102.6189      -68.58448     0.02201162     0.08554026
      3642.5000         1.9449       1031.979        17.1903       33.90886          0.957      -102.7386      -68.69775     0.01933751     0.08402995
      3643.0000         1.9616       1029.584        17.0992       33.78318         0.9647      -102.8605      -68.81323     0.01666349     0.08249024
      3643.5000         2.0594       1027.188        17.0081        33.6575         0.9617      -102.9823       -68.9286     0.01398939     0.08095194
      3644.0000         2.1446       1024.791         16.917       33.53182         0.9582      -103.1042      -69.04408     0.01131529     0.07941223
      3644.5000         2.1495       1022.398        16.8259       33.40614         0.9548      -103.2261      -69.15955    0.008641182     0.07787272
      3645.0000         2.1544       1020.002        16.7405       33.28693         0.9513      -103.3479      -69.27492    0.006104976     0.07633443
      3645.5000         2.1593       1017.606        16.7113       33.23148         0.9479      -103.4692      -69.38979    0.004925018     0.07480276
      3646.0000         2.1643        1015.21         16.682       33.17602         0.9444      -103.5016      -69.41577     0.00374514     0.07445638
      3646.5000         2.1641       1016.469        16.6528       33.12068          0.941      -103.5339      -69.44164    0.002567697     0.07411153
      3647.0000         2.1607       1018.194        16.6236       33.06534         0.9375      -103.5664      -69.46771    0.001390173     0.07376383
      3647.5000         2.1573       1019.919        16.5943       33.00989          0.934      -103.5988      -69.49368   0.0002103765     0.07341756
      3648.0000          2.154       1026.525        16.5651       32.95454         0.9304      -103.6311      -69.51956              0     0.07307251
      3648.5000         2.1465       1035.303        16.5358       32.89909         0.9268      -103.6636      -69.54562              0     0.07272501
      3649.0000         2.1238       1044.088        16.6833       33.04443         0.9233      -103.6959       -69.5715   0.0009453956     0.07237996
      3649.5000          2.101       1052.865        16.8307       33.18977         0.9197      -103.6813      -69.55048    0.004037736     0.07266032
      3650.0000         2.0783       1061.643        16.9782       33.33523         0.9161       -103.568      -69.43076     0.00713251     0.07425659
      3650.5000         2.0395       1070.428        17.1257       33.48068         0.9125      -103.4546      -69.31092     0.01022728     0.07585439
      3651.0000         1.8743       1079.205        17.2732       33.62614         0.9089      -103.3413      -69.19119     0.01332206     0.07745077
      3651.5000         1.8106       1087.984        17.4206       33.77148         0.9054      -103.2279      -69.07137      0.0164144     0.07904846
      3652.0000         1.7528       1094.912        17.5681       33.91682         0.9018      -103.1145      -68.95155     0.01950674     0.08064606
      3652.5000         1.7029       1099.768        17.8245       34.18602         0.8982      -103.0012      -68.83182     0.02523455     0.08224243
      3653.0000         1.6581       1104.627        18.2822       34.68398         0.9051      -102.8878      -68.71199     0.03582926     0.08384013
