#------------------------------------------------------------------------------
# Created by    : vladimir.rabinovich
# Created on    : 09/19/2023 17:22:54
#------------------------------------------------------------------------------
~Version Information Section
VERS.           2.0     :   CWLS log ASCII Standard - VERSION 2.0
WRAP.           NO      :   One line per depth step
~Well Information Section
#MNEM       .UNIT                                         VALUE :DESCRIPTION
#------------------------------------------------------------------------------
STRT        .FT                                             410 :START DEPTH
STOP        .FT                                            7624 :STOP DEPTH
STEP        .FT                                             0.5 :STEP      
NULL        .                                           -999.25 :NULL      
COMP        .                                      SHELL OIL CO :COMPANY   
WELL        .                                     ST TR 00249-L :WELL      
FLD         .                                           WILDCAT :FIELD     
LOC         .                                                   :LOCATION  
CNTY        .                             GALVESTON LARGE BLOCK :LOCATION  
STAT        .                                             TEXAS :STATE     
CTRY        .                                     UNITED STATES :COUNTRY   
SRVC        .                                                   :SERVICE COMPANY
DATE        .                             9/13/2023 11:19:42 AM :LOG DATE  
API         .                                    42706000200000 :API NUMBER
UWI         .                                    42706000200000 :UNIQUE WELL ID
XCOORD      .                                  981084.037319939 :SURFACE X 
YCOORD      .                                  10535303.7769946 :SURFACE Y 
LAT         .                                         29.014458 :LATITUDE  
LON         .                                       -95.0633058 :LONGITUDE 
ELEV        .FT                                              11 :ELEVATION VALUE
ELEV_TYPE   .                                                KB :ELEVATION REFERENCE TYPE
~Curve Information Section
#MNEM       .UNIT                                      API CODE :CURVE DESCRIPTION
#------------------------------------------------------------------------------
DEPT        .FT                                                 :DEPTH     
LAT         .OHMM                                               :          
SN          .OHMM                                               :          
SP          .MV                                                 :          
SP_NORM     .MV                                                 :SP Normalized
VSH_SP      .V/V                                                :Volume of Shale from SP
~A        DEPTH            LAT             SN             SP        SP_NORM         VSH_SP
# ...
      2786.0000         0.5077          0.713      -106.6697       -12.3009      0.8234235
      2786.5000         0.5361         0.7045       -106.196      -11.83866      0.8306459
      2787.0000         0.5863          0.696      -105.7218      -11.37594       0.837876
      2787.5000         0.6365         0.6875      -105.2476      -10.91321      0.8451061
      2788.0000         0.6821          0.679      -104.9352      -10.61229       0.849808
      2788.5000         0.7211           0.67      -104.6702      -10.35875      0.8537695
      2789.0000         0.7601         0.6609      -104.4052      -10.10522      0.8577309
      2789.5000         0.7892         0.6517      -104.1403      -9.851799      0.8616906
      2790.0000         0.8017         0.6426      -103.8752      -9.598175      0.8656535
      2790.5000         0.8141         0.6335      -103.3593      -9.093742      0.8735353
      2791.0000         0.8265         0.6243      -102.6293      -8.375221      0.8847622
      2791.5000         0.8389         0.6152      -101.8993      -7.656693      0.8959892
      2792.0000         0.8581         0.6061       -101.074      -6.842857      0.9087054
      2792.5000         0.8912         0.6018       -99.4515      -5.231834      0.9338776
      2793.0000         0.9243         0.6045       -97.8286      -3.620407      0.9590561
      2793.5000         0.9575         0.6071       -98.3942      -4.197487      0.9500393
      2794.0000         0.9906          0.623        -99.275      -5.089752      0.9360976
      2794.5000         1.0212         0.6423       -100.156      -5.982224      0.9221528
      2795.0000         1.0142         0.7204      -101.0369      -6.874603      0.9082093
      2795.5000         1.0044         0.7738      -101.5804      -7.429565       0.899538
      2796.0000         0.9437         0.8084      -101.2356      -7.096245      0.9047462
      2796.5000         0.8831          0.843      -100.8909      -6.763016      0.9099529
      2797.0000         0.8224         0.8726      -100.5369      -6.420494      0.9153048
      2797.5000         0.7822         0.8931      -100.1716      -6.066658      0.9208335
      2798.0000         0.7647         0.9135       -99.8065      -5.713036      0.9263588
      2798.5000         0.7472          0.934        -99.455      -5.373009      0.9316717
      2799.0000         0.7297         0.9544       -99.5334      -5.462875      0.9302676
      2799.5000         0.7127          0.977      -100.9061      -6.847046      0.9086399
      2800.0000         0.7037         0.9999      -107.8728      -13.82523      0.7996058
      2800.5000         0.6946         1.0227      -118.0321      -23.99599      0.6406876
      2801.0000         0.6855          1.043      -126.4611      -32.43646      0.5088053
      2801.5000         0.6764         1.0613      -135.3518      -41.33865      0.3697087
      2802.0000         0.6486         1.0795      -144.9314      -50.92971      0.2198483
      2802.5000         0.5945         1.0681      -149.0828      -55.09258      0.1548035
      2803.0000         0.5403         1.0308      -152.5791      -58.60036     0.09999442
      2803.5000         0.4862         0.9934      -154.1646      -60.19733     0.07504177
      2804.0000         0.4486         0.9448      -155.7161       -61.7603     0.05062032
      2804.5000         0.4152          0.895      -156.7021      -62.75777     0.03503478
      2805.0000         0.3818         0.8453      -157.6882      -63.75535     0.01944768
      2805.5000         0.3484         0.7955      -158.3943      -64.47292    0.008235574
      2806.0000          0.315         0.7504        -158.95      -65.04008              0
      2806.5000         0.3074         0.7179      -159.5059      -65.60747              0
      2807.0000         0.3004         0.6854      -160.0615      -66.17453              0
      2807.5000         0.2934         0.6529       -159.062      -65.18651              0
      2808.0000         0.2864         0.6205      -158.0964      -64.23238       0.011994
      2808.5000         0.2794          0.588      -157.3025      -63.44996     0.02421939
      2809.0000         0.2979         0.5555        -153.55      -59.70893     0.08267295
      2809.5000         0.3175         0.5227      -149.7952      -55.96559      0.1411626
      2810.0000         0.3371         0.4899      -145.8357      -52.01756      0.2028506
      2810.5000         0.3912         0.4571      -141.8674      -48.06075      0.2646759
      2811.0000         0.4567         0.4528      -138.0801      -44.28491      0.3236732
      2811.5000         0.5222         0.4958      -134.3691      -40.58538      0.3814784
      2812.0000         0.5708         0.5388      -130.6558      -36.88357      0.4393193
      2812.5000         0.6057         0.5692       -125.049      -31.28824      0.5267463
      2813.0000         0.6406          0.599      -117.0994      -23.35011      0.6507796
      2813.5000         0.6641         0.6288       -112.826      -19.08817      0.7173723
      2814.0000         0.6784         0.6599      -108.7772      -15.05085      0.7804555
      2814.5000         0.6926         0.6912      -105.8092      -12.09432      0.8266512
      2815.0000         0.7068         0.6937      -103.3751      -9.671692      0.8645048
      2815.5000         0.7183         0.6836      -102.0948       -8.40287      0.8843302
      2816.0000         0.7119         0.6734       -102.845      -9.164543       0.872429
      2816.5000         0.7055         0.6632       -107.679      -14.01001      0.7967186
      2817.0000         0.6753          0.653      -112.4927      -18.83518      0.7213253
      2817.5000         0.6432         0.6429      -114.1205      -20.47446      0.6957116
      2818.0000         0.6111         0.6377      -115.7483      -22.11373      0.6700979
      2818.5000         0.5791         0.6392      -118.6008       -24.9777      0.6253484
      2819.0000          0.547         0.6407      -121.9109      -28.29927      0.5734489
      2819.5000         0.5456         0.6423      -125.2233      -31.62315      0.5215133
      2820.0000         0.5473         0.6387      -131.0654      -37.47672      0.4300513
      2820.5000          0.549         0.6134       -131.595      -38.01779       0.421597
      2821.0000         0.5507         0.5881      -127.4503      -33.88457      0.4861786
      2821.5000         0.5336         0.5629      -122.8262      -29.27194      0.5582509
      2822.0000         0.5142         0.5376      -118.8536      -25.31081      0.6201437
      2822.5000         0.4948         0.5296       -116.025      -22.49368      0.6641612
      2823.0000         0.4723         0.5274      -119.4507      -25.93085      0.6104554
      2823.5000          0.442         0.5252      -128.6489      -35.14052      0.4665544
      2824.0000         0.4117         0.5197      -139.3572      -45.86029       0.299058
      2824.5000         0.3814         0.5066      -144.6426      -51.15717      0.2162943
      2825.0000         0.3511         0.4935       -147.408      -53.93405      0.1729054
      2825.5000         0.3678         0.4804      -134.8201      -41.35761      0.3694123
      2826.0000         0.4085         0.4673       -125.001      -31.54999      0.5226564
      2826.5000         0.4432         0.4714      -115.9967      -22.55716      0.6631694
      2827.0000         0.4606         0.4954      -108.7314      -15.30333      0.7765105
      2827.5000          0.478         0.5249      -108.8186      -15.40201      0.7749686
      2828.0000         0.4529         0.5612      -127.1497      -33.74458       0.488366
      2828.5000         0.4204         0.5975      -133.6738      -40.28015      0.3862476
      2829.0000          0.388         0.6338      -140.1938      -46.81162      0.2841934
      2829.5000         0.3555         0.6531      -146.0298       -52.6591      0.1928266
