#------------------------------------------------------------------------------
# Created by    : vladimir.rabinovich
# Created on    : 09/19/2023 17:22:40
#------------------------------------------------------------------------------
~Version Information Section
VERS.           2.0     :   CWLS log ASCII Standard - VERSION 2.0
WRAP.           NO      :   One line per depth step
~Well Information Section
#MNEM       .UNIT                                         VALUE :DESCRIPTION
#------------------------------------------------------------------------------
STRT        .FT                                            3744 :START DEPTH
STOP        .FT                                            9989 :STOP DEPTH
STEP        .FT                                             0.5 :STEP      
NULL        .                                           -999.25 :NULL      
COMP        .                          SEAGULL ENERGY E & P INC :COMPANY   
WELL        .                               OCS G07243 ST00BP00 :WELL      
FLD         .                                           WILDCAT :FIELD     
LOC         .                                                   :LOCATION  
CNTY        .                             GALVESTON LARGE BLOCK :LOCATION  
STAT        .                                             TEXAS :STATE     
CTRY        .                                     UNITED STATES :COUNTRY   
SRVC        .                                                   :SERVICE COMPANY
DATE        .                             9/13/2023 11:19:34 AM :LOG DATE  
API         .                                    42706403030000 :API NUMBER
UWI         .                                    42706403030000 :UNIQUE WELL ID
XCOORD      .                                   1005609.3052046 :SURFACE X 
YCOORD      .                                  10500547.7567395 :SURFACE Y 
LAT         .                                          28.92005 :LATITUDE  
LON         .                                        -94.984771 :LONGITUDE 
ELEV        .FT                                              96 :ELEVATION VALUE
ELEV_TYPE   .                                                KB :ELEVATION REFERENCE TYPE
~Curve Information Section
#MNEM       .UNIT                                      API CODE :CURVE DESCRIPTION
#------------------------------------------------------------------------------
DEPT        .FT                                                 :DEPTH     
DCAL        .IN                                                 :          
DPHI        .%                                                  :          
GR          .GAPI                                               :          
GR_NORM     .GAPI                                               :GammaRay Normalized
ILD         .OHMM                                               :          
ILM         .OHMM                                               :          
NPHI        .%                                                  :          
SFL         .OHMM                                               :          
SP          .MV                                                 :          
SP_NORM     .MV                                                 :SP Normalized
VSH_GR      .V/V                                                :Volume of Shale from GR
VSH_SP      .V/V                                                :Volume of Shale from SP
~A        DEPTH           DCAL           DPHI             GR        GR_NORM            ILD            ILM           NPHI            SFL             SP        SP_NORM         VSH_GR         VSH_SP
# ...
      9976.0000         3.0061        23.9201        77.4546       82.79478         0.4181         0.4569        35.3687         0.5552        -53.438      -18.97113              1      0.7073942
      9976.5000         3.0059        23.9225        77.4553        82.7958          0.424         0.4482        35.3701         0.5626       -53.1941      -18.66072              1      0.7127463
      9977.0000         3.0058        23.9248        77.4559       82.79668         0.4297         0.4415        35.3715         0.5663       -53.0074       -18.4231              1      0.7168431
      9977.5000         3.0057        23.9272        77.4565       82.79755         0.4345         0.4359        35.3729         0.5677       -53.0555      -18.48432              1      0.7157876
      9978.0000         3.0055        23.9296        77.4572       82.79858          0.438         0.4304        35.3743         0.5623       -53.1253      -18.57315              1      0.7142559
      9978.5000         3.0054         23.932        77.4579        82.7996         0.4366         0.4264        35.3757         0.5408       -53.1727      -18.63348              1      0.7132159
      9979.0000         3.0053        23.9344        77.4585       82.80048         0.4359         0.4217        35.3771         0.5172       -53.2121      -18.68363              1      0.7123513
      9979.5000         3.0051        23.9367        77.4591       82.80135         0.4356         0.4171        35.3786         0.4897       -53.2329       -18.7101              1      0.7118949
      9980.0000          3.005        23.9391        77.4598       82.80238         0.4341          0.414          35.38         0.4744       -53.3218      -18.82324              1      0.7099441
      9980.5000         3.0049        23.9415        77.4604       82.80325         0.4319         0.4116        35.3814         0.4708       -53.4232       -18.9523              1       0.707719
      9981.0000         3.0047        23.9439        77.4611       82.80428         0.4306         0.4085        35.3829         0.4685       -53.4935      -19.04177              1      0.7061763
      9981.5000         3.0046        23.9463        77.4617       82.80513         0.4294         0.4056        35.3843         0.4665       -53.5655      -19.13341              1      0.7045965
      9982.0000         3.0045        23.9486        77.4624       82.80618         0.4288         0.4041        35.3857         0.4644       -53.6515      -19.24286              1      0.7027093
      9982.5000         3.0043         23.951         77.463       82.80703         0.4283         0.4025        35.3871         0.4633       -53.7925      -19.42232              1      0.6996152
      9983.0000         3.0042        23.9534        77.4636       82.80791         0.4286         0.4013        35.3885         0.4641        -53.955      -19.62914              1      0.6960493
      9983.5000         3.0041        23.9558        77.4642        82.8088         0.4288         0.4002          35.39         0.4664       -54.1174      -19.83583              1      0.6924857
      9984.0000         3.0039        23.9582         77.465       82.80995          0.429         0.4001        35.3914         0.4695       -54.3834      -20.17437              1      0.6866488
      9984.5000         3.0038        23.9606        77.4656       82.81083         0.4288         0.4007        35.3928         0.4733       -54.8638      -20.78579              1       0.676107
      9985.0000         3.0037         23.963        77.4662       82.81171         0.4279         0.4018        35.3942         0.4777       -55.7614      -21.92819              1      0.6564106
      9985.5000         3.0035        23.9653        77.4669       82.81274         0.4265         0.4037        35.3956         0.4827       -56.8567      -23.32221              1      0.6323757
      9986.0000         3.0034        23.9677        77.4675       82.81361          0.425         0.4051         35.397         0.4876       -57.3618      -23.96506              1       0.621292
      9986.5000         3.0033        23.9701        77.4681       82.81449         0.4234         0.4062        35.3985         0.4931        -57.402      -24.01623              1      0.6204099
      9987.0000         3.0031        23.9725        77.4687       82.81535          0.421         0.4075        35.3999         0.5029       -57.3696      -23.97499              1      0.6211209
      9987.5000          3.003        23.9749        77.4695       82.81653          0.417          0.409        35.4013         0.5206       -57.3416      -23.93935              1      0.6217353
      9988.0000         3.0029        23.9772        77.4701       82.81741         0.4114         0.4109        35.4028         0.5414       -57.3057      -23.89366              1      0.6225231
      9988.5000         3.0027        23.9796        77.4707       82.81828         0.4075         0.4129        35.4042         0.5629       -57.2522      -23.82557              1       0.623697
      9989.0000         3.0026         23.982        77.4714        82.8193         0.4036         0.4166        35.4056         0.5524       -57.1959      -23.75392              1      0.6249325
