#------------------------------------------------------------------------------
# Created by    : vladimir.rabinovich
# Created on    : 09/19/2023 17:20:33
#------------------------------------------------------------------------------
~Version Information Section
VERS.           2.0     :   CWLS log ASCII Standard - VERSION 2.0
WRAP.           NO      :   One line per depth step
~Well Information Section
#MNEM       .UNIT                                         VALUE :DESCRIPTION
#------------------------------------------------------------------------------
STRT        .FT                                             526 :START DEPTH
STOP        .FT                                            9568 :STOP DEPTH
STEP        .FT                                             0.5 :STEP      
NULL        .                                           -999.25 :NULL      
COMP        .                       BLUE DOLPHIN EXPLORATION CO :COMPANY   
WELL        .                                OCS 00713 ST00BP00 :WELL      
FLD         .                              GALVESTON BLOCK 0288 :FIELD     
LOC         .                                                   :LOCATION  
CNTY        .                             GALVESTON LARGE BLOCK :LOCATION  
STAT        .                                             TEXAS :STATE     
CTRY        .                                     UNITED STATES :COUNTRY   
SRVC        .                                                   :SERVICE COMPANY
DATE        .                             9/13/2023 11:19:25 AM :LOG DATE  
API         .                                    42706000630000 :API NUMBER
UWI         .                                    42706000630000 :UNIQUE WELL ID
XCOORD      .                                  1101981.32688909 :SURFACE X 
YCOORD      .                                  10481575.8265757 :SURFACE Y 
LAT         .                                          28.87198 :LATITUDE  
LON         .                                        -94.682732 :LONGITUDE 
ELEV        .FT                                              58 :ELEVATION VALUE
ELEV_TYPE   .                                                KB :ELEVATION REFERENCE TYPE
~Curve Information Section
#MNEM       .UNIT                                      API CODE :CURVE DESCRIPTION
#------------------------------------------------------------------------------
DEPT        .FT                                                 :DEPTH     
ASN         .OHMM                                               :          
CALI        .IN                                                 :          
DT          .US/F                                               :          
ILD         .OHMM                                               :          
SP          .MV                                                 :          
SP_NORM     .MV                                                 :SP Normalized
VSH_SP      .V/V                                                :Volume of Shale from SP
~A        DEPTH            ASN           CALI             DT            ILD             SP        SP_NORM         VSH_SP
# ...
      8331.5000         1.2024        10.1631       104.8884         0.9369       -29.6643      0.6364288              1
      8332.0000         1.2002        10.0826       102.1732         0.9472       -29.3907      0.9059582              1
      8332.5000         1.1928         9.8825        102.382         0.9493       -29.9963      0.2962837              1
      8333.0000         1.1838         9.8649       100.9614          0.952       -30.2814    0.007108688              1
      8333.5000         1.1874        10.1819        99.9628         0.9548       -30.0616      0.2228355              1
      8334.0000          1.198        10.3486       100.6383         0.9533       -29.7032      0.5771618              1
      8334.5000         1.1892        10.4317       101.1208         0.9549       -29.7305      0.5457878              1
      8335.0000         1.1783        10.4068       102.2294         0.9493       -29.6198      0.6524143              1
      8335.5000          1.172        10.4246       101.5315         0.9396       -29.3958      0.8723412              1
      8336.0000          1.168        10.4705       100.4094          0.926       -29.6413      0.6227665              1
      8336.5000           1.16        10.4249         100.46         0.9099       -29.6052      0.6547928              1
      8337.0000         1.1446        10.3672       101.0182          0.889       -29.1746       1.081318              1
      8337.5000         1.1276        10.3729       100.5283         0.8818       -29.4448       0.807045              1
      8338.0000           1.11        10.2864       100.3018         0.8773       -29.3705      0.8772717              1
      8338.5000         1.0949        10.1531       101.6718         0.8706       -29.0564       1.187298              1
      8339.0000         1.0916        10.0817       102.1866         0.8788       -28.9168       1.322824              1
      8339.5000         1.1035        10.1747       100.0818          0.885       -28.9539       1.281651              1
      8340.0000           1.14        10.3555        98.6221         0.8944       -28.9022       1.331409              1
      8340.5000         1.1816        10.5191        101.307         0.9044       -28.8189       1.418678              1
      8341.0000         1.2094        10.4843       106.0587         0.9138       -29.1569       1.084644              1
      8341.5000         1.2248        10.4228       105.6088          0.925       -29.2169       1.028612              1
      8342.0000         1.2398        10.3959       103.7935         0.9416       -29.1193       1.130178              1
      8342.5000         1.2523        10.4826       104.6595         0.9684        -28.569       1.684446              1
      8343.0000         1.2801        10.4904        101.307         0.9969       -28.8954       1.362015              1
      8343.5000         1.3024        10.4187        97.0255         1.0145       -29.0305       1.230881              1
      8344.0000         1.3223        10.3065       100.2501         1.0137       -29.3519      0.9134483              1
      8344.5000         1.3341         10.262       101.0042         1.0056       -29.7363      0.5330162              1
      8345.0000         1.2982        10.2454        99.9248         0.9915       -30.1844     0.08888245              1
      8345.5000         1.2771        10.2256        99.5848         0.9808       -30.7596     -0.4823494              1
      8346.0000         1.2849        10.2336        98.9694         0.9655       -30.9577     -0.6764832              1
      8346.5000         1.2529        10.3424        93.5204         0.9662       -31.5532      -1.268013      0.9931279
      8347.0000         1.2176        10.4899        92.4927          0.951       -31.5228      -1.233646      0.9940091
      8347.5000         1.1942        10.5472       100.4005         0.9307        -30.575     -0.2818794              1
      8348.0000         1.1794        10.5419       104.6046         0.9172       -29.8405      0.4565887              1
      8348.5000         1.1796        10.4504       102.1239         0.9219        -30.414     -0.1129436              1
      8349.0000         1.1931        10.3213       100.4341         0.9298       -29.7555      0.5495224              1
      8349.5000         1.2099        10.1765         99.449         0.9322       -29.6221      0.6868896              1
      8350.0000         1.2184          10.07        99.3212         0.9382       -29.9429      0.3700581              1
      8350.5000         1.2192        10.0565       101.8849         0.9363       -29.9719      0.3450241              1
      8351.0000          1.212        10.0707       100.2793         0.9373       -29.5883      0.7325916              1
      8351.5000         1.1987        10.0897        99.7621         0.9354       -29.0243        1.30056              1
      8352.0000         1.1874         10.276       100.0234         0.9302        -28.959       1.369827              1
      8352.5000         1.1887        10.4583        98.8868         0.9297       -29.2815       1.051294              1
      8353.0000          1.186        10.5281        98.5514         0.9271       -28.8099       1.526861              1
      8353.5000         1.1849        10.5559         97.048         0.9384       -29.1937       1.147028              1
      8354.0000         1.1891        10.5312        96.7069          0.958       -28.8577       1.486996              1
      8354.5000         1.2106        10.5021       103.0798         0.9842       -28.6849       1.663763              1
      8355.0000         1.2568        10.4887       100.0684         1.0035        -28.775       1.577631              1
      8355.5000         1.3078        10.4825         99.155         1.0278       -28.8515       1.505098              1
      8356.0000         1.3819        10.4785       102.3146         1.0617       -28.8256       1.534966              1
      8356.5000         1.4264        10.4662       104.2826         1.0998       -29.1014       1.263132              1
      8357.0000         1.4633        10.4154       106.0217          1.142       -30.1022      0.2663021              1
      8357.5000         1.4705        10.4899       104.3185         1.1943       -30.9968     -0.6243305              1
      8358.0000          1.471        10.5996        97.5371         1.2181       -30.5378     -0.1613636              1
      8358.5000         1.4869        10.4951        91.1552         1.2227       -31.8836      -1.503197      0.9870975
      8359.0000         1.5108        10.4611        93.6595         1.2213       -32.1171      -1.732729      0.9812121
      8359.5000         1.5082        10.5723        91.4514         1.2176       -31.8875      -1.499163       0.987201
      8360.0000         1.4959        10.6336         84.522         1.2171       -32.3952      -2.002893      0.9742848
      8360.5000         1.5127         10.516        87.9508         1.2083       -32.9226      -2.526327      0.9608634
      8361.0000         1.5179        10.5153         96.635         1.1981       -33.3093       -2.90906      0.9510497
      8361.5000         1.4983         10.493        91.9182         1.1916       -33.5887      -3.184492      0.9439874
      8362.0000         1.4534        10.3162        88.8529         1.1851         -33.02      -2.611826      0.9586712
      8362.5000         1.4156        10.1171        94.3955         1.1574       -32.5753      -2.163157      0.9701754
      8363.0000         1.4083        10.0229        94.3036         1.1299       -32.0468       -1.63069      0.9838285
      8363.5000         1.4051        10.0471        95.1091         1.0964        -31.838      -1.417923       0.989284
      8364.0000         1.3921        10.1425         92.965         1.0536       -31.2993     -0.8752556              1
      8364.5000         1.3362        10.2331        93.1726         0.9967        -31.494      -1.065989       0.998308
