#------------------------------------------------------------------------------
# Created by    : vladimir.rabinovich
# Created on    : 09/19/2023 17:22:52
#------------------------------------------------------------------------------
~Version Information Section
VERS.           2.0     :   CWLS log ASCII Standard - VERSION 2.0
WRAP.           NO      :   One line per depth step
~Well Information Section
#MNEM       .UNIT                                         VALUE :DESCRIPTION
#------------------------------------------------------------------------------
STRT        .FT                                             873 :START DEPTH
STOP        .FT                                           11612 :STOP DEPTH
STEP        .FT                                             0.5 :STEP      
NULL        .                                           -999.25 :NULL      
COMP        .                                   MARATHON OIL CO :COMPANY   
WELL        .                               OCS G04137 ST00BP04 :WELL      
FLD         .                       MATAGORDA ISLAND BLOCK 0527 :FIELD     
LOC         .                                                   :LOCATION  
CNTY        .                      MATAGORDA ISLAND LARGE BLOCK :LOCATION  
STAT        .                                             TEXAS :STATE     
CTRY        .                                     UNITED STATES :COUNTRY   
SRVC        .                                                   :SERVICE COMPANY
DATE        .                             9/13/2023 11:19:05 AM :LOG DATE  
API         .                                    42703400590000 :API NUMBER
UWI         .                                    42703400590000 :UNIQUE WELL ID
XCOORD      .                                  609906.580547661 :SURFACE X 
YCOORD      .                                  10277311.7025511 :SURFACE Y 
LAT         .                                         28.282909 :LATITUDE  
LON         .                                        -96.202007 :LONGITUDE 
ELEV        .FT                                              95 :ELEVATION VALUE
ELEV_TYPE   .                                                KB :ELEVATION REFERENCE TYPE
~Curve Information Section
#MNEM       .UNIT                                      API CODE :CURVE DESCRIPTION
#------------------------------------------------------------------------------
DEPT        .FT                                                 :DEPTH     
GR          .GAPI                                               :          
GR_NORM     .GAPI                                               :GammaRay Normalized
ILD         .OHMM                                               :          
SP          .MV                                                 :          
SP_NORM     .MV                                                 :SP Normalized
VSH_GR      .V/V                                                :Volume of Shale from GR
VSH_SP      .V/V                                                :Volume of Shale from SP
~A        DEPTH             GR        GR_NORM            ILD             SP        SP_NORM         VSH_GR         VSH_SP
# ...
     10889.5000        58.9347       75.72029         2.0744       -37.1689      -1.508839      0.9089423       0.990577
     10890.0000        56.9007        72.2602          2.138       -37.0386      -1.353073      0.8353234      0.9934616
     10890.5000         55.311       69.55593         2.2721       -38.4299      -2.718906      0.7777858      0.9681684
     10891.0000        52.4773       64.73544         2.4068       -41.2735      -5.537037      0.6752222      0.9159808
     10891.5000        48.8981        58.6468         2.4936       -44.5615      -8.799572      0.5456766      0.8555635
     10892.0000        45.0671       52.12976         2.5764        -45.887      -10.09961      0.4070162      0.8314888
     10892.5000        43.6984       49.80144         2.6154       -46.4313      -10.61843      0.3574775      0.8218808
     10893.0000        44.6574        51.4328         2.6549       -45.9141      -10.07577      0.3921873      0.8319302
     10893.5000        46.7506        54.9936         2.6759       -44.3344        -8.4706       0.467949      0.8616555
     10894.0000        49.1203       59.02477         2.6966       -42.1424      -6.253132      0.5537184      0.9027198
     10894.5000        50.4014       61.20409         2.7117       -39.6839      -3.769165      0.6000869      0.9487191
     10895.0000        51.0271       62.26849         2.5731       -37.8147        -1.8745      0.6227338      0.9838055
     10895.5000        51.9367       63.81581         2.3428       -38.5682      -2.602531      0.6556556      0.9703235
     10896.0000        53.2869       66.11269         2.1502       -40.3306      -4.339466      0.7045252       0.938158
     10896.5000        55.9282       70.60585         2.1141       -37.7733      -1.756699      0.8001245      0.9859871
     10897.0000        57.9868       74.10778         2.1047       -35.4678      0.5742683      0.8746336              1
     10897.5000         59.769       77.13954         2.0953       -34.3583       1.709236      0.9391392              1
     10898.0000        59.1667       76.11495         2.0846       -33.9952       2.097801      0.9173394              1
     10898.5000        57.6733       73.57449         2.0514         -33.95       2.168468      0.8632871              1
     10899.0000        57.3857       73.08525         1.9379       -33.8134       2.330536      0.8528777              1
     10899.5000        59.0284       75.87968         1.8235        -33.656       2.513405      0.9123337              1
     10900.0000        60.3795       78.17809         1.7793       -33.7103       2.484573      0.9612359              1
     10900.5000        59.6653       76.96314         1.8059       -34.3708       1.849541       0.935386              1
     10901.0000        58.3521       74.72922         1.8485       -34.4594       1.786407      0.8878557              1
     10901.5000        57.1167       72.62765         1.8925       -34.5022       1.769073      0.8431414              1
     10902.0000        56.2861       71.21466         1.9446       -35.1149       1.181843      0.8130779              1
     10902.5000        56.9229       72.29797         1.9981       -35.9664      0.3558083      0.8361269              1
     10903.0000        58.1442       74.37555         2.0088       -36.8168     -0.4691238      0.8803309              1
     10903.5000        57.9544       74.05267         1.9645        -37.666      -1.292858      0.8734611      0.9945767
     10904.0000        57.7643       73.72929         1.8835       -38.3071      -1.908489      0.8665807      0.9831761
     10904.5000        57.7748       73.74715         1.8178       -38.7218      -2.297726      0.8669606      0.9759681
     10905.0000        57.7908       73.77438         1.7545       -39.0125      -2.562958      0.8675399      0.9710563
     10905.5000        58.4188       74.84267         1.6933       -38.7613      -2.286289      0.8902695      0.9761798
     10906.0000        59.4506        76.5979         1.6438       -38.3978      -1.897324      0.9276149      0.9833829
     10906.5000         60.702       78.72669         1.5958       -37.8767      -1.350758      0.9729083      0.9935045
     10907.0000        62.0671       81.04889         1.5828       -38.3423       -1.79089              1      0.9853539
     10907.5000        63.4321       83.37096         1.5798       -39.4864      -2.909519              1      0.9646385
     10908.0000        63.4842       83.45956         1.6108       -40.7749       -4.17255              1      0.9412491
     10908.5000         60.628        78.6008         1.6465       -42.0486      -5.420784      0.9702298      0.9181336
     10909.0000        58.1676       74.41534         1.6831       -43.1149      -6.461617      0.8811775       0.898859
     10909.5000        57.8634       73.89787         1.6992       -43.9886      -7.309853      0.8701674      0.8831509
     10910.0000        59.0309       75.88393         1.6996       -43.7938      -7.089584      0.9124241      0.8872299
     10910.5000         60.201       77.87442         1.6547       -42.9026      -6.172916      0.9547749      0.9042053
     10911.0000        61.4648       80.02432         1.5997       -41.9424      -5.187252              1      0.9224583
     10911.5000        62.7731       82.24991         1.5465       -40.5922      -3.811584              1      0.9479336
     10912.0000        64.0862       84.48363         1.4951       -39.6221      -2.816017              1        0.96637
     10912.5000        65.3994       86.71758         1.4477       -39.3778      -2.546249              1      0.9713657
     10913.0000          66.72       88.96407         1.3922       -40.0504      -3.193382              1      0.9593818
     10913.5000        68.0653       91.25258         1.3263       -40.6614      -3.778915              1      0.9485386
     10914.0000        66.1671       88.02352         1.2724       -41.0859      -4.177948              1      0.9411491
     10914.5000        62.9532       82.55627          1.225       -39.8715       -2.93808              1      0.9641097
     10915.0000        61.7036       80.43053         1.1944       -38.2794      -1.320511              1      0.9940646
     10915.5000        62.8027       82.30024         1.1895       -36.8674      0.1169548              1              1
     10916.0000        64.1868       84.65475         1.1845       -36.0257      0.9841232              1              1
     10916.5000        64.5083        85.2017         1.1747       -35.8489        1.18639              1              1
     10917.0000         64.636       85.41891         1.1634       -36.0239       1.036858              1              1
     10917.5000        64.6031       85.36297         1.1528       -36.3694      0.7168236              1              1
     10918.0000        64.5608       85.29099         1.1433       -36.5953      0.5163918              1              1
     10918.5000        64.4247       85.05948         1.1339       -35.8677       1.124245              1              1
     10919.0000        64.2096       84.69354         1.1274       -35.4691       1.224182              1              1
     10919.5000         62.462       81.72067         1.1244       -35.9467      0.4479218              1              1
     10920.0000        60.7958       78.88625         1.1215       -37.6499      -1.553936      0.9763033      0.9897419
     10920.5000        59.1692        76.1192         1.1213       -39.3013      -3.504002      0.9174298      0.9536296
     10921.0000        59.0538        75.9229         1.1222       -40.3417      -4.843063      0.9132531      0.9288322
     10921.5000        59.4407       76.58105         1.1231       -38.5978      -3.397823      0.9272565      0.9555959
     10922.0000        59.6882        77.0021          1.124       -34.4509      0.4504166      0.9362149              1
     10922.5000        59.9224       77.40048         1.1268       -31.5431       3.059557      0.9446911              1
