#------------------------------------------------------------------------------
# Created by    : vladimir.rabinovich
# Created on    : 09/19/2023 17:22:48
#------------------------------------------------------------------------------
~Version Information Section
VERS.           2.0     :   CWLS log ASCII Standard - VERSION 2.0
WRAP.           NO      :   One line per depth step
~Well Information Section
#MNEM       .UNIT                                         VALUE :DESCRIPTION
#------------------------------------------------------------------------------
STRT        .FT                                            3512 :START DEPTH
STOP        .FT                                           11028 :STOP DEPTH
STEP        .FT                                             0.5 :STEP      
NULL        .                                           -999.25 :NULL      
COMP        .                          SEAGULL ENERGY E & P INC :COMPANY   
WELL        .                   ST TR 147-L NE/4 /ST LSE 88034/ :WELL      
FLD         .                                           WILDCAT :FIELD     
LOC         .                                                   :LOCATION  
CNTY        .                             GALVESTON LARGE BLOCK :LOCATION  
STAT        .                                             TEXAS :STATE     
CTRY        .                                     UNITED STATES :COUNTRY   
SRVC        .                                                   :SERVICE COMPANY
DATE        .                             9/13/2023 11:18:53 AM :LOG DATE  
API         .                                    42706302000000 :API NUMBER
UWI         .                                    42706302000000 :UNIQUE WELL ID
XCOORD      .                                  1107149.67333588 :SURFACE X 
YCOORD      .                                  10638300.0198507 :SURFACE Y 
LAT         .                                        29.3031745 :LATITUDE  
LON         .                                         -94.67354 :LONGITUDE 
ELEV        .FT                                              25 :ELEVATION VALUE
ELEV_TYPE   .                                                KB :ELEVATION REFERENCE TYPE
~Curve Information Section
#MNEM       .UNIT                                      API CODE :CURVE DESCRIPTION
#------------------------------------------------------------------------------
DEPT        .FT                                                 :DEPTH     
DT          .US/F                                               :          
GR          .GAPI                                               :          
GR_NORM     .GAPI                                               :GammaRay Normalized
ILD         .OHMM                                               :          
ILM         .OHMM                                               :          
SFL         .OHMM                                               :          
SP          .MV                                                 :          
SP_NORM     .MV                                                 :SP Normalized
VSH_GR      .V/V                                                :Volume of Shale from GR
VSH_SP      .V/V                                                :Volume of Shale from SP
~A        DEPTH             DT             GR        GR_NORM            ILD            ILM            SFL             SP        SP_NORM         VSH_GR         VSH_SP
# ...
      6011.0000       100.5532         55.081       58.34293         0.6314         0.7018         0.7864       -56.7187      -31.02463      0.5392113      0.6736454
      6011.5000        97.5829        54.8265       58.02105         0.5392         0.6226         0.8134       -67.5656      -41.87791      0.5323628      0.5556749
      6012.0000        96.1719        53.5888       56.46556         0.4436         0.5383         0.8149       -77.4281       -51.7468      0.4992673      0.4484044
      6012.5000        95.4247        51.0543       53.28296          0.348         0.4468         0.7469       -88.1569      -62.48198      0.4315523      0.3317176
      6013.0000        97.7092        47.1368        48.3651         0.2672         0.3642          0.679       -97.4681      -71.79957      0.3269171      0.2304395
      6013.5000       104.9652        41.4131       41.18101         0.2209         0.3035          0.652      -102.4338      -76.77165      0.1740641      0.1763951
      6014.0000       110.1772        37.7787       36.61837         0.1863         0.2665         0.6755       -106.467      -80.81123     0.07698651      0.1324866
      6014.5000       114.6187        36.6584       35.21017         0.1624         0.2429         0.7163      -109.5306      -83.88123     0.04702491     0.09911712
      6015.0000       118.3877        35.9824       34.35943         0.1452         0.2321         0.7455      -110.9098       -85.2668     0.02892409     0.08405652
      6015.5000       119.6637        35.2146       33.39352         0.1367         0.2263         0.7522      -111.4001      -85.76349    0.008372773     0.07865773
      6016.0000       120.2509        34.4358        32.4138         0.1301          0.222         0.7467      -110.8889      -85.25867              0     0.08414484
      6016.5000       121.3029        34.3537       32.30823         0.1248         0.2161          0.729      -109.6659      -84.04206              0      0.0973689
      6017.0000       122.5593        36.1915       34.61157         0.1219         0.2083         0.6918      -107.7982      -82.18075     0.03428877      0.1176006
      6017.5000        121.701        43.9477       44.34075         0.1201         0.2027         0.6432      -104.8724      -79.26133      0.2412926      0.1493334
      6018.0000       121.0386        49.9814        51.9087         0.1225         0.2014         0.6006      -101.6489      -76.04422      0.4023127       0.184302
      6018.5000        120.938        50.4329       52.47264         0.1311         0.2042         0.5637       -98.2014       -72.6031      0.4143114      0.2217054
      6019.0000       121.5005        48.9749       50.64073         0.1505          0.215         0.5419       -93.3145      -67.72258      0.3753347      0.2747546
      6019.5000       121.6084        48.1875       49.65022          0.166         0.2456         0.5591       -86.2769      -60.69137        0.35426      0.3511808
      6020.0000       115.2125        47.5378       48.83249         0.2361         0.2996         0.6576       -75.9812      -50.40205      0.3368615      0.4630212
      6020.5000       108.4203         46.342       47.32956         0.3109         0.3761         1.4172       -62.2307      -36.65794      0.3048842      0.6124137
      6021.0000        97.6135        44.9763       45.61346         0.4121         0.5061         1.9677       -52.0187      -26.45232      0.2683714      0.7233443
      6021.5000        86.8069        43.9212       44.28706         0.5445         0.6403         2.3824       -45.3305      -19.77051      0.2401503      0.7959727
      6022.0000        82.2256         44.366        44.8426         0.6673         0.7285         1.6915       -37.9484      -12.39479      0.2519702      0.8761436
      6022.5000        81.2219        51.0444       53.21946         0.7902         0.8419         1.1877       -30.4924      -4.945177      0.4302014      0.9571176
      6023.0000        88.9319        57.1863       60.92316         0.8642         0.8065         0.8728        -27.537      -1.996162      0.5941098      0.9891722
      6023.5000        99.2233         63.658       69.04066          0.828         0.7327         0.7379       -26.3787     -0.8442478      0.7668226              1
      6024.0000       105.7112        67.2162        73.5026         0.7935          0.667         0.6597       -26.1707     -0.6426315      0.8617575              1
      6024.5000       109.0779        65.3732       71.18764         0.7691         0.6449         0.6002       -26.0626     -0.5409164      0.8125029              1
      6025.0000       108.9552        61.5222       66.35323         0.7658         0.6774         0.5756        -25.777     -0.2617016      0.7096431              1
      6025.5000       109.1527        56.7385       60.34853         0.7805         0.7484         0.6646        -25.272      0.2369137      0.5818837              1
      6026.0000       104.6904        54.8782       58.01186         0.8155         0.8305         1.0342       -24.1216        1.38093      0.5321673              1
      6026.5000        97.7117        56.0397       59.46664         0.8448         0.8782         1.3315       -22.0324       3.463743        0.56312              1
      6027.0000        89.1515        59.1254       63.33573         0.8783         0.9357         1.4693        -20.225       5.264759      0.6454411              1
      6027.5000        87.9687        69.7754       76.69577         0.9285         1.0006          1.289       -18.4865       6.996874      0.9296972              1
      6028.0000        88.5981        73.0629       80.81804         0.9758          1.049         1.1293       -17.3712       8.105789              1              1
      6028.5000        91.3022        68.8993        75.5914              1         1.0747         1.0858       -17.2187       8.251904         0.9062              1
      6029.0000        94.1659        63.8795       69.29049         1.0033          1.056         1.0679       -17.7059        7.75832      0.7721381              1
      6029.5000        95.5714        60.8528       65.49033         0.9959         1.0344         1.0611       -18.5493       6.908535      0.6912835              1
      6030.0000         95.248        58.6406       62.71212         0.9761         1.0221         1.0588       -19.8621       5.589348      0.6321728              1
      6030.5000        99.8269        58.9901       63.14809         0.9533         1.0143          1.043        -21.774       3.671064      0.6414487              1
      6031.0000       101.8651        59.5529       63.85168         0.9224         1.0105         1.0153       -24.5178      0.9208794      0.6564187              1
      6031.5000       101.7998        57.9541       61.84311         0.9007         1.0118         1.0111       -28.1399      -2.707605      0.6136831      0.9814391
      6032.0000        98.9976        55.7604        59.0881         0.8765         0.9982         1.1049       -31.7719      -6.345991       0.555066      0.9418914
      6032.5000        95.7217        56.1898       59.62432         0.8576         0.9674         1.2353       -33.0571      -7.637573       0.566475      0.9278525
      6033.0000        95.4097        58.3847       62.37572         0.8433          0.918          1.344       -32.4683      -7.055161      0.6250154      0.9341831
      6033.5000         95.335        60.6535       65.21984         0.8315         0.8719         1.3331       -30.3423      -4.935545      0.6855285      0.9572223
      6034.0000         96.475        61.3192       66.05254         0.8234         0.8369         1.4624       -27.8742      -2.473831      0.7032456      0.9839801
      6034.5000        99.7239        59.9399       64.31936         0.8228         0.8281         1.8376       -25.7038     -0.3098145      0.6663693              1
      6035.0000         103.65        57.8187       61.65533         0.8115         0.8307         2.0155       -24.7061      0.6814995      0.6096879              1
