#------------------------------------------------------------------------------
# Created by    : vladimir.rabinovich
# Created on    : 09/19/2023 17:20:05
#------------------------------------------------------------------------------
~Version Information Section
VERS.           2.0     :   CWLS log ASCII Standard - VERSION 2.0
WRAP.           NO      :   One line per depth step
~Well Information Section
#MNEM       .UNIT                                         VALUE :DESCRIPTION
#------------------------------------------------------------------------------
STRT        .FT                                             712 :START DEPTH
STOP        .FT                                            9469 :STOP DEPTH
STEP        .FT                                             0.5 :STEP      
NULL        .                                           -999.25 :NULL      
COMP        .                                 MESA PETROLEUM CO :COMPANY   
WELL        .                                ST TR 00279-L SW/4 :WELL      
FLD         .                                           WILDCAT :FIELD     
LOC         .                                                   :LOCATION  
CNTY        .                             GALVESTON LARGE BLOCK :LOCATION  
STAT        .                                             TEXAS :STATE     
CTRY        .                                     UNITED STATES :COUNTRY   
SRVC        .                                                   :SERVICE COMPANY
DATE        .                             9/13/2023 11:18:53 AM :LOG DATE  
API         .                                    42706300950000 :API NUMBER
UWI         .                                    42706300950000 :UNIQUE WELL ID
XCOORD      .                                  947289.050530544 :SURFACE X 
YCOORD      .                                  10490529.0152507 :SURFACE Y 
LAT         .                                         28.889695 :LATITUDE  
LON         .                                        -95.166438 :LONGITUDE 
ELEV        .FT                                              84 :ELEVATION VALUE
ELEV_TYPE   .                                                KB :ELEVATION REFERENCE TYPE
~Curve Information Section
#MNEM       .UNIT                                      API CODE :CURVE DESCRIPTION
#------------------------------------------------------------------------------
DEPT        .FT                                                 :DEPTH     
ASFL        .OHMM                                               :          
CILD        .MMHO                                               :          
GR          .GAPI                                               :          
GR_NORM     .GAPI                                               :GammaRay Normalized
ILD         .OHMM                                               :          
SP          .MV                                                 :          
SP_NORM     .MV                                                 :SP Normalized
VSH_GR      .V/V                                                :Volume of Shale from GR
VSH_SP      .V/V                                                :Volume of Shale from SP
~A        DEPTH           ASFL           CILD             GR        GR_NORM            ILD             SP        SP_NORM         VSH_GR         VSH_SP
# ...
      4210.0000          1.003       1305.816        42.9364       57.33525         0.7869         -70.79      -34.27077      0.5177713      0.5430564
      4210.5000         1.0391       1225.494        42.4937       56.75576         0.8984       -73.5015      -36.98349      0.5054416      0.5068868
      4211.0000         1.0623       1187.566        42.0421       56.16393         1.0039       -76.1926       -39.6758      0.4928495      0.4709893
      4211.5000         1.0855       1149.615        41.1723       54.99904         0.9945        -78.871      -42.35543      0.4680647      0.4352609
      4212.0000         1.1437       1109.936        40.1662        53.6472         0.9775       -80.8259      -44.31155      0.4393021      0.4091794
      4212.5000         1.3295       1251.939        39.1594       52.29454         0.9604       -81.3434      -44.83027      0.4105221      0.4022631
      4213.0000         1.4255       1328.584        38.2973       51.14021         0.9382       -78.7754      -42.26349       0.385962      0.4364868
      4213.5000         1.5062       1305.719        37.5264       50.11074         0.9098       -77.7157      -41.20501      0.3640583      0.4505999
      4214.0000          1.564       1246.508        36.7562       49.08237         0.8814       -78.2166      -41.70713      0.3421782      0.4439049
      4214.5000         3.6665       1209.049        35.9854       48.05305         0.8654       -80.5769      -44.06865      0.3202776      0.4124179
      4215.0000         3.1991       1171.592        35.2151       47.02454         0.8666       -82.5879      -46.08088      0.2983944      0.3855883
      4215.5000         2.8339       1134.133        34.9912       46.74479         0.8678       -84.3342       -47.8284      0.2924424      0.3622881
      4216.0000         2.4164        1105.17        34.8644       46.59827          0.869       -85.9519      -49.44732       0.289325      0.3407025
      4216.5000         1.1683       1077.785        34.7377       46.45189         0.8658       -87.4142      -50.91084      0.2862105      0.3211888
      4217.0000         1.0565       1097.959        35.1226       47.00658         0.8614        -87.099      -50.59686      0.2980123      0.3253752
      4217.5000         1.6844       1124.281        35.5988       47.68654          0.857       -81.4923      -44.99138      0.3124796      0.4001149
      4218.0000         1.7191       1150.604        36.0745       48.36568         0.8526       -77.7239       -41.2242      0.3269294       0.450344
      4218.5000         1.7458       1183.641        37.7526       50.69298         0.8482       -74.0438      -37.54532      0.3764464      0.4993957
      4219.0000         1.7764       1212.309         39.907       53.67311           0.84       -67.2056      -30.70834      0.4398534      0.5905555
      4219.5000         1.7741       1235.063        44.4119       59.87472         0.8288       -60.6835      -24.18746      0.5718026      0.6775005
      4220.0000         1.2953       1281.939        48.6129       65.65995         0.8177       -53.9628      -17.46798      0.6948926      0.7670935
      4220.5000         0.5482       1324.436        50.4107       68.15118         0.8065       -51.5685      -15.07491      0.7478975      0.7990013
      4221.0000          0.463       1660.643        50.9168       68.87212         0.8359        -52.733      -16.24063      0.7632367      0.7834583
      4221.5000         0.4519       1788.895        49.6129       67.11211         0.8839       -54.9169      -18.42575      0.7257897      0.7543234
      4222.0000         0.4541       1754.869        47.8825       64.76768         0.9543       -57.8158      -21.32587       0.675908      0.7156551
      4222.5000          0.597       1612.246        45.6644        61.7548         1.0247       -62.3792      -25.89049      0.6118042      0.6547934
      4223.0000         1.1766       1494.859        43.4462       58.74164         1.0852       -61.4964      -25.00891      0.5476944      0.6665478
      4223.5000         1.2709       1409.672        41.6006       56.23931         1.1378       -60.1292      -23.64293      0.4944533      0.6847609
      4224.0000         1.3745       1326.064        39.7562       53.73849         1.1904       -58.6375      -22.15245      0.4412444       0.704634
      4224.5000         1.6013       1243.494         38.081       51.46971          1.243       -56.0584      -19.57457      0.3929725      0.7390057
      4225.0000         1.7023       1165.715         36.532       49.37391         1.2956       -51.4371      -14.95449       0.348381      0.8006067
      4225.5000         1.7513       1089.564        34.5748       46.71848         1.3451       -45.9403      -9.458916      0.2918825      0.8738811
      4226.0000         1.7895       974.3018        36.0467       48.76316         1.3896       -45.4591      -8.978935      0.3353863      0.8802809
      4226.5000         1.8127       751.3809        37.3071       50.51782         1.4342        -44.978      -8.499058      0.3727196      0.8866792
      4227.0000         1.8267       709.7256        43.5908       59.15763         1.4777       -44.4968      -8.019077      0.5565453       0.893079
      4227.5000         1.8406       702.6143        45.1852       61.37007         1.5173       -43.9605      -7.483997      0.6036184      0.9002134
      4228.0000         1.8833       750.4424        46.8801       63.72039         1.4735       -43.3939      -6.918621      0.6536253      0.9077517
      4228.5000         1.9201       827.0381        48.7244        66.2755         1.3007       -42.8272      -6.353142      0.7079893      0.9152914
      4229.0000         1.3289       984.8701        52.0099       70.80579         1.0489       -41.9334      -5.460564      0.8043784      0.9271925
      4229.5000         0.7017       1224.482        56.7085       77.27303         0.8444       -42.0345      -5.562885      0.9419793      0.9258282
      4230.0000         0.6541       1477.527        58.7465       80.09348         0.7922       -42.4531      -5.982704              1      0.9202306
      4230.5000         0.5808       1645.434        60.2698        82.2086           0.74       -49.0878      -12.61863              1      0.8317516
      4231.0000         0.5294       1735.361         60.499       82.55002         0.6877       -57.3268      -20.85885              1       0.721882
      4231.5000         0.4748       1802.574        59.0529       80.59512         0.6355       -59.2496      -22.78287              1      0.6962284
      4232.0000         0.7076       1862.279        57.1497       78.01385         0.5956       -60.6522      -24.18669      0.9577414      0.6775109
      4232.5000         0.7659       1911.811        54.6865       74.66489         0.5788       -63.5033      -27.03901      0.8864869      0.6394799
      4233.0000         0.8041       1961.344        49.3531       67.38213         0.5619       -67.1411      -30.67803      0.7315346      0.5909596
      4233.5000         0.6088       2015.518        46.1178       62.97491         0.5451       -70.9556      -34.49375      0.6377642      0.5400833
      4234.0000         0.4247       2071.617        42.9658       58.68202         0.5282       -84.4409      -47.98027       0.546426       0.360263
      4234.5000          0.304       2141.645        40.3555       55.13158         0.5113       -90.0475      -53.58809      0.4708847      0.2854921
      4235.0000         0.3622       2585.113        37.8151       51.67681         0.4945       -93.1688      -56.71061       0.397379      0.2438585
      4235.5000         0.7255        2734.75        36.2379       49.54235         0.4776       -95.6008      -59.14383      0.3519649      0.2114156
      4236.0000         0.8978       3033.426        34.6606       47.40762         0.4626       -98.2479      -61.79216      0.3065451      0.1761046
