#------------------------------------------------------------------------------
# Created by    : vladimir.rabinovich
# Created on    : 09/19/2023 17:22:38
#------------------------------------------------------------------------------
~Version Information Section
VERS.           2.0     :   CWLS log ASCII Standard - VERSION 2.0
WRAP.           NO      :   One line per depth step
~Well Information Section
#MNEM       .UNIT                                         VALUE :DESCRIPTION
#------------------------------------------------------------------------------
STRT        .FT                                             890 :START DEPTH
STOP        .FT                                            9058 :STOP DEPTH
STEP        .FT                                             0.5 :STEP      
NULL        .                                           -999.25 :NULL      
COMP        .                            COASTAL OIL & GAS CORP :COMPANY   
WELL        .                               OCS G01773 ST00BP00 :WELL      
FLD         .                                           WILDCAT :FIELD     
LOC         .                                                   :LOCATION  
CNTY        .                             GALVESTON LARGE BLOCK :LOCATION  
STAT        .                                             TEXAS :STATE     
CTRY        .                                     UNITED STATES :COUNTRY   
SRVC        .                                                   :SERVICE COMPANY
DATE        .                             9/13/2023 11:19:54 AM :LOG DATE  
API         .                                    42706403500000 :API NUMBER
UWI         .                                    42706403500000 :UNIQUE WELL ID
XCOORD      .                                  1074939.13305719 :SURFACE X 
YCOORD      .                                   10531967.363633 :SURFACE Y 
LAT         .                                         29.009472 :LATITUDE  
LON         .                                        -94.769566 :LONGITUDE 
ELEV        .FT                                              83 :ELEVATION VALUE
ELEV_TYPE   .                                                KB :ELEVATION REFERENCE TYPE
~Curve Information Section
#MNEM       .UNIT                                      API CODE :CURVE DESCRIPTION
#------------------------------------------------------------------------------
DEPT        .FT                                                 :DEPTH     
DCAL        .IN                                                 :          
DPSS        .V/V                                                :          
DRHO        .G/CM3                                              :          
DTLF        .US/FT                                              :          
DTLN        .US/FT                                              :          
GR          .GAPI                                               :          
GRS         .GAPI                                               :          
NPSS        .V/V                                                :Neutron Porosity Sandstone
SFL         .OHMM                                               :          
SP          .MV                                                 :          
SP_NORM     .MV                                                 :SP Normalized
SPHI_SAN    .V/V                                                :          
TENS        .LB                                                 :          
VSH_SP      .V/V                                                :Volume of Shale from SP
~A        DEPTH           DCAL           DPSS           DRHO           DTLF           DTLN             GR            GRS           NPSS            SFL             SP        SP_NORM       SPHI_SAN           TENS         VSH_SP
# ...
      8612.0000         1.0196         0.2496         -0.012       132.8571        132.449        54.0816           56.6         0.4543         0.4862        -5.9184       4.167812         0.3624       3647.059              1
      8612.5000         1.0196         0.2508         -0.008       133.6735       133.2653        54.0816           56.4         0.4482         0.4685        -6.3265       3.742879         0.3624       3647.059              1
      8613.0000         1.0196         0.2532         -0.006       134.0816       133.6735         54.898             56         0.4531         0.4472        -6.5306       3.521946         0.3636       3647.059              1
      8613.5000         1.0588         0.2544         -0.002       133.8776       133.4694        55.7143             56         0.4616         0.4229        -6.7347       3.301013           0.36       3607.843              1
      8614.0000         1.0588         0.2568              0       132.0408       131.4286        56.1224             56         0.4629         0.4113        -7.1429        2.87598          0.354        3549.02              1
      8614.5000          1.098         0.2568          0.002        125.098       127.2549        56.3265             56         0.4543          0.439        -7.3469       2.655147         0.3456       3529.412              1
      8615.0000         1.0588          0.246          0.004       122.3529       123.7255        56.1224           55.4         0.4176         0.5186        -7.7551       2.230114         0.3396       3529.412              1
      8615.5000         0.9804         0.2304          0.004          119.8          119.4        57.1429             55         0.3864          0.651        -8.1633       1.805081         0.3348        3549.02              1
      8616.0000          0.902         0.2172          0.004          119.8          119.4        58.3673           55.2         0.3696         0.7319        -8.5714       1.380148         0.3324        3549.02              1
      8616.5000          0.902         0.2124          0.004       120.1961          119.6             60           55.4          0.366         0.7319        -8.9796      0.9551144         0.3324        3549.02              1
      8617.0000          0.902         0.2124          0.004       121.3725            120        58.7755           55.8         0.3768         0.7189        -8.9796      0.9382811         0.3336       3529.412              1
      8617.5000          0.902         0.2088         -0.004       121.9608       120.7843         57.551           55.4          0.396         0.7063        -8.9796      0.9214487          0.336       3529.412              1
      8618.0000          0.902         0.1992         -0.012       123.5294       122.3529        56.5306           54.8         0.4176         0.6629        -8.7755       1.108715         0.3396        3549.02              1
      8618.5000         0.8627         0.1968         -0.012       124.5098       124.5098        57.9592           55.4         0.4212         0.6335        -8.5714       1.295982         0.3432        3549.02              1
      8619.0000         0.7843         0.2052         -0.016        125.098       125.6863           64.2           57.4           0.42            0.6        -8.3673       1.483249         0.3468        3549.02              1
      8619.5000         0.6667         0.2172         -0.016       125.6863       125.8824           66.2             59         0.4188         0.5629        -7.9592       1.874516          0.348        3549.02              1
      8620.0000          0.549         0.2268         -0.014       126.2745       126.2745           66.8           58.6           0.42         0.5527        -8.1633       1.653584         0.3492        3549.02              1
      8620.5000         0.5098         0.2364         -0.012       126.6667       126.2745           65.8           57.4         0.4237         0.5428        -8.1633        1.63675         0.3492       3588.235              1
      8621.0000         0.5098         0.2388         -0.012       126.8627       126.4706           64.4           56.6         0.4212         0.5428        -7.9592       1.824017         0.3492       3627.451              1
      8621.5000         0.5098         0.2388         -0.012       126.6667       126.2745           63.8           58.8         0.4224         0.5477        -7.7551       2.011283          0.348       3607.843              1
      8622.0000         0.5098         0.2316          -0.01       127.0588       126.8627           63.2           60.4         0.4261         0.5578        -7.7551       1.994451          0.348       3568.627              1
      8622.5000         0.5098         0.2256         -0.006        127.451       127.0588           63.2           61.8         0.4224         0.5527        -8.3673       1.365417         0.3492       3568.627              1
      8623.0000          0.549         0.2232         -0.002       128.0392        127.451           64.4           61.8         0.4249         0.5329        -8.1633       1.552585         0.3504       3568.627              1
      8623.5000          0.549         0.2244          0.002       129.4118       128.2353           66.6           61.4         0.4359         0.5139        -7.7551       1.943951         0.3516       3568.627              1
      8624.0000          0.549         0.2268          0.002            130       128.4314           68.8           61.6         0.4445         0.5046        -7.7551       1.927118         0.3528       3568.627              1
      8624.5000          0.549         0.2316          0.002       130.2041       129.6078           69.8           61.6         0.4261         0.4908        -7.3469       2.318485         0.3564        3549.02              1
      8625.0000          0.549         0.2352         -0.002       131.4286       131.0204           68.8           61.4         0.4359         0.4773        -7.3469       2.301652         0.3588       3529.412              1
      8625.5000          0.549         0.2388         -0.004       132.8571        132.449             67           62.4         0.4531         0.4642        -7.3469       2.284819         0.3612       3529.412              1
      8626.0000         0.5882           0.24         -0.006       133.6735       133.2653           66.8           64.6         0.4739         0.4514        -7.3469       2.267985         0.3612       3529.412              1
      8626.5000          0.549         0.2412         -0.008       133.2653       132.8571           68.6             68           0.48         0.4514        -7.1429       2.455153         0.3612       3568.627              1
      8627.0000          0.549         0.2424         -0.008        132.449       132.0408        70.5962           70.4         0.4836         0.4556        -7.3469        2.23432         0.3588       3588.235              1
      8627.5000          0.549         0.2436         -0.008       131.8367       131.4286           69.6           68.4         0.4763         0.4599         -7.551       2.013386         0.3588       3588.235              1
      8628.0000         0.6667         0.2448         -0.008       131.4286       131.0204           68.4           65.2         0.4616         0.4685         -7.551       1.996553         0.3588       3568.627              1
      8628.5000         0.5882         0.2424         -0.012       130.4082            130             67           61.2         0.4457         0.4862        -7.3469        2.18382         0.3564        3549.02              1
      8629.0000         0.5882           0.24          -0.01       130.2041       129.8039           66.6           60.4         0.4249            0.5        -6.9388       2.575088         0.3564        3549.02              1
      8629.5000         0.5882         0.2388         -0.008            130       129.6078           66.6             60         0.4249         0.5046        -6.9388       2.558254         0.3564        3549.02              1
