#------------------------------------------------------------------------------
# Created by    : vladimir.rabinovich
# Created on    : 09/19/2023 17:22:52
#------------------------------------------------------------------------------
~Version Information Section
VERS.           2.0     :   CWLS log ASCII Standard - VERSION 2.0
WRAP.           NO      :   One line per depth step
~Well Information Section
#MNEM       .UNIT                                         VALUE :DESCRIPTION
#------------------------------------------------------------------------------
STRT        .FT                                            1126 :START DEPTH
STOP        .FT                                            9906 :STOP DEPTH
STEP        .FT                                             0.5 :STEP      
NULL        .                                           -999.25 :NULL      
COMP        .                                        EXXON CORP :COMPANY   
WELL        .                               OCS G06053 ST00BP00 :WELL      
FLD         .                                           WILDCAT :FIELD     
LOC         .                                                   :LOCATION  
CNTY        .                      MATAGORDA ISLAND LARGE BLOCK :LOCATION  
STAT        .                                             TEXAS :STATE     
CTRY        .                                     UNITED STATES :COUNTRY   
SRVC        .                                                   :SERVICE COMPANY
DATE        .                             9/13/2023 11:12:11 AM :LOG DATE  
API         .                                    42703402640000 :API NUMBER
UWI         .                                    42703402640000 :UNIQUE WELL ID
XCOORD      .                                  440255.018680432 :SURFACE X 
YCOORD      .                                  10152284.9344853 :SURFACE Y 
LAT         .                                         27.926249 :LATITUDE  
LON         .                                        -96.716438 :LONGITUDE 
ELEV        .FT                                              94 :ELEVATION VALUE
ELEV_TYPE   .                                                KB :ELEVATION REFERENCE TYPE
~Curve Information Section
#MNEM       .UNIT                                      API CODE :CURVE DESCRIPTION
#------------------------------------------------------------------------------
DEPT        .FT                                                 :DEPTH     
GR          .GAPI                                               :          
GR_NORM     .GAPI                                               :GammaRay Normalized
ILD         .OHMM                                               :          
SP          .MV                                                 :          
SP_NORM     .MV                                                 :SP Normalized
VSH_GR      .V/V                                                :Volume of Shale from GR
VSH_SP      .V/V                                                :Volume of Shale from SP
~A        DEPTH             GR        GR_NORM            ILD             SP        SP_NORM         VSH_GR         VSH_SP
# ...
      8697.0000        54.0339        73.2603         0.7238       -38.4368      0.6436615      0.8566021              1
      8697.5000        53.5729       72.79689          0.737       -38.5042      0.5762596      0.8467423              1
      8698.0000         53.835       73.05658         0.7521       -38.5715      0.5089607      0.8522676              1
      8698.5000        54.7855       74.00468         0.7676       -38.6279      0.4525604      0.8724399              1
      8699.0000         56.399       75.61577         0.7862       -38.6711       0.409359      0.9067185              1
      8699.5000        58.1072       77.32156         0.8036       -38.7143      0.3661613       0.943012              1
      8700.0000        58.4335       77.64545         0.8111       -38.7564      0.3240585      0.9499031              1
      8700.5000        57.3881       76.59764         0.8089       -38.7935      0.2869606      0.9276094              1
      8701.0000        58.2479       77.45503         0.8017       -38.8307      0.2497597      0.9458517              1
      8701.5000        60.3346       79.53932         0.7834       -38.8678      0.2126579      0.9901983              1
      8702.0000        62.5231       81.72542         0.7727        -38.938      0.1424599              1              1
      8702.5000        64.2773        83.4772         0.7727        -39.009     0.07146072              1              1
      8703.0000        64.6292       83.82671         0.7759       -39.0801   0.0003585815              1              1
      8703.5000        62.8119       82.00699         0.7887       -39.1919     -0.1114388              1              1
      8704.0000        60.6985       79.89119         0.8017       -39.3218     -0.2413406      0.9976849              1
      8704.5000        59.4308       78.62108         0.8122       -39.4505     -0.3700409      0.9706612              1
      8705.0000        58.7271       77.91497         0.8184       -39.4117     -0.3312416      0.9556377              1
      8705.5000        58.2916       77.47706         0.8245       -39.4449     -0.3644409      0.9463204              1
      8706.0000        58.0526       77.23566         0.8276       -39.5017     -0.4212418      0.9411842              1
      8706.5000        57.7463       76.92694         0.8211       -39.5639     -0.4834404      0.9346158              1
      8707.0000        57.3659       76.54413         0.8146       -39.6257     -0.5452423      0.9264708              1
      8707.5000        57.0426       76.21843         0.7966       -39.6257     -0.5452423      0.9195411              1
      8708.0000        56.6605       75.83392         0.7808       -39.6257     -0.5452423      0.9113601              1
      8708.5000        56.2304       75.40141         0.7957       -39.6257     -0.5452423      0.9021577              1
      8709.0000        56.2141       75.38271         0.8242       -39.6997     -0.6192398      0.9017597              1
      8709.5000        56.3068       75.47299         0.8549       -39.7919      -0.711441      0.9036807              1
      8710.0000        56.7205       75.88428         0.8874       -39.8839     -0.8034401      0.9124316              1
      8710.5000        57.0517       76.21307         0.9159       -39.9808      -0.900341      0.9194271              1
      8711.0000        56.7436       75.90257         0.9436       -40.0801     -0.9996414      0.9128207              1
      8711.5000        55.5377       74.69426         0.9695       -40.1797      -1.099239      0.8871119      0.9985617
      8712.0000        54.2081       73.36225         0.9832       -40.2418      -1.161339      0.8587713      0.9976618
      8712.5000        53.4705       72.62225         0.9866       -40.2892       -1.20874      0.8430265      0.9969748
      8713.0000        55.1446       74.29394         0.9729       -40.3018       -1.22134      0.8785944      0.9967922
      8713.5000        57.6195       76.76643         0.9539       -40.2128      -1.132339      0.9312006       0.998082
      8714.0000        59.4222       78.56672         0.9313       -40.1237       -1.04324      0.9695047      0.9993733
      8714.5000         60.239       79.38111         0.9113       -40.0594     -0.9789391      0.9868321              1
      8715.0000        60.4492        79.5889         0.8946       -40.0092     -0.9287415      0.9912531              1
      8715.5000        60.6921       79.82939          0.883        -39.959       -0.87854        0.99637              1
      8716.0000         59.614       78.74889         0.8772       -39.9105       -0.83004      0.9733806              1
      8716.5000         55.528       74.66048         0.8728       -39.8712      -0.790741      0.8863931              1
      8717.0000        53.1259       72.25597         0.8733        -39.832     -0.7515411      0.8352333              1
      8717.5000        51.7975       70.92516         0.8749        -39.811     -0.7305412      0.8069184              1
      8718.0000        51.2036       70.32886          0.863       -39.8655     -0.7850418       0.794231              1
      8718.5000        51.1557       70.27855         0.8488       -39.9201     -0.8396416      0.7931606              1
      8719.0000        54.2129       73.33334         0.8282       -39.9746     -0.8941422      0.8581561              1
      8719.5000        56.1613       75.27933         0.8097       -39.9905     -0.9100418      0.8995602              1
      8720.0000        56.1437       75.25932         0.7943        -40.006     -0.9255409      0.8991345              1
      8720.5000        55.4018       74.51501         0.7811       -40.0215       -0.94104      0.8832982              1
      8721.0000        55.2899       74.40071         0.7726       -40.0143     -0.9338417      0.8808662              1
      8721.5000        55.6942        74.8026         0.7642       -39.9366     -0.8561401      0.8894169              1
      8722.0000        56.4188       75.52479         0.7635       -39.8589     -0.7784386      0.9047827              1
      8722.5000        56.2818       75.38538          0.763       -39.7813       -0.70084      0.9018165              1
      8723.0000         56.343       75.44417         0.7652       -39.7163     -0.6358414      0.9030674              1
      8723.5000        57.2034       76.30216         0.7699       -39.6643     -0.5838394      0.9213226              1
      8724.0000        58.1736       77.26996         0.7745       -39.6123     -0.5318413       0.941914              1
      8724.5000        57.8682       76.96214         0.7808       -39.5621     -0.4816399      0.9353647              1
      8725.0000        57.1427       76.23424         0.7885       -39.5234     -0.4429398      0.9198774              1
      8725.5000        57.3987       76.48783         0.7947       -39.4847     -0.4042397       0.925273              1
      8726.0000         60.371       79.45772         0.7974       -39.4459     -0.3654404      0.9884621              1
      8726.5000         63.399       82.48331         0.7981       -39.4067     -0.3262405              1              1
      8727.0000        65.7648       84.84671         0.7915       -39.3674     -0.2869415              1              1
      8727.5000        65.1168       84.19629          0.783       -39.3315     -0.2510414              1              1
      8728.0000        63.3748       82.45189         0.7689       -39.3126     -0.2321396              1              1
      8728.5000        61.1231       80.19778          0.755       -39.2937     -0.2132416              1              1
      8729.0000        58.0659       77.13817          0.746       -39.2724     -0.1919403        0.93911              1
      8729.5000        57.9495       77.01936         0.7378       -39.2209     -0.1404419      0.9365822              1
      8730.0000        59.6358       78.70325         0.7306       -39.1695    -0.08903885      0.9724097              1
