#------------------------------------------------------------------------------
# Created by    : vladimir.rabinovich
# Created on    : 09/19/2023 17:20:33
#------------------------------------------------------------------------------
~Version Information Section
VERS.           2.0     :   CWLS log ASCII Standard - VERSION 2.0
WRAP.           NO      :   One line per depth step
~Well Information Section
#MNEM       .UNIT                                         VALUE :DESCRIPTION
#------------------------------------------------------------------------------
STRT        .FT                                             510 :START DEPTH
STOP        .FT                                            9509 :STOP DEPTH
STEP        .FT                                             0.5 :STEP      
NULL        .                                           -999.25 :NULL      
COMP        .                       BLUE DOLPHIN EXPLORATION CO :COMPANY   
WELL        .                                OCS 00714 ST00BP00 :WELL      
FLD         .                              GALVESTON BLOCK 0288 :FIELD     
LOC         .                                                   :LOCATION  
CNTY        .                             GALVESTON LARGE BLOCK :LOCATION  
STAT        .                                             TEXAS :STATE     
CTRY        .                                     UNITED STATES :COUNTRY   
SRVC        .                                                   :SERVICE COMPANY
DATE        .                             9/13/2023 11:19:25 AM :LOG DATE  
API         .                                    42706000660000 :API NUMBER
UWI         .                                    42706000660000 :UNIQUE WELL ID
XCOORD      .                                  1093932.46617998 :SURFACE X 
YCOORD      .                                  10479390.8980397 :SURFACE Y 
LAT         .                                         28.865655 :LATITUDE  
LON         .                                       -94.7077791 :LONGITUDE 
ELEV        .FT                                              83 :ELEVATION VALUE
ELEV_TYPE   .                                                KB :ELEVATION REFERENCE TYPE
~Curve Information Section
#MNEM       .UNIT                                      API CODE :CURVE DESCRIPTION
#------------------------------------------------------------------------------
DEPT        .FT                                                 :DEPTH     
ASN         .OHMM                                               :          
CALI        .IN                                                 :          
DT          .US/F                                               :          
IL          .OHMM                                               :          
SP          .MV                                                 :          
SP_NORM     .MV                                                 :SP Normalized
VSH_SP      .V/V                                                :Volume of Shale from SP
~A        DEPTH            ASN           CALI             DT             IL             SP        SP_NORM         VSH_SP
# ...
      7679.0000         1.1556        -999.25        -999.25         0.9757       -48.1065      -0.629055              1
      7679.5000         1.1535        -999.25        -999.25         0.9774       -48.5157      -1.041744              1
      7680.0000         1.1513        -999.25        -999.25         0.9839       -48.6323      -1.161831              1
      7680.5000         1.1649        -999.25        -999.25         0.9906       -48.5988      -1.131817              1
      7681.0000         1.1908        -999.25        -999.25         0.9991       -48.7658      -1.302303              1
      7681.5000         1.1749        -999.25        -999.25         1.0076       -48.7999       -1.33989              1
      7682.0000         1.1568        -999.25        -999.25         1.0152       -48.5834      -1.126877              1
      7682.5000         1.1508        -999.25        -999.25         1.0208        -48.204     -0.7509575              1
      7683.0000         1.1611        -999.25        -999.25         1.0264       -47.9299     -0.4803467              1
      7683.5000          1.171        -999.25        -999.25         1.0296        -48.255     -0.8089333              1
      7684.0000         1.1766        -999.25        -999.25         1.0291       -48.7776      -1.335018              1
      7684.5000         1.1687        -999.25        -999.25         1.0285       -49.0365      -1.597404              1
      7685.0000          1.185        -999.25        -999.25         1.0266       -49.3613      -1.925694              1
      7685.5000         1.1715        -999.25        -999.25         1.0226        -49.394       -1.96188              1
      7686.0000         1.1437        -999.25        -999.25         1.0186        -48.941      -1.512363              1
      7686.5000         1.1438        -999.25        -999.25         1.0143       -48.3186     -0.8934479              1
      7687.0000         1.1431        -999.25        -999.25         1.0095          -48.1     -0.6783333              1
      7687.5000         1.1301        -999.25        -999.25         1.0046       -48.1331       -0.71492              1
      7688.0000         1.1347        -999.25        -999.25         0.9997       -48.3071     -0.8924065              1
      7688.5000         1.1541        -999.25        -999.25         0.9941       -48.5475      -1.136295              1
      7689.0000         1.1559        -999.25        -999.25         0.9885       -48.8603      -1.452579              1
      7689.5000         1.1354        -999.25        -999.25          0.983       -49.3125      -1.908264              1
      7690.0000         1.1216        -999.25        -999.25         0.9779       -49.5195      -2.118752       0.996875
      7690.5000         1.1239        -999.25        -999.25         0.9728       -48.9051      -1.507839              1
      7691.0000         1.1398        -999.25        -999.25         0.9714       -48.6807      -1.286922              1
      7691.5000         1.1328        -999.25        -999.25         0.9721       -48.9297       -1.53941              1
      7692.0000         1.1272        -999.25        -999.25         0.9726       -49.4482      -2.061398      0.9983843
      7692.5000         1.1247        -999.25        -999.25         0.9717       -49.7861      -2.402782      0.9894004
      7693.0000         1.1316        -999.25        -999.25         0.9709       -49.3854      -2.005566      0.9998536
      7693.5000         1.1485        -999.25        -999.25         0.9689       -49.0146      -1.638252              1
      7694.0000         1.1625        -999.25        -999.25         0.9664       -48.9404      -1.567539              1
      7694.5000         1.1667        -999.25        -999.25         0.9629        -49.289      -1.919628              1
      7695.0000          1.166        -999.25        -999.25          0.958       -49.6454      -2.279514      0.9926444
      7695.5000         1.1464        -999.25        -999.25         0.9531        -49.449      -2.086601       0.997721
      7696.0000         1.1106        -999.25        -999.25         0.9527       -49.0878      -1.728886              1
      7696.5000          1.082        -999.25        -999.25          0.959       -48.6921       -1.33667              1
      7697.0000         1.0526        -999.25        -999.25         0.9673       -48.5003      -1.148357              1
      7697.5000         1.0272        -999.25        -999.25         0.9757       -48.4828      -1.134342              1
      7698.0000         1.0142        -999.25        -999.25         0.9805       -48.5039      -1.158928              1
      7698.5000         1.0172        -999.25        -999.25         0.9811       -48.4391      -1.097614              1
      7699.0000         1.0364        -999.25        -999.25         0.9828       -48.3567      -1.018703              1
      7699.5000         1.0557        -999.25        -999.25         0.9909       -48.3602      -1.025688              1
      7700.0000         1.0852        -999.25        -999.25         0.9983       -48.3057     -0.9746704              1
      7700.5000         1.1126        -999.25        -999.25         1.0033       -48.2538     -0.9262581              1
      7701.0000          1.137        -999.25        -999.25         1.0083       -48.2058     -0.8817444              1
      7701.5000         1.1603        -999.25        -999.25         1.0051       -48.2941     -0.9735336              1
      7702.0000         1.1734        -999.25        -999.25         0.9984       -48.6742      -1.357117              1
      7702.5000          1.206        -999.25        -999.25         0.9936       -49.7783      -2.464706      0.9877709
      7703.0000         1.2376        -999.25        -999.25         0.9895       -50.6492      -3.339092      0.9647607
      7703.5000          1.247        -999.25        -999.25         0.9893        -51.035      -3.728374      0.9545165
      7704.0000         1.2531        -999.25        -999.25         0.9934       -51.0983      -3.795162      0.9527589
      7704.5000         1.2512        -999.25        -999.25         0.9975       -50.5354      -3.235748      0.9674803
      7705.0000         1.2084        -999.25        -999.25         1.0012       -49.9683      -2.672134      0.9823123
      7705.5000         1.1356        -999.25        -999.25         1.0043       -49.4414       -2.14872      0.9960863
      7706.0000         1.1129        -999.25        -999.25         1.0074       -48.9438       -1.65461              1
      7706.5000         1.1002        -999.25        -999.25           1.01       -48.7894      -1.503689              1
      7707.0000         1.0956        -999.25        -999.25         1.0118       -49.0211      -1.738876              1
      7707.5000         1.0964        -999.25        -999.25         1.0136        -49.312      -2.033264      0.9991246
      7708.0000         1.0865        -999.25        -999.25         1.0143       -49.4484      -2.173149      0.9954435
      7708.5000         1.0719        -999.25        -999.25         1.0116       -49.4655      -2.193737      0.9949017
      7709.0000         1.0772        -999.25        -999.25         1.0089       -49.2316      -1.963326              1
      7709.5000         1.1087        -999.25        -999.25         1.0061       -49.0908      -1.826012              1
      7710.0000         1.1326        -999.25        -999.25         1.0037       -49.1999      -1.938595              1
      7710.5000         1.1426        -999.25        -999.25         1.0013       -49.6006      -2.342781      0.9909794
      7711.0000         1.1509        -999.25        -999.25         0.9988       -49.8494      -2.595066      0.9843404
      7711.5000         1.1491        -999.25        -999.25         0.9961       -49.9464      -2.695553       0.981696
      7712.0000         1.1389        -999.25        -999.25         0.9931       -49.9719      -2.724541      0.9809331
