#------------------------------------------------------------------------------
# Created by    : vladimir.rabinovich
# Created on    : 09/19/2023 17:20:34
#------------------------------------------------------------------------------
~Version Information Section
VERS.           2.0     :   CWLS log ASCII Standard - VERSION 2.0
WRAP.           NO      :   One line per depth step
~Well Information Section
#MNEM       .UNIT                                         VALUE :DESCRIPTION
#------------------------------------------------------------------------------
STRT        .FT                                             500 :START DEPTH
STOP        .FT                                            9234 :STOP DEPTH
STEP        .FT                                             0.5 :STEP      
NULL        .                                           -999.25 :NULL      
COMP        .                                      SHELL OIL CO :COMPANY   
WELL        .                                OCS 00713 ST00BP00 :WELL      
FLD         .                                           WILDCAT :FIELD     
LOC         .                                                   :LOCATION  
CNTY        .                             GALVESTON LARGE BLOCK :LOCATION  
STAT        .                                             TEXAS :STATE     
CTRY        .                                     UNITED STATES :COUNTRY   
SRVC        .                                                   :SERVICE COMPANY
DATE        .                             9/13/2023 11:19:25 AM :LOG DATE  
API         .                                    42706000510000 :API NUMBER
UWI         .                                    42706000510000 :UNIQUE WELL ID
XCOORD      .                                  1104646.85179908 :SURFACE X 
YCOORD      .                                   10481381.387581 :SURFACE Y 
LAT         .                                         28.871549 :LATITUDE  
LON         .                                        -94.674396 :LONGITUDE 
ELEV        .FT                                              82 :ELEVATION VALUE
ELEV_TYPE   .                                                KB :ELEVATION REFERENCE TYPE
~Curve Information Section
#MNEM       .UNIT                                      API CODE :CURVE DESCRIPTION
#------------------------------------------------------------------------------
DEPT        .FT                                                 :DEPTH     
ASN         .OHMM                                               :          
ASN_1       .OHMM                                               :          
GR_NORM     .                                                   :GammaRay Normalized
ILD         .OHMM                                               :          
LAT         .OHMM                                               :          
LN          .OHMM                                               :          
SP          .MV                                                 :          
SP_1        .MV                                                 :          
SP_NORM     .MV                                                 :SP Normalized
VSH_SP      .V/V                                                :Volume of Shale from SP
~A        DEPTH            ASN          ASN_1        GR_NORM            ILD            LAT             LN             SP           SP_1        SP_NORM         VSH_SP
# ...
      4567.0000         0.9432        -999.25        -999.25         0.8092        -999.25        -999.25       -68.4901        -999.25      0.6116104              1
      4567.5000          0.941        -999.25        -999.25         0.8013        -999.25        -999.25       -68.2914        -999.25      0.8074493              1
      4568.0000         0.9383        -999.25        -999.25         0.7978        -999.25        -999.25        -68.234        -999.25      0.8619843              1
      4568.5000         0.9357        -999.25        -999.25         0.7945        -999.25        -999.25       -68.3809        -999.25      0.7122192              1
      4569.0000         0.9336        -999.25        -999.25         0.7906        -999.25        -999.25       -68.6301        -999.25      0.4601593              1
      4569.5000         0.9308        -999.25        -999.25         0.7883        -999.25        -999.25        -68.877        -999.25      0.2103958              1
      4570.0000         0.9303        -999.25        -999.25         0.7888        -999.25        -999.25       -68.5673        -999.25      0.5172348              1
      4570.5000         0.9298        -999.25        -999.25         0.7892        -999.25        -999.25       -67.9944        -999.25       1.087265              1
      4571.0000         0.9288        -999.25        -999.25         0.7897        -999.25        -999.25       -67.7491        -999.25       1.329704              1
      4571.5000         0.9331        -999.25        -999.25         0.7911        -999.25        -999.25       -67.6908        -999.25       1.385139              1
      4572.0000         0.9428        -999.25        -999.25         0.7974        -999.25        -999.25       -68.0803        -999.25      0.9927826              1
      4572.5000         0.9621        -999.25        -999.25         0.8111        -999.25        -999.25       -68.3394        -999.25      0.7308121              1
      4573.0000         0.9874        -999.25        -999.25         0.8408        -999.25        -999.25       -68.5725        -999.25      0.4948502              1
      4573.5000         1.0116        -999.25        -999.25         0.8695        -999.25        -999.25       -68.7733        -999.25      0.2911911              1
      4574.0000         1.0371        -999.25        -999.25         0.8977        -999.25        -999.25       -68.9613        -999.25      0.1003265              1
      4574.5000         1.0609        -999.25        -999.25         0.9191        -999.25        -999.25       -69.1553        -999.25    -0.09653473              1
      4575.0000         1.0779        -999.25        -999.25         0.9363        -999.25        -999.25       -69.3807        -999.25     -0.3247986              1
      4575.5000         1.0888        -999.25        -999.25         0.9448        -999.25        -999.25       -68.2065        -999.25      0.8465424              1
      4576.0000         1.0948        -999.25        -999.25         0.9503        -999.25        -999.25       -67.5736        -999.25        1.47657              1
      4576.5000         1.0959        -999.25        -999.25         0.9575        -999.25        -999.25       -67.4619        -999.25       1.585411              1
      4577.0000         1.0876        -999.25        -999.25         0.9636        -999.25        -999.25       -67.5713        -999.25       1.473152              1
      4577.5000         1.0741        -999.25        -999.25         0.9598        -999.25        -999.25       -67.5173        -999.25       1.524284              1
      4578.0000         1.0489        -999.25        -999.25         0.9512        -999.25        -999.25       -68.3475        -999.25      0.6912155              1
      4578.5000         1.0269        -999.25        -999.25         0.9376        -999.25        -999.25       -67.3204        -999.25       1.715462              1
      4579.0000         1.0118        -999.25        -999.25          0.921        -999.25        -999.25       -67.0708        -999.25       1.962196              1
      4579.5000         1.0007        -999.25        -999.25         0.9011        -999.25        -999.25       -67.3639        -999.25       1.666237              1
      4580.0000         0.9933        -999.25        -999.25         0.8841        -999.25        -999.25       -67.4822        -999.25       1.545067              1
      4580.5000         0.9914        -999.25        -999.25         0.8728        -999.25        -999.25       -67.3884        -999.25       1.636009              1
      4581.0000         0.9899        -999.25        -999.25         0.8604        -999.25        -999.25       -67.3707        -999.25       1.650848              1
      4581.5000         0.9869        -999.25        -999.25         0.8468        -999.25        -999.25       -67.6018        -999.25       1.416885              1
      4582.0000         0.9807        -999.25        -999.25         0.8384        -999.25        -999.25       -67.9974        -999.25       1.018417              1
      4582.5000         0.9758        -999.25        -999.25         0.8328        -999.25        -999.25       -68.4283        -999.25      0.5846558              1
      4583.0000         0.9714        -999.25        -999.25         0.8333        -999.25        -999.25       -68.8571        -999.25      0.1529922              1
      4583.5000          0.968        -999.25        -999.25          0.838        -999.25        -999.25       -69.2617        -999.25     -0.2544785              1
      4584.0000          0.971        -999.25        -999.25         0.8447        -999.25        -999.25       -69.5836        -999.25     -0.5792389              1
      4584.5000         0.9908        -999.25        -999.25         0.8555        -999.25        -999.25       -68.6484        -999.25      0.3531036              1
      4585.0000          1.015        -999.25        -999.25         0.8686        -999.25        -999.25        -68.042        -999.25      0.9566422              1
      4585.5000         1.0429        -999.25        -999.25         0.8886        -999.25        -999.25       -67.5851        -999.25       1.410675              1
      4586.0000         1.0724        -999.25        -999.25         0.9098        -999.25        -999.25       -67.5586        -999.25       1.434311              1
      4586.5000         1.1047        -999.25        -999.25         0.9328        -999.25        -999.25       -68.0752        -999.25      0.9148483              1
      4587.0000         1.1369        -999.25        -999.25         0.9556        -999.25        -999.25       -68.7274        -999.25      0.2597885              1
      4587.5000         1.1591        -999.25        -999.25         0.9781        -999.25        -999.25        -69.392        -999.25     -0.4076767              1
      4588.0000         1.1568        -999.25        -999.25         0.9951        -999.25        -999.25        -70.308        -999.25      -1.326538              1
      4588.5000         1.1457        -999.25        -999.25         1.0071        -999.25        -999.25       -71.1207        -999.25      -2.142097      0.9949251
      4589.0000         1.1333        -999.25        -999.25          1.011        -999.25        -999.25        -70.937        -999.25      -1.961266              1
      4589.5000         1.1244        -999.25        -999.25         0.9986        -999.25        -999.25       -70.0892        -999.25      -1.116333              1
      4590.0000         1.1151        -999.25        -999.25          0.986        -999.25        -999.25       -69.3937        -999.25     -0.4236908              1
      4590.5000         1.1051        -999.25        -999.25          0.971        -999.25        -999.25       -68.8359        -999.25      0.1312485              1
      4591.0000         1.0947        -999.25        -999.25          0.956        -999.25        -999.25       -68.5752        -999.25      0.3890762              1
