#------------------------------------------------------------------------------
# Created by    : vladimir.rabinovich
# Created on    : 09/19/2023 17:20:37
#------------------------------------------------------------------------------
~Version Information Section
VERS.           2.0     :   CWLS log ASCII Standard - VERSION 2.0
WRAP.           NO      :   One line per depth step
~Well Information Section
#MNEM       .UNIT                                         VALUE :DESCRIPTION
#------------------------------------------------------------------------------
STRT        .FT                                             582 :START DEPTH
STOP        .FT                                            8015 :STOP DEPTH
STEP        .FT                                             0.5 :STEP      
NULL        .                                           -999.25 :NULL      
COMP        .                                CONTINENTAL OIL CO :COMPANY   
WELL        .                                OCS 00719 ST00BP00 :WELL      
FLD         .                                           WILDCAT :FIELD     
LOC         .                                                   :LOCATION  
CNTY        .                             GALVESTON LARGE BLOCK :LOCATION  
STAT        .                                             TEXAS :STATE     
CTRY        .                                     UNITED STATES :COUNTRY   
SRVC        .                                                   :SERVICE COMPANY
DATE        .                             9/13/2023 11:19:25 AM :LOG DATE  
API         .                                    42706000350000 :API NUMBER
UWI         .                                    42706000350000 :UNIQUE WELL ID
XCOORD      .                                  1010979.62119212 :SURFACE X 
YCOORD      .                                  10432235.4027546 :SURFACE Y 
LAT         .                                          28.73246 :LATITUDE  
LON         .                                        -94.964458 :LONGITUDE 
ELEV        .FT                                              63 :ELEVATION VALUE
ELEV_TYPE   .                                                KB :ELEVATION REFERENCE TYPE
~Curve Information Section
#MNEM       .UNIT                                      API CODE :CURVE DESCRIPTION
#------------------------------------------------------------------------------
DEPT        .FT                                                 :DEPTH     
ASN         .OHMM                                               :          
DT          .US/F                                               :          
LN          .OHMM                                               :          
SP          .MV                                                 :          
SP_NORM     .MV                                                 :SP Normalized
VSH_SP      .V/V                                                :Volume of Shale from SP
~A        DEPTH            ASN             DT             LN             SP        SP_NORM         VSH_SP
# ...
      7498.0000         0.6874        -999.25          0.665       -50.4447      -9.046534      0.8881503
      7498.5000          0.685        -999.25         0.6606       -50.4129       -8.99859      0.8889113
      7499.0000         0.6824        -999.25         0.6563       -50.1155      -8.550206      0.8960285
      7499.5000         0.6798        -999.25          0.652       -49.7964      -8.069096      0.9036651
      7500.0000         0.6771        -999.25         0.6477        -49.478      -7.589051      0.9112849
      7500.5000         0.6745        -999.25         0.6433       -49.1596         -7.109      0.9189048
      7501.0000         0.6718        -999.25          0.639       -48.8412      -6.628954      0.9265245
      7501.5000         0.6659        -999.25         0.6347       -48.5228      -6.148903      0.9341444
      7502.0000         0.6583        -999.25         0.6304       -48.4282      -6.006274      0.9364083
      7502.5000         0.6506        -999.25         0.6275       -48.8904       -6.70313      0.9253471
      7503.0000         0.6431        -999.25          0.625       -49.3527      -7.400135      0.9142836
      7503.5000         0.6421        -999.25         0.6225       -49.8144      -8.096237      0.9032343
      7504.0000          0.641        -999.25         0.6199       -50.2766      -8.793093      0.8921731
      7504.5000           0.64        -999.25         0.6174       -50.7389      -9.490098      0.8811095
      7505.0000          0.639        -999.25         0.6149        -50.922      -9.766159      0.8767276
      7505.5000         0.6379        -999.25         0.6123       -50.7966      -9.577093      0.8797287
      7506.0000         0.6369        -999.25         0.6098       -50.6711      -9.387878      0.8827321
      7506.5000         0.6359        -999.25         0.6073       -50.5457      -9.198812      0.8857331
      7507.0000         0.6348        -999.25         0.6047       -50.4666      -9.079553      0.8876262
      7507.5000         0.6334        -999.25         0.6022        -50.438      -9.036433      0.8883106
      7508.0000         0.6319        -999.25         0.5997       -50.4093      -8.993167      0.8889974
      7508.5000         0.6304        -999.25         0.5971       -50.3806      -8.949893      0.8896843
      7509.0000         0.6288        -999.25         0.5946        -50.352      -8.906775      0.8903686
      7509.5000         0.6273        -999.25         0.5921       -50.1989      -8.675942      0.8940327
      7510.0000         0.6258        -999.25         0.5895       -49.9098      -8.240073      0.9009512
      7510.5000         0.6238        -999.25          0.587        -49.621      -7.804647      0.9078627
      7511.0000         0.6219        -999.25         0.5845       -49.3323      -7.369376      0.9147718
      7511.5000           0.62        -999.25         0.5819       -49.6459      -7.842193      0.9072668
      7512.0000         0.6181        -999.25         0.5794       -50.0394      -8.435466      0.8978497
      7512.5000         0.6162        -999.25         0.5769       -50.4327      -9.028445      0.8884374
      7513.0000         0.6143        -999.25         0.5743       -50.7221      -9.464768      0.8815116
      7513.5000         0.6124        -999.25         0.5718       -50.9971      -9.879386      0.8749304
      7514.0000          0.611        -999.25         0.5696        -51.134      -10.08579      0.8716542
      7514.5000         0.6109        -999.25          0.569       -50.9059      -9.741882       0.877113
      7515.0000         0.6107        -999.25         0.5684       -50.6776      -9.397678      0.8825765
      7515.5000         0.6106        -999.25         0.5679       -50.4495      -9.053774      0.8880354
      7516.0000         0.6104        -999.25         0.5673       -50.2215       -8.71002      0.8934917
      7516.5000         0.6098        -999.25         0.5668       -50.3074       -8.83953       0.891436
      7517.0000          0.609        -999.25         0.5662       -50.4366      -9.034323      0.8883441
      7517.5000         0.6081        -999.25         0.5656       -50.5659      -9.229266      0.8852497
      7518.0000         0.6073        -999.25         0.5651       -50.5648       -9.22761       0.885276
      7518.5000         0.6065        -999.25         0.5645       -50.2229      -8.712131      0.8934582
      7519.0000         0.6056        -999.25         0.5639       -49.8815      -8.197404      0.9016285
      7519.5000         0.6048        -999.25         0.5634       -49.5402      -7.682827      0.9097964
      7520.0000         0.6039        -999.25         0.5628       -49.2044      -7.176544      0.9178326
      7520.5000          0.602        -999.25         0.5622       -48.9355      -6.771129      0.9242678
      7521.0000         0.6002        -999.25         0.5617       -48.7914       -6.55387      0.9277164
      7521.5000         0.5983        -999.25         0.5611        -49.726       -7.96296      0.9053499
      7522.0000         0.5965        -999.25         0.5605       -50.3896      -8.963461      0.8894688
      7522.5000         0.5958        -999.25           0.56       -51.0522       -9.96246      0.8736117
      7523.0000         0.5965        -999.25         0.5597       -51.3754      -10.44975       0.865877
      7523.5000         0.5972        -999.25         0.5599       -51.5347      -10.69915      0.8619183
      7524.0000         0.5979        -999.25         0.5601       -51.6936      -10.95676      0.8578292
      7524.5000         0.5986        -999.25         0.5604       -51.8442      -11.20186      0.8539388
      7525.0000         0.5993        -999.25         0.5606        -51.884      -11.27989      0.8527002
      7525.5000            0.6        -999.25         0.5608       -51.8257      -11.21003      0.8538091
      7526.0000         0.6007        -999.25         0.5611        -51.505      -10.74455      0.8611976
      7526.5000         0.6014        -999.25         0.5613       -51.1843      -10.27907      0.8685862
      7527.0000         0.6017        -999.25         0.5615       -50.8636      -9.813585      0.8759748
      7527.5000         0.6005        -999.25         0.5618        -50.543      -9.348251      0.8833611
      7528.0000         0.5993        -999.25          0.562       -50.2224      -8.882924      0.8907472
      7528.5000         0.5981        -999.25         0.5622       -49.9022      -8.418194      0.8981239
      7529.0000         0.5969        -999.25         0.5625        -49.623      -8.015281      0.9045194
      7529.5000         0.5957        -999.25         0.5627        -49.363      -7.641314      0.9104553
      7530.0000         0.5944        -999.25         0.5629       -49.1031      -7.267502      0.9163889
      7530.5000         0.5932        -999.25         0.5632       -48.8431      -6.893541      0.9223248
      7531.0000          0.592        -999.25         0.5634       -48.8703      -6.952579      0.9213876
      7531.5000         0.5908        -999.25         0.5636       -49.0292       -7.21019      0.9172986
      7532.0000         0.5899        -999.25         0.5641       -49.1708      -7.441712      0.9136236
      7532.5000         0.5891        -999.25          0.565         -49.31      -7.669622       0.910006
      7533.0000         0.5883        -999.25         0.5659       -49.4492      -7.897521      0.9063886
      7533.5000         0.5874        -999.25         0.5668       -49.5424      -8.056075      0.9038718
      7534.0000         0.5866        -999.25         0.5677       -49.5185      -8.038079      0.9041575
      7534.5000         0.5858        -999.25         0.5686       -49.4946      -8.020078      0.9044432
      7535.0000          0.585        -999.25         0.5695       -49.4445      -7.962574       0.905356
      7535.5000         0.5841        -999.25         0.5704       -49.3276      -7.804359      0.9078673
