#------------------------------------------------------------------------------
# Created by    : vladimir.rabinovich
# Created on    : 09/19/2023 17:19:46
#------------------------------------------------------------------------------
~Version Information Section
VERS.           2.0     :   CWLS log ASCII Standard - VERSION 2.0
WRAP.           NO      :   One line per depth step
~Well Information Section
#MNEM       .UNIT                                         VALUE :DESCRIPTION
#------------------------------------------------------------------------------
STRT        .FT                                            3460 :START DEPTH
STOP        .FT                                           13634 :STOP DEPTH
STEP        .FT                                             0.5 :STEP      
NULL        .                                           -999.25 :NULL      
COMP        .                                SHELL OFFSHORE INC :COMPANY   
WELL        .                               OCS G06107 ST00BP00 :WELL      
FLD         .                                           WILDCAT :FIELD     
LOC         .                                                   :LOCATION  
CNTY        .                             GALVESTON LARGE BLOCK :LOCATION  
STAT        .                                             TEXAS :STATE     
CTRY        .                                     UNITED STATES :COUNTRY   
SRVC        .                                                   :SERVICE COMPANY
DATE        .                             9/13/2023 11:19:27 AM :LOG DATE  
API         .                                    42706401270000 :API NUMBER
UWI         .                                    42706401270000 :UNIQUE WELL ID
XCOORD      .                                  941908.785460496 :SURFACE X 
YCOORD      .                                  10441108.8632451 :SURFACE Y 
LAT         .                                         28.753553 :LATITUDE  
LON         .                                        -95.180411 :LONGITUDE 
ELEV        .FT                                              90 :ELEVATION VALUE
ELEV_TYPE   .                                                KB :ELEVATION REFERENCE TYPE
~Curve Information Section
#MNEM       .UNIT                                      API CODE :CURVE DESCRIPTION
#------------------------------------------------------------------------------
DEPT        .FT                                                 :DEPTH     
ASFL        .OHMM                                               :          
CALI        .IN                                                 :          
CILD        .MMHO                                               :          
DT          .US/F                                               :          
GR          .GAPI                                               :          
GR_1        .GAPI                                               :          
GR_NORM     .GAPI                                               :GammaRay Normalized
ILD         .OHMM                                               :          
ILM         .OHMM                                               :          
RHOB        .G/C3                                               :          
SP          .MV                                                 :          
VSH_GR      .V/V                                                :Volume of Shale from GR
~A        DEPTH           ASFL           CALI           CILD             DT             GR           GR_1        GR_NORM            ILD            ILM           RHOB             SP         VSH_GR
# ...
      8913.0000        -999.25        12.0498       2645.172        122.647        -999.25        39.2083       80.90009         0.3808         0.3937         2.3208        -999.25              1
      8913.5000        -999.25        12.1807       2635.586       121.3771        -999.25        38.4568       79.67933         0.3846         0.3956         2.3271        -999.25      0.9931772
      8914.0000        -999.25        12.2823       2620.762       120.6512        -999.25        38.8499       80.31789         0.3881         0.3984         2.3353        -999.25              1
      8914.5000        -999.25        12.2374       2597.141       120.4678        -999.25        39.5365       81.43323         0.3913         0.4018         2.3386        -999.25              1
      8915.0000        -999.25         12.187       2558.398       120.7013        -999.25        39.8798        81.9909         0.3952         0.4055         2.3364        -999.25              1
      8915.5000        -999.25        12.1574       2510.316       121.0225        -999.25        37.2495       77.71814         0.4003         0.4083         2.3338        -999.25      0.9514498
      8916.0000        -999.25        12.1466       2471.082       121.3702        -999.25         34.696       73.57017         0.4035          0.411         2.3293        -999.25      0.8631951
      8916.5000        -999.25        12.1443       2429.078        121.038        -999.25        34.0679       72.54987         0.4075         0.4166         2.3226        -999.25      0.8414867
      8917.0000        -999.25        12.1562       2375.313       120.0663        -999.25        34.5213       73.28638          0.414         0.4226         2.3147        -999.25      0.8571569
      8917.5000        -999.25        12.1461       2344.996       118.7197        -999.25        34.9824       74.03541         0.4214         0.4285         2.3191        -999.25      0.8730938
      8918.0000        -999.25        12.1266       2321.551       117.9352        -999.25        35.7248       75.24139         0.4293         0.4341         2.3273        -999.25      0.8987529
      8918.5000        -999.25        12.1228       2293.383       117.2137        -999.25         36.022       75.72417         0.4364         0.4373         2.3332        -999.25      0.9090248
      8919.0000        -999.25        12.1415       2274.754       117.1733        -999.25        35.7711        75.3166         0.4423         0.4403         2.3371        -999.25      0.9003531
      8919.5000        -999.25        12.1974       2267.129         117.35        -999.25        35.2676        74.4987         0.4468         0.4422         2.3321        -999.25       0.882951
      8920.0000        -999.25        12.2792       2275.965       117.7123        -999.25        35.2358       74.44704         0.4468         0.4427         2.3249        -999.25      0.8818519
      8920.5000        -999.25        12.3416       2298.176        118.485        -999.25        36.2194       76.04483         0.4413         0.4418         2.3169        -999.25      0.9158475
      8921.0000        -999.25        12.3788       2333.262       119.5833        -999.25        37.5963        78.2815         0.4344         0.4408         2.3087        -999.25      0.9634362
      8921.5000        -999.25        12.4126       2390.434        120.668        -999.25        39.2173        80.9147         0.4246         0.4318         2.3036        -999.25              1
      8922.0000        -999.25        12.4233       2442.418       121.1034        -999.25        40.5788       83.12637         0.4147         0.4225         2.3014        -999.25              1
      8922.5000        -999.25        12.4389       2534.137       121.3363        -999.25        41.9532       85.35899         0.4037         0.4078         2.3003        -999.25              1
      8923.0000        -999.25        12.4585       2607.863       122.3888        -999.25        42.5087       86.26136         0.3929         0.3964         2.3068        -999.25              1
      8923.5000        -999.25        12.4863       2686.137       123.9281        -999.25        42.9788       87.02501         0.3812         0.3882         2.3159        -999.25              1
      8924.0000        -999.25        12.4448       2773.008       125.7811        -999.25         43.183       87.35671         0.3706         0.3806          2.323        -999.25              1
      8924.5000        -999.25        12.3608       2855.137       127.1252        -999.25        42.2794       85.88889         0.3604         0.3745          2.316        -999.25              1
      8925.0000        -999.25        12.2689       2915.031       128.0098        -999.25        41.0027       83.81497         0.3518         0.3678         2.3072        -999.25              1
      8925.5000        -999.25        12.2173       2975.121        129.071        -999.25        39.5814       81.50618         0.3458         0.3622         2.3055        -999.25              1
      8926.0000        -999.25        12.2056       3022.359       129.6392        -999.25         41.406       84.47009         0.3413         0.3558         2.3039        -999.25              1
      8926.5000        -999.25        12.2142       3034.047       129.6719        -999.25        42.7367       86.63172         0.3375         0.3516         2.3021        -999.25              1
      8927.0000        -999.25        12.2265       3023.004       129.5464        -999.25        43.6294       88.08185         0.3348          0.349         2.2998        -999.25              1
      8927.5000        -999.25        12.2386       2997.207       129.4045        -999.25        42.0123       85.45499          0.334         0.3485         2.2975        -999.25              1
      8928.0000        -999.25        12.2503       2976.035       128.9956        -999.25        39.7773       81.82439         0.3349         0.3506         2.2952        -999.25              1
      8928.5000        -999.25         12.267       2960.418       128.0542        -999.25        39.1453       80.79775         0.3365         0.3524         2.2931        -999.25              1
      8929.0000        -999.25        12.2863       2947.273       126.6658        -999.25        40.3694       82.78622         0.3382         0.3547         2.2939        -999.25              1
      8929.5000        -999.25        12.2974       2926.938       125.4587        -999.25        40.8184        83.5156         0.3407         0.3573         2.2956        -999.25              1
      8930.0000        -999.25        12.3046       2902.848       124.0652        -999.25        40.6726       83.27875         0.3428         0.3584         2.2957        -999.25              1
      8930.5000        -999.25        12.2992       2886.715       123.7252        -999.25        39.6104       81.55327         0.3445           0.36         2.2946        -999.25              1
      8931.0000        -999.25        12.2857       2872.371       124.2913        -999.25        39.0375       80.62263         0.3462         0.3616          2.297        -999.25              1
      8931.5000        -999.25        12.2507       2865.293       125.2216        -999.25         39.645       81.60948         0.3477         0.3632          2.301        -999.25              1
      8932.0000        -999.25        12.1955       2861.082       126.5916        -999.25        40.5775       83.12425         0.3489         0.3647         2.3031        -999.25              1
      8932.5000        -999.25        12.1888       2859.066       131.7307        -999.25        41.2698       84.24884         0.3493         0.3662          2.305        -999.25              1
      8933.0000        -999.25        12.1781       2861.438       136.0398        -999.25         41.731       84.99804         0.3492         0.3671          2.308        -999.25              1
