#------------------------------------------------------------------------------
# Created by    : vladimir.rabinovich
# Created on    : 09/19/2023 17:20:04
#------------------------------------------------------------------------------
~Version Information Section
VERS.           2.0     :   CWLS log ASCII Standard - VERSION 2.0
WRAP.           NO      :   One line per depth step
~Well Information Section
#MNEM       .UNIT                                         VALUE :DESCRIPTION
#------------------------------------------------------------------------------
STRT        .FT                                             723 :START DEPTH
STOP        .FT                                            8219 :STOP DEPTH
STEP        .FT                                             0.5 :STEP      
NULL        .                                           -999.25 :NULL      
COMP        .                                    MOBIL OIL CORP :COMPANY   
WELL        .                               OCS G02338 ST00BP00 :WELL      
FLD         .                                           WILDCAT :FIELD     
LOC         .                                                   :LOCATION  
CNTY        .                             GALVESTON LARGE BLOCK :LOCATION  
STAT        .                                             TEXAS :STATE     
CTRY        .                                     UNITED STATES :COUNTRY   
SRVC        .                                                   :SERVICE COMPANY
DATE        .                             9/13/2023 11:18:53 AM :LOG DATE  
API         .                                    42706400200000 :API NUMBER
UWI         .                                    42706400200000 :UNIQUE WELL ID
XCOORD      .                                  941616.333010477 :SURFACE X 
YCOORD      .                                  10405518.1254327 :SURFACE Y 
LAT         .                                         28.655687 :LATITUDE  
LON         .                                        -95.179294 :LONGITUDE 
ELEV        .FT                                              84 :ELEVATION VALUE
ELEV_TYPE   .                                                KB :ELEVATION REFERENCE TYPE
~Curve Information Section
#MNEM       .UNIT                                      API CODE :CURVE DESCRIPTION
#------------------------------------------------------------------------------
DEPT        .FT                                                 :DEPTH     
ASFL        .OHMM                                               :          
CALI        .IN                                                 :          
CILD        .MMHO                                               :          
DPHI        .%                                                  :          
DT          .US/F                                               :          
GR          .GAPI                                               :          
GR_1        .GAPI                                               :          
GR_NORM     .GAPI                                               :GammaRay Normalized
ILD         .OHMM                                               :          
NPHI        .DEC                                                :          
SP          .MV                                                 :          
SP_NORM     .MV                                                 :SP Normalized
VSH_GR      .V/V                                                :Volume of Shale from GR
VSH_SP      .V/V                                                :Volume of Shale from SP
~A        DEPTH           ASFL           CALI           CILD           DPHI             DT             GR           GR_1        GR_NORM            ILD           NPHI             SP        SP_NORM         VSH_GR         VSH_SP
# ...
      4719.0000         0.8976        10.9893       1533.246        42.3848       118.2375        -999.25        67.1527       48.38366         0.3744         0.4238        34.6285       -40.8432      0.3273119       0.262163
      4719.5000         0.8895        10.9742       1444.131        43.6397       116.3022        -999.25        67.1954       48.43211         0.3517         0.4364        42.6185       -32.8532      0.3283427      0.4101259
      4720.0000         0.8833        11.0004       1322.611        42.1006       116.2872        -999.25        67.8817       49.21089         0.3291          0.421        46.3323       -29.1394      0.3449125      0.4788999
      4720.5000         0.8869        11.0604       1195.607        39.0718       118.6141        -999.25        69.6189       51.18218         0.3323         0.3907        48.3845       -27.0872      0.3868549      0.5169036
      4721.0000         0.8905        11.1288       1122.943        37.4788       120.2729        -999.25        72.3246       54.25248           0.35         0.3748        48.1567        -27.315      0.4521803      0.5126851
      4721.5000         0.8942        11.1973       1065.666        36.0429       121.0233        -999.25        75.5956       57.96425         0.3689         0.3604        44.9484       -30.5233      0.5311542      0.4532721
      4722.0000         0.8978        11.2677       1027.012        34.3618       120.6799        -999.25        77.0321       59.59431         0.3901         0.3436         43.532       -31.9397      0.5658365      0.4270426
      4722.5000         0.9002        11.0622       988.3574        32.6072       119.6537        -999.25        77.5752       60.21061         0.4113         0.3261        46.5314       -28.9403      0.5789492       0.482587
      4723.0000         0.9026        10.9579        961.584        32.0052       117.5332        -999.25        78.4698       61.22576         0.4326         0.3201        50.9446       -24.5271      0.6005481      0.5643129
      4723.5000          0.905        10.9103       946.4189        32.4094       117.7434        -999.25        79.7979       62.73281         0.4538         0.3241        53.6726       -21.7991      0.6326131      0.6148314
      4724.0000         0.9073        10.9312        934.748        33.7133       119.2671        -999.25        81.9418       65.16562          0.475         0.3371        55.6702       -19.8015      0.6843749      0.6518241
      4724.5000         0.9069        10.9618       923.0898        34.1204        120.582        -999.25        83.9827       67.48153         0.4963         0.3412        56.3795       -19.0922      0.7336496      0.6649593
      4725.0000         0.9043        11.0088       911.4199        33.5959       121.6622        -999.25        85.0739       68.71976         0.5175          0.336        56.3359       -19.1358       0.759995      0.6641518
      4725.5000         0.9017        11.0557       892.7969        31.5588       122.9314        -999.25        85.7826       69.52397         0.5325         0.3156        59.2407        -16.231      0.7771057      0.7179444
      4726.0000         0.8992        11.1123       884.8437        29.6517         124.22        -999.25        85.7206       69.45361          0.544         0.2965        66.2078      -9.263901      0.7756088      0.8469648
      4726.5000         0.8965        11.1825       952.2227         29.845       125.0422        -999.25        84.8308       68.44392         0.5555         0.2984         69.476      -5.995705      0.7541259       0.907487
      4727.0000         0.8925        11.2514       1008.734        30.2055        122.386        -999.25        83.9053       67.39369          0.567         0.3021        71.9587         -3.513      0.7317807       0.953463
      4727.5000         0.8886        11.2986       1065.246        30.8513       122.0919        -999.25         82.881       66.23137         0.5631         0.3085        68.7789      -6.692802      0.7070504      0.8945777
      4728.0000         0.8846        12.0078       1121.707        31.4805       127.0135        -999.25        83.4402       66.86592          0.536         0.3148        61.9489       -13.5228      0.7205515      0.7680962
      4728.5000         0.8806        12.8178       1261.852        31.5429       129.9109        -999.25         84.452       68.01408         0.5088         0.3154        50.1207        -25.351      0.7449803      0.5490555
      4729.0000         0.8767        13.3891       1381.791        32.8944         124.21        -999.25        83.6405       67.09322         0.4817         0.3289        31.0442       -44.4275      0.7253878       0.195787
      4729.5000         0.8727        12.8457        1467.99        35.4671       121.9869        -999.25        77.3018       59.90037         0.4546         0.3547        30.7733       -44.6984      0.5723484      0.1907703
      4730.0000         0.8694        11.9526       1531.418         38.644       119.4098        -999.25        67.4663       48.73952         0.4271         0.3864        29.8494       -45.6223      0.3348833      0.1736611
      4730.5000         0.8662        11.7121       1582.039        43.5111       118.3132        -999.25        63.9102       44.70422         0.3994         0.4351        27.4325       -48.0392       0.249026      0.1289037
      4731.0000          0.863        11.7731       1602.896        47.7313        120.348        -999.25        62.2343       42.80249         0.3717         0.4773        29.0579       -46.4138      0.2085637      0.1590036
      4731.5000         0.8598        11.5991       1593.512        51.7406       124.7792        -999.25        63.2654       45.45314          0.344         0.5174        34.1107        -41.361      0.2649605       0.252574
      4732.0000         0.8566        11.3715       1338.814        54.1457       128.9287        -999.25        65.5543       48.37514         0.3277         0.5415        39.3926       -36.0791      0.3271307       0.350387
      4732.5000         0.8554        11.6257       1088.857        52.0936       126.1803        -999.25        68.2847       51.86076         0.3277         0.5209        48.2688       -27.2029      0.4012928       0.514761
      4733.0000         0.8542        11.4265       947.6787        46.1346       123.6582        -999.25        70.5812       54.79247         0.3276         0.4613         60.545       -14.9267      0.4636695      0.7420981
      4733.5000          0.853         11.244        910.877        41.0087       124.3726        -999.25        72.5006       57.24277          0.339         0.4101        66.4442      -9.027504      0.5158036      0.8513425
      4734.0000         0.8532        11.1943       871.4072        40.4817       125.2321        -999.25        74.8145       60.19668         0.3615         0.4048        67.3464      -8.125305      0.5786527      0.8680499
      4734.5000         0.8546        11.1735       825.1211        39.8293       125.8914        -999.25        78.4648       64.85664         0.3841         0.3983        65.9091      -9.562599      0.6778008      0.8414333
      4735.0000          0.856        11.1431       779.6006        39.3018       124.6766        -999.25        82.2096       69.63724         0.4066          0.393        64.9496       -10.5221      0.7795157      0.8236648
      4735.5000         0.8574        11.1122       738.5508        39.0299        123.099        -999.25        85.8724       74.31315         0.4291         0.3903        66.5288      -8.942902      0.8790032      0.8529092
      4736.0000         0.8594        11.0793       704.5771        38.4526       123.1726        -999.25        89.7535       79.26774         0.4517         0.3845        69.0055      -6.466202      0.9844199       0.898774
      4736.5000         0.8621        11.1069       683.0518        35.1949       122.2533        -999.25        93.5032       84.05459         0.4765         0.3519        71.4049      -4.066803              1      0.9432073
