#------------------------------------------------------------------------------
# Created by    : vladimir.rabinovich
# Created on    : 09/19/2023 17:20:04
#------------------------------------------------------------------------------
~Version Information Section
VERS.           2.0     :   CWLS log ASCII Standard - VERSION 2.0
WRAP.           NO      :   One line per depth step
~Well Information Section
#MNEM       .UNIT                                         VALUE :DESCRIPTION
#------------------------------------------------------------------------------
STRT        .FT                                             900 :START DEPTH
STOP        .FT                                            8286 :STOP DEPTH
STEP        .FT                                             0.5 :STEP      
NULL        .                                           -999.25 :NULL      
COMP        .                                       ALLIED CORP :COMPANY   
WELL        .                               OCS G04069 ST00BP00 :WELL      
FLD         .                                           WILDCAT :FIELD     
LOC         .                                                   :LOCATION  
CNTY        .                             GALVESTON LARGE BLOCK :LOCATION  
STAT        .                                             TEXAS :STATE     
CTRY        .                                     UNITED STATES :COUNTRY   
SRVC        .                                                   :SERVICE COMPANY
DATE        .                             9/13/2023 11:18:53 AM :LOG DATE  
API         .                                    42706400840000 :API NUMBER
UWI         .                                    42706400840000 :UNIQUE WELL ID
XCOORD      .                                  987200.391396966 :SURFACE X 
YCOORD      .                                   10401886.486665 :SURFACE Y 
LAT         .                                         28.647914 :LATITUDE  
LON         .                                        -95.037018 :LONGITUDE 
ELEV        .FT                                              83 :ELEVATION VALUE
ELEV_TYPE   .                                                KB :ELEVATION REFERENCE TYPE
~Curve Information Section
#MNEM       .UNIT                                      API CODE :CURVE DESCRIPTION
#------------------------------------------------------------------------------
DEPT        .FT                                                 :DEPTH     
ASFL        .OHMM                                               :          
CILD        .MMHO                                               :          
DPHI        .%                                                  :          
DT          .US/F                                               :          
GR          .GAPI                                               :          
GR_NORM     .GAPI                                               :GammaRay Normalized
ILD         .OHMM                                               :          
SP          .MV                                                 :          
SP_NORM     .MV                                                 :SP Normalized
VSH_GR      .V/V                                                :Volume of Shale from GR
VSH_SP      .V/V                                                :Volume of Shale from SP
~A        DEPTH           ASFL           CILD           DPHI             DT             GR        GR_NORM            ILD             SP        SP_NORM         VSH_GR         VSH_SP
       900.0000         0.7225        32.9492        -999.25       193.2581        39.6891       45.73035         0.3308       -59.8538       11.99086      0.2708584              1
       900.5000         0.7495       131.9087        -999.25        193.457        39.5646       45.60698         0.4602       -59.4936       12.35107      0.2682336              1
       901.0000         0.7764       618.0762        -999.25       194.0439        39.3945       45.43842         0.5532       -59.3163       12.52837      0.2646473              1
       901.5000         0.8042       1379.742        -999.25       195.9243         39.179       45.22487         0.6372       -59.1389       12.70576      0.2601036              1
       902.0000         0.8342       1118.076        -999.25       198.5928        38.9634       45.01122         0.7071       -59.0264       12.81826      0.2555579              1
       902.5000          0.858       1042.115        -999.25       201.9214        38.6879       44.73822         0.7655       -59.2756       12.56907      0.2497493              1
       903.0000         0.8778       1020.972        -999.25        201.592        38.3197       44.37334         0.8203        -59.741       12.10366      0.2419861              1
       903.5000         0.8968       999.8271        -999.25        199.229        37.9515       44.00848         0.8718       -60.2065       11.63816      0.2342231              1
       904.0000         0.9141       978.6855        -999.25       197.9172        37.4928       43.55394         0.9234        -60.672       11.17266      0.2245519              1
       904.5000         0.9306        957.541        -999.25       198.3386        37.1478       43.21206         0.9653       -61.1709       10.67377      0.2172779              1
       905.0000         0.9448       936.3965        -999.25       198.5696        37.4242       43.48595         1.0031         -61.78       10.06467      0.2231053              1
       905.5000          0.959       915.2529        -999.25       198.2166        37.7006       43.75985         1.0408        -62.389       9.455666       0.228933              1
       906.0000         0.9706       898.9687        -999.25       196.0298        37.9771       44.03385         1.0772        -62.998       8.846664      0.2347628              1
       906.5000         0.9816       883.4131        -999.25        194.218        38.2535       44.30775         1.1134       -64.8361       7.008568      0.2405904              1
       907.0000          0.991       867.2969        -999.25       194.4055        38.8251       44.87417         1.1439       -66.3257       5.518967       0.252642              1
       907.5000         0.9939        854.249        -999.25       194.8167        39.5085       45.55139         1.1603       -67.7463       4.098366      0.2670509              1
       908.0000          0.997       845.4893        -999.25       194.8245        40.1918        46.2285         1.1766       -68.9773       2.867363      0.2814575              1
       908.5000         1.0002       836.9111        -999.25       192.8611        40.8752       46.90571         1.1798       -69.9426       1.902069      0.2958662              1
       909.0000         1.0033       831.6777        -999.25       190.5801         41.528        47.5526         1.1816       -70.8391       1.005562      0.3096299              1
       909.5000         1.0064       826.4443        -999.25       190.5042        42.1683        48.1871         1.1834       -71.3107      0.5339661      0.3231299              1
       910.0000         1.0142       821.2109        -999.25       191.2344        42.8087       48.82171         1.1852       -71.6898      0.1548691      0.3366321              1
       910.5000         1.0244       815.9775        -999.25       191.6682        43.4491       49.45631         1.1994        -71.886    -0.04133606      0.3501343      0.9993641
       911.0000         1.0344       810.7441        -999.25       192.3242         44.214       50.21429         1.2141       -72.0409     -0.1962357      0.3662614       0.996981
       911.5000         1.0377       803.4209        -999.25        193.197        44.9882       50.98148         1.2289       -72.1958     -0.3511353      0.3825847      0.9945979
       912.0000         1.0384       794.2354        -999.25       194.4338         45.953       51.93754         1.2436       -72.4004     -0.5557327      0.4029264      0.9914503
       912.5000         1.0386       785.0488        -999.25       195.8042        45.9752       51.95954         1.2597        -72.621     -0.7763367      0.4033944      0.9880564
       913.0000         1.0388       775.8643        -999.25       197.2322        45.8219       51.80763         1.2757       -72.8416      -0.996933      0.4001623      0.9846626
       913.5000         1.0504       775.9043        -999.25        198.126        45.6686       51.65572         1.2761       -73.0623      -1.217636      0.3969301      0.9812672
       914.0000         1.0674       814.5039        -999.25       197.5874        45.5153        51.5038         1.2725       -73.2828      -1.438133      0.3936979      0.9778749
       914.5000         1.0843       853.0977        -999.25       196.3994        45.2486       51.23951         1.2556       -73.4918      -1.647133      0.3880748      0.9746595
       915.0000         1.1123       891.6904        -999.25       194.0486        44.9563       50.94986         1.2215       -73.4491      -1.604431       0.381912      0.9753165
       915.5000         1.1083       941.4316        -999.25       192.6638        44.6641       50.66031         1.1874       -72.9286      -1.083931      0.3757513      0.9833241
       916.0000         1.0703       993.7852        -999.25       192.8425        44.3718       50.37066         1.1533       -72.4081     -0.5634308      0.3695885      0.9913318
       916.5000         1.0321        1021.68        -999.25        194.593        44.0795       50.08101         1.1201       -72.0034     -0.1587372      0.3634256      0.9975579
       917.0000         0.9914       1034.328        -999.25       197.1396        43.7872       49.79135         1.0884       -71.6162      0.2284622      0.3572628              1
       917.5000         0.9454       1015.213        -999.25        198.814        43.5212       49.52776         1.0568        -71.229      0.6156693      0.3516544              1
       918.0000         0.9584       977.9619        -999.25       198.1877        43.6327       49.63825         1.0251       -70.8817      0.9629669      0.3540054              1
       918.5000         0.9714       940.7109        -999.25        196.022        44.4138       50.41228         1.0015       -70.7198       1.124863      0.3704742              1
       919.0000         0.9844       903.4609        -999.25       191.7559        47.0603       53.03482          0.987        -70.558       1.286667      0.4262727              1
       919.5000         1.0119       859.1211        -999.25       188.2322        62.7722       68.60447         0.9726       -70.3961       1.448563      0.7575419              1
       920.0000         1.0508       808.2402        -999.25       184.9678        63.9677       69.78915         0.9679       -70.2343       1.610367       0.782748              1
       920.5000          1.097       757.3652        -999.25       180.6833        65.1631       70.97373         1.0327       -70.0209       1.823769      0.8079517              1
       921.0000         1.1485       706.4902        -999.25        174.739        66.7321       72.52852         1.1437         -69.78       2.064667      0.8410323              1
       921.5000         1.2417       655.6094        -999.25       171.9194        67.9789       73.76403         1.2547       -69.5392       2.305466      0.8673198              1
       922.0000         1.2637       614.9111        -999.25       170.9729        68.8774        74.6544         1.3688       -69.2983       2.546364      0.8862639              1
