#------------------------------------------------------------------------------
# Created by    : vladimir.rabinovich
# Created on    : 09/19/2023 17:20:37
#------------------------------------------------------------------------------
~Version Information Section
VERS.           2.0     :   CWLS log ASCII Standard - VERSION 2.0
WRAP.           NO      :   One line per depth step
~Well Information Section
#MNEM       .UNIT                                         VALUE :DESCRIPTION
#------------------------------------------------------------------------------
STRT        .FT                                             495 :START DEPTH
STOP        .FT                                            7007 :STOP DEPTH
STEP        .FT                                             0.5 :STEP      
NULL        .                                           -999.25 :NULL      
COMP        .                                      SHELL OIL CO :COMPANY   
WELL        .                                OCS 00718 ST00BP00 :WELL      
FLD         .                                           WILDCAT :FIELD     
LOC         .                                                   :LOCATION  
CNTY        .                             GALVESTON LARGE BLOCK :LOCATION  
STAT        .                                             TEXAS :STATE     
CTRY        .                                     UNITED STATES :COUNTRY   
SRVC        .                                                   :SERVICE COMPANY
DATE        .                             9/13/2023 11:19:25 AM :LOG DATE  
API         .                                    42706000330000 :API NUMBER
UWI         .                                    42706000330000 :UNIQUE WELL ID
XCOORD      .                                  1012682.17104467 :SURFACE X 
YCOORD      .                                  10442833.5651685 :SURFACE Y 
LAT         .                                         28.761679 :LATITUDE  
LON         .                                        -94.959691 :LONGITUDE 
ELEV        .FT                                              75 :ELEVATION VALUE
ELEV_TYPE   .                                                KB :ELEVATION REFERENCE TYPE
~Curve Information Section
#MNEM       .UNIT                                      API CODE :CURVE DESCRIPTION
#------------------------------------------------------------------------------
DEPT        .FT                                                 :DEPTH     
ASN         .OHMM                                               :          
CILD        .MMHO                                               :          
DT          .US/F                                               :          
ILD         .OHMM                                               :          
LAT         .OHMM                                               :          
LN          .OHMM                                               :          
SP          .MV                                                 :          
SP_NORM     .MV                                                 :SP Normalized
VSH_SP      .V/V                                                :Volume of Shale from SP
~A        DEPTH            ASN           CILD             DT            ILD            LAT             LN             SP        SP_NORM         VSH_SP
# ...
       919.0000         1.0388        -999.25        -999.25        -999.25         1.4243         1.1104       -73.4818       -11.0655      0.6311499
       919.5000         1.0256        -999.25        -999.25        -999.25          1.427         1.1288       -73.8082      -11.59547      0.6134843
       920.0000         1.0104        -999.25        -999.25        -999.25         1.4117         1.1737       -74.3988      -12.55442      0.5815193
       920.5000         0.9931        -999.25        -999.25        -999.25          1.392         1.2212       -75.1504      -13.77476      0.5408413
       921.0000         0.9774        -999.25        -999.25        -999.25         1.3614         1.2661       -75.4934      -14.33168      0.5222772
       921.5000         0.9648        -999.25        -999.25        -999.25         1.3248         1.1992       -75.4121      -14.19968      0.5266773
       922.0000         0.9558        -999.25        -999.25        -999.25         1.4345         1.1504       -75.0549      -13.61971      0.5460098
       922.5000         0.9472        -999.25        -999.25        -999.25         1.3682         1.1462       -74.6251      -12.92185      0.5692717
       923.0000         0.9398        -999.25        -999.25        -999.25         1.3936         1.1397       -74.3718      -12.51058      0.5829806
       923.5000         0.9359        -999.25        -999.25        -999.25         1.4104         1.1171       -74.9463      -13.44337      0.5518878
       924.0000         0.9226        -999.25        -999.25        -999.25         1.3592         1.0998       -75.5465       -14.4179      0.5194033
       924.5000         0.9186        -999.25        -999.25        -999.25         1.3372         1.0916       -75.9935      -15.14368      0.4952107
       925.0000         0.9195        -999.25        -999.25        -999.25         1.3165         1.0933       -76.2998        -15.641      0.4786332
       925.5000          0.914        -999.25        -999.25        -999.25         1.2995         1.0987       -76.5762      -16.08979      0.4636735
       926.0000         0.9052        -999.25        -999.25        -999.25         1.2763         1.1071       -76.4531      -15.88992       0.470336
       926.5000         0.8953        -999.25        -999.25        -999.25         1.2626         1.1213       -75.7051      -14.67541      0.5108196
       927.0000         0.8969        -999.25        -999.25        -999.25         1.2684          1.135       -75.0496       -13.6111      0.5462968
       927.5000         0.9015        -999.25        -999.25        -999.25         1.2849         1.1421       -74.9114      -13.38671      0.5537765
       928.0000         0.9051        -999.25        -999.25        -999.25          1.295         1.1389       -75.0996      -13.69228      0.5435905
       928.5000         0.8986        -999.25        -999.25        -999.25         1.2962         1.1292       -75.3662      -14.12516      0.5291614
       929.0000         0.8888        -999.25        -999.25        -999.25         1.2856         1.1166       -75.6613       -14.6043      0.5131901
       929.5000         0.8906        -999.25        -999.25        -999.25         1.2902         1.1078       -76.1417      -15.38431      0.4871898
       930.0000         0.8992        -999.25        -999.25        -999.25         1.3063         1.1031       -77.3289      -17.31193      0.4229357
       930.5000         0.9022        -999.25        -999.25        -999.25         1.3313         1.0924       -78.0219      -18.43712      0.3854293
       931.0000         0.9002        -999.25        -999.25        -999.25         1.3461         1.0763       -77.8263      -18.11954      0.3960153
       931.5000         0.9013        -999.25        -999.25        -999.25         1.3625         1.0625       -77.4292      -17.47478      0.4175074
       932.0000         0.9047        -999.25        -999.25        -999.25         1.3674         1.0576       -77.2458      -17.17699      0.4274336
       932.5000         0.9047        -999.25        -999.25        -999.25         1.3402          1.061       -77.1143      -16.96349      0.4345502
       933.0000         0.9021        -999.25        -999.25        -999.25         1.3252         1.0752       -77.2791      -17.23107      0.4256311
       933.5000         0.8995        -999.25        -999.25        -999.25         1.3263         1.0837       -77.6429      -17.82175      0.4059415
       934.0000         0.8979        -999.25        -999.25        -999.25         1.3158         1.0928       -78.4105      -19.06808      0.3643972
       934.5000         0.8967        -999.25        -999.25        -999.25          1.324         1.1007       -78.7456      -19.61217      0.3462609
       935.0000         0.8961        -999.25        -999.25        -999.25         1.3435         1.1061       -78.2356      -18.78411       0.373863
       935.5000         0.8961        -999.25        -999.25        -999.25         1.3392         1.1099       -77.4712      -17.54297      0.4152342
       936.0000         0.8974        -999.25        -999.25        -999.25         1.3176         1.1121       -77.3906      -17.41211      0.4195963
       936.5000         0.9076        -999.25        -999.25        -999.25         1.2607         1.1268       -77.2172      -17.13056      0.4289812
       937.0000         0.9221        -999.25        -999.25        -999.25         1.2386         1.1407       -76.8201       -16.4858      0.4504733
       937.5000         0.9319        -999.25        -999.25        -999.25         1.2437         1.1516        -76.199      -15.47734      0.4840887
       938.0000         0.9384        -999.25        -999.25        -999.25         1.2638         1.1537       -75.3607      -14.11623      0.5294592
       938.5000         0.9447        -999.25        -999.25        -999.25         1.2683         1.1507       -75.2395      -13.91944      0.5360188
       939.0000         0.9509        -999.25        -999.25        -999.25         1.2615         1.1621       -74.9768      -13.49289      0.5502369
       939.5000         0.9582        -999.25        -999.25        -999.25         1.2587         1.1777       -74.5327      -12.77182      0.5742726
       940.0000         0.9672        -999.25        -999.25        -999.25         1.2611         1.1939       -73.8948      -11.73608      0.6087973
       940.5000         0.9843        -999.25        -999.25        -999.25         1.2634         1.2074       -73.0383      -10.34541      0.6551529
       941.0000         1.0122        -999.25        -999.25        -999.25         1.2762         1.2147       -71.9908      -8.644618      0.7118461
       941.5000         1.0435        -999.25        -999.25        -999.25         1.3026         1.2159       -71.1825      -7.332213      0.7555929
       942.0000         1.0821        -999.25        -999.25        -999.25         1.3471         1.2103       -70.9446      -6.945942      0.7684686
       942.5000         1.1293        -999.25        -999.25        -999.25         1.4131         1.1862       -70.9481      -6.951616      0.7682794
       943.0000         1.1649        -999.25        -999.25        -999.25          1.484         1.1632       -70.4711      -6.177131      0.7940956
       943.5000         1.1927        -999.25        -999.25        -999.25         1.5528         1.1475       -69.4126      -4.458474      0.8513842
       944.0000         1.2175        -999.25        -999.25        -999.25         1.6103         1.1502       -67.8613      -1.939677      0.9353441
       944.5000         1.2362        -999.25        -999.25        -999.25         1.6663         1.1475       -67.7281      -1.723414      0.9425529
       945.0000         1.2449        -999.25        -999.25        -999.25         1.7235         1.1439       -67.5675      -1.462642      0.9512452
