#------------------------------------------------------------------------------
# Created by    : vladimir.rabinovich
# Created on    : 09/19/2023 17:21:20
#------------------------------------------------------------------------------
~Version Information Section
VERS.           2.0     :   CWLS log ASCII Standard - VERSION 2.0
WRAP.           NO      :   One line per depth step
~Well Information Section
#MNEM       .UNIT                                         VALUE :DESCRIPTION
#------------------------------------------------------------------------------
STRT        .FT                                            6712 :START DEPTH
STOP        .FT                                           10254 :STOP DEPTH
STEP        .FT                                             0.5 :STEP      
NULL        .                                           -999.25 :NULL      
COMP        .                                SHELL OFFSHORE INC :COMPANY   
WELL        .                               OCS G17145 ST00BP00 :WELL      
FLD         .                                           WILDCAT :FIELD     
LOC         .                                                   :LOCATION  
CNTY        .                           HIGH ISLAND LARGE BLOCK :LOCATION  
STAT        .                                             TEXAS :STATE     
CTRY        .                                     UNITED STATES :COUNTRY   
SRVC        .                                                   :SERVICE COMPANY
DATE        .                             9/13/2023 11:19:48 AM :LOG DATE  
API         .                                    42708404610000 :API NUMBER
UWI         .                                    42708404610000 :UNIQUE WELL ID
XCOORD      .                                  1236256.25309123 :SURFACE X 
YCOORD      .                                  10648843.7308139 :SURFACE Y 
LAT         .                                         29.336637 :LATITUDE  
LON         .                                        -94.268822 :LONGITUDE 
ELEV        .FT                                             110 :ELEVATION VALUE
ELEV_TYPE   .                                                KB :ELEVATION REFERENCE TYPE
~Curve Information Section
#MNEM       .UNIT                                      API CODE :CURVE DESCRIPTION
#------------------------------------------------------------------------------
DEPT        .FT                                                 :DEPTH     
CALI        .IN                                                 :          
CPCHM       .MMHO                                               :          
CPCM        .MMHO                                               :          
DFL         .OHMM                                               :          
DPHI        .%                                                  :          
DRHO        .G/C3                                               :          
DT          .US/F                                               :          
GR          .GAPI                                               :          
GR_NORM     .GAPI                                               :GammaRay Normalized
GRAM        .GAPI                                               :          
HDCN        .MMHO                                               :          
HDRS        .OHMM                                               :          
HMRS        .OHMM                                               :          
NPHI        .%                                                  :          
PE          .G/C3                                               :          
RACHM       .OHMM                                               :          
RACM        .OHMM                                               :          
RHOB        .G/C3                                               :          
ROPS        .F/HR                                               :          
RPCHM       .OHMM                                               :          
RPCM        .OHMM                                               :          
RPTHM       .MINS                                               :          
RPTM        .MINS                                               :          
SP01        .MV                                                 :          
TENS        .LBS                                                :          
VSH_GR      .V/V                                                :Volume of Shale from GR
~A        DEPTH           CALI          CPCHM           CPCM            DFL           DPHI           DRHO             DT             GR        GR_NORM           GRAM           HDCN           HDRS           HMRS           NPHI             PE          RACHM           RACM           RHOB           ROPS          RPCHM           RPCM          RPTHM           RPTM           SP01           TENS         VSH_GR
# ...
     10102.0000         8.9042       2143.438        -999.25         0.5849        18.8556        -0.0182       124.7749         67.859       68.78555        77.2119       1879.461         0.5321         0.5488        36.2267         6.9129          0.486        -999.25         2.3389         27.882          0.467        -999.25       115.9207        -999.25       473.8755        4695.25      0.7613947
     10102.5000         8.9367       1786.645        -999.25         0.5876        18.7372        -0.0179       127.4421        68.4052       67.60554         76.163       1887.246         0.5299         0.5514        35.8506         6.7989          0.509        -999.25         2.3408         26.537           0.56        -999.25       116.6694        -999.25       473.6743       4667.766       0.736288
     10103.0000         9.0099       1867.361        -999.25         0.5835        19.0446        -0.0207       129.3594        66.2675       68.41891         76.886       1920.492         0.5207         0.5387        35.1927         6.6321          0.514        -999.25         2.3358         26.537          0.536        -999.25       117.2788        -999.25       473.6377       4613.414      0.7535939
     10103.5000         9.0018       2062.137        -999.25         0.5674        18.9837        -0.0153       126.8328        64.5511       70.28405        78.5439       1972.781         0.5069         0.5152        36.8779         6.3709          0.496        -999.25         2.3368         27.905          0.485        -999.25       117.7749        -999.25       473.6958       4566.984      0.7932777
     10104.0000         9.0181       2133.141        -999.25         0.6117        19.7612        -0.0234       122.1078        61.9298       71.06154         79.235        2036.18         0.4911         0.4923           37.6         6.9731           0.48        -999.25         2.3239         27.905          0.469        -999.25         118.27        -999.25       473.9111       4535.227        0.80982
     10104.5000         9.0262       2143.273        -999.25         0.5203         18.299        -0.0216       122.7562        61.1808       72.82442         80.802       2085.215         0.4796         0.4813        37.2352         6.8737          0.471        -999.25         2.3481         21.798          0.467        -999.25       118.7286        -999.25       474.1885       4513.891       0.847328
     10105.0000         8.9855        2185.68        -999.25         0.6202         17.446        -0.0205       128.6748        60.8843       74.85279         82.605       2106.898         0.4746         0.4802        36.3472         7.3872          0.468        -999.25         2.3621         21.798          0.458        -999.25       119.1724        -999.25        474.269       4505.039      0.8904849
     10105.5000         9.0099        2167.07        -999.25         0.5454        17.5527        -0.0178        128.239        59.5425       75.46468        83.1489       2182.258         0.4582          0.473        36.4903         7.1005          0.461        -999.25         2.3604         22.149          0.461        -999.25       119.5883        -999.25       474.3569       4500.594      0.9035037
     10106.0000          8.953       2288.465        -999.25         0.5381        17.9508        -0.0203       128.3545        60.6659       74.50954        82.2999       2289.656         0.4367         0.4589        37.6287         7.5395           0.45        -999.25         2.3538         22.149          0.437        -999.25       119.5786        -999.25        474.417       4522.203      0.8831818
     10106.5000          8.896       2420.902        -999.25         0.4901        19.7603        -0.0286       128.0828        62.1638        74.4938        82.2859       2364.895         0.4229          0.449        36.5897         7.2633          0.444        -999.25          2.324         25.952          0.413        -999.25       119.4962        -999.25       474.2476       4568.922      0.8828468
     10107.0000         9.0262       2221.516        -999.25         0.4836        20.7883        -0.0331       125.2953          62.71        72.4058        80.4299       2387.406         0.4189         0.4478        35.1915         7.7897          0.458        -999.25          2.307         25.952          0.451        -999.25       118.9636        -999.25       474.0571       4613.273      0.8384213
     10107.5000          9.075       2031.965        -999.25         0.4881        20.5596        -0.0371        119.639        64.4575       70.13893        78.4149       2379.031         0.4203          0.451         35.231         7.9812          0.472        -999.25         2.3108         11.696          0.492        -999.25       118.4114        -999.25       473.9824       4670.039        0.79019
     10108.0000         9.1238       2107.629        -999.25         0.4971        20.4517        -0.0381       118.6281        65.5966       69.32555        77.6919       2363.484         0.4231         0.4536        36.5594         8.1176          0.475        -999.25         2.3125         11.696          0.475        -999.25       117.8114        -999.25       473.8789       4709.867      0.7728841
     10108.5000         9.0994        2132.75        -999.25         0.4898        19.8647        -0.0359       127.0515        64.4888       69.71941         78.042       2352.172         0.4251         0.4535        36.9999         7.9228          0.469        -999.25         2.3222         19.479          0.469        -999.25       117.2329        -999.25       473.6245       4717.805      0.7812641
     10109.0000          9.132       2154.773        -999.25         0.4896        19.4616        -0.0323       132.5952         65.066       71.12116         79.288       2346.559         0.4262         0.4507        37.9067         7.9553          0.459        -999.25         2.3289         19.479          0.464        -999.25       116.9236        -999.25       473.4229       4692.242      0.8110886
     10109.5000         9.1483       2277.223        -999.25         0.5002        20.2288        -0.0328       129.1279        66.1271       72.71855        80.7079       2337.637         0.4278         0.4479        37.9514         7.8056          0.447        -999.25         2.3162         17.458          0.439        -999.25       116.6138        -999.25       473.2939        4628.82      0.8450755
     10110.0000         9.1808       2345.813        -999.25         0.5008        20.1372         -0.024       126.4171        67.3754       72.53754         80.547         2321.5         0.4308         0.4478        38.3231         7.7108          0.438        -999.25         2.3177         17.458          0.426        -999.25       116.4427        -999.25       473.3857       4545.609      0.8412242
     10110.5000         9.1971       2344.109        -999.25            0.5        19.0832        -0.0189       128.0139        67.2037       72.47667        80.4929       2284.105         0.4378          0.453        37.5226         7.7313          0.437        -999.25         2.3351         19.887          0.427        -999.25       116.3379        -999.25       473.5171       4458.344      0.8399292
     10111.0000         9.0913       2307.605        -999.25         0.5009        19.3485          -0.02        128.989        67.2194        72.4598        80.4779       2213.703         0.4517         0.4652         37.037         7.5397          0.439        -999.25         2.3307         19.887          0.433        -999.25       116.2039        -999.25       473.6797       4373.586      0.8395702
     10111.5000         9.0994       2280.953        -999.25         0.5558        18.7652        -0.0181       129.6904        64.4106       73.51955        81.4199       2134.105         0.4686         0.4797        37.6332         7.2238          0.438        -999.25         2.3404         21.095          0.438        -999.25       115.9084        -999.25       474.0137       4316.523       0.862118
