#------------------------------------------------------------------------------
# Created by    : vladimir.rabinovich
# Created on    : 09/19/2023 17:20:18
#------------------------------------------------------------------------------
~Version Information Section
VERS.           2.0     :   CWLS log ASCII Standard - VERSION 2.0
WRAP.           NO      :   One line per depth step
~Well Information Section
#MNEM       .UNIT                                         VALUE :DESCRIPTION
#------------------------------------------------------------------------------
STRT        .FT                                             780 :START DEPTH
STOP        .FT                                            9803 :STOP DEPTH
STEP        .FT                                             0.5 :STEP      
NULL        .                                           -999.25 :NULL      
COMP        .                                  SAMEDAN OIL CORP :COMPANY   
WELL        .                               OCS G04076 ST00BP00 :WELL      
FLD         .                            HIGH ISLAND BLOCK 0105 :FIELD     
LOC         .                                                   :LOCATION  
CNTY        .                           HIGH ISLAND LARGE BLOCK :LOCATION  
STAT        .                                             TEXAS :STATE     
CTRY        .                                     UNITED STATES :COUNTRY   
SRVC        .                                                   :SERVICE COMPANY
DATE        .                             9/13/2023 11:19:59 AM :LOG DATE  
API         .                                    42708401630000 :API NUMBER
UWI         .                                    42708401630000 :UNIQUE WELL ID
XCOORD      .                                  1167393.84075462 :SURFACE X 
YCOORD      .                                  10652000.2522841 :SURFACE Y 
LAT         .                                        29.3430877 :LATITUDE  
LON         .                                       -94.4850788 :LONGITUDE 
ELEV        .FT                                              87 :ELEVATION VALUE
ELEV_TYPE   .                                                KB :ELEVATION REFERENCE TYPE
~Curve Information Section
#MNEM       .UNIT                                      API CODE :CURVE DESCRIPTION
#------------------------------------------------------------------------------
DEPT        .FT                                                 :DEPTH     
ASFL        .OHMM                                               :          
CILD        .MMHO                                               :          
DT          .US/F                                               :          
GR          .GAPI                                               :          
GR_1        .GAPI                                               :          
GR_NORM     .GAPI                                               :GammaRay Normalized
ILD         .OHMM                                               :          
SP          .MV                                                 :          
SP_NORM     .MV                                                 :SP Normalized
VSH_GR      .V/V                                                :Volume of Shale from GR
VSH_SP      .V/V                                                :Volume of Shale from SP
~A        DEPTH           ASFL           CILD             DT             GR           GR_1        GR_NORM            ILD             SP        SP_NORM         VSH_GR         VSH_SP
# ...
      8587.5000         0.9245       3301.223       104.8666        50.2247        49.7108       71.72453         0.2862      -110.5598      -60.20226      0.8239262      0.1999695
      8588.0000         0.9095       3239.883       103.8783        51.3062        50.3896       72.79297         0.2935      -107.2157       -56.8006      0.8466589      0.2459378
      8588.5000         0.8622       3177.223       102.4801        52.8542        51.0562       73.84479         0.3013      -101.5262      -51.05355       0.869038      0.3236007
      8589.0000         0.8171       3106.242       103.4598        51.8035        51.7241       74.89837         0.3091       -95.6171       -45.0869      0.8914546      0.4042311
      8589.5000         0.7868        3013.23       105.7906        50.6151        52.3834       75.94023         0.3245       -91.7639      -41.17614       0.913622      0.4570792
      8590.0000          0.765       2897.113       109.7052        50.8088        53.0378        76.9754         0.3492       -87.9108      -37.26548      0.9356467       0.509926
      8590.5000         0.7422       2659.785       111.3956         52.408        55.1622       80.01608         0.3746       -83.7157      -33.01283              1      0.5673942
      8591.0000         0.7262       2482.578       109.6566        53.9414        58.1528       84.23855         0.4005        -79.296      -28.53557              1      0.6278977
      8591.5000         0.6879       2384.082       107.6776        55.9233        57.7993       83.89861         0.4265       -76.0239      -25.20592              1      0.6728929
      8592.0000          0.644       2340.219       106.4419        58.3489        56.9105       82.82836         0.4352        -75.472      -24.59647              1      0.6811289
      8592.5000         0.6585       2306.906       106.2512         59.399        56.0229       81.75977         0.4317       -76.2656      -25.33251              1      0.6711823
      8593.0000         0.6827       2292.832       106.3661        58.3611        55.1353       80.69119         0.4282       -78.4658      -27.47515              1      0.6422276
      8593.5000         0.7429       2294.254       106.8802         55.231        53.7679         78.968         0.4235       -83.3787       -32.3305      0.9780426      0.5766149
      8594.0000          0.827       2353.926       106.4928        51.5402        52.3126       77.12489         0.4164       -86.2209      -35.11515      0.9388273      0.5389845
      8594.5000         0.8415       2477.289         105.73         49.529        50.8621       75.28831         0.4093       -89.9325       -38.7692      0.8997514      0.4896055
      8595.0000         0.8452       2561.539       104.5441        51.7791        49.4239       73.46855         0.4022       -92.8627      -41.64184       0.861033       0.450786
      8595.5000         0.8397       2606.918       103.6454        57.2203        51.3236       76.20268         0.3951       -96.6378      -45.35938       0.919206      0.4005489
      8596.0000         0.8302       2624.895       102.8136        59.5557        54.8057        81.0957         0.3866       -99.5558      -48.21983              1      0.3618942
      8596.5000          0.818       2636.449       101.9695        60.6234        57.4135       84.79589         0.3862       -96.7697      -45.37617              1       0.400322
      8597.0000         0.8057       2578.523       100.7423        59.6751        59.8065       88.20302         0.4097       -92.5844      -41.13332              1      0.4576579
      8597.5000         0.8045       2511.656        99.6703        57.2763         61.401       90.52077         0.4331       -88.9949      -37.48627              1      0.5069423
      8598.0000         0.8044       2444.785        98.7777        56.6226        62.7733       92.53537         0.4566       -86.4945      -34.92831              1      0.5415094
      8598.5000         0.8022       2377.914        98.6064        57.3177         62.632       92.48495         0.4797       -83.9891      -32.36535              1      0.5761439
      8599.0000         0.7985       2248.188       101.1825        58.9657        62.3118       92.19047         0.5029       -81.5132       -29.8319              1      0.6103798
      8599.5000         0.7736       2105.832        107.207        60.3772        61.4865       91.20686         0.5261       -79.1543      -27.41544              1      0.6430346
      8600.0000         0.7432       2009.102       110.1466        60.4247        60.6611       90.22314         0.5493       -76.7955      -24.99909              1       0.675688
      8600.5000         0.7217       1727.621       110.9178        59.4752        59.5831       88.89478         0.5829       -72.4686      -20.61463              1      0.7349374
      8601.0000         0.7132       1652.428       107.5127         58.871        58.4952       87.55291         0.5981       -66.3251      -14.41359              1      0.8187353
      8601.5000         0.7047       1591.629       104.4834        58.7926        57.1278       85.82973          0.617       -62.2521      -10.28303              1      0.8745537
      8602.0000         0.7058       1554.229       102.1963        56.4158        55.6774       83.99331         0.6366       -59.9568      -7.930168              1      0.9063491
      8602.5000         0.7256       1516.828       102.2363        52.5762        53.9608        81.7937         0.6562       -58.2134      -6.129219              1      0.9306862
      8603.0000         0.7566       1482.854       102.5851        50.7698        52.5714        80.0405         0.6758       -56.9607      -4.818962              1      0.9483924
      8603.5000         0.7691       1449.566       102.1769        51.3866        51.8145       79.15023         0.6954       -55.7105      -3.511208      0.9819198      0.9660648
      8604.0000         0.7816       1407.906       101.9447        52.7469        52.6044       80.37025          0.715       -55.0878      -2.830952              1      0.9752574
      8604.5000         0.7893       1363.996       102.3455        53.9536        53.3967       81.59355         0.7346        -54.492      -2.177597              1      0.9840865
      8605.0000         0.7943       1339.471       102.9821        53.7305        54.1927       82.82189         0.7502       -54.0406      -1.668644              1      0.9909643
      8605.5000         0.7964       1314.945       104.5294        53.1016        55.0486       84.13196         0.7622        -54.195      -1.765488              1      0.9896556
      8606.0000          0.795       1316.512       105.8949        52.6348        55.9057        85.4437         0.7742       -54.4639      -1.976833              1      0.9867995
      8606.5000         0.7935       1320.098       106.6796        52.5173        56.7615       86.75362         0.7861       -55.1647      -2.620079              1       0.978107
      8607.0000         0.7921       1323.682       107.8789        52.4031        57.6187       88.06544         0.7981       -55.8655      -3.263325              1      0.9694145
      8607.5000         0.7906       1327.275       105.9265        52.1716        58.3622       89.22219           0.81       -56.6591      -3.999371              1      0.9594679
      8608.0000         0.7916       1330.861       101.9294        51.4086         57.582       88.30011         0.8171       -57.5748      -4.857513              1      0.9478714
      8608.5000         0.7949       1334.445       104.2094        48.5612        54.8887       84.76798         0.8159       -58.4905       -5.71566              1      0.9362749
      8609.0000         0.7983       1338.039       105.5554        47.3198         52.061       81.05251         0.8147       -59.1211      -6.288708              1       0.928531
      8609.5000         0.8042       1341.623       104.2966        46.8858        49.3946        77.5571         0.8134       -59.4141      -6.524151      0.9480234      0.9253493
