#------------------------------------------------------------------------------
# Created by    : vladimir.rabinovich
# Created on    : 09/19/2023 17:22:21
#------------------------------------------------------------------------------
~Version Information Section
VERS.           2.0     :   CWLS log ASCII Standard - VERSION 2.0
WRAP.           NO      :   One line per depth step
~Well Information Section
#MNEM       .UNIT                                         VALUE :DESCRIPTION
#------------------------------------------------------------------------------
STRT        .FT                                            2180 :START DEPTH
STOP        .FT                                            6738 :STOP DEPTH
STEP        .FT                                             0.5 :STEP      
NULL        .                                           -999.25 :NULL      
COMP        .                          SEAGULL ENERGY E & P INC :COMPANY   
WELL        .                               OCS G08131 ST00BP00 :WELL      
FLD         .                              GALVESTON BLOCK 0384 :FIELD     
LOC         .                                                   :LOCATION  
CNTY        .                             GALVESTON LARGE BLOCK :LOCATION  
STAT        .                                             TEXAS :STATE     
CTRY        .                                     UNITED STATES :COUNTRY   
SRVC        .                                                   :SERVICE COMPANY
DATE        .                             9/13/2023 11:19:36 AM :LOG DATE  
API         .                                    42706401890000 :API NUMBER
UWI         .                                    42706401890000 :UNIQUE WELL ID
XCOORD      .                                  986765.057424596 :SURFACE X 
YCOORD      .                                  10402321.6077632 :SURFACE Y 
LAT         .                                          28.64909 :LATITUDE  
LON         .                                        -95.038398 :LONGITUDE 
ELEV        .FT                                             100 :ELEVATION VALUE
ELEV_TYPE   .                                                KB :ELEVATION REFERENCE TYPE
~Curve Information Section
#MNEM       .UNIT                                      API CODE :CURVE DESCRIPTION
#------------------------------------------------------------------------------
DEPT        .FT                                                 :DEPTH     
CALN        .IN                                                 :          
DRHO        .G/CM3                                              :          
GR          .GAPI                                               :          
GR_NORM     .GAPI                                               :GammaRay Normalized
ILD         .OHMM                                               :          
ILM         .OHMM                                               :          
NPSS        .V/V                                                :Neutron Porosity Sandstone
RHOB        .G/CM3                                              :          
SFL         .OHMM                                               :          
SP          .MV                                                 :          
SP_NORM     .MV                                                 :SP Normalized
TENN        .LB                                                 :          
VSH_GR      .V/V                                                :Volume of Shale from GR
VSH_SP      .V/V                                                :Volume of Shale from SP
~A        DEPTH           CALN           DRHO             GR        GR_NORM            ILD            ILM           NPSS           RHOB            SFL             SP        SP_NORM           TENN         VSH_GR         VSH_SP
# ...
      4916.0000          11.24         -0.001          106.4       88.40897         0.9087         0.9174          0.537         2.1776         0.9174           -3.2      -1.258252       2547.923              1       0.982025
      4916.5000          11.22         -0.002          103.8       86.06816         0.9087         0.9174         0.5058         2.1714         0.9174           -3.4      -1.458252       2549.372              1      0.9791678
      4917.0000          11.22         -0.002          100.6       83.18734         0.9087         0.9174         0.4926         2.1704         0.9442           -3.6      -1.658252       2550.817              1      0.9763107
      4917.5000          11.22         -0.002        97.8431       80.70531         0.9087         0.9262         0.5004         2.1714         0.9624           -3.6      -1.658252        2552.26              1      0.9763107
      4918.0000          11.22         -0.001        98.0392       80.88099         0.9174         0.9352         0.5118         2.1735         0.9352           -3.8      -1.858252       2553.699              1      0.9734535
      4918.5000          11.24              0            101        83.5449         0.9174         0.9352         0.5124         2.1755         0.9087           -3.6      -1.658252       2555.136              1      0.9763107
      4919.0000          11.22              0          101.2       83.72408         0.9174         0.9532         0.5106         2.1796         0.9352           -3.6      -1.658252        2556.57              1      0.9763107
      4919.5000          11.12         -0.001        99.8039       82.46677         0.9624         0.9717           0.51         2.1847         0.9717             -4      -2.058252       2558.001              1      0.9705964
      4920.0000          11.06         -0.002        99.0196       81.76009          0.981          0.981          0.504         2.1939         1.0187             -4      -2.058252       2559.429              1      0.9705964
      4920.5000        11.0806         -0.001        97.6471       80.52402              1         1.0187         0.4896         2.2041         1.0281             -4      -2.058252           2640              1      0.9705964
      4921.0000        11.0816          0.001         94.902       78.05261         1.0093         1.0281         0.4794         2.2112         1.0187             -4      -2.058252           2680      0.9585662      0.9705964
      4921.5000        11.0425          0.001        92.1569        75.5812         1.0093         1.0281         0.4794         2.2143          0.981             -4      -2.058252           2680       0.905983      0.9705964
      4922.0000        10.9838          0.002        91.1765       74.69803         1.0093         1.0281         0.4776         2.2102          0.981             -4      -2.058252           2640      0.8871921      0.9705964
      4922.5000        10.9257          0.001        92.9412       76.28544         1.0093         1.0281         0.4654         2.2041          0.981             -4      -2.058252           2600      0.9209668      0.9705964
      4923.0000        10.9266         -0.001        96.0784        79.1081         1.0093         1.0281          0.451          2.202         1.0187           -4.2      -2.258252           2600      0.9810234      0.9677393
      4923.5000        10.8684         -0.002        98.4314       81.22498         1.0093         1.0187         0.4443         2.2041         1.0473           -4.4      -2.458252           2600              1      0.9648821
      4924.0000        10.8693         -0.002        99.6078       82.28294              1         1.0187         0.4688         2.2061         1.0867           -4.4      -2.458252           2600              1      0.9648821
      4924.5000         10.969         -0.001            100        82.6351         0.9905         1.0093         0.4833         2.2051         1.0867           -4.4      -2.458252           2640              1      0.9648821
      4925.0000        11.0296         -0.001            100       82.63428          0.981         1.0093         0.4869          2.202         1.0473             -4      -2.058252           2640              1      0.9705964
      4925.5000        11.1306          0.001        99.6078       82.28049          0.981         1.0093         0.4827          2.198              1           -3.8      -1.858252           2680              1      0.9734535
      4926.0000        11.1316          0.005        99.0196       81.75029         0.9717         1.0093         0.4845          2.198         0.9532           -3.6      -1.658252           2680              1      0.9763107
      4926.5000        11.0525          0.005        99.2157       81.92596         0.9717         1.0093         0.4868            2.2         0.9262           -3.6      -1.658252           2640              1      0.9763107
      4927.0000        10.9737          0.007            100       82.63101         0.9624              1         0.4826          2.198         0.9352           -3.6      -1.658252           2640              1      0.9763107
      4927.5000        10.9349          0.002            101        83.5302         0.9624              1         0.4744         2.1929         0.9442           -3.6      -1.658252           2640              1      0.9763107
      4928.0000        10.9358         -0.001          101.4       83.88938         0.9532         0.9905         0.4645         2.1878         0.9532           -3.6      -1.658252           2640              1      0.9763107
      4928.5000        10.9767         -0.002            101       83.52856         0.9532         0.9905         0.4553         2.1867         0.9624           -3.6      -1.658252           2600              1      0.9763107
      4929.0000        11.0176        -0.0029          100.2       82.80774         0.9442          0.981         0.4501         2.1867         0.9624           -3.6      -1.658252           2600              1      0.9763107
      4929.5000        11.0986         -0.001        99.2157       81.92107         0.9352          0.981         0.4445         2.1867         0.9532           -3.6      -1.658252           2600              1      0.9763107
      4930.0000        11.1196          0.001        97.6471       80.50851         0.9352         0.9717         0.4482         2.1867         0.9532           -3.6      -1.658252           2600              1      0.9763107
      4930.5000          11.12          0.001        95.4902       78.56647         0.9442         0.9717         0.4604         2.1867         0.9532           -3.6      -1.658252       2678.728      0.9694995      0.9763107
      4931.0000          11.16          0.001        95.6863       78.74216         0.9532         0.9717         0.4713         2.1878         0.9352             -4      -2.058252       2716.816      0.9732374      0.9705964
      4931.5000          11.26              0        97.8431       80.68246         0.9624         0.9717         0.4725         2.1918         0.9174             -4      -2.058252       2714.911              1      0.9705964
      4932.0000          11.28        -0.0039        99.2157       81.91698         0.9717         0.9905         0.4696         2.1918         0.9442           -4.2      -2.258252       2672.634              1      0.9677393
      4932.5000          11.22        -0.0088        98.0392       80.85732         0.9717         0.9905         0.4702         2.1908         0.9717           -4.2      -2.258252       2630.737              1      0.9677393
      4933.0000          11.06        -0.0118        95.4902       78.56239         0.9905              1         0.4713         2.1898         0.9905             -4      -2.058252       2628.833      0.9694126      0.9705964
      4933.5000             11        -0.0088        92.1569       75.56161         0.9905         1.0093         0.4587         2.1959              1             -4      -2.058252       2626.928      0.9055661      0.9705964
