#------------------------------------------------------------------------------
# Created by    : vladimir.rabinovich
# Created on    : 09/19/2023 17:20:36
#------------------------------------------------------------------------------
~Version Information Section
VERS.           2.0     :   CWLS log ASCII Standard - VERSION 2.0
WRAP.           NO      :   One line per depth step
~Well Information Section
#MNEM       .UNIT                                         VALUE :DESCRIPTION
#------------------------------------------------------------------------------
STRT        .FT                                             504 :START DEPTH
STOP        .FT                                            9762 :STOP DEPTH
STEP        .FT                                             0.5 :STEP      
NULL        .                                           -999.25 :NULL      
COMP        .                                      SHELL OIL CO :COMPANY   
WELL        .                                OCS 00703 ST00BP00 :WELL      
FLD         .                                           WILDCAT :FIELD     
LOC         .                                                   :LOCATION  
CNTY        .                             GALVESTON LARGE BLOCK :LOCATION  
STAT        .                                             TEXAS :STATE     
CTRY        .                                     UNITED STATES :COUNTRY   
SRVC        .                                                   :SERVICE COMPANY
DATE        .                             9/13/2023 11:19:25 AM :LOG DATE  
API         .                                    42706000420000 :API NUMBER
UWI         .                                    42706000420000 :UNIQUE WELL ID
XCOORD      .                                  1132503.99790541 :SURFACE X 
YCOORD      .                                  10523078.0194322 :SURFACE Y 
LAT         .                                         28.987276 :LATITUDE  
LON         .                                        -94.589113 :LONGITUDE 
ELEV        .FT                                              83 :ELEVATION VALUE
ELEV_TYPE   .                                                KB :ELEVATION REFERENCE TYPE
~Curve Information Section
#MNEM       .UNIT                                      API CODE :CURVE DESCRIPTION
#------------------------------------------------------------------------------
DEPT        .FT                                                 :DEPTH     
ASN         .OHMM                                               :          
CILD        .MMHO                                               :          
DT          .US/F                                               :          
ILD         .OHMM                                               :          
LAT         .OHMM                                               :          
LN          .OHMM                                               :          
SP          .MV                                                 :          
SP_NORM     .MV                                                 :SP Normalized
VSH_SP      .V/V                                                :Volume of Shale from SP
~A        DEPTH            ASN           CILD             DT            ILD            LAT             LN             SP        SP_NORM         VSH_SP
# ...
      2968.5000         0.8301        -999.25         169.23        -999.25         0.6026         1.0196       -45.4158     -0.6934738              1
      2969.0000         0.8376        -999.25       168.4606        -999.25         0.6081         1.0217       -45.5983     -0.8774834              1
      2969.5000          0.845        -999.25       167.6913        -999.25         0.6136         1.0247       -45.7808      -1.061489              1
      2970.0000         0.8527        -999.25       166.9219        -999.25         0.6191         1.0277       -45.9632      -1.245396              1
      2970.5000         0.8605        -999.25       166.1525        -999.25         0.6247         1.0306       -46.1616      -1.445305              1
      2971.0000          0.868        -999.25       165.3832        -999.25         0.6341         1.0336       -46.3812      -1.666412              1
      2971.5000         0.8755        -999.25       164.6138        -999.25         0.6454         1.0375       -46.6007      -1.887421              1
      2972.0000         0.8824        -999.25       163.8445        -999.25         0.6567         1.0418       -46.8203      -2.108528      0.9967113
      2972.5000         0.8861        -999.25       157.4196        -999.25          0.668         1.0461       -46.9919      -2.281635      0.9914656
      2973.0000         0.8898        -999.25       148.2997        -999.25         0.6792         1.0504       -47.1484       -2.43964      0.9866776
      2973.5000         0.8934        -999.25       143.8344        -999.25         0.6905         1.0571       -47.3049      -2.597649      0.9818894
      2974.0000         0.8966        -999.25       143.0089        -999.25         0.7018         1.0685       -47.4614      -2.755653      0.9771014
      2974.5000         0.8997        -999.25        142.764        -999.25         0.7113         1.0799       -47.4986      -2.794361      0.9759284
      2975.0000         0.9029        -999.25       142.7643        -999.25         0.7189         1.0913       -47.5187      -2.815968      0.9752737
      2975.5000         0.9054        -999.25       142.7646        -999.25         0.7264         1.1027       -47.4067      -2.705475       0.978622
      2976.0000          0.908        -999.25       142.8465        -999.25          0.734         1.1153       -47.1708      -2.471081      0.9857248
      2976.5000         0.9105        -999.25        142.964        -999.25         0.7415         1.1287       -46.9348      -2.236588      0.9928307
      2977.0000         0.9157        -999.25       143.0922        -999.25          0.749         1.1421       -46.7364      -2.039696      0.9987971
      2977.5000         0.9226        -999.25       143.2795        -999.25         0.7337         1.1555       -46.5541      -1.858902              1
      2978.0000         0.9343        -999.25       143.5012        -999.25         0.7179          1.169       -46.3719      -1.678211              1
      2978.5000         0.9483        -999.25       143.8282        -999.25         0.7022         1.1825       -46.1943      -1.502121              1
      2979.0000         0.9644        -999.25       144.1078        -999.25         0.6861           1.19       -46.0215      -1.330826              1
      2979.5000         0.9816        -999.25       144.5641        -999.25         0.6699         1.1796        -46.256      -1.566833              1
      2980.0000         0.9923        -999.25       144.8089        -999.25         0.6537         1.1692       -46.6673      -1.979641              1
      2980.5000         0.9986        -999.25       145.2261        -999.25         0.6436         1.1525       -47.0783      -2.392147      0.9881167
      2981.0000         1.0029        -999.25       145.7087        -999.25         0.6604         1.1353       -47.4895      -2.804852      0.9756106
      2981.5000         1.0058        -999.25       146.1991        -999.25         0.6772         1.1182       -48.0198      -3.336658      0.9594952
      2982.0000         0.9938        -999.25       146.8548        -999.25         0.6941          1.101       -48.5613      -3.879665      0.9430404
      2982.5000         0.9817        -999.25       147.5146        -999.25         0.7129         1.0847       -49.0484      -4.368275      0.9282341
      2983.0000          0.961        -999.25       148.1688        -999.25         0.7484         1.0693        -49.329      -4.650379      0.9196855
      2983.5000         0.9314        -999.25       148.9383        -999.25          0.784         1.0539        -49.417      -4.739887      0.9169731
      2984.0000         0.8485        -999.25       149.9675        -999.25         0.8195         1.0385       -49.4631      -4.787495      0.9155304
      2984.5000         0.8078        -999.25       150.9968        -999.25         0.8515         1.0231       -49.3098        -4.6357      0.9201303
      2985.0000         0.8242        -999.25        152.026        -999.25         0.8746         1.0063       -49.1564      -4.483807      0.9247332
      2985.5000         0.8505        -999.25       153.0552        -999.25         0.8977         0.9873       -49.0031      -4.332016      0.9293329
      2986.0000         0.8618        -999.25       154.0845        -999.25         0.9208         0.9829       -48.8519      -4.182323       0.933869
      2986.5000         0.8533        -999.25       155.1137        -999.25         0.9268         0.9786       -48.7043      -4.036232       0.938296
      2987.0000         0.8351        -999.25       156.1429        -999.25          0.929         0.9763       -48.5567      -3.890141       0.942723
      2987.5000         0.8143        -999.25       157.1722        -999.25         0.9311         0.9827       -48.4091      -3.744045      0.9471502
      2988.0000          0.798        -999.25       158.3758        -999.25         0.9333         0.9891       -48.2615      -3.597954      0.9515772
      2988.5000         0.7888        -999.25       156.8237        -999.25         0.9284         0.9959       -48.0986      -3.436558      0.9564679
      2989.0000         0.7963        -999.25       152.5904        -999.25         0.9162         1.0036       -47.9119      -3.251366      0.9620798
      2989.5000         0.8038        -999.25       147.7557        -999.25          0.904         1.0114       -47.7252      -3.066174      0.9676917
      2990.0000         0.8114        -999.25       147.3019        -999.25         0.8919         1.0178       -47.5386      -2.881081      0.9733006
      2990.5000         0.8179        -999.25       146.8267        -999.25         0.8797         1.0204       -47.3519      -2.695885      0.9789126
      2991.0000         0.8242        -999.25        146.575        -999.25          0.867          1.023       -47.1584      -2.503895      0.9847305
      2991.5000         0.8304        -999.25       146.2791        -999.25         0.8506         1.0245       -46.9538        -2.3008      0.9908848
      2992.0000         0.8365        -999.25       146.0412        -999.25         0.8342         1.0251       -46.7491      -2.097607      0.9970422
      2992.5000         0.8415        -999.25       145.9598        -999.25         0.8178         1.0256       -46.5444      -1.894413              1
      2993.0000         0.8464        -999.25       145.9478        -999.25         0.8013         1.0262       -46.3904       -1.74192              1
      2993.5000         0.8572        -999.25       145.8786        -999.25         0.7849         1.0267       -46.2742      -1.627232              1
      2994.0000         0.8674        -999.25       145.8789        -999.25          0.788         1.0276       -46.4033      -1.757839              1
      2994.5000         0.8641        -999.25       145.8615        -999.25         0.7931         1.0286       -46.7077      -2.063744      0.9980684
