#------------------------------------------------------------------------------
# Created by    : vladimir.rabinovich
# Created on    : 09/19/2023 17:22:43
#------------------------------------------------------------------------------
~Version Information Section
VERS.           2.0     :   CWLS log ASCII Standard - VERSION 2.0
WRAP.           NO      :   One line per depth step
~Well Information Section
#MNEM       .UNIT                                         VALUE :DESCRIPTION
#------------------------------------------------------------------------------
STRT        .FT                                            3600 :START DEPTH
STOP        .FT                                            7940 :STOP DEPTH
STEP        .FT                                             0.5 :STEP      
NULL        .                                           -999.25 :NULL      
COMP        .                          SEAGULL ENERGY E & P INC :COMPANY   
WELL        .                               OCS G09015 ST00BP00 :WELL      
FLD         .                                 BRAZOS BLOCK 0431 :FIELD     
LOC         .                                                   :LOCATION  
CNTY        .                                BRAZOS LARGE BLOCK :LOCATION  
STAT        .                                             TEXAS :STATE     
CTRY        .                                     UNITED STATES :COUNTRY   
SRVC        .                                                   :SERVICE COMPANY
DATE        .                             9/13/2023 11:09:51 AM :LOG DATE  
API         .                                    42704402370000 :API NUMBER
UWI         .                                    42704402370000 :UNIQUE WELL ID
XCOORD      .                                  876086.487249857 :SURFACE X 
YCOORD      .                                  10366258.6106956 :SURFACE Y 
LAT         .                                        28.5443209 :LATITUDE  
LON         .                                       -95.3810825 :LONGITUDE 
ELEV        .FT                                              90 :ELEVATION VALUE
ELEV_TYPE   .                                                KB :ELEVATION REFERENCE TYPE
~Curve Information Section
#MNEM       .UNIT                                      API CODE :CURVE DESCRIPTION
#------------------------------------------------------------------------------
DEPT        .FT                                                 :DEPTH     
DCAL        .IN                                                 :          
DPHI        .%                                                  :          
GR          .GAPI                                               :          
GR_NORM     .GAPI                                               :GammaRay Normalized
ILD         .OHMM                                               :          
ILM         .OHMM                                               :          
NPHI        .%                                                  :          
SGRD        .OHMM                                               :          
SP          .MV                                                 :          
SP_NORM     .MV                                                 :SP Normalized
VSH_GR      .V/V                                                :Volume of Shale from GR
VSH_SP      .V/V                                                :Volume of Shale from SP
~A        DEPTH           DCAL           DPHI             GR        GR_NORM            ILD            ILM           NPHI           SGRD             SP        SP_NORM         VSH_GR         VSH_SP
# ...
      7351.5000         0.1859        25.4593        77.3871       79.88964         1.2711         1.2779        37.9522         1.2605       -47.5585      -2.471794      0.9976519      0.9764103
      7352.0000         0.3402        26.5747        77.7275       80.26921         1.2521         1.2611        38.1245         1.3005       -47.1082      -2.023502              1      0.9988249
      7352.5000         0.4067        30.0736        78.0027         80.575         1.2334         1.2437        40.2474         1.3185       -46.7344       -1.68174              1              1
      7353.0000         0.4742        31.8695        78.5022       81.13462         1.2223         1.2313        42.3167         1.3108       -46.7522      -1.731571              1              1
      7353.5000         0.5208        33.2319        79.7139       82.50026         1.2241         1.2325        42.6725         1.2855       -46.9155      -1.926907              1              1
      7354.0000         0.5498        34.0475        80.9268       83.86727         1.2344         1.2398        42.5215         1.2403       -46.9037       -1.94714              1              1
      7354.5000         0.4603        33.4478        82.1984        85.3007         1.2474         1.2444        42.9011         1.1892       -46.3322      -1.407673              1              1
      7355.0000         0.2776        33.1927        83.3956       86.64994         1.2573         1.2456        43.3929          1.146       -46.0654      -1.172905              1              1
      7355.5000         0.0939        33.5969        81.3636       84.34458         1.2532         1.2467        43.3191         1.1518       -46.1877      -1.327236              1              1
      7356.0000         0.1101        33.6957        79.3683       82.08076         1.2377         1.2373        43.0283         1.2015         -46.31      -1.481575              1              1
      7356.5000         0.4234        34.5256        77.7053       80.19302         1.2171         1.2196        42.1983          1.265        -46.561      -1.764606              1              1
      7357.0000         0.6465        34.4169         77.975       80.49257         1.1974         1.2026        41.3172          1.292         -46.72      -1.955643              1              1
      7357.5000         0.6634        35.4307        78.4214        80.9921         1.1822         1.1915         40.584         1.2919       -46.5872      -1.854874              1              1
      7358.0000         0.6509        36.2183        80.4742       83.30964         1.1662         1.1737        40.3961          1.267       -46.6742      -1.973904              1              1
      7358.5000         0.9204        36.4194        80.7142       83.57559         1.1501         1.1521         41.266         1.2332       -46.9098      -2.241543              1      0.9879228
      7359.0000         1.0449        35.8433        80.0093       82.77216          1.123         1.1188        42.6989         1.2003       -46.7704      -2.134174              1      0.9932913
      7359.5000         1.1125         32.629        79.2809       81.94213         1.0741         1.0715         44.725          1.131       -46.1848      -1.580608              1              1
      7360.0000         1.2108        28.8311        79.4308       82.10609         1.0084         1.0115        46.0618         1.0475       -45.3683     -0.7961426              1              1
      7360.5000         1.4776         28.644        80.9958       83.87158         0.9436         0.9459        47.1501         1.0271       -44.9434     -0.4032784              1              1
      7361.0000          1.776        29.0958        82.5792       85.65791         0.8857          0.896        47.3925         1.0206       -44.9902     -0.4821091              1              1
      7361.5000         1.9901         29.825        82.9927       86.12019          0.848         0.8759        47.3394         1.0094       -44.9265     -0.4504395              1              1
      7362.0000         1.9392        30.6805         80.876       83.71897         0.8323         0.8663        47.1735         0.9795       -44.2989      0.1451225              1              1
      7362.5000         1.8298        31.0963        79.2926       81.92132         0.8258         0.8572        46.9146         0.9496       -43.2307        1.18129              1              1
      7363.0000         1.7201        31.0439        77.9531       80.39969         0.8279         0.8485        46.4784         0.9412       -42.7276       1.652355              1              1
      7363.5000         1.6478        30.6989        78.6313       81.16156         0.8313         0.8427        46.0159         0.9542       -42.9324       1.415524              1              1
      7364.0000         1.5777        29.7698        79.0298       81.60687         0.8394         0.8375        45.9347         0.9642       -43.1368       1.179089              1              1
      7364.5000         1.4877        29.7146        78.2062        80.6691         0.8447         0.8347        45.9758         0.9684       -43.3781      0.9057541              1              1
      7365.0000         1.4933        30.2679        77.5619       79.93425         0.8483          0.835        45.9608         0.9648       -43.6957      0.5561218      0.9986011              1
      7365.5000         1.6082        29.7762        76.5342        78.7655         0.8504          0.838         45.734         0.9603       -44.0139      0.2058868       0.973734              1
      7366.0000         1.7763        27.9915        75.8247       77.95686          0.853         0.8417        45.2311         0.9665       -44.3647     -0.1769447      0.9565288              1
      7366.5000          1.922        24.9052        77.7902        80.1756           0.85         0.8447        45.0882         0.9807       -45.0723     -0.9165802              1              1
      7367.0000         1.8227        24.0085         79.856       82.50787         0.8481         0.8476        45.5541         0.9872       -45.3936      -1.269913              1              1
      7367.5000         1.7458        24.9676         80.533       83.26836         0.8452         0.8515         45.816         0.9829       -45.4298      -1.338142              1              1
      7368.0000         1.7269        26.0678        80.5002       83.22558         0.8414         0.8564        45.5117         0.9752       -44.9692     -0.9095802              1              1
      7368.5000         1.6767        26.6467        79.4948       82.08205         0.8396         0.8618        44.7795         0.9704       -44.2715     -0.2439117              1              1
      7369.0000         1.5321        26.6619        78.7279       81.20845         0.8419         0.8673        44.8286         0.9745       -43.8099      0.1856537              1              1
      7369.5000         1.2409         27.096        78.2988       80.71716         0.8472         0.8728        44.9327         0.9799       -43.9174     0.04611969              1              1
      7370.0000         0.9276        27.5814        78.5654        81.0132         0.8521         0.8773        44.4907         0.9869       -44.1479     -0.2164154              1              1
      7370.5000         0.8464        27.7917        82.1802       85.09851         0.8578         0.8799        44.7789         0.9968       -44.3465     -0.4470482              1              1
      7371.0000         0.8805        27.7878        82.0475       84.94266         0.8622         0.8817        44.9713         1.0077        -44.607     -0.7395782              1              1
      7371.5000         1.1034        27.2592        81.6649       84.50399         0.8656         0.8827         44.617         1.0187       -45.0795      -1.244114              1              1
