#------------------------------------------------------------------------------
# Created by    : vladimir.rabinovich
# Created on    : 09/19/2023 17:22:38
#------------------------------------------------------------------------------
~Version Information Section
VERS.           2.0     :   CWLS log ASCII Standard - VERSION 2.0
WRAP.           NO      :   One line per depth step
~Well Information Section
#MNEM       .UNIT                                         VALUE :DESCRIPTION
#------------------------------------------------------------------------------
STRT        .FT                                             597 :START DEPTH
STOP        .FT                                            8696 :STOP DEPTH
STEP        .FT                                             0.5 :STEP      
NULL        .                                           -999.25 :NULL      
COMP        .                MURPHY EXPLORATION & PRODUCTION CO :COMPANY   
WELL        .                               OCS G13308 ST00BP00 :WELL      
FLD         .                                           WILDCAT :FIELD     
LOC         .                                                   :LOCATION  
CNTY        .                             GALVESTON LARGE BLOCK :LOCATION  
STAT        .                                             TEXAS :STATE     
CTRY        .                                     UNITED STATES :COUNTRY   
SRVC        .                                                   :SERVICE COMPANY
DATE        .                             9/13/2023 11:19:54 AM :LOG DATE  
API         .                                    42706403460000 :API NUMBER
UWI         .                                    42706403460000 :UNIQUE WELL ID
XCOORD      .                                  1110706.35492259 :SURFACE X 
YCOORD      .                                  10520329.8149831 :SURFACE Y 
LAT         .                                         28.978895 :LATITUDE  
LON         .                                        -94.657168 :LONGITUDE 
ELEV        .FT                                              71 :ELEVATION VALUE
ELEV_TYPE   .                                                KB :ELEVATION REFERENCE TYPE
~Curve Information Section
#MNEM       .UNIT                                      API CODE :CURVE DESCRIPTION
#------------------------------------------------------------------------------
DEPT        .FT                                                 :DEPTH     
DCAL        .IN                                                 :          
DPHI        .%                                                  :          
DRHO        .G/C3                                               :          
DTLN        .US/F                                               :          
GR          .GAPI                                               :          
GR_1        .GAPI                                               :          
GR_NORM     .GAPI                                               :GammaRay Normalized
ILD         .OHMM                                               :          
ILM         .OHMM                                               :          
NPHI        .%                                                  :          
SFL         .OHMM                                               :          
SP          .MV                                                 :          
VSH_GR      .V/V                                                :Volume of Shale from GR
~A        DEPTH           DCAL           DPHI           DRHO           DTLN             GR           GR_1        GR_NORM            ILD            ILM           NPHI            SFL             SP         VSH_GR
# ...
      5499.0000         0.6376        25.5825        -0.0063        -999.25        -999.25        53.9749       61.11259         0.5485         0.5553        36.2012         0.5973       -61.2518      0.5981402
      5499.5000         0.5326        24.4596        -0.0024        -999.25        -999.25        54.2005       61.41953         0.5596         0.5624        37.2015         0.6605       -59.7535      0.6046708
      5500.0000         0.5295        23.2978         0.0005        -999.25        -999.25        54.7155       62.12021         0.5804         0.5803        38.6458         0.7246       -58.3534      0.6195789
      5500.5000         0.6817        22.2176         0.0031        -999.25        -999.25        56.3203       64.30361         0.5963         0.5972        39.9975         0.7498       -57.0562      0.6660343
      5501.0000         0.8008        21.6724         0.0047        -999.25        -999.25         59.177       68.19027         0.6099         0.6283        41.3005         0.7272       -56.0453      0.7487291
      5501.5000         0.8606        21.6172         0.0025        -999.25        -999.25        62.7889       73.10442         0.6236         0.6499        42.4114         0.6937       -55.4777      0.8532854
      5502.0000         0.8821        22.0348        -0.0022        -999.25        -999.25        68.7524       81.21803         0.6377         0.6557        43.6068         0.6721       -55.2556              1
      5502.5000         0.8587        22.6826         -0.006        -999.25        -999.25        73.4948       87.67028         0.6488         0.6582        44.4684         0.6703        -54.894              1
      5503.0000         0.7855        23.0805        -0.0082        -999.25        -999.25         77.781       93.50183         0.6568         0.6559        44.1783          0.666       -54.8506              1
      5503.5000          0.713        23.1451        -0.0099        -999.25        -999.25         80.178       96.76307         0.6556         0.6537        43.6827         0.6587       -54.9335              1
      5504.0000         0.6951        23.0044        -0.0112        -999.25        -999.25        81.1183       98.04238          0.655         0.6528        43.2921          0.659       -54.8165              1
      5504.5000         0.6745        22.8356        -0.0123        -999.25        -999.25        81.4128       98.44307         0.6548         0.6616        42.5871         0.6665       -53.0017              1
      5505.0000         0.7155        22.6572        -0.0128        -999.25        -999.25        81.2256       98.18839         0.6546         0.6746        41.8111         0.6782       -50.9327              1
      5505.5000         0.8531        22.4687        -0.0124        -999.25        -999.25        79.8997       96.38442         0.6546         0.6856        40.7488         0.6991       -50.8491              1
      5506.0000         0.9656        21.9559        -0.0122        -999.25        -999.25        76.8394       92.22076         0.6545         0.6937        40.3021          0.726       -51.5433              1
      5506.5000         0.9887        21.5883        -0.0122        -999.25        -999.25        72.5973       86.44919          0.653         0.6932        40.2704         0.7483       -52.0503              1
      5507.0000         0.9852        21.4751        -0.0122        -999.25        -999.25        68.8456       81.34483         0.6506         0.6864        40.4793         0.7575       -52.4304              1
      5507.5000         0.9874        21.7279        -0.0121        -999.25        -999.25         68.463       80.82428         0.6482         0.6787        41.2362         0.7472       -52.7822              1
      5508.0000         0.9715        22.1234        -0.0114        -999.25        -999.25        71.6802       85.20143         0.6465         0.6756        42.3942         0.7161       -52.7577              1
      5508.5000         0.9194        22.4587        -0.0097        -999.25        -999.25        75.4073       90.27231         0.6449         0.6748         43.731         0.6952       -51.3146              1
      5509.0000         0.8615        22.6436        -0.0078        -999.25        -999.25        76.6959       92.02552         0.6438         0.6751        44.9981         0.6933       -51.3459              1
      5509.5000         0.8166        22.4641        -0.0052        -999.25        -999.25         77.496       93.11408          0.643         0.6739        45.9842         0.7006       -52.0447              1
      5510.0000         0.8481         22.348        -0.0033        -999.25        -999.25        77.9753       93.76619         0.6423         0.6708        46.1599         0.7053       -52.8748              1
      5510.5000         0.9261        22.3634        -0.0016        -999.25        -999.25        78.1145        93.9556         0.6419         0.6652        46.1627         0.6938       -53.2451              1
      5511.0000         0.9444        22.4706         0.0001        -999.25        -999.25        77.9431       93.72238         0.6423         0.6639        46.1418         0.6769        -52.667              1
      5511.5000         0.8613        22.7155         0.0017        -999.25        -999.25        78.0115       93.81544         0.6426         0.6616        46.0694          0.666       -51.7131              1
      5512.0000         0.8085        22.9278         0.0025        -999.25        -999.25        79.3528       95.64034         0.6417         0.6602        45.9525         0.6657        -50.785              1
      5512.5000         0.8016        23.0663         0.0031        -999.25        -999.25        81.6112         98.713         0.6406         0.6582        45.8222         0.6719       -50.2838              1
      5513.0000         0.7481        23.1013          0.003        -999.25        -999.25        82.9941       100.5945         0.6394         0.6561        45.8452         0.6794        -50.335              1
      5513.5000         0.6801        23.0838         0.0022        -999.25        -999.25        83.4672       101.2382         0.6383         0.6549        45.9634         0.6849       -51.2631              1
      5514.0000            0.6        23.2496         0.0012        -999.25        -999.25        83.4877       101.2661         0.6372         0.6572        46.1851         0.6895       -52.3176              1
      5514.5000         0.5428        23.4995        -0.0001        -999.25        -999.25        81.7437       98.89327         0.6369         0.6563        46.4555         0.6945       -52.7601              1
      5515.0000         0.5737        23.7808        -0.0013        -999.25        -999.25        77.4377       93.03476         0.6366         0.6557        46.8566         0.7008       -52.0754              1
      5515.5000         0.5784        23.9993        -0.0026        -999.25        -999.25        76.6212       91.92389         0.6351         0.6551        47.3403         0.7047       -51.2411              1
      5516.0000         0.5492        24.0731        -0.0039        -999.25        -999.25        78.6099        94.6296         0.6337         0.6535        47.8386          0.696        -50.514              1
      5516.5000         0.5191        24.0292        -0.0049        -999.25        -999.25        85.7993       104.4111         0.6333         0.6508        48.1347         0.6866       -50.1723              1
      5517.0000         0.4946        23.8582         -0.006        -999.25        -999.25        86.7961       105.7673         0.6328         0.6466         47.892          0.684       -50.7372              1
      5517.5000         0.4846        23.6027        -0.0071        -999.25        -999.25        83.1021       100.7414         0.6321         0.6437        47.3687         0.6976       -52.2244              1
