#------------------------------------------------------------------------------
# Created by    : vladimir.rabinovich
# Created on    : 09/19/2023 17:20:54
#------------------------------------------------------------------------------
~Version Information Section
VERS.           2.0     :   CWLS log ASCII Standard - VERSION 2.0
WRAP.           NO      :   One line per depth step
~Well Information Section
#MNEM       .UNIT                                         VALUE :DESCRIPTION
#------------------------------------------------------------------------------
STRT        .FT                                            1092 :START DEPTH
STOP        .FT                                            8058 :STOP DEPTH
STEP        .FT                                             0.5 :STEP      
NULL        .                                           -999.25 :NULL      
COMP        .                                    EXXON CO U S A :COMPANY   
WELL        .                               OCS G03029 ST00BP00 :WELL      
FLD         .                                           WILDCAT :FIELD     
LOC         .                                                   :LOCATION  
CNTY        .                        MUSTANG ISLAND LARGE BLOCK :LOCATION  
STAT        .                                             TEXAS :STATE     
CTRY        .                                     UNITED STATES :COUNTRY   
SRVC        .                                                   :SERVICE COMPANY
DATE        .                             9/13/2023 11:19:13 AM :LOG DATE  
API         .                                    42702400190000 :API NUMBER
UWI         .                                    42702400190000 :UNIQUE WELL ID
XCOORD      .                                  486295.566528254 :SURFACE X 
YCOORD      .                                  10047803.1546112 :SURFACE Y 
LAT         .                                         27.643077 :LATITUDE  
LON         .                                        -96.564717 :LONGITUDE 
ELEV        .FT                                              70 :ELEVATION VALUE
ELEV_TYPE   .                                                KB :ELEVATION REFERENCE TYPE
~Curve Information Section
#MNEM       .UNIT                                      API CODE :CURVE DESCRIPTION
#------------------------------------------------------------------------------
DEPT        .FT                                                 :DEPTH     
ASN         .OHMM                                               :          
CALI        .IN                                                 :          
CIL         .MMHO                                               :          
DRHO        .G/C3                                               :          
DT          .US/F                                               :          
GR          .GAPI                                               :          
GR_NORM     .GAPI                                               :GammaRay Normalized
ILD         .OHMM                                               :          
NPHI        .%                                                  :          
RHOB        .G/C3                                               :          
SN          .OHMM                                               :          
SP          .MV                                                 :          
SP_NORM     .MV                                                 :SP Normalized
VSH_GR      .V/V                                                :Volume of Shale from GR
VSH_SP      .V/V                                                :Volume of Shale from SP
~A        DEPTH            ASN           CALI            CIL           DRHO             DT             GR        GR_NORM            ILD           NPHI           RHOB             SN             SP        SP_NORM         VSH_GR         VSH_SP
# ...
      2129.0000         0.7342        -999.25       2146.563        -999.25        -999.25        30.9859       39.28415         0.4057        -999.25        -999.25         0.7286      -118.6001      -24.93225      0.1337054      0.2092327
      2129.5000         0.7388        -999.25       2157.105        -999.25        -999.25        32.0631       41.15923         0.4034        -999.25        -999.25         0.7289      -118.4421      -24.77766      0.1736007      0.2145633
      2130.0000          0.743        -999.25       2163.664        -999.25        -999.25         30.472       38.37754         0.4004        -999.25        -999.25         0.7295      -118.0525      -24.39147      0.1144158      0.2278803
      2130.5000         0.7473        -999.25       2165.461        -999.25        -999.25        28.6504       35.19358         0.3963        -999.25        -999.25         0.7306      -117.6375      -23.97988     0.04667201      0.2420731
      2131.0000         0.7504        -999.25       2160.801        -999.25        -999.25        27.2429       32.73232         0.3941        -999.25        -999.25         0.7318      -117.6395       -23.9853              0      0.2418863
      2131.5000         0.7527        -999.25       2147.426        -999.25        -999.25        26.2748        31.0379         0.3933        -999.25        -999.25         0.7331      -117.7173      -24.06651              0       0.239086
      2132.0000         0.7551        -999.25       2116.129        -999.25        -999.25        26.5946       31.59116         0.3967        -999.25        -999.25         0.7369       -117.673      -24.02561              0      0.2404961
      2132.5000         0.7575        -999.25       2076.207        -999.25        -999.25        27.3097       32.83428         0.4018        -999.25        -999.25         0.7446      -117.3367      -23.69273              0       0.251975
      2133.0000         0.7602        -999.25       2062.602        -999.25        -999.25         28.577       35.04113         0.4061        -999.25        -999.25          0.752      -116.6254      -22.98483     0.04342822      0.2763851
      2133.5000         0.7629        -999.25       2082.859        -999.25        -999.25        28.7508       35.33957         0.4073        -999.25        -999.25         0.7564      -115.5114      -21.87424     0.04977807      0.3146815
      2134.0000         0.7656        -999.25       2132.578        -999.25        -999.25        27.8773       33.81025         0.4008        -999.25        -999.25         0.7487      -114.5709      -20.93715     0.01723943      0.3469948
      2134.5000         0.7684        -999.25       2195.848        -999.25        -999.25        27.3477       32.88113         0.3907        -999.25        -999.25         0.7306      -114.6614      -21.03106              0      0.3437566
      2135.0000         0.7721        -999.25       2282.434        -999.25        -999.25        27.3819       32.93593         0.3779        -999.25        -999.25         0.7121      -115.6912      -22.06427              0      0.3081286
      2135.5000         0.7757        -999.25       2375.754        -999.25        -999.25        28.0831        34.1548         0.3585        -999.25        -999.25         0.6959       -117.293      -23.66948     0.02457022      0.2527766
      2136.0000         0.7746        -999.25       2471.273        -999.25        -999.25        28.6977       35.22256         0.3382        -999.25        -999.25         0.6845      -119.1351      -25.51499     0.04728845      0.1891382
      2136.5000         0.7687        -999.25       2565.969        -999.25        -999.25         29.189        36.0751         0.3222        -999.25        -999.25         0.6752      -120.9561       -27.3394     0.06542774      0.1262275
      2137.0000         0.7615        -999.25       2655.223        -999.25        -999.25        29.5717       36.73812          0.309        -999.25        -999.25         0.6688      -122.8058      -29.19251     0.07953457     0.06232715
      2137.5000         0.7501        -999.25        2732.07        -999.25        -999.25        30.1757       37.78736         0.3004        -999.25        -999.25         0.6628      -124.5149      -30.90502      0.1018587    0.003275115
      2138.0000         0.7387        -999.25       2790.313        -999.25        -999.25        29.8697       37.24845         0.2953        -999.25        -999.25         0.6578      -125.5286      -31.92213      0.0903925              0
      2138.5000         0.7268        -999.25       2819.742        -999.25        -999.25        29.0622       35.83433         0.2927        -999.25        -999.25         0.6528      -125.5402      -31.93714     0.06030484              0
      2139.0000         0.7148        -999.25       2822.211        -999.25        -999.25        28.2301       34.37725         0.2936        -999.25        -999.25         0.6507      -125.4231      -31.82346     0.02930321              0
      2139.5000          0.706        -999.25       2802.137        -999.25        -999.25        27.4964       33.09192          0.297        -999.25        -999.25         0.6489       -125.074      -31.47776    0.001955722              0
      2140.0000         0.6985        -999.25       2759.727        -999.25        -999.25         27.458       33.02004         0.3017        -999.25        -999.25         0.6493      -124.7455      -31.15267   0.0004263533              0
      2140.5000         0.6909        -999.25       2711.219        -999.25        -999.25        28.6145        35.0335         0.3073        -999.25        -999.25         0.6506      -124.6057      -31.01628     0.04326589              0
      2141.0000         0.6869        -999.25       2674.527        -999.25        -999.25        29.4617       36.50718         0.3121        -999.25        -999.25         0.6522       -124.507        -30.921     0.07462084     0.00272422
      2141.5000         0.6835        -999.25       2647.313        -999.25        -999.25        29.8513       37.18224         0.3164        -999.25        -999.25         0.6545      -124.5598       -30.9772      0.0889839   0.0007860907
      2142.0000         0.6838        -999.25       2650.152        -999.25        -999.25        30.3409       38.03183         0.3173        -999.25        -999.25         0.6568      -124.5607      -30.98151      0.1070602   0.0006374491
      2142.5000         0.6851        -999.25       2661.469        -999.25        -999.25        30.7152       38.68021         0.3174        -999.25        -999.25         0.6576      -124.4862      -30.91042      0.1208555    0.003088852
      2143.0000         0.6864        -999.25       2673.137        -999.25        -999.25          29.87       37.20026         0.3161        -999.25        -999.25         0.6583      -124.3947      -30.82233     0.08936724    0.006126404
      2143.5000          0.686        -999.25       2691.805        -999.25        -999.25         29.135       35.91266         0.3137        -999.25        -999.25         0.6579      -124.2848      -30.71584     0.06197146     0.00979851
      2144.0000         0.6854        -999.25       2711.762        -999.25        -999.25        28.6381       35.04059         0.3104        -999.25        -999.25         0.6565      -124.3768      -30.81126     0.04341678      0.0065084
      2144.5000         0.6848        -999.25       2726.195        -999.25        -999.25        28.6629         35.079         0.3076        -999.25        -999.25         0.6549      -124.5778      -31.01566     0.04423409              0
      2145.0000         0.6843        -999.25       2740.168        -999.25        -999.25        29.5359        36.5977         0.3056        -999.25        -999.25         0.6529      -124.9021      -31.34338     0.07654677              0
      2145.5000         0.6836        -999.25       2752.223        -999.25        -999.25        30.9191       39.00682         0.3042        -999.25        -999.25         0.6513      -125.3965      -31.84119      0.1278046              0
