#------------------------------------------------------------------------------
# Created by    : vladimir.rabinovich
# Created on    : 09/19/2023 17:20:31
#------------------------------------------------------------------------------
~Version Information Section
VERS.           2.0     :   CWLS log ASCII Standard - VERSION 2.0
WRAP.           NO      :   One line per depth step
~Well Information Section
#MNEM       .UNIT                                         VALUE :DESCRIPTION
#------------------------------------------------------------------------------
STRT        .FT                                            2377 :START DEPTH
STOP        .FT                                            9500 :STOP DEPTH
STEP        .FT                                             0.5 :STEP      
NULL        .                                           -999.25 :NULL      
COMP        .                                     SKELLY OIL CO :COMPANY   
WELL        .                                     ST TR 00146-L :WELL      
FLD         .                                           WILDCAT :FIELD     
LOC         .                                                   :LOCATION  
CNTY        .                             GALVESTON LARGE BLOCK :LOCATION  
STAT        .                                             TEXAS :STATE     
CTRY        .                                     UNITED STATES :COUNTRY   
SRVC        .                                                   :SERVICE COMPANY
DATE        .                             9/13/2023 11:19:24 AM :LOG DATE  
API         .                                    42706001330000 :API NUMBER
UWI         .                                    42706001330000 :UNIQUE WELL ID
XCOORD      .                                  1116482.89093459 :SURFACE X 
YCOORD      .                                  10631825.2810539 :SURFACE Y 
LAT         .                                         29.285733 :LATITUDE  
LON         .                                       -94.6439746 :LONGITUDE 
ELEV        .FT                                              61 :ELEVATION VALUE
ELEV_TYPE   .                                                KB :ELEVATION REFERENCE TYPE
~Curve Information Section
#MNEM       .UNIT                                      API CODE :CURVE DESCRIPTION
#------------------------------------------------------------------------------
DEPT        .FT                                                 :DEPTH     
ASN         .OHMM                                               :          
CALI        .IN                                                 :          
CILD        .MMHO                                               :          
DT          .US/F                                               :          
ILD         .OHMM                                               :          
SP          .MV                                                 :          
SP_NORM     .MV                                                 :SP Normalized
VSH_SP      .V/V                                                :Volume of Shale from SP
~A        DEPTH            ASN           CALI           CILD             DT            ILD             SP        SP_NORM         VSH_SP
# ...
      8985.0000         0.6424         6.6016       1922.918       142.6836         0.6269       -46.2983      -3.063435       0.962483
      8985.5000         0.6337         6.5915       1934.027       145.9243           0.62       -45.2519      -2.019543      0.9814628
      8986.0000         0.6329         6.5245       1945.604       146.4568         0.6153       -44.7349      -1.505054      0.9908172
      8986.5000         0.6321         6.5096       1951.957       144.6567         0.6106       -44.3409      -1.113564      0.9979352
      8987.0000         0.6313         6.5169       1942.916       127.5349         0.6058       -44.0957     -0.8708725              1
      8987.5000         0.6305         6.5219       1926.209       124.9115         0.6011       -43.8845     -0.6621819              1
      8988.0000         0.6326         6.5191       1909.035       123.7655         0.5964       -43.7704     -0.5505943              1
      8988.5000         0.6358         6.5157       1891.861       123.3287         0.5919       -43.7128     -0.4954987              1
      8989.0000         0.6389         6.5081       1872.551       123.0353         0.5875       -43.6976      -0.482811              1
      8989.5000         0.6388         6.5044       1878.346       122.7112          0.583       -43.8046     -0.5923195              1
      8990.0000         0.6332          6.508       1884.139       122.4838         0.5786       -43.9117      -0.701931              1
      8990.5000         0.6239         6.5066       1890.047        123.257         0.5742       -44.0189     -0.8116417              1
      8991.0000         0.6123         6.5007       1896.225       125.2024         0.5697        -44.126     -0.9212494              1
      8991.5000          0.605         6.4955       1902.404       127.0466         0.5653       -44.2331      -1.030861      0.9994389
      8992.0000         0.5997         6.4947       1909.818       129.2349         0.5609       -44.3401      -1.140369      0.9974478
      8992.5000         0.5965         6.4939       1919.301       130.0884         0.5574       -44.5499       -1.35268      0.9935876
      8993.0000         0.5951         6.4931       1940.635       129.2249         0.5557       -44.8354       -1.64069      0.9883511
      8993.5000         0.5937         6.4923       1963.635       126.4446          0.554        -45.121      -1.928799      0.9831128
      8994.0000         0.5923         6.4915       1980.824       125.0316         0.5523       -45.6112      -2.421509      0.9741544
      8994.5000         0.5943         6.4903       1980.113       124.4119         0.5506       -46.4547      -3.267521      0.9587724
      8995.0000         0.5971         6.4873       1980.164       127.0391         0.5489       -47.7773      -4.592632      0.9346794
      8995.5000         0.6008         6.4822       1983.008       130.1355         0.5473       -48.4846      -5.302441      0.9217738
      8996.0000          0.605         6.4713       2000.402       131.0249         0.5456       -49.7656      -6.585949      0.8984373
      8996.5000         0.6002         6.4605       2034.875        130.749          0.542       -51.0491       -7.87196      0.8750553
      8997.0000         0.5851         6.4512       2058.703       130.0889         0.5363       -48.4468      -5.272171      0.9223242
      8997.5000         0.5699         6.4421        2071.41        129.741         0.5305       -46.5366      -3.364475      0.9570096
      8998.0000         0.5547         6.4405       2084.121       131.7395         0.5248       -46.2315      -3.061886      0.9625112
      8998.5000         0.5404         6.4511       2100.262       132.7488         0.5191       -45.9271      -2.759998      0.9680001
      8999.0000         0.5288         6.4577       2118.797       134.0164         0.5134       -45.6219      -2.457306      0.9735035
      8999.5000         0.5195          6.453       2154.152       137.2141         0.5067       -45.2512      -2.089119      0.9801978
      9000.0000         0.5172          6.442        2168.93       138.9243         0.4957       -44.9705      -1.810928      0.9852558
      9000.5000         0.5165         6.4359       2178.488       140.0171         0.4848       -44.6439      -1.486839      0.9911484
      9001.0000         0.5159         6.4373       2183.148       140.7849         0.4739        -44.529      -1.374447      0.9931919
      9001.5000         0.5153         6.4587       2184.316       141.2559          0.463       -44.4575      -1.305458      0.9944462
      9002.0000         0.5136         6.4884       2185.488       140.7205         0.4577       -44.4072      -1.257668      0.9953151
      9002.5000         0.5117         6.5009       2197.125       132.7869         0.4599       -44.6348      -1.487778      0.9911313
      9003.0000         0.5098         6.5119       2225.723       131.2891         0.4621       -44.8905      -1.745987      0.9864366
      9003.5000         0.5078         6.5165        2254.27         134.74         0.4643       -45.4775      -2.335499      0.9757182
      9004.0000         0.5055         6.5196        2285.09       148.5225         0.4665       -46.1955      -3.056007      0.9626181
      9004.5000         0.5019         6.5201       2316.609       158.7637         0.4688       -47.0535      -3.916519      0.9469724
      9005.0000         0.4968         6.5207       2348.133       163.6919          0.471       -47.2058      -4.071327      0.9441577
      9005.5000         0.4915         6.5168       2375.473       157.6406         0.4731       -46.5502       -3.41824       0.956032
      9006.0000          0.486         6.5118       2402.707       149.2207         0.4702       -45.8945      -2.765045      0.9679083
      9006.5000         0.4793         6.5079       2429.641        146.792         0.4672       -45.2377      -2.110756      0.9798045
      9007.0000         0.4726         6.5047       2456.223       145.8821         0.4642        -44.582      -1.457565      0.9916806
      9007.5000         0.4659         6.5069       2482.801       145.8774         0.4612       -44.6929      -1.570976      0.9896186
      9008.0000         0.4644         6.5187       2505.676       144.9453         0.4583       -44.8137      -1.694286      0.9873766
      9008.5000         0.4636         6.5309       2522.773       143.1936         0.4553       -45.1522      -2.035294      0.9811765
      9009.0000         0.4679         6.5444       2535.785       142.9353         0.4523        -45.631      -2.516605      0.9724253
      9009.5000         0.4773         6.5576       2548.395       142.4141         0.4496       -46.1119      -3.000015      0.9636361
      9010.0000         0.4867         6.5586       2559.945       144.8391         0.4608       -46.8224      -3.713024      0.9506723
      9010.5000         0.4787         6.5521       2577.246       146.5403          0.472        -47.533      -4.426136      0.9377066
      9011.0000         0.4678         6.5321        2596.84       144.5935         0.4776       -48.7418      -5.637444      0.9156829
      9011.5000          0.457          6.528       2614.871       143.6418         0.4754       -49.3619      -6.260056      0.9043626
      9012.0000         0.4485         6.5266       2632.523       143.5183         0.4732       -48.8024      -5.703064      0.9144897
      9012.5000         0.4549         6.5356       2654.438       142.8557         0.4709       -48.2436      -5.146774      0.9246041
      9013.0000         0.4613          6.547       2686.012       142.5103         0.4687       -47.6841      -4.589787      0.9347311
      9013.5000         0.4634         6.5556       2700.688       142.4939         0.4665       -46.5664      -3.474594      0.9550074
      9014.0000         0.4612         6.5639       2660.742        141.769         0.4641       -45.3575      -2.268204      0.9769418
