#------------------------------------------------------------------------------
# Created by    : vladimir.rabinovich
# Created on    : 09/19/2023 17:20:32
#------------------------------------------------------------------------------
~Version Information Section
VERS.           2.0     :   CWLS log ASCII Standard - VERSION 2.0
WRAP.           NO      :   One line per depth step
~Well Information Section
#MNEM       .UNIT                                         VALUE :DESCRIPTION
#------------------------------------------------------------------------------
STRT        .FT                                             642 :START DEPTH
STOP        .FT                                           11989 :STOP DEPTH
STEP        .FT                                             0.5 :STEP      
NULL        .                                           -999.25 :NULL      
COMP        .                       CORPUS CHRISTI OIL & GAS CO :COMPANY   
WELL        .                               OCS G05177 ST00BP00 :WELL      
FLD         .                              GALVESTON BLOCK 0151 :FIELD     
LOC         .                                                   :LOCATION  
CNTY        .                             GALVESTON LARGE BLOCK :LOCATION  
STAT        .                                             TEXAS :STATE     
CTRY        .                                     UNITED STATES :COUNTRY   
SRVC        .                                                   :SERVICE COMPANY
DATE        .                             9/13/2023 11:19:27 AM :LOG DATE  
API         .                                    42706401010000 :API NUMBER
UWI         .                                    42706401010000 :UNIQUE WELL ID
XCOORD      .                                   1130272.6689428 :SURFACE X 
YCOORD      .                                  10609756.0111422 :SURFACE Y 
LAT         .                                         29.225567 :LATITUDE  
LON         .                                        -94.599775 :LONGITUDE 
ELEV        .FT                                              83 :ELEVATION VALUE
ELEV_TYPE   .                                                KB :ELEVATION REFERENCE TYPE
~Curve Information Section
#MNEM       .UNIT                                      API CODE :CURVE DESCRIPTION
#------------------------------------------------------------------------------
DEPT        .FT                                                 :DEPTH     
ASN         .OHMM                                               :          
CILD        .MMHO                                               :          
DT          .US/F                                               :          
ILD         .OHMM                                               :          
RHOB        .G/CC                                               :          
SP          .MV                                                 :          
SP_NORM     .MV                                                 :SP Normalized
VSH_SP      .V/V                                                :Volume of Shale from SP
~A        DEPTH            ASN           CILD             DT            ILD           RHOB             SP        SP_NORM         VSH_SP
# ...
      3651.0000         1.0178       1850.947       106.1034         0.5998        -999.25       -89.4111      -25.00432      0.6153182
      3651.5000          0.998       1934.613       112.4517         0.5802        -999.25       -94.9211      -30.51431       0.530549
      3652.0000         0.9907       1886.918       117.0985         0.5619        -999.25       -97.9821      -33.57532      0.4834566
      3652.5000         0.9886       1787.256       122.6753         0.5449        -999.25       -97.1707      -32.76392      0.4959398
      3653.0000         0.9906       1731.115       122.8346         0.5456        -999.25       -94.7826      -30.37582      0.5326797
      3653.5000         0.9904       1696.561       120.4646         0.5674        -999.25       -92.3815      -27.97472      0.5696198
      3654.0000         0.9787        1636.42       116.6978         0.6292        -999.25       -89.9805      -25.57372      0.6065582
      3654.5000          0.963       1484.492       112.6223         0.6913        -999.25       -86.4501      -22.04332       0.660872
      3655.0000         0.9289       1416.627       107.1732         0.7356        -999.25       -78.3098      -13.90302      0.7861075
      3655.5000         0.9016       1339.023       105.2335         0.7715        -999.25       -73.5262      -9.119415      0.8597013
      3656.0000          0.883       1273.045       117.3066         0.8074        -999.25       -71.9403      -7.533516      0.8840998
      3656.5000         0.8718       1263.568       124.7376         0.8359        -999.25       -71.0114      -6.604614      0.8983905
      3657.0000         0.8605        1298.83       130.4672         0.8403        -999.25       -70.5642      -6.157417      0.9052705
      3657.5000          0.856       1339.941       133.4126         0.8447        -999.25       -70.4017      -5.994919      0.9077705
      3658.0000         0.8542        1378.57       135.2752         0.8491        -999.25        -70.512      -6.105217      0.9060736
      3658.5000         0.8523       1408.877       134.8176         0.8521        -999.25       -70.6222      -6.215416      0.9043782
      3659.0000         0.8529       1431.631       133.5867         0.8538        -999.25       -70.7323      -6.325516      0.9026844
      3659.5000         0.8585        1370.67        132.201         0.8555        -999.25       -70.8425      -6.435715       0.900989
      3660.0000         0.8694       1299.277       130.8154         0.8571        -999.25       -70.6763      -6.269516      0.9035459
      3660.5000         0.8913       1238.963       129.7375         0.8588        -999.25       -70.4987      -6.091919      0.9062782
      3661.0000         0.9132       1177.309       128.9722         0.8622        -999.25       -69.9779      -5.571114      0.9142905
      3661.5000         0.9327       1131.699       127.7412         0.8698        -999.25       -69.4127      -5.005913       0.922986
      3662.0000         0.9444         1098.4       126.6649         0.8773        -999.25        -68.848      -4.441216      0.9316736
      3662.5000         0.9561       1074.988       125.1246         0.8849        -999.25       -68.2828      -3.876015       0.940369
      3663.0000         0.9676       1054.518       122.9655         0.8925        -999.25        -67.423      -3.016212      0.9535967
      3663.5000         0.9737       1085.371       120.4971         0.8945        -999.25       -66.8407      -2.433914      0.9625552
      3664.0000         0.9798       1118.758       117.1007         0.8903        -999.25       -67.3306      -2.923813      0.9550183
      3664.5000         0.9718       1161.285         110.92         0.8862        -999.25       -68.0265      -3.619713      0.9443121
      3665.0000         0.9567       1213.973       109.2248         0.8821        -999.25       -69.0967      -4.689919      0.9278474
      3665.5000         0.9462       1285.516       109.5408         0.8444        -999.25       -70.1677      -5.760918      0.9113705
      3666.0000         0.9364       1339.197       112.0221         0.7945        -999.25       -72.5485      -8.141716      0.8747428
      3666.5000         0.9438       1374.744       114.9675          0.768        -999.25       -75.1381      -10.73132      0.8349028
      3667.0000         0.9525       1408.131       117.9129         0.7418        -999.25       -76.5853      -12.17851      0.8126383
      3667.5000         0.9611       1443.045       117.9194         0.7157        -999.25       -77.9993      -13.59251      0.7908844
      3668.0000         0.9698       1467.488       116.7872         0.6895        -999.25       -79.3893      -14.98251      0.7694998
      3668.5000         0.9786       1491.932       112.5773         0.6718        -999.25       -81.5426      -17.13582       0.736372
      3669.0000         0.9875        1513.42       111.2875         0.6598        -999.25       -83.7487      -19.34192       0.702432
      3669.5000         0.9902       1533.492       112.3784         0.6478        -999.25       -85.5463      -21.13952      0.6747766
      3670.0000         0.9756       1538.758       114.5503         0.6357        -999.25       -87.3429      -22.93612      0.6471366
      3670.5000         0.9624       1512.041        117.341         0.6237        -999.25       -87.3087      -22.90192      0.6476628
      3671.0000         0.9499       1485.609       118.8943         0.6255        -999.25        -86.549      -22.14222      0.6593505
      3671.5000         0.9373        1459.18       120.2929         0.6333        -999.25       -85.7888      -21.38202      0.6710458
      3672.0000         0.9335       1432.748       120.4524          0.641        -999.25       -85.0292      -20.62241      0.6827321
      3672.5000         0.9465       1418.471        118.759         0.6511        -999.25        -84.269      -19.86221      0.6944275
      3673.0000         0.9592       1404.324       117.3734         0.6633        -999.25       -83.5227      -19.11591       0.705909
      3673.5000          0.972       1390.178       115.6783         0.6755        -999.25       -82.7797      -18.37292      0.7173398
      3674.0000         0.9847       1378.787         113.21         0.6877        -999.25        -82.078      -17.67122      0.7281351
      3674.5000         0.9947       1369.279       111.3603         0.6999        -999.25       -82.4442      -18.03741      0.7225013
      3675.0000         1.0001       1360.646       111.0558         0.7061        -999.25       -82.8104      -18.40362      0.7168674
      3675.5000         1.0056        1365.82       111.8372         0.7119        -999.25       -83.1766      -18.76981      0.7112336
      3676.0000          1.011       1376.559       112.3077         0.7177        -999.25       -83.5195      -19.11272      0.7059582
      3676.5000          1.013       1391.799       112.4689         0.7172        -999.25       -83.7849      -19.37811      0.7018752
      3677.0000         1.0121       1407.051       111.8566         0.7077        -999.25       -84.0507      -19.64391       0.697786
      3677.5000         1.0113       1423.781       111.8631         0.6982        -999.25       -84.2476      -19.84081      0.6947567
      3678.0000         1.0104       1442.375       112.0242         0.6887        -999.25       -84.1573      -19.75052      0.6961459
      3678.5000         1.0095        1460.98       112.4947         0.6791        -999.25        -84.067      -19.66022      0.6975351
      3679.0000         1.0087       1478.381       113.2746         0.6696        -999.25       -83.9803      -19.57352       0.698869
      3679.5000         1.0078       1495.646       113.8998         0.6601        -999.25       -83.8999      -19.49312      0.7001058
      3680.0000         1.0069        1512.91        114.525         0.6441        -999.25       -83.8195      -19.41272      0.7013428
