#------------------------------------------------------------------------------
# Created by    : vladimir.rabinovich
# Created on    : 09/19/2023 17:20:25
#------------------------------------------------------------------------------
~Version Information Section
VERS.           2.0     :   CWLS log ASCII Standard - VERSION 2.0
WRAP.           NO      :   One line per depth step
~Well Information Section
#MNEM       .UNIT                                         VALUE :DESCRIPTION
#------------------------------------------------------------------------------
STRT        .FT                                             396 :START DEPTH
STOP        .FT                                           11006 :STOP DEPTH
STEP        .FT                                             0.5 :STEP      
NULL        .                                           -999.25 :NULL      
COMP        .                                 CALIFORNIA CO THE :COMPANY   
WELL        .                                OCS 00507 ST00BP00 :WELL      
FLD         .                            HIGH ISLAND BLOCK 0052 :FIELD     
LOC         .                                                   :LOCATION  
CNTY        .                           HIGH ISLAND LARGE BLOCK :LOCATION  
STAT        .                                             TEXAS :STATE     
CTRY        .                                     UNITED STATES :COUNTRY   
SRVC        .                                                   :SERVICE COMPANY
DATE        .                             9/13/2023 11:19:15 AM :LOG DATE  
API         .                                    42708000170000 :API NUMBER
UWI         .                                    42708000170000 :UNIQUE WELL ID
XCOORD      .                                  1293108.02889945 :SURFACE X 
YCOORD      .                                   10685731.628563 :SURFACE Y 
LAT         .                                         29.439677 :LATITUDE  
LON         .                                        -94.091453 :LONGITUDE 
ELEV        .FT                                              70 :ELEVATION VALUE
ELEV_TYPE   .                                                KB :ELEVATION REFERENCE TYPE
~Curve Information Section
#MNEM       .UNIT                                      API CODE :CURVE DESCRIPTION
#------------------------------------------------------------------------------
DEPT        .FT                                                 :DEPTH     
ASN         .OHMM                                               :          
CILD        .MMHO                                               :          
ILM         .OHMM                                               :          
SP          .MV                                                 :          
SP_NORM     .MV                                                 :SP Normalized
VSH_SP      .V/V                                                :Volume of Shale from SP
~A        DEPTH            ASN           CILD            ILM             SP        SP_NORM         VSH_SP
# ...
      6020.0000         0.7245       1582.523         0.6245       -52.6125         0.1302              1
      6020.5000          0.726        1571.83         0.6241       -52.4964         0.2428              1
      6021.0000         0.7275       1561.137         0.6237       -52.3801         0.3556              1
      6021.5000         0.7291       1558.973         0.6234       -52.2637         0.4686              1
      6022.0000         0.7306       1568.395          0.623       -52.2437         0.4851              1
      6022.5000         0.7262       1601.346         0.6226       -52.2493          0.476              1
      6023.0000         0.7207       1634.295         0.6222        -52.255         0.4668              1
      6023.5000         0.7151       1679.285         0.6218       -52.2606         0.4577              1
      6024.0000         0.7096       1733.883         0.6214       -52.2662         0.4486              1
      6024.5000         0.7032       1814.561          0.621       -52.2719         0.4395              1
      6025.0000         0.6934       1885.762           0.62       -52.2775         0.4304              1
      6025.5000         0.6836       1920.711          0.618       -52.2831         0.4213              1
      6026.0000         0.6738       1943.814          0.616       -52.2888         0.4121              1
      6026.5000          0.664       1957.943          0.614       -52.2769         0.4205              1
      6027.0000         0.6593       1970.207          0.612       -52.2615         0.4324              1
      6027.5000         0.6546       1974.727           0.61       -52.2462         0.4442              1
      6028.0000         0.6498       1979.248         0.6079       -52.2308         0.4562              1
      6028.5000         0.6477       1980.531         0.6059       -52.2155          0.468              1
      6029.0000         0.6499       1976.418         0.6039       -52.2001         0.4799              1
      6029.5000         0.6521       1972.305         0.6019       -52.2233         0.4532              1
      6030.0000         0.6543       1968.191         0.5999       -52.5253         0.1477              1
      6030.5000         0.6565       1964.078         0.5979        -52.827        -0.1575              1
      6031.0000         0.6587       1960.064         0.5959        -53.129         -0.463              1
      6031.5000         0.6624       1957.514         0.5939       -53.4308        -0.7682              1
      6032.0000         0.6664       1954.965         0.5919       -53.7328        -1.0737              1
      6032.5000         0.6704       1952.414         0.5898       -54.0345        -1.3789              1
      6033.0000         0.6744       1949.865         0.5878       -54.2875        -1.6354              1
      6033.5000         0.6784       1947.314          0.586       -54.4833        -1.8347              1
      6034.0000         0.6824       1949.738          0.586       -54.6788        -2.0337       0.999419
      6034.5000         0.6848       1953.678         0.5861       -54.8745        -2.2328      0.9959862
      6035.0000          0.683       1957.623         0.5861        -55.065        -2.4268      0.9926414
      6035.5000         0.6811       1961.563         0.5862        -54.358        -1.7233              1
      6036.0000         0.6793       1965.506         0.5862        -53.651        -1.0198              1
      6036.5000         0.6774       1968.826         0.5863        -52.944        -0.3163              1
      6037.0000         0.6755        1971.92         0.5863       -52.2371         0.3871              1
      6037.5000         0.6737       1975.012         0.5864       -51.8605         0.7602              1
      6038.0000         0.6713       1978.104         0.5864       -51.6596         0.9577              1
      6038.5000         0.6663       1981.199         0.5865       -51.4583         1.1555              1
      6039.0000         0.6612       1984.291         0.5865       -51.2573          1.353              1
      6039.5000         0.6562       1986.125         0.5866       -51.4309         1.1759              1
      6040.0000         0.6511       1984.559         0.5866       -51.8967         0.7066              1
      6040.5000         0.6461       1982.994         0.5867       -52.3625         0.2373              1
      6041.0000          0.641        1981.43         0.5867       -52.8284        -0.2321              1
      6041.5000         0.6364       1979.865         0.5868       -53.2942        -0.7013              1
      6042.0000         0.6368       1976.873         0.5874       -53.7601        -1.1707              1
      6042.5000         0.6372       1967.637          0.588       -54.1884        -1.6025              1
      6043.0000         0.6376       1958.389         0.5886       -54.3634         -1.781              1
      6043.5000          0.638       1949.141         0.5892       -54.5383        -1.9594              1
      6044.0000         0.6383       1939.902         0.5898       -54.7133        -2.1379      0.9976224
      6044.5000         0.6387       1927.623         0.5904       -54.8882        -2.3162      0.9945483
      6045.0000         0.6404       1914.844         0.5911       -55.0632        -2.4947      0.9914707
      6045.5000         0.6422       1902.063         0.5917       -55.2382        -2.6732      0.9883931
      6046.0000         0.6439       1889.273         0.5923       -55.4131        -2.8516      0.9853172
      6046.5000         0.6457       1876.492         0.5929       -55.3829        -2.8249      0.9857776
      6047.0000         0.6475       1861.072         0.5935       -55.2352        -2.6807      0.9882638
      6047.5000         0.6492       1845.293         0.5941       -55.0875        -2.5365        0.99075
      6048.0000         0.6482       1829.514         0.5947       -54.9398        -2.3922      0.9932379
      6048.5000         0.6466        1815.68         0.5953       -54.7921         -2.248      0.9957241
      6049.0000          0.645       1899.498         0.5955       -54.6442        -2.1036      0.9982138
      6049.5000         0.6434         1952.9         0.5957       -54.4965        -1.9594              1
      6050.0000         0.6418       1973.244         0.5958       -54.4278        -1.8942              1
      6050.5000         0.6402       1979.156          0.596       -54.5598        -2.0297      0.9994879
      6051.0000           0.64       1984.307         0.5961        -54.692        -2.1654      0.9971483
      6051.5000         0.6426       1989.457         0.5963        -54.824        -2.3008      0.9948138
      6052.0000         0.6452       1979.656         0.5964        -54.956        -2.4363      0.9924776
      6052.5000         0.6478       1968.799         0.5965        -55.088        -2.5718      0.9901414
      6053.0000         0.6504       1957.943         0.5967       -55.2202        -2.7075      0.9878017
      6053.5000         0.6551       1936.773         0.5968        -55.408        -2.8988      0.9845034
      6054.0000         0.6612       1909.453          0.597       -55.6346        -3.1289      0.9805362
      6054.5000         0.6672       1882.154         0.5971       -55.8615        -3.3593      0.9765638
      6055.0000         0.6732       1858.246         0.5973       -56.0881        -3.5893      0.9725983
      6055.5000         0.6793       1846.162         0.5967       -56.3146        -3.8193      0.9686328
      6056.0000         0.6853       1834.088         0.5959       -56.5412        -4.0494      0.9646655
      6056.5000         0.6878       1822.016          0.595       -56.7678        -4.2795      0.9606982
      6057.0000         0.6881       1809.932         0.5941       -56.9946        -4.5098      0.9567276
      6057.5000         0.6884       1802.553         0.5933       -57.1092        -4.6279      0.9546914
