#------------------------------------------------------------------------------
# Created by    : vladimir.rabinovich
# Created on    : 09/19/2023 17:22:41
#------------------------------------------------------------------------------
~Version Information Section
VERS.           2.0     :   CWLS log ASCII Standard - VERSION 2.0
WRAP.           NO      :   One line per depth step
~Well Information Section
#MNEM       .UNIT                                         VALUE :DESCRIPTION
#------------------------------------------------------------------------------
STRT        .FT                                            4470 :START DEPTH
STOP        .FT                                            9513 :STOP DEPTH
STEP        .FT                                             0.5 :STEP      
NULL        .                                           -999.25 :NULL      
COMP        .                 FAIRWAYS SPEC SALES & SERVICE INC :COMPANY   
WELL        .                               OCS G11315 ST00BP00 :WELL      
FLD         .                              GALVESTON BLOCK 0319 :FIELD     
LOC         .                                                   :LOCATION  
CNTY        .                             GALVESTON LARGE BLOCK :LOCATION  
STAT        .                                             TEXAS :STATE     
CTRY        .                                     UNITED STATES :COUNTRY   
SRVC        .                                                   :SERVICE COMPANY
DATE        .                             9/13/2023 11:19:34 AM :LOG DATE  
API         .                                    42706402650000 :API NUMBER
UWI         .                                    42706402650000 :UNIQUE WELL ID
XCOORD      .                                  1065572.18570413 :SURFACE X 
YCOORD      .                                  10465680.9820926 :SURFACE Y 
LAT         .                                         28.826802 :LATITUDE  
LON         .                                        -94.795723 :LONGITUDE 
ELEV        .FT                                              86 :ELEVATION VALUE
ELEV_TYPE   .                                                KB :ELEVATION REFERENCE TYPE
~Curve Information Section
#MNEM       .UNIT                                      API CODE :CURVE DESCRIPTION
#------------------------------------------------------------------------------
DEPT        .FT                                                 :DEPTH     
DCAL        .IN                                                 :          
DPHI        .%                                                  :          
DRHO        .G/C3                                               :          
GR          .GAPI                                               :          
GR_NORM     .GAPI                                               :GammaRay Normalized
ILD         .OHMM                                               :          
ILM         .OHMM                                               :          
NPHI        .%                                                  :          
SFL         .OHMM                                               :          
SP          .MV                                                 :          
SP_NORM     .MV                                                 :SP Normalized
VSH_GR      .V/V                                                :Volume of Shale from GR
VSH_SP      .V/V                                                :Volume of Shale from SP
~A        DEPTH           DCAL           DPHI           DRHO             GR        GR_NORM            ILD            ILM           NPHI            SFL             SP        SP_NORM         VSH_GR         VSH_SP
# ...
      9486.0000        -3.0808        -999.25         0.0149        -999.25       82.70152         1.1872          1.333        -999.25         1.4962       -39.4015      -2.113365              1      0.9674867
      9486.5000        -3.0991        -999.25         0.0152        -999.25       78.98385         1.1789         1.3183        -999.25         1.5136       -39.8533      -2.565163      0.9783798      0.9605359
      9487.0000        -3.1177        -999.25         0.0181        -999.25        78.8677          1.168         1.2839        -999.25         1.2207        -40.305      -3.016865      0.9759085      0.9535867
      9487.5000        -3.1368        -999.25         0.0212        -999.25       84.61936         1.1503          1.212        -999.25         1.0659       -41.2075      -3.919365              1      0.9397021
      9488.0000        -3.1546        -999.25         0.0226        -999.25       83.26586         1.1034         1.1465        -999.25         0.9774       -42.1366      -4.848465              1      0.9254082
      9488.5000         -3.171        -999.25         0.0236        -999.25       80.13402          1.057         1.0958        -999.25         0.9167       -42.2111      -4.922966              1       0.924262
      9489.0000        -3.1909        -999.25         0.0225        -999.25       82.57057         1.0198         1.0654        -999.25         0.9337       -42.0155      -4.727364              1      0.9272713
      9489.5000        -3.2121        -999.25         0.0206        -999.25       84.59032         1.0268         1.0815        -999.25         0.9626       -42.0199      -4.731766              1      0.9272036
      9490.0000        -3.2039        -999.25         0.0187        -999.25       81.56738         1.0418         1.1032        -999.25         1.1331       -42.9672      -5.679066              1      0.9126298
      9490.5000        -3.1938        -999.25         0.0168        -999.25       84.59523         1.0418         1.1175        -999.25         1.5475       -45.8018      -8.513664              1      0.8690205
      9491.0000        -3.1866        -999.25         0.0165        -999.25       82.55069         1.0118         1.1014        -999.25          1.693       -52.0927      -14.80457              1      0.7722375
      9491.5000        -3.1807        -999.25         0.0172        -999.25       82.93129         0.9749          1.036        -999.25         1.3628       -55.5886      -18.30046              1      0.7184544
      9492.0000        -3.1743        -999.25         0.0168        -999.25       81.73708         0.9333         0.9606        -999.25         1.0046       -56.5175      -19.22937              1      0.7041636
      9492.5000        -3.1658        -999.25          0.014        -999.25       82.53493         0.9103         0.8972        -999.25         0.8322       -56.4302      -19.14206              1      0.7055067
      9493.0000        -3.1572        -999.25         0.0113        -999.25       80.99756         0.8951         0.8659        -999.25         0.8279       -56.4286      -19.14046              1      0.7055313
      9493.5000        -3.1489        -999.25         0.0095        -999.25        81.8121         0.8869         0.8452        -999.25         0.8173       -56.5119      -19.22377              1      0.7042497
      9494.0000        -3.1408        -999.25         0.0077        -999.25       81.66663         0.8899         0.8418        -999.25         0.8026       -56.5588      -19.27066              1      0.7035282
      9494.5000        -3.1327        -999.25         0.0063        -999.25       81.63638         0.8967         0.8643        -999.25         0.8343       -56.3501      -19.06197              1       0.706739
      9495.0000        -3.1255        -999.25         0.0066        -999.25       83.98445         0.9046         0.8965        -999.25         0.9674       -55.5689      -18.28077              1      0.7187575
      9495.5000        -3.1202        -999.25         0.0069        -999.25       80.80616         0.8921         0.9311        -999.25          1.043       -53.5887      -16.30056              1      0.7492221
      9496.0000        -3.1149        -999.25         0.0072        -999.25       79.55833         0.8816         0.9574        -999.25         1.0837       -48.4788      -11.19067      0.9906029      0.8278359
      9496.5000         -3.111        -999.25          0.007        -999.25       80.19909         0.8845         0.9713        -999.25          1.109       -42.0618      -4.773663              1       0.926559
      9497.0000        -3.1112        -999.25         0.0067        -999.25       81.58099         0.9029         0.9721        -999.25         1.1147       -37.4321     -0.1439629              1      0.9977852
      9497.5000        -3.1114        -999.25         0.0064        -999.25       79.60861         0.9404         0.9705        -999.25         1.1106       -34.9613       2.326836      0.9916726              1
      9498.0000        -3.1111        -999.25         0.0061        -999.25       84.27911         0.9896         0.9595        -999.25         1.1105       -35.9775       1.310635              1              1
      9498.5000        -3.1086        -999.25         0.0057        -999.25       85.20015         1.0315         0.9531        -999.25         1.1112       -37.5857     -0.2975655              1      0.9954221
      9499.0000         -3.106        -999.25         0.0052        -999.25       85.09106         1.0618         0.9488        -999.25         1.1095       -39.3139      -2.025764              1      0.9688344
      9499.5000        -3.1057        -999.25         0.0048        -999.25       83.06887         1.0874         0.9535        -999.25          1.107       -39.9517      -2.663563              1      0.9590221
      9500.0000        -3.1172        -999.25         0.0043        -999.25       82.84083         1.1023         0.9677        -999.25         1.1047       -40.1766      -2.888466              1      0.9555621
      9500.5000        -3.1286        -999.25         0.0038        -999.25        80.6293         1.1154         0.9929        -999.25         1.1113       -40.3129      -3.024765              1      0.9534652
      9501.0000        -3.1279        -999.25         0.0033        -999.25       79.28842         1.1198         1.0225        -999.25         1.1513       -40.3915      -3.103363      0.9848601       0.952256
      9501.5000        -3.1134        -999.25         0.0027        -999.25       81.21281         1.1231         1.0608        -999.25         1.2591       -40.3694      -3.081264              1      0.9525959
      9502.0000         -3.099        -999.25         0.0021        -999.25       81.53811         1.1263         1.0845        -999.25         1.2949       -40.3474      -3.059265              1      0.9529344
      9502.5000        -3.0841        -999.25         0.0021        -999.25       85.02644         1.1296         1.0841        -999.25         1.0986       -40.3829      -3.094765              1      0.9523882
      9503.0000        -3.0691        -999.25         0.0023        -999.25       78.80081         1.1325         1.0655        -999.25         0.9667       -40.4368      -3.148663      0.9744853      0.9515591
      9503.5000        -3.0541        -999.25         0.0026        -999.25       84.05565         1.1321         1.0287        -999.25         0.9192       -40.4906      -3.202465              1      0.9507313
      9504.0000        -3.0453        -999.25         0.0031        -999.25       80.39233         1.1318         0.9995        -999.25          0.904       -40.5528      -3.264664              1      0.9497744
      9504.5000        -3.0368        -999.25         0.0039        -999.25       80.74955          1.133         0.9858        -999.25         0.8983       -40.6256      -3.337463              1      0.9486544
