#------------------------------------------------------------------------------
# Created by    : vladimir.rabinovich
# Created on    : 09/19/2023 17:19:44
#------------------------------------------------------------------------------
~Version Information Section
VERS.           2.0     :   CWLS log ASCII Standard - VERSION 2.0
WRAP.           NO      :   One line per depth step
~Well Information Section
#MNEM       .UNIT                                         VALUE :DESCRIPTION
#------------------------------------------------------------------------------
STRT        .FT                                            3520 :START DEPTH
STOP        .FT                                           13769 :STOP DEPTH
STEP        .FT                                             0.5 :STEP      
NULL        .                                           -999.25 :NULL      
COMP        .                           WILLIAMS EXPLORATION CO :COMPANY   
WELL        .                                          SL 73414 :WELL      
FLD         .                                           WILDCAT :FIELD     
LOC         .                                                   :LOCATION  
CNTY        .                           HIGH ISLAND LARGE BLOCK :LOCATION  
STAT        .                                             TEXAS :STATE     
CTRY        .                                     UNITED STATES :COUNTRY   
SRVC        .                                                   :SERVICE COMPANY
DATE        .                             9/13/2023 11:19:15 AM :LOG DATE  
API         .                                    42708301040000 :API NUMBER
UWI         .                                    42708301040000 :UNIQUE WELL ID
XCOORD      .                                  1272749.25589155 :SURFACE X 
YCOORD      .                                  10699068.0748216 :SURFACE Y 
LAT         .                                        29.4758188 :LATITUDE  
LON         .                                       -94.1558378 :LONGITUDE 
ELEV        .FT                                             106 :ELEVATION VALUE
ELEV_TYPE   .                                                KB :ELEVATION REFERENCE TYPE
~Curve Information Section
#MNEM       .UNIT                                      API CODE :CURVE DESCRIPTION
#------------------------------------------------------------------------------
DEPT        .FT                                                 :DEPTH     
ASFL        .OHMM                                               :          
CILD        .MMHO                                               :          
ILD         .OHMM                                               :          
SP          .MV                                                 :          
SP_NORM     .MV                                                 :SP Normalized
VSH_SP      .V/V                                                :Volume of Shale from SP
~A        DEPTH           ASFL           CILD            ILD             SP        SP_NORM         VSH_SP
# ...
     13742.0000         0.6569       1589.594         0.5583       -46.8984      -2.829231      0.9734894
     13742.5000         0.6568       1578.912         0.5598       -46.9617      -2.783924       0.974146
     13743.0000         0.6568        1568.23         0.5627       -46.5574      -2.271015      0.9815795
     13743.5000         0.6568       1562.182         0.5667       -46.1531       -1.75811      0.9890129
     13744.0000         0.6576       1565.797         0.5708       -45.6657      -1.162102      0.9976507
     13744.5000         0.6589       1569.418         0.5748       -45.1536     -0.5413933              1
     13745.0000         0.6602       1583.285         0.5789       -45.3086     -0.5877914              1
     13745.5000         0.6578       1600.973         0.5787       -46.0923      -1.262882      0.9961901
     13746.0000         0.6505       1618.709         0.5609       -47.0472      -2.109173       0.983925
     13746.5000         0.6433       1636.396          0.543       -48.0021      -2.955471      0.9716598
     13747.0000          0.636       1654.133         0.5251       -48.9397      -3.784462      0.9596455
     13747.5000         0.6288       1668.467         0.5073       -49.3713      -4.107452      0.9549645
     13748.0000         0.6215       1679.992         0.4894       -48.9595      -3.587048      0.9625065
     13748.5000         0.6115       1691.494         0.4715       -48.0964      -2.615341      0.9765893
     13749.0000         0.6011        1703.02         0.4624       -49.0513      -3.461636      0.9643241
     13749.5000         0.5907       1709.627         0.4548       -50.0136      -4.315327      0.9519518
     13750.0000         0.6043       1685.979         0.4473       -50.8234      -5.016518      0.9417896
     13750.5000         0.6237        1662.33         0.4397       -51.2252      -5.309715      0.9375404
     13751.0000         0.6388       1638.682         0.4378       -51.6258      -5.601707      0.9333086
     13751.5000         0.6538       1615.031         0.4503       -52.2856      -6.152897      0.9253203
     13752.0000         0.6689       1591.434         0.4627       -53.7712      -7.529892      0.9053639
     13752.5000          0.684       1560.879         0.4752       -54.5649      -8.214985       0.895435
     13753.0000          0.699       1527.988         0.4876       -51.5886      -5.130077      0.9401438
     13753.5000         0.7088       1495.197         0.5001       -50.7527      -4.185574      0.9538323
     13754.0000         0.7184       1462.406         0.5125       -50.2803      -3.604565      0.9622527
     13754.5000         0.7281       1429.617          0.525       -49.8065      -3.022156      0.9706934
     13755.0000         0.7377       1404.129         0.5375       -49.5052      -2.612251       0.976634
     13755.5000         0.7474       1384.504         0.5511       -50.9041      -3.902542      0.9579342
     13756.0000          0.753       1364.879          0.565       -52.3029      -5.192734      0.9392357
     13756.5000         0.7578       1345.205          0.579       -53.6497      -6.430931      0.9212909
     13757.0000         0.7554        1325.58         0.5929       -54.9791      -7.651722      0.9035982
     13757.5000         0.7491       1308.342         0.6069       -52.9379      -5.501915      0.9347548
     13758.0000         0.7427       1291.797         0.6209       -51.2854       -3.74081      0.9602781
     13758.5000         0.7451       1275.252         0.6348       -51.6618      -4.008602      0.9563971
     13759.0000         0.7519       1292.244         0.6488       -51.8719      -4.110096      0.9549261
     13759.5000         0.7586        1327.27         0.6627        -51.983      -4.112591        0.95489
     13760.0000         0.7653        1303.92         0.6767       -51.7808      -3.801781      0.9593945
     13760.5000          0.772       1278.531         0.6865       -51.7746      -3.686977      0.9610583
     13761.0000         0.7788       1253.094         0.6838        -52.794      -4.597767      0.9478585
     13761.5000         0.7855       1249.008         0.6812       -53.8159      -5.511059      0.9346223
     13762.0000         0.7898       1251.119         0.6785       -54.8427      -6.429256      0.9213151
     13762.5000         0.7793       1261.689         0.6759       -54.6226      -6.100548       0.926079
     13763.0000         0.7688       1278.432         0.6732       -54.9618      -6.331139      0.9227371
     13763.5000         0.7584       1295.176         0.6601       -57.5958      -8.856533      0.8861372
     13764.0000         0.7537       1311.918         0.6457       -59.2353      -10.38742      0.8639504
     13764.5000         0.7493       1311.291         0.6314       -60.0934      -11.13692      0.8530881
     13765.0000         0.7448       1310.348          0.617        -60.711      -11.64591      0.8457114
     13765.5000         0.7444       1309.408         0.6026       -59.4783       -10.3046      0.8651507
     13766.0000          0.745         1307.1         0.5882       -58.0497      -8.767399       0.887429
     13766.5000         0.7457       1302.615         0.5739       -56.5739      -7.182991      0.9103914
     13767.0000         0.7463       1298.131         0.5595       -55.1255      -5.625984      0.9329568
     13767.5000         0.7469       1293.646         0.5551        -54.116      -4.507881      0.9491612
     13768.0000         0.7476       1308.291         0.5538       -53.9746       -4.27763      0.9524981
     13768.5000         0.7482       1327.867         0.5524       -54.3876      -4.690628      0.9465126
     13769.0000         0.7437       1347.441         0.5511       -54.8018      -5.104828      0.9405097
