#------------------------------------------------------------------------------
# Created by    : vladimir.rabinovich
# Created on    : 09/19/2023 17:21:15
#------------------------------------------------------------------------------
~Version Information Section
VERS.           2.0     :   CWLS log ASCII Standard - VERSION 2.0
WRAP.           NO      :   One line per depth step
~Well Information Section
#MNEM       .UNIT                                         VALUE :DESCRIPTION
#------------------------------------------------------------------------------
STRT        .FT                                            2893 :START DEPTH
STOP        .FT                                           11505 :STOP DEPTH
STEP        .FT                                             0.5 :STEP      
NULL        .                                           -999.25 :NULL      
COMP        .                               SEAGULL ENERGY CORP :COMPANY   
WELL        .                               OCS G06105 ST00BP00 :WELL      
FLD         .                              GALVESTON BLOCK 0343 :FIELD     
LOC         .                                                   :LOCATION  
CNTY        .                             GALVESTON LARGE BLOCK :LOCATION  
STAT        .                                             TEXAS :STATE     
CTRY        .                                     UNITED STATES :COUNTRY   
SRVC        .                                                   :SERVICE COMPANY
DATE        .                             9/13/2023 11:19:54 AM :LOG DATE  
API         .                                    42706403720000 :API NUMBER
UWI         .                                    42706403720000 :UNIQUE WELL ID
XCOORD      .                                  915246.934514234 :SURFACE X 
YCOORD      .                                  10428990.3748243 :SURFACE Y 
LAT         .                                         28.718869 :LATITUDE  
LON         .                                        -95.262866 :LONGITUDE 
ELEV        .FT                                              96 :ELEVATION VALUE
ELEV_TYPE   .                                                KB :ELEVATION REFERENCE TYPE
~Curve Information Section
#MNEM       .UNIT                                      API CODE :CURVE DESCRIPTION
#------------------------------------------------------------------------------
DEPT        .FT                                                 :DEPTH     
CAL         .IN                                                 :          
CNCSS       .%                                                  :          
CORR        .G/CM3                                              :          
DT24        .US/FT                                              :          
GR_NORM     .GAPI                                               :GammaRay Normalized
GRR         .GAPI                                               :          
ILD         .OHMM                                               :          
ILM         .OHMM                                               :          
PORDSS      .%                                                  :          
RFOC        .OHMM                                               :          
SP          .MV                                                 :          
SP_NORM     .MV                                                 :SP Normalized
VSH_GR      .V/V                                                :Volume of Shale from GR
VSH_SP      .V/V                                                :Volume of Shale from SP
~A        DEPTH            CAL          CNCSS           CORR           DT24        GR_NORM            GRR            ILD            ILM         PORDSS           RFOC             SP        SP_NORM         VSH_GR         VSH_SP
# ...
      8617.0000         9.8333        34.1176         -0.008       114.7059       66.85091        71.7647         0.5946         0.6165        14.8163            0.7           -2.7        -3.8799      0.7202322      0.9614286
      8617.5000         9.9118        35.4118         -0.032       113.1373       67.82737        72.3529         0.5733         0.5946        15.0612         0.7135           -2.7        -3.8714      0.7410079      0.9614286
      8618.0000          9.951        35.5294         -0.048       111.3725       68.80399        72.9412         0.5527            0.6        15.9184         0.7701           -2.7        -3.8628      0.7617869      0.9614286
      8618.5000        10.0294        34.3529         -0.064       110.5882       69.12867        73.1373         0.5477         0.6055        16.1633            0.8           -2.1        -3.2542      0.7686951           0.97
      8619.0000        10.0686        33.0588         -0.092       111.1765       68.14951         72.549         0.5527         0.6165        16.2857         0.8371           -1.5        -2.6456      0.7478618      0.9785714
      8619.5000        10.0294        33.1765         -0.112       109.4118       66.84453        71.7647         0.5629         0.6165        17.5102         0.8759           -1.5        -2.6371      0.7200963      0.9785714
      8620.0000        10.0294        33.2941         -0.108       107.2549       65.53955        70.9804         0.5681         0.6055        17.8776            0.9           -1.5        -2.6285      0.6923309      0.9785714
      8620.5000        10.0294        31.8824         -0.048       105.6863       64.88638        70.5882         0.5681         0.5946        16.7755         0.9087           -1.5        -2.6199      0.6784335      0.9785714
      8621.0000        10.0686        29.6471         -0.012       106.2745       66.18877        71.3725         0.5629         0.5892        15.9184         0.8295           -1.2        -2.3114       0.706144      0.9828572
      8621.5000        10.1471        29.6471         -0.012       108.8235       67.49135        72.1569         0.5629         0.5892        16.0408         0.7924           -0.9        -2.0028      0.7338585      0.9871429
      8622.0000        10.1471        30.3529         -0.028       111.3725        68.4678        72.7451         0.5629         0.5892        16.6531         0.7849           -0.6        -1.6942       0.754634      0.9914286
      8622.5000        10.1863        30.8235         -0.032       110.1961       68.46653        72.7451         0.5629         0.5946        17.2653         0.7849           -0.6        -1.6857       0.754607      0.9914286
      8623.0000        10.2647        31.0588         -0.024       107.2549       67.48751        72.1569         0.5578         0.5946        17.5102         0.7924           -0.6        -1.6771      0.7337768      0.9914286
      8623.5000        10.3039        32.1176          -0.02       106.4706       66.18237        71.3725         0.5527         0.5946        17.0204         0.7924           -0.3        -1.3685       0.706008      0.9957143
      8624.0000        10.2255        33.2941          -0.04       106.4706       66.83303        71.7647         0.5477         0.5892        16.4082         0.7849           -0.3          -1.36      0.7198517      0.9957143
      8624.5000        10.1471        33.8824         -0.064       109.8039       67.48367        72.1569         0.5428         0.5785        16.5306         0.7701           -0.3        -1.3514      0.7336951      0.9957143
      8625.0000        10.0294        34.2353         -0.092       113.3333       68.46014        72.7451         0.5378         0.5629        17.1429         0.7412           -0.3        -1.3428       0.754471      0.9957143
      8625.5000        10.0294        36.2449         -0.112       116.2745       70.08851        73.7255         0.5281         0.5578        17.8776         0.7135            0.3        -0.7343      0.7891172              1
      8626.0000        10.0686        37.2245         -0.096       115.2941       71.39091        74.5098         0.5477         0.5733        17.8776         0.7272            0.3        -0.7257       0.816828              1
      8626.5000        10.1471        37.2245          -0.06       112.1569       73.01928        75.4902         0.5892         0.6165        17.5102         0.7483           -0.3        -1.3171       0.851474      0.9957143
      8627.0000        10.1863        34.9412          -0.02        104.902        72.3661         75.098         0.6335         0.6812        17.1429         0.7627           -1.2        -2.2086      0.8375765      0.9828572
      8627.5000        10.1471        33.1765         -0.004             99       69.10567        73.1373         0.6874         0.7627        17.1429         0.7774           -1.8           -2.8      0.7682058      0.9742857
      8628.0000        10.0686        30.8235         -0.016           96.6       62.55967           69.2         0.8146         0.8919        17.0204         0.9532           -2.7        -3.6914      0.6289291      0.9614286
      8628.5000        10.0294        28.7059         -0.036           97.6       57.57169           66.2         0.9442          1.027        16.5306         1.4917             -3        -3.9829      0.5228018      0.9571428
      8629.0000          9.951        29.2941         -0.048       105.4902       55.24329           64.8         0.9905         1.0089        15.7959         2.2339           -3.3        -4.2743      0.4732614      0.9528571
      8629.5000         9.6765        29.7647         -0.072        112.549       58.23403           66.6              1         0.9442        15.1837          1.766             -3        -3.9657      0.5368943      0.9571428
      8630.0000          9.598        29.2941         -0.084       114.3137       60.22744           67.8         0.9717          0.868        14.9388         1.1735           -2.1        -3.0571      0.5793073           0.97
      8630.5000         9.6373        26.5882         -0.096       113.3275       58.89637             67         0.9087         0.7774        15.4286         1.0454           -0.9        -1.8486      0.5509865      0.9871429
      8631.0000         9.6765        25.7647         -0.104       110.1805        57.5653           66.2         0.8073            0.7        16.0408         0.9352            0.3          -0.64      0.5226659              1
      8631.5000         9.7549        27.2941         -0.112        108.014       59.55871           67.4         0.7067         0.6335        17.0204         0.8601            0.9        -0.0314      0.5650789              1
      8632.0000         9.7941        28.9412          -0.12       109.3768       61.88456           68.8         0.6393          0.611        17.6327         0.7849            0.9        -0.0229      0.6145652              1
      8632.5000         9.8725        30.7059         -0.116       110.7397       63.54551           69.8         0.5838          0.611             18         0.7555            0.3        -0.6143      0.6499045              1
      8633.0000          9.951        32.8235           -0.1         110.73       64.20264        70.1961         0.5785         0.6335          18.12         0.7627           -0.3        -1.2057      0.6638861      0.9957143
      8633.5000          9.951        33.1765         -0.084       110.5242       66.15681        71.3725         0.5733         0.6451        17.8776         0.7924           -1.2        -2.0972       0.705464      0.9828572
      8634.0000         9.9118        32.4706         -0.064       108.5537       67.78519        72.3529         0.5838         0.6629        17.6327         0.8447           -2.7        -3.5886      0.7401105      0.9614286
      8634.5000         9.8333             32         -0.044       104.0342       68.10989         72.549         0.5892          0.669        17.2653         0.8919           -3.6          -4.48       0.747019      0.9485714
