#------------------------------------------------------------------------------
# Created by    : vladimir.rabinovich
# Created on    : 09/19/2023 17:20:35
#------------------------------------------------------------------------------
~Version Information Section
VERS.           2.0     :   CWLS log ASCII Standard - VERSION 2.0
WRAP.           NO      :   One line per depth step
~Well Information Section
#MNEM       .UNIT                                         VALUE :DESCRIPTION
#------------------------------------------------------------------------------
STRT        .FT                                             504 :START DEPTH
STOP        .FT                                            9361 :STOP DEPTH
STEP        .FT                                             0.5 :STEP      
NULL        .                                           -999.25 :NULL      
COMP        .                                      SHELL OIL CO :COMPANY   
WELL        .                                OCS 00704 ST00BP00 :WELL      
FLD         .                                           WILDCAT :FIELD     
LOC         .                                                   :LOCATION  
CNTY        .                             GALVESTON LARGE BLOCK :LOCATION  
STAT        .                                             TEXAS :STATE     
CTRY        .                                     UNITED STATES :COUNTRY   
SRVC        .                                                   :SERVICE COMPANY
DATE        .                             9/13/2023 11:19:25 AM :LOG DATE  
API         .                                    42706000430000 :API NUMBER
UWI         .                                    42706000430000 :UNIQUE WELL ID
XCOORD      .                                  1136254.96267488 :SURFACE X 
YCOORD      .                                  10526383.5552877 :SURFACE Y 
LAT         .                                         28.996505 :LATITUDE  
LON         .                                        -94.577519 :LONGITUDE 
ELEV        .FT                                              42 :ELEVATION VALUE
ELEV_TYPE   .                                                KB :ELEVATION REFERENCE TYPE
~Curve Information Section
#MNEM       .UNIT                                      API CODE :CURVE DESCRIPTION
#------------------------------------------------------------------------------
DEPT        .FT                                                 :DEPTH     
ASN         .OHMM                                               :          
DT          .US/F                                               :          
LN          .OHMM                                               :          
SP          .MV                                                 :          
SP_NORM     .MV                                                 :SP Normalized
VSH_SP      .V/V                                                :Volume of Shale from SP
~A        DEPTH            ASN             DT             LN             SP        SP_NORM         VSH_SP
# ...
      7572.0000         0.9088        98.2768        -999.25       -68.0828      -19.77139      0.4785725
      7572.5000         0.8889         95.546        -999.25       -69.3942      -21.08391      0.4421135
      7573.0000          0.869        88.9971        -999.25       -72.8405      -24.53133       0.346352
      7573.5000         0.8512        87.9026        -999.25       -78.7454      -30.43735      0.1822958
      7574.0000         0.8333         87.984        -999.25       -80.0591      -31.75217      0.1457731
      7574.5000         0.8155        93.5934        -999.25       -81.5437      -33.23789       0.104503
      7575.0000         0.7993        99.0814        -999.25       -84.8763      -36.57161     0.01189974
      7575.5000          0.783        94.5669        -999.25       -85.6052      -37.30164              0
      7576.0000         0.7677         88.714        -999.25       -86.2959      -37.99345              0
      7576.5000         0.7562        88.9077        -999.25       -86.9595      -38.65818              0
      7577.0000         0.7447        89.6727        -999.25       -87.4358      -39.13559              0
      7577.5000         0.7333        94.2278        -999.25       -87.8733      -39.57421              0
      7578.0000         0.7225       100.2486        -999.25       -88.2512      -39.95323              0
      7578.5000         0.7117       100.3223        -999.25       -88.4451      -40.14825              0
      7579.0000         0.7058       100.2017        -999.25       -88.5643      -40.26858              0
      7579.5000         0.7009        99.6721        -999.25       -88.4689       -40.1743              0
      7580.0000         0.6968        98.5153        -999.25       -88.2247      -39.93122              0
      7580.5000         0.6966        96.0982        -999.25       -86.2295      -37.93714              0
      7581.0000         0.7091         92.305        -999.25       -81.9734      -33.68216     0.09216234
      7581.5000         0.7241        91.9174        -999.25       -80.3313      -32.04118       0.137745
      7582.0000         0.7504        92.4262        -999.25       -79.9871       -31.6981      0.1472751
      7582.5000         0.7763        95.2734        -999.25       -80.7181      -32.43022      0.1269383
      7583.0000         0.8007        98.9551        -999.25       -81.4492      -33.16245      0.1065987
      7583.5000         0.8259        96.6358        -999.25       -82.4503      -34.16467      0.0787593
      7584.0000         0.8529        96.5645        -999.25       -80.5472      -32.26269       0.131592
      7584.5000         0.8922        96.2929        -999.25       -77.1145       -28.8311      0.2269138
      7585.0000         1.0245        95.3068        -999.25        -70.267      -21.98472       0.417091
      7585.5000         1.2349        93.9605        -999.25       -66.9287      -18.64755      0.5097903
      7586.0000         1.3196        91.7158        -999.25       -65.9681      -17.68807      0.5364425
      7586.5000         1.3558          88.96        -999.25       -66.7634      -18.48448        0.51432
      7587.0000         1.3835        84.0321        -999.25       -67.7588        -19.481      0.4866388
      7587.5000          1.415         80.474        -999.25       -68.7328      -20.45613      0.4595519
      7588.0000         1.4333        81.2453        -999.25       -69.6326      -21.35705      0.4345264
      7588.5000         1.4342        85.4068        -999.25       -70.4076      -22.13317      0.4129676
      7589.0000         1.4069        91.4895        -999.25        -70.989      -22.71569      0.3967865
      7589.5000         1.3737         96.446        -999.25       -71.2058      -22.93361       0.390733
      7590.0000          1.168        97.9708        -999.25       -71.1764      -22.90533      0.3915186
      7590.5000         1.1591       101.1481        -999.25       -70.9601      -22.69015      0.3974959
      7591.0000         1.2088       102.1646        -999.25       -70.7439      -22.47507      0.4034704
      7591.5000          1.295        102.238        -999.25       -62.9606      -14.69289      0.6196418
      7592.0000         1.3242       100.2091        -999.25       -56.2571      -7.990513      0.8058191
      7592.5000         1.3335        95.8327        -999.25       -54.8804      -6.614933      0.8440297
      7593.0000         1.3362        93.3221        -999.25       -53.3507      -5.086353      0.8864902
      7593.5000         1.3419        94.2661        -999.25       -52.4443      -4.181076      0.9116368
      7594.0000         1.3475        98.9083        -999.25       -52.5336      -4.271496      0.9091251
      7594.5000         1.3532        99.9439        -999.25       -52.6229      -4.361916      0.9066135
      7595.0000         1.3595       100.9409        -999.25       -52.7122      -4.452335      0.9041018
      7595.5000         1.3693        93.1106        -999.25       -52.8015      -4.542755      0.9015901
      7596.0000          1.379        93.7645        -999.25       -52.9272      -4.669579      0.8980672
      7596.5000         1.3845        93.5175        -999.25         -53.15      -4.893501      0.8918472
      7597.0000         1.3898        92.4588        -999.25       -53.3044      -5.049019      0.8875272
      7597.5000         1.3974        92.2911        -999.25       -53.4236      -5.169338      0.8841851
      7598.0000         1.4044        95.6544        -999.25       -53.5427      -5.289562      0.8808455
      7598.5000         1.4108        96.0182        -999.25       -53.7809      -5.528881      0.8741977
      7599.0000         1.4189        96.4545        -999.25       -54.2697      -6.018799      0.8605889
      7599.5000          1.427        96.8905        -999.25        -55.553      -7.303223      0.8249105
      7600.0000         1.4302        90.2931        -999.25        -55.921      -7.672344      0.8146571
      7600.5000         1.4461        90.2215        -999.25       -56.9398      -8.692265       0.786326
      7601.0000         1.4573        90.0776        -999.25        -57.967      -9.720581      0.7577617
      7601.5000         1.4686        88.0484        -999.25       -58.9819       -10.7366      0.7295388
      7602.0000         1.4798        88.3397        -999.25       -60.0114      -11.76722      0.7009104
      7602.5000         1.4919        92.9091        -999.25       -60.6196      -12.37654      0.6839849
      7603.0000          1.504        93.0486        -999.25       -60.2074      -11.96547      0.6954038
      7603.5000         1.5228         93.927        -999.25       -59.7794      -11.53859      0.7072615
      7604.0000         1.5435          93.18        -999.25       -58.9312      -10.69151      0.7307915
      7604.5000         1.5616        90.9448        -999.25       -58.9802      -10.74163      0.7293991
      7605.0000         1.5587        88.1291        -999.25       -59.3153      -11.07785      0.7200598
      7605.5000         1.5476        88.2028        -999.25       -59.6504      -11.41407      0.7107204
      7606.0000          1.533        88.9292        -999.25        -59.986      -11.75079       0.701367
      7606.5000         1.5149        91.7585        -999.25       -60.3211      -12.08701      0.6920275
      7607.0000         1.4995        91.7597        -999.25        -60.485      -12.25203      0.6874435
      7607.5000         1.4954        91.9264        -999.25       -60.4067      -12.17485      0.6895875
      7608.0000         1.4914        92.3871        -999.25       -60.3292      -12.09847      0.6917091
      7608.5000         1.4873        96.4118        -999.25       -60.2663      -12.03669      0.6934252
      7609.0000         1.4832        96.7679        -999.25       -60.2034      -11.97491      0.6951413
      7609.5000         1.4792         96.202        -999.25       -60.1404      -11.91303      0.6968602
