#------------------------------------------------------------------------------
# Created by    : vladimir.rabinovich
# Created on    : 09/19/2023 17:20:01
#------------------------------------------------------------------------------
~Version Information Section
VERS.           2.0     :   CWLS log ASCII Standard - VERSION 2.0
WRAP.           NO      :   One line per depth step
~Well Information Section
#MNEM       .UNIT                                         VALUE :DESCRIPTION
#------------------------------------------------------------------------------
STRT        .FT                                            3496 :START DEPTH
STOP        .FT                                           13495 :STOP DEPTH
STEP        .FT                                             0.5 :STEP      
NULL        .                                           -999.25 :NULL      
COMP        .                      TEXAS EASTERN EXPLORATION CO :COMPANY   
WELL        .                                ST TR 00798-L NE/4 :WELL      
FLD         .                                           WILDCAT :FIELD     
LOC         .                                                   :LOCATION  
CNTY        .                        MUSTANG ISLAND LARGE BLOCK :LOCATION  
STAT        .                                             TEXAS :STATE     
CTRY        .                                     UNITED STATES :COUNTRY   
SRVC        .                                                   :SERVICE COMPANY
DATE        .                             9/13/2023 11:18:55 AM :LOG DATE  
API         .                                    42702302040000 :API NUMBER
UWI         .                                    42702302040000 :UNIQUE WELL ID
XCOORD      .                                  329124.923046376 :SURFACE X 
YCOORD      .                                  10022065.1107101 :SURFACE Y 
LAT         .                                        27.5591082 :LATITUDE  
LON         .                                       -97.0466418 :LONGITUDE 
ELEV        .FT                                              82 :ELEVATION VALUE
ELEV_TYPE   .                                                KB :ELEVATION REFERENCE TYPE
~Curve Information Section
#MNEM       .UNIT                                      API CODE :CURVE DESCRIPTION
#------------------------------------------------------------------------------
DEPT        .FT                                                 :DEPTH     
ASFL        .OHMM                                               :          
CILD        .MMHO                                               :          
GR          .GAPI                                               :          
GR_NORM     .GAPI                                               :GammaRay Normalized
ILD         .OHMM                                               :          
SFL         .OHMM                                               :          
SP          .MV                                                 :          
SP_NORM     .MV                                                 :SP Normalized
VSH_GR      .V/V                                                :Volume of Shale from GR
VSH_SP      .V/V                                                :Volume of Shale from SP
~A        DEPTH           ASFL           CILD             GR        GR_NORM            ILD            SFL             SP        SP_NORM         VSH_GR         VSH_SP
# ...
      4157.5000         0.9841       2528.305        44.8972       49.26428         0.4282         0.9465       -86.7046      -39.92121      0.3460485      0.3171717
      4158.0000         1.0648       1947.891        45.2905       49.86602         0.4929         1.0376       -85.7261      -38.94975      0.3588514       0.334215
      4158.5000         1.1378       1784.711         44.824       49.14188         0.5928          1.123       -84.7476      -37.97828      0.3434443      0.3512582
      4159.0000         1.1938       1600.973        44.3575       48.41774         0.7253         1.2117       -83.5487      -36.78642      0.3280371      0.3721682
      4159.5000         1.2386         1116.6        43.8912       47.69392         0.7946         1.3075       -82.4196      -35.66435      0.3126365      0.3918535
      4160.0000         1.3167       1050.057        42.8306       46.05364         0.8638         1.3791       -80.8907      -34.14249      0.2777371      0.4185529
      4160.5000          1.387       1009.597        41.6765       44.26917         0.9285          1.452        -77.334      -30.59282      0.2397695      0.4808277
      4161.0000         1.5023        975.915        40.8941        43.0579         0.9929         1.5417       -67.4443      -20.71015      0.2139979      0.6542079
      4161.5000         1.6189       927.8701        40.3134       42.15765         1.0401         1.6279       -62.2332      -15.50609      0.1948435      0.7455072
      4162.0000         1.6619       875.2812        41.8832       44.57365         1.0698         1.6764       -58.3764      -11.65632      0.2462479       0.813047
      4162.5000         1.6119       847.9443        43.4518       46.98778         1.0214         1.6122       -55.6787      -8.965656      0.2976124      0.8602517
      4163.0000           1.45       919.6514        50.2889       57.52633         0.9655         1.5481       -53.7764      -7.070393      0.5218369      0.8935019
      4163.5000          1.278       1168.641         52.851       61.47252         0.9096         1.4839       -52.3336      -5.634624      0.6057982      0.9186908
      4164.0000         1.2019       1379.691        57.4073        68.4939         0.8545         0.8935       -51.2617      -4.569759      0.7551895      0.9373726
      4164.5000          0.871       1440.623        62.5713       76.45241         0.7997         0.8021       -50.2944      -3.609493      0.9245193      0.9542194
      4165.0000         0.8052       1472.865        67.7351       84.41061          0.753          0.765       -49.3059      -2.628029              1      0.9714381
      4165.5000          0.769       1487.607        72.9495       92.44684         0.7192         0.7374       -48.3579      -1.687061              1      0.9879463
      4166.0000         0.7418       1499.258        74.1646       94.31585         0.6873         0.7444        -47.479      -0.815197              1              1
      4166.5000         0.7629         1509.5        74.5062       94.83787         0.6676         0.7571       -45.9322      0.7245674              1              1
      4167.0000         0.7948       1513.436        73.7145       93.61224          0.648         0.7697       -45.2042       1.445534              1              1
      4167.5000          0.831       1504.535         72.886       92.32988         0.6393         0.7823       -44.7654         1.8773              1              1
      4168.0000         0.8511       1482.076        71.9834       90.93326          0.643          0.806       -44.4263       2.209366              1              1
      4168.5000          0.866       1459.631        71.0809       89.53676         0.6468         0.8381        -44.118       2.510632              1              1
      4169.0000         0.8835       1435.559        70.1783       88.14014         0.6583         0.8703       -43.7791       2.842499              1              1
      4169.5000         0.9009       1403.826        67.9207       84.65398         0.6758         0.8989       -43.4178       3.196766              1              1
      4170.0000         0.8848       1378.648        66.7943       82.91224         0.6933         0.9116       -42.9702       3.637333              1              1
      4170.5000         0.8699       1359.381         66.864       83.01496         0.7108         0.8851       -42.9807       3.619797              1              1
      4171.0000         0.8568       1351.896        67.3157       83.70674         0.7283         0.8585       -43.1646       3.428864              1              1
      4171.5000         0.8439       1349.002        67.9749       84.71854         0.7369         0.8415       -43.3485        3.23793              1              1
      4172.0000         0.8341       1349.842         68.634       85.73014         0.7409          0.825       -43.5325       3.046894              1              1
      4172.5000         0.8243       1353.369        69.3013       86.75443         0.7449         0.8086       -43.7782       2.794163              1              1
      4173.0000         0.8188       1348.482        70.1285       88.02526         0.7489         0.7959       -44.1158       2.449528              1              1
      4173.5000         0.8133       1321.592        69.3417        86.8072         0.7656         0.7867       -44.4504       2.107891              1              1
      4174.0000         0.8091       1294.727        68.1404       84.94994         0.7824         0.7776        -44.762       1.789257              1              1
      4174.5000         0.8073       1214.725        66.5774       82.53493         0.7993         0.7684       -44.6319       1.912323              1              1
      4175.0000         0.8303       1088.393         63.256       77.40832         0.8187         0.7768       -44.5018       2.035389      0.9448578              1
      4175.5000         0.8579        997.666        59.7702       72.02821         0.8734         0.8321       -44.3717       2.158455      0.8303875              1
      4176.0000         0.8884       929.2363        56.0355       66.26427         0.9281         0.9507       -44.6552        1.86792      0.7077504              1
      4176.5000         0.9237       874.1885        52.8808       61.39474         0.9829          1.022        -45.119       1.397087      0.6041434              1
      4177.0000         0.9907       828.1553        51.6428       59.48088         1.0485         1.0933       -45.8712      0.6378517      0.5634229              1
      4177.5000         1.2118       788.4521        50.7526       58.10337         1.1165         1.1641       -47.3638     -0.8617821      0.5341142              1
      4178.0000         1.3735       754.7842         49.761       56.56949         1.1844         1.2322       -48.8553      -2.360317      0.5014786      0.9761348
      4178.5000         1.3575       741.1523        48.3966       54.46073         1.2587         1.3004        -50.999      -4.511051      0.4566113      0.9384026
      4179.0000         1.2304       727.5088        48.2896       54.29097         1.3453         1.4021       -53.4017      -6.920784      0.4529993      0.8961266
      4179.5000         1.1641       793.4189        49.4454       56.06855         1.2999         1.3721       -57.0419      -10.56802      0.4908202        0.83214
      4180.0000         1.1191         899.54          48.17       54.09701         1.2341          1.296       -58.1754      -11.70855      0.4488725      0.8121306
      4180.5000         1.0453       1014.799        46.4875       51.49772         1.1176         1.2198       -59.2715      -12.81169      0.3935685      0.7927774
      4181.0000         0.9266       1114.811         45.748        50.3526         1.0011         1.1438       -60.1616      -13.70882      0.3692043      0.7770382
      4181.5000         0.9042       1192.279        46.1433       50.95742         0.9387         1.0709       -60.7726      -14.32685      0.3820728      0.7661955
