#------------------------------------------------------------------------------
# Created by    : vladimir.rabinovich
# Created on    : 09/19/2023 17:21:35
#------------------------------------------------------------------------------
~Version Information Section
VERS.           2.0     :   CWLS log ASCII Standard - VERSION 2.0
WRAP.           NO      :   One line per depth step
~Well Information Section
#MNEM       .UNIT                                         VALUE :DESCRIPTION
#------------------------------------------------------------------------------
STRT        .FT                                            4200 :START DEPTH
STOP        .FT                                            8641 :STOP DEPTH
STEP        .FT                                             0.5 :STEP      
NULL        .                                           -999.25 :NULL      
COMP        .                                       HUNT OIL CO :COMPANY   
WELL        .                               OCS G25526 ST00BP00 :WELL      
FLD         .                                           WILDCAT :FIELD     
LOC         .                                                   :LOCATION  
CNTY        .                             GALVESTON LARGE BLOCK :LOCATION  
STAT        .                                             TEXAS :STATE     
CTRY        .                                     UNITED STATES :COUNTRY   
SRVC        .                                                   :SERVICE COMPANY
DATE        .                             9/13/2023 11:19:33 AM :LOG DATE  
API         .                                    42706404520000 :API NUMBER
UWI         .                                    42706404520000 :UNIQUE WELL ID
XCOORD      .                                  1090250.84236946 :SURFACE X 
YCOORD      .                                  10532258.5226608 :SURFACE Y 
LAT         .                                         29.010895 :LATITUDE  
LON         .                                        -94.721682 :LONGITUDE 
ELEV        .FT                                             108 :ELEVATION VALUE
ELEV_TYPE   .                                                KB :ELEVATION REFERENCE TYPE
~Curve Information Section
#MNEM       .UNIT                                      API CODE :CURVE DESCRIPTION
#------------------------------------------------------------------------------
DEPT        .FT                                                 :DEPTH     
CALI        .IN                                                 :          
DCAL        .IN                                                 :          
DFL         .OHMM                                               :          
DLOD        .LB                                                 :          
DPHI        .DEC                                                :          
DRHO        .G/C3                                               :          
GR          .GAPI                                               :          
GR_NORM     .GAPI                                               :GammaRay Normalized
HDCN        .MMHO                                               :          
HO24        .OHMM                                               :          
HO30        .OHMM                                               :          
HO40        .OHMM                                               :          
HO60        .OHMM                                               :          
HO90        .OHMM                                               :          
HT24        .OHMM                                               :          
HT30        .OHMM                                               :          
HT40        .OHMM                                               :          
HT60        .OHMM                                               :          
HT90        .OHMM                                               :          
NPHI        .DEC                                                :          
RHOB        .G/C3                                               :          
RWA         .OHMM                                               :          
SP_NORM     .MV                                                 :SP Normalized
SPA         .MV                                                 :          
TENS        .LBS                                                :          
VSH_GR      .V/V                                                :Volume of Shale from GR
VSH_SP      .V/V                                                :Volume of Shale from SP
~A        DEPTH           CALI           DCAL            DFL           DLOD           DPHI           DRHO             GR        GR_NORM           HDCN           HO24           HO30           HO40           HO60           HO90           HT24           HT30           HT40           HT60           HT90           NPHI           RHOB            RWA        SP_NORM            SPA           TENS         VSH_GR         VSH_SP
# ...
      7450.0000         14.351          2.101         0.7025       1465.327         0.2246        -0.0039        90.0802        91.2354       1668.979         0.6131         0.6115         0.6103         0.6088         0.6069         0.6017         0.6011         0.6006         0.5999         0.5992         0.3618         2.2795         0.0632      -12.78741       147.0885       3777.344              1      0.8282911
      7450.5000        14.4594         2.2094         0.6804        1449.02         0.2188        -0.0025        89.2875       90.35184        1643.35         0.6125         0.6117          0.611         0.6102         0.6092         0.6077         0.6079         0.6081         0.6083         0.6085         0.3566         2.2889         0.0639      -13.00216       146.9938       3762.159              1      0.8245235
      7451.0000        14.7441         2.4941         0.6891       1451.058         0.2107         0.0022        86.8051       87.58498       1612.818         0.6089         0.6109         0.6124         0.6144         0.6169         0.6144         0.6158         0.6169         0.6183           0.62         0.3457         2.3023         0.0606      -13.28404       146.8695       3752.264              1      0.8195782
      7451.5000          14.86           2.61         0.7172       1420.484         0.2027         0.0052        86.1688       86.87575       1578.722         0.6329         0.6359         0.6383         0.6414         0.6452         0.6244         0.6267         0.6284         0.6307         0.6334         0.3316         2.3156         0.0518      -12.85454       147.0589        3753.97              1      0.8271133
      7452.0000         14.456          2.206         0.7535       1438.829         0.1971         0.0069        86.5026       87.24781       1572.167         0.6511         0.6524         0.6534         0.6548         0.6564         0.6291         0.6308         0.6322         0.6339         0.6361         0.3269         2.3248         0.0503      -12.18372       147.3547       3764.206              1      0.8388821
      7452.5000        14.4003         2.1503         0.7069        1436.79         0.2058         0.0039        84.4583       84.96922       1610.058         0.6295         0.6293         0.6292          0.629         0.6287         0.6209          0.621          0.621          0.621         0.6211         0.3348         2.3104         0.0564      -12.14358       147.3724       3775.637              1      0.8395863
      7453.0000        14.2218         1.9718         0.6591       1444.944         0.2127         0.0083        78.5861       78.42406        1654.88         0.5975         0.5955         0.5939         0.5919         0.5895          0.612           0.61         0.6085         0.6066         0.6043         0.3495          2.299          0.063      -13.25708       146.8814       3781.438      0.9664695      0.8200511
      7453.5000        14.1952         1.9452         0.6373       1457.173         0.2051         0.0183        75.9421       75.47706       1652.602         0.6077         0.6033            0.6         0.5957         0.5906         0.6178         0.6146         0.6121         0.6089         0.6051         0.3609         2.3115         0.0594      -14.24989       146.4436       3780.073      0.9037672      0.8026335
      7454.0000         14.297          2.047         0.7019       1457.173         0.1943         0.0241        78.9929       78.87749       1607.267         0.6531         0.6487         0.6453         0.6409         0.6357         0.6347         0.6315         0.6291         0.6259         0.6222         0.3557         2.3295         0.0547      -14.46464       146.3489       3776.149      0.9761168       0.798866
      7454.5000        13.9812         1.7312         0.7061       1446.982          0.193         0.0226        83.7073       84.13216         1574.8          0.662         0.6591         0.6568         0.6539         0.6504         0.6473         0.6442         0.6418         0.6387          0.635         0.3459         2.3315         0.0548      -13.33757       146.8459       3773.249              1      0.8186392
      7455.0000         13.951          1.701         0.7161        1449.02          0.203         0.0131        85.5952       86.23642       1568.107         0.6466          0.643         0.6402         0.6367         0.6324         0.6533         0.6494         0.6463         0.6424         0.6377         0.3532          2.315         0.0625      -12.12998       147.3784       3773.931              1      0.8398249
      7455.5000        14.0508         1.8008         0.6964       1457.173         0.2021         0.0076         87.384       88.23022       1554.994         0.6596         0.6543         0.6502          0.645         0.6388         0.6639         0.6586         0.6545         0.6493         0.6431         0.3608         2.3165         0.0671      -11.78121       147.5322       3775.979              1      0.8459436
      7456.0000        14.0714         1.8214          0.726       1432.714         0.1929         0.0062        87.5769       88.44521       1525.264         0.6909         0.6835         0.6779         0.6708         0.6622         0.6809         0.6744         0.6694         0.6632         0.6556         0.3499         2.3317         0.0554      -11.31154       147.7393       3769.666              1      0.8541835
      7456.5000        14.1151         1.8651         0.7132       1444.944         0.1862         0.0092        86.8937       87.68372       1499.153         0.7078         0.6995         0.6932         0.6853         0.6758         0.6942         0.6872         0.6818         0.6751          0.667         0.3484         2.3427         0.0552      -9.849063       148.3842        3762.67              1       0.879841
      7457.0000        14.2516         2.0016         0.7268       1428.638         0.1853         0.0156        87.6239       88.49761       1492.802         0.7084          0.701         0.6954         0.6883         0.6797         0.6953         0.6887         0.6838         0.6774         0.6699         0.3627         2.3443         0.0624      -8.480705       148.9876       3756.017              1      0.9038473
      7457.5000        14.2044         1.9544         0.7134       1418.445         0.1897         0.0163        89.9602       91.10165       1506.507         0.6923         0.6859          0.681         0.6748         0.6674         0.6868         0.6809         0.6764         0.6707         0.6638         0.3674         2.3371         0.0625      -7.554753       149.3959       3753.458              1       0.920092
      7458.0000        14.2089         1.9589         0.6885       1420.484         0.1933         0.0153        87.3162       88.15465       1520.302         0.6714         0.6664         0.6627         0.6579         0.6521         0.6798         0.6742         0.6698         0.6644         0.6578         0.3644          2.331         0.0616      -7.286473       149.5142       3761.818              1      0.9247987
      7458.5000        14.1864         1.9364         0.7021       1420.484         0.1954         0.0189        79.7804       79.75524       1506.628         0.6739         0.6678         0.6632         0.6572         0.6501         0.6892         0.6827         0.6777         0.6713         0.6637         0.3677         2.3275         0.0692      -7.273116       149.5201       3771.372      0.9947923       0.925033
      7459.0000        14.1237         1.8737         0.7296       1434.753         0.1947         0.0223        74.1689       73.50066       1454.969         0.7183          0.709         0.7019          0.693         0.6824         0.7189         0.7107         0.7045         0.6967         0.6873          0.362         2.3287         0.0679      -7.393744       149.4669       3775.637      0.8617161      0.9229168
      7459.5000        14.1243         1.8743         0.8144       1438.829         0.1863         0.0273        74.4453       73.80872       1399.092         0.7913         0.7788         0.7693         0.7574         0.7434         0.7486         0.7398         0.7332         0.7248         0.7147         0.3437         2.3427          0.058      -7.420734        149.455       3769.154      0.8682707      0.9224433
