#------------------------------------------------------------------------------
# Created by    : vladimir.rabinovich
# Created on    : 09/19/2023 17:19:38
#------------------------------------------------------------------------------
~Version Information Section
VERS.           2.0     :   CWLS log ASCII Standard - VERSION 2.0
WRAP.           NO      :   One line per depth step
~Well Information Section
#MNEM       .UNIT                                         VALUE :DESCRIPTION
#------------------------------------------------------------------------------
STRT        .FT                                            9400 :START DEPTH
STOP        .FT                                           17100 :STOP DEPTH
STEP        .FT                                             0.5 :STEP      
NULL        .                                           -999.25 :NULL      
COMP        .                                   FOREST OIL CORP :COMPANY   
WELL        .                               OCS G18937 ST00BP00 :WELL      
FLD         .                            HIGH ISLAND BLOCK 0116 :FIELD     
LOC         .                                                   :LOCATION  
CNTY        .                           HIGH ISLAND LARGE BLOCK :LOCATION  
STAT        .                                             TEXAS :STATE     
CTRY        .                                     UNITED STATES :COUNTRY   
SRVC        .                                                   :SERVICE COMPANY
DATE        .                             9/13/2023 11:19:48 AM :LOG DATE  
API         .                                    42708405250000 :API NUMBER
UWI         .                                    42708405250000 :UNIQUE WELL ID
XCOORD      .                                  1337259.97993026 :SURFACE X 
YCOORD      .                                  10628189.4209318 :SURFACE Y 
LAT         .                                         29.282461 :LATITUDE  
LON         .                                        -93.951246 :LONGITUDE 
ELEV        .FT                                              93 :ELEVATION VALUE
ELEV_TYPE   .                                                KB :ELEVATION REFERENCE TYPE
~Curve Information Section
#MNEM       .UNIT                                      API CODE :CURVE DESCRIPTION
#------------------------------------------------------------------------------
DEPT        .FT                                                 :DEPTH     
AHT10       .OHMM                                               :          
AHT20       .OHMM                                               :          
AHT30       .OHMM                                               :          
AHT60       .OHMM                                               :          
AHT90       .OHMM                                               :          
CALI        .IN                                                 :          
COND        .MMHO                                               :          
DTCO        .US/F                                               :          
GR          .GAPI                                               :          
GR_NORM     .GAPI                                               :GammaRay Normalized
HDRA        .G/CC                                               :          
NPOR        .FRAC                                               :          
RHOZ        .G/CC                                               :          
VSH_GR      .V/V                                                :Volume of Shale from GR
~A        DEPTH          AHT10          AHT20          AHT30          AHT60          AHT90           CALI           COND           DTCO             GR        GR_NORM           HDRA           NPOR           RHOZ         VSH_GR
# ...
     11452.0000          0.625            0.6          0.587          0.552          0.525          9.271       1904.762        102.716         52.737       64.56218         -0.004          0.287          2.357      0.6715357
     11452.5000          0.613          0.583          0.577          0.543          0.518          9.366       1930.502        104.015         52.924       64.75542         -0.011          0.288          2.334      0.6756471
     11453.0000          0.605          0.583          0.569          0.541          0.516          9.354       1937.985        104.794         50.675       62.39085         -0.013          0.285          2.325      0.6253372
     11453.5000          0.601          0.584          0.568          0.545          0.519          9.377       1926.782        104.994          52.02           63.8          -0.01          0.314          2.324       0.655319
     11454.0000          0.589          0.572          0.568          0.549          0.523          9.366       1912.046        104.419         49.875       61.54463         -0.006          0.297          2.332      0.6073325
     11454.5000          0.585           0.57           0.57          0.556          0.529           9.33       1890.359        103.722         52.927       64.74611         -0.003          0.291          2.343      0.6754491
     11455.0000          0.591           0.58          0.575          0.561          0.535          9.318       1869.159        103.562         54.145       66.02189         -0.003          0.279          2.354      0.7025934
     11455.5000          0.596          0.588          0.579          0.566          0.539          9.307       1855.288        103.385           55.2       67.12654         -0.005          0.271          2.357      0.7260966
     11456.0000          0.594           0.59          0.582          0.571          0.543          9.236       1841.621        102.675         57.258       69.28432         -0.004           0.28          2.367      0.7720068
     11456.5000           0.59          0.589          0.583          0.574          0.546          9.248       1831.502        102.139         54.493       66.37795         -0.004          0.292          2.372      0.7101692
     11457.0000          0.594          0.594          0.586          0.576          0.548          9.271       1824.818        102.153         55.246       67.16548         -0.004          0.258          2.374      0.7269251
     11457.5000          0.604          0.602          0.588          0.577          0.548          9.283       1824.818        102.709         56.165       68.12733         -0.006           0.27          2.362      0.7473899
     11458.0000          0.611          0.609          0.591          0.576          0.547          9.248       1828.154         103.23         58.466       70.54025         -0.008          0.285          2.358      0.7987288
     11458.5000          0.608          0.608          0.594          0.577          0.548          9.248       1824.818        103.835         58.486       70.55815         -0.007          0.306          2.361      0.7991096
     11459.0000          0.601            0.6          0.595          0.578          0.548           9.26       1824.818        100.666         59.224       71.32993         -0.007          0.293          2.366      0.8155304
     11459.5000          0.607          0.604          0.598          0.578          0.549           9.26       1821.494        102.268         57.428       69.44102         -0.005          0.278           2.37       0.775341
     11460.0000          0.621          0.619          0.603          0.577          0.548           9.26       1824.818        104.507         56.353       68.30916         -0.006          0.296          2.365      0.7512587
     11460.5000          0.622           0.62          0.603          0.575          0.545           9.26       1834.862        105.197         50.629       62.29584         -0.004          0.303          2.372      0.6233157
     11461.0000           0.61          0.608          0.596          0.572          0.543          9.271       1841.621        105.438         53.108       64.89568         -0.003          0.277          2.378      0.6786314
     11461.5000          0.603          0.602          0.591          0.568           0.54          9.236       1851.852        105.339         54.916       66.79096         -0.001            0.3          2.385      0.7189566
     11462.0000          0.603          0.602           0.59          0.568          0.539           9.26       1855.288        105.074         58.997       71.07291         -0.003          0.313          2.377      0.8100618
     11462.5000          0.605          0.603          0.591          0.569           0.54          9.248       1851.852        105.727         62.976       75.24773         -0.006          0.288          2.363      0.8988879
     11463.0000          0.605          0.602          0.591          0.569           0.54          9.271       1851.852        104.359         60.963       73.13097         -0.009          0.272          2.351      0.8538504
     11463.5000          0.606          0.603           0.59          0.568          0.539          9.295       1855.288        105.316          58.89        70.9512         -0.009          0.291          2.353      0.8074724
     11464.0000           0.61          0.606          0.588          0.566          0.538           9.33       1858.736        104.669         54.091       65.90913         -0.009          0.281          2.359      0.7001944
     11464.5000          0.605          0.604          0.587          0.565          0.536          9.307       1865.672         103.94         54.898       66.75338         -0.008          0.289          2.364       0.718157
     11465.0000          0.594          0.591          0.588          0.565          0.537          9.283       1862.197        104.571         54.396       66.22315         -0.008          0.315          2.366      0.7068756
     11465.5000          0.596          0.589          0.586          0.565          0.537          9.295       1862.197        104.431         51.405        63.0795         -0.008          0.322          2.364      0.6399893
     11466.0000          0.598            0.6          0.585          0.562          0.534          9.283       1872.659        104.788         54.267       66.08148         -0.005           0.31          2.361      0.7038613
     11466.5000          0.586          0.595          0.582          0.559          0.531          9.307       1883.239         105.31         51.264       62.92522         -0.002          0.277          2.351      0.6367068
     11467.0000          0.592          0.577          0.579          0.557          0.529          9.307       1890.359        105.054         52.093       63.79255          0.001          0.302          2.359      0.6551606
     11467.5000          0.604          0.585          0.579          0.558          0.529          9.271       1890.359        104.911         49.804       61.38599          0.003          0.289          2.375      0.6039573
     11468.0000          0.608           0.61          0.578          0.558          0.529           9.26       1890.359        105.258         51.651       63.32223         -0.001          0.268          2.375      0.6451538
     11468.5000          0.593          0.594           0.57          0.549          0.521          9.283       1919.386        104.281         53.512       65.27316         -0.006          0.285          2.359       0.686663
     11469.0000           0.57          0.568          0.562          0.541          0.514           9.26       1945.525        104.856         51.282       62.92855          -0.01          0.261          2.336      0.6367776
     11469.5000          0.572          0.564           0.56          0.539          0.512          9.283       1953.125        104.934         49.575       61.13308         -0.009          0.293          2.332      0.5985762
