#------------------------------------------------------------------------------
# Created by    : vladimir.rabinovich
# Created on    : 09/19/2023 17:20:57
#------------------------------------------------------------------------------
~Version Information Section
VERS.           2.0     :   CWLS log ASCII Standard - VERSION 2.0
WRAP.           NO      :   One line per depth step
~Well Information Section
#MNEM       .UNIT                                         VALUE :DESCRIPTION
#------------------------------------------------------------------------------
STRT        .FT                                             598 :START DEPTH
STOP        .FT                                           10008 :STOP DEPTH
STEP        .FT                                             0.5 :STEP      
NULL        .                                           -999.25 :NULL      
COMP        .                                        SUN OIL CO :COMPANY   
WELL        .                               OCS G01712 ST00BP00 :WELL      
FLD         .                                           WILDCAT :FIELD     
LOC         .                                                   :LOCATION  
CNTY        .                                BRAZOS LARGE BLOCK :LOCATION  
STAT        .                                             TEXAS :STATE     
CTRY        .                                     UNITED STATES :COUNTRY   
SRVC        .                                                   :SERVICE COMPANY
DATE        .                             9/13/2023 11:18:52 AM :LOG DATE  
API         .                                    42704300120000 :API NUMBER
UWI         .                                    42704300120000 :UNIQUE WELL ID
XCOORD      .                                   818594.06951761 :SURFACE X 
YCOORD      .                                  10373365.4427938 :SURFACE Y 
LAT         .                                         28.560597 :LATITUDE  
LON         .                                        -95.560517 :LONGITUDE 
ELEV        .FT                                              89 :ELEVATION VALUE
ELEV_TYPE   .                                                KB :ELEVATION REFERENCE TYPE
~Curve Information Section
#MNEM       .UNIT                                      API CODE :CURVE DESCRIPTION
#------------------------------------------------------------------------------
DEPT        .FT                                                 :DEPTH     
ASN         .OHMM                                               :          
CALI        .IN                                                 :          
CILD        .MMHO                                               :          
ILD         .OHMM                                               :          
SP          .MV                                                 :          
SP_NORM     .MV                                                 :SP Normalized
VSH_SP      .V/V                                                :Volume of Shale from SP
~A        DEPTH            ASN           CALI           CILD            ILD             SP        SP_NORM         VSH_SP
# ...
      3713.5000          0.619        14.8108       2612.918         0.3402       -103.438      -52.15891              0
      3714.0000         0.6221         14.813       2600.406         0.3386      -103.5878      -52.30735              0
      3714.5000         0.6159        14.8152       2590.387         0.3366      -103.4817      -52.19989              0
      3715.0000         0.6092         14.817       2703.641         0.3347      -103.3756      -52.09244              0
      3715.5000         0.6014        14.8175       2965.133         0.3327      -103.2695      -51.98498   0.0002945545
      3716.0000         0.5937        14.8179       3017.887         0.3308      -103.1401      -51.85422    0.002858405
      3716.5000         0.5865        14.8183       3045.281          0.329      -102.9609      -51.67366    0.006398743
      3717.0000         0.5785        14.8191       3024.762         0.3325      -102.7698      -51.48121     0.01017238
      3717.5000         0.5663        14.8203       2999.043          0.336      -102.5421      -51.25215      0.0146637
      3718.0000         0.5697        14.8214       2971.832         0.3395      -102.4364       -51.1451     0.01676275
      3718.5000         0.5871        14.8226       2932.238          0.343      -102.6823      -51.38964      0.0119679
      3719.0000         0.6071        14.8237        2858.73         0.3464      -103.1289      -51.83488    0.003237556
      3719.5000         0.6016        14.8265       2873.668         0.3496      -103.2327      -51.93732    0.001228931
      3720.0000         0.5961        14.8294       2895.695         0.3527      -102.9565      -51.65977    0.006671158
      3720.5000         0.5906        14.8322       2870.832         0.3559      -102.6473      -51.34922     0.01276046
      3721.0000          0.585         14.835       2837.816          0.359      -102.3373      -51.03786      0.0188654
      3721.5000         0.5793        14.8362       2801.121          0.362      -102.1118        -50.811     0.02331363
      3722.0000         0.5729        14.8346       2768.355         0.3651      -101.8724      -50.57025     0.02803436
      3722.5000         0.5665        14.8331       2743.496         0.3681      -101.5291      -50.22559     0.03479236
      3723.0000         0.5582        14.8315       2712.715         0.3708      -101.0736      -49.76874     0.04375024
      3723.5000         0.5496        14.8298       2688.141         0.3716      -100.5981      -49.29188     0.05310044
      3724.0000          0.541        14.8228       2628.164         0.3724       -99.7717      -48.46412     0.06933092
      3724.5000         0.5299        14.8158       2585.715         0.3732       -95.5739      -44.26497      0.1516674
      3725.0000         0.5264        14.8089       2566.547          0.374       -92.5964      -41.28611      0.2100763
      3725.5000         0.5304        14.8019       2523.051         0.3748        -89.619      -38.30736      0.2684832
      3726.0000         0.5345        14.7978       2449.859         0.3756       -86.6415       -35.3285      0.3268921
      3726.5000         0.5438        14.7955       2386.961         0.3757       -83.6641      -32.34974      0.3852991
      3727.0000         0.5548        14.7933       2315.637         0.3759       -84.3723      -33.05659      0.3714395
      3727.5000         0.5659         14.791       2337.961          0.376       -86.0132      -34.69613      0.3392916
      3728.0000         0.5738        14.7888       2379.453         0.3761       -87.4889      -36.17048      0.3103828
      3728.5000         0.5792        14.7892       2508.035         0.3763       -88.6207      -37.30091      0.2882174
      3729.0000         0.5907         14.791       2575.855         0.3745       -94.6093      -43.28816      0.1708204
      3729.5000         0.6005        14.7929       2804.852         0.3722       -95.1498      -43.82731      0.1602488
      3730.0000         0.6073        14.7947       2856.113           0.37       -95.4956      -44.17175      0.1534951
      3730.5000         0.6141        14.7965       2875.434         0.3684       -95.8983      -44.57309      0.1456256
      3731.0000         0.6208        14.7986       2922.223         0.3675       -96.3036      -44.97704      0.1377052
      3731.5000         0.6266        14.8008       2954.789         0.3667       -97.0937      -45.76578      0.1222397
      3732.0000         0.6322         14.803       3003.242         0.3658       -98.8271      -47.49783     0.08827785
      3732.5000         0.6377        14.8051       3041.727          0.366      -100.0212      -48.69057     0.06489076
      3733.0000         0.6583        14.8076       3041.801         0.3673      -100.0605      -48.72852     0.06414675
      3733.5000         0.7033        14.8104       3028.391         0.3686      -100.0997      -48.76636     0.06340475
      3734.0000         0.6955        14.8132        3015.52         0.3693      -100.1459       -48.8112      0.0625255
      3734.5000         0.6841         14.816       3002.652          0.364      -100.2068      -48.87075     0.06135791
      3735.0000         0.6727        14.8188       2989.801         0.3588      -100.2677      -48.93029     0.06019039
      3735.5000         0.6613        14.8205       2976.965         0.3539      -100.3679      -49.02913     0.05825237
      3736.0000         0.6488        14.8221       2964.125         0.3518      -100.5222      -49.18208     0.05525335
      3736.5000         0.6362        14.8237           2948         0.3491      -100.7521      -49.41062      0.0507722
      3737.0000         0.6237        14.8252       2930.078         0.3452        -101.15      -49.80717     0.04299672
      3737.5000         0.6111        14.8268       2906.496         0.3413      -101.4406      -50.09641     0.03732539
      3738.0000         0.6015        14.8286       2916.355         0.3374      -101.0403      -49.69475     0.04520095
      3738.5000         0.5922        14.8307       3263.117         0.3334      -100.5376      -49.19069     0.05508445
      3739.0000         0.5829        14.8327       3292.129          0.329       -99.9646      -48.61634     0.06634634
      3739.5000         0.5736        14.8348       3242.879         0.3293       -99.4838      -48.13419     0.07580028
      3740.0000         0.5628        14.8368       3220.367         0.3328       -98.8246      -47.47363     0.08875245
      3740.5000         0.5519        14.8342       3197.844         0.3364       -98.6791      -47.32677     0.09163195
      3741.0000         0.5375        14.8317       3175.332         0.3404       -99.1135      -47.75982     0.08314088
      3741.5000         0.5195        14.8291       3145.574         0.3444       -99.5977      -48.24266     0.07367332
      3742.0000         0.4999        14.8265       3087.398         0.3484       -99.8257       -48.4693     0.06922942
      3742.5000         0.5165         14.822       3014.652         0.3524       -99.4476      -48.08985     0.07666966
      3743.0000          0.533        14.8224       2940.172         0.3564       -99.1091      -47.74999     0.08333356
      3743.5000         0.5495        14.8228       2865.688         0.3604       -98.8248      -47.46433     0.08893465
      3744.0000         0.5601        14.8232       2791.203         0.3644       -98.5391      -47.17728      0.0945632
      3744.5000         0.5707        14.8236       2716.719         0.3684       -98.2048      -46.84163      0.1011446
      3745.0000         0.5813         14.824       2681.863         0.3724       -97.8475      -46.48297      0.1081771
      3745.5000         0.5919        14.8243       2465.051         0.3764       -97.4146      -46.04871       0.116692
      3746.0000         0.6028        14.8247       2439.629         0.3804       -96.9812      -45.61395      0.1252166
      3746.5000         0.6139        14.8251       2413.328         0.3844       -96.6504       -45.2818      0.1317295
