#------------------------------------------------------------------------------
# Created by    : vladimir.rabinovich
# Created on    : 09/19/2023 17:20:24
#------------------------------------------------------------------------------
~Version Information Section
VERS.           2.0     :   CWLS log ASCII Standard - VERSION 2.0
WRAP.           NO      :   One line per depth step
~Well Information Section
#MNEM       .UNIT                                         VALUE :DESCRIPTION
#------------------------------------------------------------------------------
STRT        .FT                                            2979 :START DEPTH
STOP        .FT                                           11003 :STOP DEPTH
STEP        .FT                                             0.5 :STEP      
NULL        .                                           -999.25 :NULL      
COMP        .                                        TEXACO USA :COMPANY   
WELL        .                               OCS G01821 ST00BP00 :WELL      
FLD         .                                           WILDCAT :FIELD     
LOC         .                                                   :LOCATION  
CNTY        .                           HIGH ISLAND LARGE BLOCK :LOCATION  
STAT        .                                             TEXAS :STATE     
CTRY        .                                     UNITED STATES :COUNTRY   
SRVC        .                                                   :SERVICE COMPANY
DATE        .                             9/13/2023 11:19:15 AM :LOG DATE  
API         .                                    42708300170000 :API NUMBER
UWI         .                                    42708300170000 :UNIQUE WELL ID
XCOORD      .                                  1345073.13508324 :SURFACE X 
YCOORD      .                                  10640242.4404634 :SURFACE Y 
LAT         .                                         29.315788 :LATITUDE  
LON         .                                        -93.927032 :LONGITUDE 
ELEV        .FT                                              74 :ELEVATION VALUE
ELEV_TYPE   .                                                KB :ELEVATION REFERENCE TYPE
~Curve Information Section
#MNEM       .UNIT                                      API CODE :CURVE DESCRIPTION
#------------------------------------------------------------------------------
DEPT        .FT                                                 :DEPTH     
ASN         .OHMM                                               :          
CILD        .MMHO                                               :          
ILD         .OHMM                                               :          
SP          .MV                                                 :          
SP_NORM     .MV                                                 :SP Normalized
VSH_SP      .V/V                                                :Volume of Shale from SP
~A        DEPTH            ASN           CILD            ILD             SP        SP_NORM         VSH_SP
# ...
      6171.0000         0.9043       1296.781         0.7406       -46.2261       1.046627              1
      6171.5000          0.901       1289.324         0.7319       -46.5985      0.6742287              1
      6172.0000         0.8977       1260.975         0.7231       -46.9859      0.2868271              1
      6172.5000          0.903       1232.625         0.7143       -47.3735     -0.1007729              1
      6173.0000         0.9095       1204.277         0.7201       -47.7534     -0.4806709              1
      6173.5000         0.9161       1175.953         0.7331       -48.0148     -0.7420731              1
      6174.0000         0.9226       1142.779         0.7462       -48.2764      -1.003674      0.9999165
      6174.5000         0.9305       1101.279         0.7592       -48.3159      -1.043171      0.9990188
      6175.0000         0.9454       1059.781         0.7723       -47.8466     -0.5738716              1
      6175.5000         0.9603       1018.283         0.7853       -47.3766     -0.1038704              1
      6176.0000         0.9752       984.6592         0.7984       -46.9067      0.3660278              1
      6176.5000         0.9901       967.4854         0.8119       -46.4374      0.8353271              1
      6177.0000          1.005       950.3359         0.8272       -45.9675       1.305229              1
      6177.5000         1.0186       933.1611         0.8425       -45.4976       1.775127              1
      6178.0000         1.0281       916.6709         0.8578       -45.2279       2.044827              1
      6178.5000         1.0376       913.7021         0.8731       -44.9606       2.312126              1
      6179.0000         1.0471       910.7344         0.8884       -44.6931       2.579628              1
      6179.5000         1.0566       907.7656         0.9037        -44.454       2.818729              1
      6180.0000         1.0658       904.7969          0.919       -44.3702       2.902527              1
      6180.5000         1.0686       906.7432         0.9343       -44.2864       2.986328              1
      6181.0000         1.0714       909.8398         0.9401       -44.2026       3.070129              1
      6181.5000         1.0742       912.9365         0.9358       -44.1188       3.153927              1
      6182.0000         1.0782       916.0303         0.9315        -44.035       3.237728              1
      6182.5000         1.0851       926.5742         0.9248       -43.9512       3.321529              1
      6183.0000         1.0785       938.2734         0.9156       -43.8674       3.405327              1
      6183.5000         1.0671       949.9609         0.9064       -43.8117       3.461029              1
      6184.0000         1.0472       961.6602         0.8971       -43.7652       3.507526              1
      6184.5000         1.0272       973.3604         0.8879       -43.7186       3.554127              1
      6185.0000         1.0149       980.8223         0.8804       -43.6721       3.600628              1
      6185.5000         1.0211       986.5781         0.8853       -43.6255       3.647228              1
      6186.0000         1.0273       992.3281         0.8903        -43.579       3.693729              1
      6186.5000         1.0221       998.0781         0.8952       -43.5325       3.740227              1
      6187.0000         1.0145       1003.834         0.8969        -43.486       3.786728              1
      6187.5000         1.0065       1009.584         0.8912       -43.4394       3.833328              1
      6188.0000         0.9984       1015.333         0.8856       -43.4361       3.836628              1
      6188.5000         0.9921       1021.083         0.8827       -43.4462       3.826527              1
      6189.0000         1.0011       1019.727         0.8855       -43.4562       3.816528              1
      6189.5000           1.01       1015.505         0.8884       -43.4663       3.806427              1
      6190.0000         1.0119       1002.834         0.8912       -43.4763       3.796429              1
      6190.5000         1.0094       968.1348          0.902       -43.6832       3.589527              1
      6191.0000         1.0045       933.4863         0.9204       -44.3883       2.884426              1
      6191.5000         1.0036       898.8379         0.9389       -45.7453       1.527428              1
      6192.0000         1.0661       878.0381         0.9573       -47.1842     0.08852768              1
      6192.5000         1.1249       860.2637         0.9796       -48.6926      -1.419872      0.9904575
      6193.0000         1.1767       842.4648         1.0136       -50.2023      -2.929573      0.9561461
      6193.5000         1.2212       824.6904         1.0477       -53.0925      -5.819771      0.8904598
      6194.0000         1.2566       806.8906         1.0817       -56.1069      -8.834171      0.8219507
      6194.5000         1.2855       789.2158         1.1172       -58.9103      -11.63757      0.7582369
      6195.0000         1.3079       774.5547         1.1532       -61.2182      -13.94547      0.7057847
      6195.5000         1.3254       763.5918         1.1891       -62.7949      -15.52217      0.6699507
      6196.0000         1.3322       781.0918         1.1944       -63.2729      -16.00017       0.659087
      6196.5000         1.3245       815.8398         1.1847       -61.9048      -14.63207      0.6901802
      6197.0000         1.3169       850.6387          1.175       -60.6546      -13.38187      0.7185938
      6197.5000         1.3093       885.3877          1.144       -59.4031      -12.13037       0.747037
      6198.0000         1.3016       909.4375         1.1035        -62.158      -14.88527      0.6844256
      6198.5000         1.2928       931.4863         1.0629       -65.5673      -18.29457      0.6069416
      6199.0000         1.2818       953.5352         1.0224       -70.0565      -22.78378      0.5049142
      6199.5000         1.2708        975.585         0.9831       -71.8989      -24.62617      0.4630415
      6200.0000         1.2598       997.6094          0.948       -72.7419      -25.46917      0.4438825
      6200.5000         1.2468       1019.958         0.9129       -73.5848      -26.31207      0.4247256
      6201.0000           1.23       1042.633          0.878       -74.4291      -27.15637       0.405537
      6201.5000         1.2131       1065.281         0.8574       -75.2721      -27.99937      0.3863778
      6202.0000         1.1963        1087.93         0.8368       -75.8289      -28.55618      0.3737233
      6202.5000         1.1784        1110.58         0.8236        -76.356      -29.08327      0.3617437
      6203.0000         1.1597       1123.768         0.8186       -76.8835      -29.61077      0.3497552
      6203.5000          1.141        1134.43         0.8137       -75.5638      -28.29107      0.3797484
      6204.0000         1.1238       1145.078         0.8097       -71.4519      -24.17917      0.4732007
      6204.5000         1.1087       1115.504         0.8139       -67.1713      -19.89857       0.570487
      6205.0000         1.0936        1083.58         0.8181       -63.8639      -16.59117      0.6456552
      6205.5000         1.0783       1063.557         0.8223       -60.7204      -13.44767      0.7170983
      6206.0000         1.0626       1043.557         0.8265       -58.1182      -10.84547      0.7762393
      6206.5000         1.0469       1023.559         0.8307       -56.2112      -8.938473      0.8195801
      6207.0000         1.0326       1003.534         0.8349       -54.3018      -7.029072      0.8629757
      6207.5000         1.0205       983.5342         0.8418       -52.4147      -5.141972      0.9058643
      6208.0000         1.0084       987.9092         0.8496        -50.545       -3.27227      0.9483575
      6208.5000         0.9964       1005.134         0.8574       -48.7919      -1.519173      0.9882006
