#------------------------------------------------------------------------------
# Created by    : vladimir.rabinovich
# Created on    : 09/19/2023 17:22:50
#------------------------------------------------------------------------------
~Version Information Section
VERS.           2.0     :   CWLS log ASCII Standard - VERSION 2.0
WRAP.           NO      :   One line per depth step
~Well Information Section
#MNEM       .UNIT                                         VALUE :DESCRIPTION
#------------------------------------------------------------------------------
STRT        .FT                                            2472 :START DEPTH
STOP        .FT                                            8382 :STOP DEPTH
STEP        .FT                                             0.5 :STEP      
NULL        .                                           -999.25 :NULL      
COMP        .                                 EPL OIL & GAS LLC :COMPANY   
WELL        .                               OCS G07215 ST00BP00 :WELL      
FLD         .                                 BRAZOS BLOCK 0376 :FIELD     
LOC         .                                                   :LOCATION  
CNTY        .                                BRAZOS LARGE BLOCK :LOCATION  
STAT        .                                             TEXAS :STATE     
CTRY        .                                     UNITED STATES :COUNTRY   
SRVC        .                                                   :SERVICE COMPANY
DATE        .                             9/13/2023 11:19:08 AM :LOG DATE  
API         .                                    42704402290000 :API NUMBER
UWI         .                                    42704402290000 :UNIQUE WELL ID
XCOORD      .                                  871225.230552878 :SURFACE X 
YCOORD      .                                  10399792.7272756 :SURFACE Y 
LAT         .                                         28.636239 :LATITUDE  
LON         .                                        -95.398308 :LONGITUDE 
ELEV        .FT                                              95 :ELEVATION VALUE
ELEV_TYPE   .                                                KB :ELEVATION REFERENCE TYPE
~Curve Information Section
#MNEM       .UNIT                                      API CODE :CURVE DESCRIPTION
#------------------------------------------------------------------------------
DEPT        .FT                                                 :DEPTH     
DT          .US/F                                               :          
GR          .GAPI                                               :          
GR_NORM     .GAPI                                               :GammaRay Normalized
ILD         .OHMM                                               :          
ILM         .OHMM                                               :          
SFL         .OHMM                                               :          
SP          .MV                                                 :          
SP_NORM     .MV                                                 :SP Normalized
VSH_GR      .V/V                                                :Volume of Shale from GR
VSH_SP      .V/V                                                :Volume of Shale from SP
~A        DEPTH             DT             GR        GR_NORM            ILD            ILM            SFL             SP        SP_NORM         VSH_GR         VSH_SP
# ...
      8352.0000        -999.25        -999.25        -999.25         1.0796         0.9872         0.9796       -50.4474       -9.98497        -999.25      0.8272121
      8352.5000        -999.25        -999.25        -999.25         1.0732         0.9649          0.886       -47.5677       -7.10527        -999.25      0.8825909
      8353.0000        -999.25        -999.25        -999.25          1.067         0.9631         0.9155       -45.6038      -5.141373        -999.25      0.9203582
      8353.5000        -999.25        -999.25        -999.25         1.0562          0.986         0.9937       -44.7348      -4.272369        -999.25      0.9370698
      8354.0000        -999.25        -999.25        -999.25         1.0372         1.0051         1.0637       -44.1404      -3.677971        -999.25      0.9485006
      8354.5000        -999.25        -999.25        -999.25          1.005         1.0045         1.0863       -43.8129      -3.350471        -999.25      0.9547986
      8355.0000        -999.25        -999.25        -999.25         0.9705          0.982         1.0555       -43.6452       -3.18277        -999.25      0.9580237
      8355.5000        -999.25        -999.25        -999.25         0.9324         0.9476         1.0014       -43.6401       -3.17767        -999.25      0.9581217
      8356.0000        -999.25        -999.25        -999.25         0.8955         0.9055         0.9391       -43.6414       -3.17897        -999.25      0.9580967
      8356.5000        -999.25        -999.25        -999.25         0.8575         0.8636         0.8825       -43.6889      -3.226471        -999.25      0.9571832
      8357.0000        -999.25        -999.25        -999.25         0.8186         0.8253         0.8407       -43.7365      -3.274071        -999.25      0.9562679
      8357.5000        -999.25        -999.25        -999.25         0.7835         0.7972         0.7987       -43.8533      -3.390869        -999.25      0.9540218
      8358.0000        -999.25        -999.25        -999.25         0.7612         0.7749         0.7667       -43.9752      -3.512772        -999.25      0.9516774
      8358.5000        -999.25        -999.25        -999.25         0.7488         0.7579          0.749       -44.0438      -3.581371        -999.25      0.9503583
      8359.0000        -999.25        -999.25        -999.25         0.7455         0.7484         0.7427          -44.1      -3.637569        -999.25      0.9492775
      8359.5000        -999.25        -999.25        -999.25         0.7444         0.7384         0.7412        -44.099       -3.63657        -999.25      0.9492967
      8360.0000        -999.25        -999.25        -999.25         0.7456         0.7283         0.7411       -44.0939       -3.63147        -999.25      0.9493948
      8360.5000        -999.25        -999.25        -999.25         0.7475         0.7181         0.7448       -44.0887       -3.62627        -999.25      0.9494948
      8361.0000        -999.25        -999.25        -999.25         0.7507         0.7098         0.7488       -44.1038      -3.641373        -999.25      0.9492044
      8361.5000        -999.25        -999.25        -999.25          0.754         0.7037         0.7622       -44.1513      -3.688869        -999.25      0.9482909
      8362.0000        -999.25        -999.25        -999.25         0.7571         0.7002         0.7716       -44.1729      -3.710472        -999.25      0.9478756
      8362.5000        -999.25        -999.25        -999.25         0.7525         0.6989         0.7637       -44.0956      -3.633171        -999.25      0.9493621
      8363.0000        -999.25        -999.25        -999.25         0.7449         0.7022         0.7431       -44.3279      -3.865471        -999.25      0.9448948
      8363.5000        -999.25        -999.25        -999.25         0.7405         0.7054         0.7243       -44.4985      -4.036072        -999.25       0.941614
      8364.0000        -999.25        -999.25        -999.25         0.7432          0.715          0.707         -44.55       -4.08757        -999.25      0.9406236
      8364.5000        -999.25        -999.25        -999.25         0.7494         0.7388         0.6953       -44.3015      -3.839069        -999.25      0.9454025
      8365.0000        -999.25        -999.25        -999.25         0.7631         0.7595         0.6911       -43.9709      -3.508472        -999.25      0.9517602
      8365.5000        -999.25        -999.25        -999.25         0.7802         0.7757         0.7021       -43.5917      -3.129272        -999.25      0.9590524
      8366.0000        -999.25        -999.25        -999.25         0.8082          0.793         0.7461       -43.2255      -2.763069        -999.25      0.9660949
      8366.5000        -999.25        -999.25        -999.25         0.8377         0.8141         0.8156       -42.9523      -2.489872        -999.25      0.9713486
      8367.0000        -999.25        -999.25        -999.25         0.8686         0.8379         0.8954       -42.7974      -2.334972        -999.25      0.9743274
      8367.5000        -999.25        -999.25        -999.25         0.8876         0.8625          0.958       -42.8107       -2.34827        -999.25      0.9740717
      8368.0000        -999.25        -999.25        -999.25         0.9041         0.8869         0.9938       -42.9103      -2.447872        -999.25      0.9721563
      8368.5000        -999.25        -999.25        -999.25         0.9152         0.9051          1.004       -43.0308      -2.568371        -999.25       0.969839
      8369.0000        -999.25        -999.25        -999.25         0.9255         0.9073         0.9749       -42.8931      -2.430672        -999.25      0.9724871
      8369.5000        -999.25        -999.25        -999.25         0.9348         0.8996         0.9264       -42.6122      -2.149773        -999.25       0.977889
      8370.0000        -999.25        -999.25        -999.25          0.943         0.8863          0.889       -42.2173      -1.754871        -999.25      0.9854832
      8370.5000        -999.25        -999.25        -999.25         0.9486         0.8766         0.8762       -41.8917      -1.429272        -999.25      0.9917448
      8371.0000        -999.25        -999.25        -999.25         0.9535         0.8735         0.8817       -41.5897       -1.12727        -999.25      0.9975525
      8371.5000        -999.25        -999.25        -999.25         0.9564         0.8743         0.8928       -41.3234     -0.8609695        -999.25              1
      8372.0000        -999.25        -999.25        -999.25         0.9625         0.8869         0.9072       -41.3267     -0.8642693        -999.25              1
      8372.5000        -999.25        -999.25        -999.25          0.971         0.9005          0.929       -41.4197     -0.9572716        -999.25              1
      8373.0000        -999.25        -999.25        -999.25         0.9809         0.9165         0.9526        -41.556      -1.093571        -999.25      0.9982005
      8373.5000        -999.25        -999.25        -999.25         0.9917         0.9328         0.9759        -41.593      -1.130569        -999.25       0.997489
      8374.0000        -999.25        -999.25        -999.25              1         0.9494           0.99       -41.5664       -1.10397        -999.25      0.9980006
      8374.5000        -999.25        -999.25        -999.25         1.0055         0.9617         0.9996       -41.4561     -0.9936714        -999.25              1
      8375.0000        -999.25        -999.25        -999.25         1.0019         0.9715         1.0061       -41.1981      -0.735672        -999.25              1
      8375.5000        -999.25        -999.25        -999.25         0.9943         0.9643         1.0046       -40.9121     -0.4496727        -999.25              1
      8376.0000        -999.25        -999.25        -999.25         0.9816          0.949         0.9832        -40.602     -0.1395721        -999.25              1
