#------------------------------------------------------------------------------
# Created by    : vladimir.rabinovich
# Created on    : 09/19/2023 17:22:50
#------------------------------------------------------------------------------
~Version Information Section
VERS.           2.0     :   CWLS log ASCII Standard - VERSION 2.0
WRAP.           NO      :   One line per depth step
~Well Information Section
#MNEM       .UNIT                                         VALUE :DESCRIPTION
#------------------------------------------------------------------------------
STRT        .FT                                            2472 :START DEPTH
STOP        .FT                                            8382 :STOP DEPTH
STEP        .FT                                             0.5 :STEP      
NULL        .                                           -999.25 :NULL      
COMP        .                                 EPL OIL & GAS LLC :COMPANY   
WELL        .                               OCS G07215 ST00BP00 :WELL      
FLD         .                                 BRAZOS BLOCK 0376 :FIELD     
LOC         .                                                   :LOCATION  
CNTY        .                                BRAZOS LARGE BLOCK :LOCATION  
STAT        .                                             TEXAS :STATE     
CTRY        .                                     UNITED STATES :COUNTRY   
SRVC        .                                                   :SERVICE COMPANY
DATE        .                             9/13/2023 11:19:08 AM :LOG DATE  
API         .                                    42704402290000 :API NUMBER
UWI         .                                    42704402290000 :UNIQUE WELL ID
XCOORD      .                                  871225.230552878 :SURFACE X 
YCOORD      .                                  10399792.7272756 :SURFACE Y 
LAT         .                                         28.636239 :LATITUDE  
LON         .                                        -95.398308 :LONGITUDE 
ELEV        .FT                                              95 :ELEVATION VALUE
ELEV_TYPE   .                                                KB :ELEVATION REFERENCE TYPE
~Curve Information Section
#MNEM       .UNIT                                      API CODE :CURVE DESCRIPTION
#------------------------------------------------------------------------------
DEPT        .FT                                                 :DEPTH     
DT          .US/F                                               :          
GR          .GAPI                                               :          
GR_NORM     .GAPI                                               :GammaRay Normalized
ILD         .OHMM                                               :          
ILM         .OHMM                                               :          
SFL         .OHMM                                               :          
SP          .MV                                                 :          
SP_NORM     .MV                                                 :SP Normalized
VSH_GR      .V/V                                                :Volume of Shale from GR
VSH_SP      .V/V                                                :Volume of Shale from SP
~A        DEPTH             DT             GR        GR_NORM            ILD            ILM            SFL             SP        SP_NORM         VSH_GR         VSH_SP
# ...
      2496.5000        -999.25        34.4263       79.92163        -999.25        -999.25        -999.25        -999.25        -999.25      0.9983326        -999.25
      2497.0000        -999.25        33.4699       78.28289        -999.25        -999.25        -999.25        -999.25        -999.25      0.9634658        -999.25
      2497.5000        -999.25         32.619       76.82496        -999.25        -999.25        -999.25        -999.25        -999.25      0.9324459        -999.25
      2498.0000        -999.25         31.867       75.53647        -999.25        -999.25        -999.25        -999.25        -999.25      0.9050313        -999.25
      2498.5000        -999.25        31.5077       74.92085        -999.25        -999.25        -999.25        -999.25        -999.25       0.891933        -999.25
      2499.0000        -999.25        31.6019       75.08224        -999.25        -999.25        -999.25        -999.25        -999.25      0.8953667        -999.25
      2499.5000        -999.25        32.5189       76.65345        -999.25        -999.25        -999.25        -999.25        -999.25      0.9287968        -999.25
      2500.0000        -999.25        34.5535       80.13956        -999.25        -999.25        -999.25        -999.25        -999.25              1        -999.25
      2500.5000        -999.25        36.8367       84.05164        -999.25        -999.25        -999.25        -999.25        -999.25              1        -999.25
      2501.0000        -999.25        36.1741       82.91631        -999.25        -999.25        -999.25        -999.25        -999.25              1        -999.25
      2501.5000        -999.25        33.6632       78.61409        -999.25        -999.25        -999.25        -999.25        -999.25      0.9705126        -999.25
      2502.0000        -999.25        31.8545       75.51504        -999.25        -999.25        -999.25        -999.25        -999.25      0.9045753        -999.25
      2502.5000        -999.25        32.1138       75.95936        -999.25        -999.25        -999.25        -999.25        -999.25      0.9140289        -999.25
      2503.0000        -999.25        34.0659       79.30408        -999.25        -999.25        -999.25        -999.25        -999.25      0.9851931        -999.25
      2503.5000        -999.25         35.056       81.00056        -999.25        -999.25        -999.25        -999.25        -999.25              1        -999.25
      2504.0000        -999.25         34.054       79.28372        -999.25        -999.25        -999.25        -999.25        -999.25        0.98476        -999.25
      2504.5000        -999.25        32.5082        76.6351        -999.25        -999.25        -999.25        -999.25        -999.25      0.9284064        -999.25
      2505.0000        -999.25        31.9602       75.69616        -999.25        -999.25        -999.25        -999.25        -999.25      0.9084289        -999.25
      2505.5000        -999.25        32.5563       76.71752        -999.25        -999.25        -999.25        -999.25        -999.25        0.93016        -999.25
      2506.0000        -999.25         31.346       74.64378        -999.25        -999.25        -999.25        -999.25        -999.25      0.8860379        -999.25
      2506.5000        -999.25        30.7771       73.66901        -999.25        -999.25        -999.25        -999.25        -999.25      0.8652982        -999.25
      2507.0000        -999.25        33.2509       77.90768        -999.25        -999.25        -999.25        -999.25        -999.25      0.9554825        -999.25
      2507.5000        -999.25        40.8563       90.93885        -999.25        -999.25        -999.25        -999.25        -999.25              1        -999.25
      2508.0000       184.8516        45.0056       98.04835         0.4009         1.1068         0.7695       -30.1301      -1.228367              1      0.9944301
      2508.5000       167.3933        47.7632       101.1041         0.2442         0.7514         0.6697       -30.0917      -1.189966              1      0.9953667
      2509.0000       163.1892        48.8131       94.92028         0.2215         0.4473          0.625       -30.8686      -1.966867              1      0.9764178
      2509.5000        164.283        51.7745       92.01163         0.2549         0.3406         0.6832       -31.8259      -2.924166              1      0.9530692
      2510.0000       166.2485        59.3034       96.92901         0.3349         0.3266          0.792       -32.6409      -3.739166              1      0.9331911
      2510.5000       165.7319        67.7072       103.3455         0.4344         0.3409         0.8724       -32.5363      -3.634567              1      0.9357423
      2511.0000       160.1277        73.8127        105.824          0.515         0.4071         0.7493       -31.8566      -2.954866              1      0.9523203
      2511.5000       156.8403        75.0315       104.9133         0.5675         0.5092         0.6299       -31.0589      -2.157167              1      0.9717764
      2512.0000       150.1348        71.8086        99.5812         0.5999         0.5494          0.554       -30.3625      -1.460766              1      0.9887618
      2512.5000       146.1282        69.5297       95.86655         0.6211         0.5811         0.5466        -29.848     -0.9462662              1              1
      2513.0000       144.9978        67.6038       92.75676           0.63         0.6139         0.6555       -29.8383     -0.9365673              1              1
      2513.5000       144.8801        66.2605       90.64517         0.6322         0.6459         0.8119       -30.4826      -1.580866              1      0.9858325
      2514.0000       142.5608        65.2793       89.15405         0.6329         0.6644         0.9219       -32.2788      -3.377068              1      0.9420227
      2514.5000       136.3125        62.8671       85.21101         0.6391         0.6897         1.0176       -34.6546      -5.752865              1      0.8840765
      2515.0000       133.8752        60.2344        80.8902         0.6534         0.7319         1.0544       -35.7832      -6.881466              1      0.8565496
      2515.5000       134.9873        58.7961       78.61585         0.6758         0.7749         1.0419       -36.1866      -7.284866      0.9705501      0.8467106
      2516.0000       136.2581        57.7776        77.0608         0.7021         0.7963         0.9947       -36.0995      -7.197765      0.9374638       0.848835
      2516.5000       132.9622        58.8564        79.0993         0.7328         0.7903         0.9482        -35.735      -6.833267      0.9808361      0.8577252
      2517.0000       131.2544        60.0378        81.3136         0.7617         0.7808         0.9163       -35.3247      -6.422966              1      0.8677325
      2517.5000       133.1902        61.1564       83.42027         0.7768          0.777         0.9006       -35.0084      -6.106667              1      0.8754472
      2518.0000       135.3826        61.9374       84.94853         0.7821         0.7801         0.8854       -34.8682      -5.966465              1      0.8788667
      2518.5000       137.0715        61.8384       84.96896         0.7833          0.789         0.8635        -35.094      -6.192268              1      0.8733593
      2519.0000       138.8201        61.2726       84.18957         0.7736         0.8007         0.8431       -35.0225      -6.120766              1      0.8751033
      2519.5000       139.8301        60.5607       83.15986         0.7542         0.8156         0.8179       -34.9412      -6.039467              1      0.8770862
      2520.0000       138.3083        59.8212       82.08286         0.7344         0.7867         0.8182       -35.0609      -6.159168              1      0.8741666
      2520.5000       135.6384        58.8445       80.59941         0.7146          0.754         0.8373       -35.3751      -6.473366              1      0.8665033
