#------------------------------------------------------------------------------
# Created by    : vladimir.rabinovich
# Created on    : 09/19/2023 17:21:04
#------------------------------------------------------------------------------
~Version Information Section
VERS.           2.0     :   CWLS log ASCII Standard - VERSION 2.0
WRAP.           NO      :   One line per depth step
~Well Information Section
#MNEM       .UNIT                                         VALUE :DESCRIPTION
#------------------------------------------------------------------------------
STRT        .FT                                            4500 :START DEPTH
STOP        .FT                                           11014 :STOP DEPTH
STEP        .FT                                             0.5 :STEP      
NULL        .                                           -999.25 :NULL      
COMP        .                              FIELDWOOD ENERGY LLC :COMPANY   
WELL        .                               OCS G06156 ST00BP00 :WELL      
FLD         .                            HIGH ISLAND BLOCK 0116 :FIELD     
LOC         .                                                   :LOCATION  
CNTY        .                           HIGH ISLAND LARGE BLOCK :LOCATION  
STAT        .                                             TEXAS :STATE     
CTRY        .                                     UNITED STATES :COUNTRY   
SRVC        .                                                   :SERVICE COMPANY
DATE        .                             9/13/2023 11:19:57 AM :LOG DATE  
API         .                                    42708404240000 :API NUMBER
UWI         .                                    42708404240000 :UNIQUE WELL ID
XCOORD      .                                  1333979.30181128 :SURFACE X 
YCOORD      .                                  10635798.2403082 :SURFACE Y 
LAT         .                                         29.303317 :LATITUDE  
LON         .                                        -93.961735 :LONGITUDE 
ELEV        .FT                                             101 :ELEVATION VALUE
ELEV_TYPE   .                                                KB :ELEVATION REFERENCE TYPE
~Curve Information Section
#MNEM       .UNIT                                      API CODE :CURVE DESCRIPTION
#------------------------------------------------------------------------------
DEPT        .FT                                                 :DEPTH     
AT10        .OHMM                                               :          
AT20        .OHMM                                               :          
AT30        .OHMM                                               :          
AT60        .OHMM                                               :          
AT90        .OHMM                                               :          
CALI        .IN                                                 :          
DCAL        .IN                                                 :          
DPHI        .DEC                                                :          
DRHO        .G/C3                                               :          
DT2R        .US/F                                               :          
DT4P        .US/F                                               :          
GR          .GAPI                                               :          
GR_NORM     .GAPI                                               :GammaRay Normalized
NPOR        .DEC                                                :          
SP          .MV                                                 :          
SP_NORM     .MV                                                 :SP Normalized
TENS        .LBF                                                :          
VSH_GR      .V/V                                                :Volume of Shale from GR
VSH_SP      .V/V                                                :Volume of Shale from SP
~A        DEPTH           AT10           AT20           AT30           AT60           AT90           CALI           DCAL           DPHI           DRHO           DT2R           DT4P             GR        GR_NORM           NPOR             SP        SP_NORM           TENS         VSH_GR         VSH_SP
# ...
      7875.0000         0.8808         0.9349         1.0088         0.9578         1.0524        11.5731        -999.25         0.1826        -0.0287       209.3857        97.3578        46.2528        50.0677        -999.25       -53.5872       -34.6218       3566.863      0.3631425      0.5054029
      7875.5000         0.8171         0.8357          0.878         0.8722         0.9476        11.4529        -999.25         0.2431        -0.0387       218.1792       100.9591        49.0576       53.32928        -999.25       -53.8878      -35.13224       3566.863      0.4325379      0.4981109
      7876.0000         0.7767          0.783          0.799         0.8334         0.8789        11.4629        -999.25         0.2623        -0.0457       222.9773       101.0588        50.4605       54.96076        -999.25       -53.2861      -34.10752       3566.863      0.4672502      0.5127497
      7876.5000         0.7547         0.7858          0.779         0.8222         0.8391        11.4829        -999.25         0.2623        -0.0407       224.5754       101.2585        51.3629       56.01026        -999.25        -52.385      -32.57341       3576.844      0.4895799      0.5346656
      7877.0000         0.7762         0.8301         0.7931         0.8176         0.8416         11.493        -999.25         0.2575        -0.0397       222.9746       101.7582        52.2645       57.05882        -999.25       -51.7833      -31.54869       3556.883      0.5118898      0.5493044
      7877.5000         0.8054         0.8596         0.8074         0.8166         0.8639        11.5431        -999.25         0.2545        -0.0407       220.1794       101.4585         53.066         57.991        -999.25       -51.2825      -30.69565       3506.984      0.5317233      0.5614908
      7878.0000         0.8355         0.8735         0.8363         0.8469         0.8906        11.5832        -999.25         0.2527        -0.0417       223.7747       101.0588        53.8674       58.92305        -999.25       -50.9802      -30.18033       3487.023      0.5515543      0.5688525
      7878.5000         0.8622         0.9154         0.8644         0.8798         0.9196        11.6132        -999.25         0.2521        -0.0437       230.1719       100.2596        54.0681       59.15661        -999.25       -50.6813      -29.67079       3497.004      0.5565236      0.5761316
      7879.0000         0.8827          0.945         0.8937         0.9091          0.953        11.6432        -999.25         0.2563        -0.0457        228.573        99.4607        53.8677       58.92378        -999.25       -51.3828      -30.86332       3526.945      0.5515698      0.5590955
      7879.5000         0.8992         0.9648         0.9287         0.9404         0.9886        11.6333        -999.25         0.2629        -0.0477       225.7751        98.5619        53.4669       58.45793        -999.25       -50.6813       -29.6688       3546.906      0.5416581        0.57616
      7880.0000         0.9217         1.0039         0.9467         0.9559         1.0182        11.6433        -999.25         0.2569        -0.0487       225.7742        98.2622        52.7655       57.64254        -999.25       -50.5811      -29.49733       3546.906      0.5243095      0.5786096
      7880.5000         0.9431         1.0336          0.954         0.9467         1.0201        11.6533        -999.25         0.2479        -0.0467        227.772        98.9612        52.1643       56.94367        -999.25       -50.7816      -29.83746       3576.844      0.5094398      0.5737505
      7881.0000         0.9548         1.0071         0.9293         0.9277         1.0038        11.6733        -999.25         0.2479        -0.0447       230.1697        99.5603        53.1665       58.10921        -999.25       -51.4829      -31.02965       3596.805      0.5342386      0.5567193
      7881.5000         0.9257         0.9443           0.89         0.9029         0.9779        11.6733        -999.25         0.2527        -0.0407       234.1643       100.2594        54.6696        59.8572        -999.25       -51.0811      -30.34504       3606.785      0.5714298      0.5664994
      7882.0000         0.8749         0.8944         0.8573         0.8673         0.9479        11.7035        -999.25         0.2521        -0.0347       235.7642       101.0585        55.8717       61.25518        -999.25       -50.6813      -29.66383       3536.883       0.601174      0.5762309
      7882.5000         0.8203         0.8603         0.8268          0.815         0.8972        11.7635        -999.25         0.2497        -0.0317       234.9636       101.8586        55.9719       61.37188        -999.25       -51.5831      -31.19715       3497.027      0.6036571      0.5543264
      7883.0000         0.7718         0.8239         0.7712         0.7521           0.85        11.8036        -999.25         0.2545        -0.0347       232.9666       101.3586        55.3713       60.67371        -999.25       -53.3856      -34.26291       3516.965      0.5888023      0.5105298
      7883.5000         0.7331         0.7788          0.728         0.7159         0.8071        11.7535        -999.25         0.2695        -0.0407        230.969        99.1609        53.1653       58.10878        -999.25       -55.4907      -37.84351       3536.965      0.5342295      0.4593784
      7884.0000         0.7149         0.7574          0.704            0.7         0.8049        11.6633        -999.25         0.2856        -0.0447       232.1677        96.3635        50.5602       55.07979        -999.25        -56.493      -39.54782       3526.945      0.4697828      0.4350311
      7884.5000         0.7371         0.7615         0.7202         0.7204         0.8164        11.6533        -999.25          0.297        -0.0497       233.3665        94.3656        48.3562        52.5172        -999.25       -56.2922      -39.20519       3526.945      0.4152596      0.4399259
      7885.0000         0.7736         0.8067         0.7463         0.7677         0.8518        11.6533        -999.25         0.2874        -0.0487       234.9648        93.9669        49.0579       53.33332        -999.25       -55.0907      -37.15998       3556.883      0.4326239      0.4691432
      7885.5000         0.8128         0.8602         0.7953         0.8215         0.8899        11.6834        -999.25         0.2695        -0.0387       234.1658        96.0643        51.9633       56.71188        -999.25        -53.287      -34.09019       3576.844      0.5045081      0.5129973
      7886.0000         0.8532         0.9065         0.8508         0.8712         0.9271        11.7536        -999.25         0.2473        -0.0317       230.9734         98.366        56.3799       61.84766        -999.25       -51.1827      -30.50897       3556.883        0.61378      0.5641576
      7886.5000         0.8834         0.9132         0.8989          0.904         0.9204        11.8036        -999.25         0.2317        -0.0297       226.9724       102.3578        61.6825       68.01367        -999.25       -50.6813       -29.6549       3546.906      0.7449718      0.5763586
      7887.0000         0.8769         0.8803         0.8898         0.9017         0.8928        11.7535        -999.25         0.2311        -0.0317       221.7786       102.0582        63.1863       69.76247        -999.25        -51.884      -31.70016       3536.926      0.7821803      0.5471405
      7887.5000           0.87         0.8713         0.8723           0.88         0.9044        11.6834        -999.25         0.2437        -0.0347        216.582       101.1586        62.2848        68.7144        -999.25       -52.9864      -33.57478       3536.926      0.7598809      0.5203602
      7888.0000         0.8745         0.9049         0.8646         0.8718         0.9304        11.6433        -999.25         0.2539        -0.0387       214.5852         100.26        58.6774       64.51995        -999.25       -52.8854      -33.40195       3536.926      0.6706372      0.5228294
