#------------------------------------------------------------------------------
# Created by    : vladimir.rabinovich
# Created on    : 09/19/2023 17:19:44
#------------------------------------------------------------------------------
~Version Information Section
VERS.           2.0     :   CWLS log ASCII Standard - VERSION 2.0
WRAP.           NO      :   One line per depth step
~Well Information Section
#MNEM       .UNIT                                         VALUE :DESCRIPTION
#------------------------------------------------------------------------------
STRT        .FT                                             490 :START DEPTH
STOP        .FT                                           13420 :STOP DEPTH
STEP        .FT                                             0.5 :STEP      
NULL        .                                           -999.25 :NULL      
COMP        .                                 MESA PETROLEUM CO :COMPANY   
WELL        .                                     ST TR 00012-L :WELL      
FLD         .                                           WILDCAT :FIELD     
LOC         .                                                   :LOCATION  
CNTY        .                           HIGH ISLAND LARGE BLOCK :LOCATION  
STAT        .                                             TEXAS :STATE     
CTRY        .                                     UNITED STATES :COUNTRY   
SRVC        .                                                   :SERVICE COMPANY
DATE        .                             9/13/2023 11:19:15 AM :LOG DATE  
API         .                                    42708302120000 :API NUMBER
UWI         .                                    42708302120000 :UNIQUE WELL ID
XCOORD      .                                  1361115.25412243 :SURFACE X 
YCOORD      .                                  10723579.9964947 :SURFACE Y 
LAT         .                                        29.5453665 :LATITUDE  
LON         .                                       -93.8786547 :LONGITUDE 
ELEV        .FT                                              80 :ELEVATION VALUE
ELEV_TYPE   .                                                KB :ELEVATION REFERENCE TYPE
~Curve Information Section
#MNEM       .UNIT                                      API CODE :CURVE DESCRIPTION
#------------------------------------------------------------------------------
DEPT        .FT                                                 :DEPTH     
ASFL        .OHMM                                               :          
CILD        .MMHO                                               :          
GR          .GAPI                                               :          
GR_NORM     .GAPI                                               :GammaRay Normalized
ILD         .OHMM                                               :          
SP          .MV                                                 :          
SP_NORM     .MV                                                 :SP Normalized
VSH_GR      .V/V                                                :Volume of Shale from GR
~A        DEPTH           ASFL           CILD             GR        GR_NORM            ILD             SP        SP_NORM         VSH_GR
# ...
      1345.5000         0.6815       1122.814         75.606       75.31644         1.1011      -164.4363      -5.029175      0.9003499
      1346.0000         0.7005       1057.352        77.6661       77.37728          1.094      -164.4021      -5.013458      0.9441975
      1346.5000         0.7044        1057.77        76.5729       76.28483         1.0867      -164.3477      -4.977539      0.9209538
      1347.0000           0.68       1078.977        75.1907       74.90337         1.0684      -164.2698      -4.918106       0.891561
      1347.5000          0.624       1114.355        73.2806       72.99401         1.0501      -164.1584       -4.82518      0.8509364
      1348.0000         0.6183       1149.703        71.8306       71.54475         1.0319      -164.0264      -4.711639       0.820101
      1348.5000         0.6135       1175.813        70.5449       70.25979         1.0136      -163.8501      -4.553818      0.7927614
      1349.0000          0.609        1204.08        69.4022       69.11783         1.0019      -163.6501      -4.372299      0.7684644
      1349.5000         0.6045       1231.967         68.413       68.12938         0.9906      -163.6006      -4.341263      0.7474336
      1350.0000         0.5993       1250.092        67.4238       67.14091         0.9792      -163.5303      -4.289444      0.7264025
      1350.5000         0.5904        1266.09        66.3717       66.08955         0.9767      -163.4402      -4.217819      0.7040331
      1351.0000         0.5807        1284.73         65.186       64.90459         0.9757      -163.5049       -4.30098      0.6788211
      1351.5000         0.5696       1307.805        64.4198       64.13914         0.9747      -163.6301      -4.444656      0.6625348
      1352.0000         0.5607        1337.23        65.2308       64.95087         0.9745      -163.8145      -4.647522      0.6798058
      1352.5000         0.5532       1359.121        65.4725       65.19333         0.9757       -163.999      -4.850494      0.6849644
      1353.0000         0.5489       1379.738        66.2749       65.99647         0.9769      -164.1833      -5.053284      0.7020525
      1353.5000         0.5529       1393.041        66.6675       66.38981         0.9781      -164.4302      -5.318649      0.7104214
      1354.0000         0.5569       1402.398        66.7694       66.49245         0.9729      -164.6709       -5.57782      0.7126052
      1354.5000         0.5609        1373.52        66.8363       66.56009          0.962      -164.8865      -5.811905      0.7140445
      1355.0000          0.565       1349.795        66.8986       66.62312         0.9511      -165.2278      -6.171661      0.7153856
      1355.5000         0.5711       1330.227        66.7935       66.51878         0.9373      -165.1597       -6.12204      0.7131655
      1356.0000         0.5795       1312.299        66.6735       66.39951         0.9234      -165.0442      -6.025009      0.7106279
      1356.5000          0.588       1287.988        66.4231       66.14986         0.9095       -164.929      -5.928284      0.7053161
      1357.0000         0.5977       1251.969        66.1727       65.90019         0.9095      -164.8137      -5.831467      0.7000041
      1357.5000         0.6076       1230.508        65.5983       65.32653         0.9108      -164.6614      -5.697632      0.6877985
      1358.0000         0.6032        1216.76         64.485       64.21397         0.9121      -164.4739       -5.52861      0.6641271
      1358.5000         0.5988       1235.311        63.1519       62.88162         0.9135      -164.3027      -5.375885      0.6357792
      1359.0000          0.593       1282.799        60.2608       59.99126          0.915      -164.1536      -5.245239      0.5742821
      1359.5000         0.5873       1352.816        58.4374        58.1686         0.9166      -164.0493      -5.159424      0.5355022
      1360.0000         0.5808       1408.621        58.0717       57.80364         0.9105      -164.0354      -5.163986      0.5277371
      1360.5000         0.5724       1457.434         58.605       58.33768         0.8987      -164.0217      -5.168762      0.5390996
      1361.0000          0.564       1495.865        59.0242       58.75762         0.8868      -164.0447      -5.210236      0.5480345
      1361.5000         0.5551        1525.92        59.4435       59.17767         0.8735      -164.0742      -5.258209      0.5569717
      1362.0000         0.5462       1480.137        59.8629       59.59781         0.8562       -164.104      -5.306488      0.5659108
      1362.5000         0.5388       1511.877        60.2822       60.01785         0.8389      -164.2063      -5.427261      0.5748479
      1363.0000          0.534       1569.979        61.2584       60.99479         0.8219      -164.3052      -5.544632      0.5956338
      1363.5000         0.5291       1604.039        59.0349       58.77203          0.805      -164.3958      -5.653702       0.548341
      1364.0000         0.5248       1596.336        56.9939       56.73178         0.7908      -164.4861      -5.762482      0.5049314
      1364.5000         0.5211       1579.699        55.7364       55.47502         0.7859       -164.637      -5.931839      0.4781919
      1365.0000         0.5165       1553.277         54.498       54.23736         0.7809      -164.7856      -6.098923      0.4518587
      1365.5000         0.5095       1509.059        54.8727        54.6128         0.7928       -164.915       -6.24678      0.4598467
      1366.0000         0.5024       1471.148        55.5047       55.24554         0.8065      -165.0032       -6.35347      0.4733093
      1366.5000         0.5104       1436.182        56.4459       56.18748         0.8202      -165.0911      -6.459839      0.4933506
      1367.0000         0.5194        1407.24        57.6408       57.38313         0.8339      -165.1277      -6.514908      0.5187899
      1367.5000         0.5283       1393.014        59.1957       58.93877         0.8476      -165.1445      -6.550186      0.5518886
      1368.0000         0.5372       1371.756        61.3459       61.08971          0.867      -165.1597      -6.583862      0.5976533
      1368.5000         0.5461       1347.215        62.2045       61.94904         0.8869       -165.124       -6.56662      0.6159371
      1369.0000          0.553       1334.248        56.9202       56.66549         0.9067      -165.0886      -6.549698       0.503521
      1369.5000         0.5598       1324.604        55.2712       55.01722         0.9228      -164.9587      -6.438263      0.4684516
      1370.0000         0.5694       1319.578        53.3309       53.07767         0.9307       -164.719      -6.217041      0.4271845
      1370.5000         0.5755       1327.744        51.9634       51.71091         0.9275      -164.4604      -5.976929      0.3981046
      1371.0000         0.5683       1346.273        51.7847       51.53295         0.9213      -164.3728      -5.907791      0.3943181
      1371.5000         0.5564       1369.879        52.5942       52.34319          0.915      -164.4338      -5.987274      0.4115573
      1372.0000         0.5448       1384.197        53.4037       53.15343         0.9083      -164.4951      -6.067047      0.4287965
      1372.5000         0.5362       1395.803         54.355       54.10547         0.9013      -164.5562      -6.146606      0.4490526
      1373.0000         0.5275       1408.926         55.438       55.18922         0.8943       -164.644      -6.252884      0.4721111
      1373.5000         0.5213       1426.047        56.7178       56.46976         0.8874      -164.7605      -6.387848      0.4993566
      1374.0000         0.5158       1443.166        58.2202        57.9729         0.8822      -164.8979      -6.543732      0.5313383
      1374.5000           0.51       1462.137        59.5486       59.30204         0.8823      -165.0422      -6.706512      0.5596179
