#------------------------------------------------------------------------------
# Created by    : vladimir.rabinovich
# Created on    : 09/19/2023 17:22:50
#------------------------------------------------------------------------------
~Version Information Section
VERS.           2.0     :   CWLS log ASCII Standard - VERSION 2.0
WRAP.           NO      :   One line per depth step
~Well Information Section
#MNEM       .UNIT                                         VALUE :DESCRIPTION
#------------------------------------------------------------------------------
STRT        .FT                                            2472 :START DEPTH
STOP        .FT                                            8382 :STOP DEPTH
STEP        .FT                                             0.5 :STEP      
NULL        .                                           -999.25 :NULL      
COMP        .                                 EPL OIL & GAS LLC :COMPANY   
WELL        .                               OCS G07215 ST00BP00 :WELL      
FLD         .                                 BRAZOS BLOCK 0376 :FIELD     
LOC         .                                                   :LOCATION  
CNTY        .                                BRAZOS LARGE BLOCK :LOCATION  
STAT        .                                             TEXAS :STATE     
CTRY        .                                     UNITED STATES :COUNTRY   
SRVC        .                                                   :SERVICE COMPANY
DATE        .                             9/13/2023 11:19:08 AM :LOG DATE  
API         .                                    42704402290000 :API NUMBER
UWI         .                                    42704402290000 :UNIQUE WELL ID
XCOORD      .                                  871225.230552878 :SURFACE X 
YCOORD      .                                  10399792.7272756 :SURFACE Y 
LAT         .                                         28.636239 :LATITUDE  
LON         .                                        -95.398308 :LONGITUDE 
ELEV        .FT                                              95 :ELEVATION VALUE
ELEV_TYPE   .                                                KB :ELEVATION REFERENCE TYPE
~Curve Information Section
#MNEM       .UNIT                                      API CODE :CURVE DESCRIPTION
#------------------------------------------------------------------------------
DEPT        .FT                                                 :DEPTH     
DT          .US/F                                               :          
GR          .GAPI                                               :          
GR_NORM     .GAPI                                               :GammaRay Normalized
ILD         .OHMM                                               :          
ILM         .OHMM                                               :          
SFL         .OHMM                                               :          
SP          .MV                                                 :          
SP_NORM     .MV                                                 :SP Normalized
VSH_GR      .V/V                                                :Volume of Shale from GR
VSH_SP      .V/V                                                :Volume of Shale from SP
~A        DEPTH             DT             GR        GR_NORM            ILD            ILM            SFL             SP        SP_NORM         VSH_GR         VSH_SP
# ...
      3280.5000       149.7664        63.0876       83.98389          0.802         0.6842         0.7542       -52.6078       1.959705              1              1
      3281.0000       149.1362        64.3323       85.86298         0.8002          0.683         0.7819       -53.1624       1.408436              1              1
      3281.5000       148.2932         65.991       88.36888         0.7991         0.6838         0.7667       -53.7945      0.7796669              1              1
      3282.0000       147.1663        66.6058       89.29434         0.7991         0.6846          0.712       -54.3852      0.1922951              1              1
      3282.5000       145.6406        65.2458          87.23         0.8029         0.6851         0.6821       -54.9191     -0.3382759              1              1
      3283.0000       142.9233        63.8853       85.16493         0.8086         0.6852         0.6597       -55.3684     -0.7842484              1              1
      3283.5000       139.3416        62.6915       83.35221         0.8206         0.6874          0.659       -55.7175      -1.130016              1      0.9971107
      3284.0000        135.665         61.601       81.69591         0.8353         0.7028         0.6554       -56.0222      -1.431389              1      0.9904136
      3284.5000       131.7849        60.2368        79.6252         0.8486         0.7378         0.6316         -56.47      -1.875858      0.9920255      0.9805365
      3285.0000       125.6664        58.4537       76.92028         0.8576         0.7846         0.7289       -57.1864      -2.588928      0.9344741      0.9646905
      3285.5000       119.9043         56.366       73.75423         0.8646         0.8293         0.9341        -58.106      -3.505199      0.8671114      0.9443289
      3286.0000       113.3395        50.9379       65.53092         0.8654          0.854         1.1977       -59.2521      -4.647972      0.6921473      0.9189339
      3286.5000       111.1908        47.1089       59.72856         0.8545         0.8503         1.2022       -60.5386      -5.931141      0.5686928      0.8904191
      3287.0000       116.2229        45.5773       57.40446         0.8382         0.8359         1.0205       -61.8424      -7.231609      0.5192438      0.8615198
      3287.5000       124.9436         45.884       57.86345          0.824         0.7543         0.8035       -61.9512      -7.337078      0.5290096       0.859176
      3288.0000       139.6204        47.9204       60.94117         0.8099         0.7093         0.7118       -60.0797      -5.462254      0.5944929      0.9008388
      3288.5000       150.5593        51.1005       65.75043         0.7958         0.6815         0.6477       -57.6609      -3.040123      0.6968176      0.9546639
      3289.0000       152.2883        54.6713        71.1512         0.7848         0.6634         0.6934       -55.5319     -0.9077911      0.8117276              1
      3289.5000       155.3047        57.9064       76.04371         0.7782         0.6657         0.7525       -54.1796      0.4478378      0.9158236              1
      3290.0000       154.3242        60.6682       80.21967         0.7757         0.6718         0.7956       -53.3146       1.316166              1              1
      3290.5000       151.2444        62.4973       82.98354         0.7799         0.6826         0.7945       -53.0908       1.543293              1              1
      3291.0000       149.6348         63.715       84.82179         0.7924         0.6962         0.7693       -53.1872       1.450226              1              1
      3291.5000       148.2429        64.3345       85.75436         0.8107         0.7141          0.734       -53.3969       1.243855              1              1
      3292.0000        146.946        62.2433       82.58302         0.8324         0.7292         0.7122       -53.6572      0.9868851              1              1
      3292.5000       145.8257        60.8307       80.43905         0.8747          0.742         0.7128       -53.9522      0.6952133              1              1
      3293.0000       144.6228        59.5723       78.52852         0.8904         0.7495         0.7217       -54.1416        0.50914      0.9686919              1
      3293.5000       143.5557        59.2903       78.09625         0.8965         0.7543         0.7347       -54.1725      0.4815712      0.9594947              1
      3294.0000       142.8528        62.2313       82.54351         0.8892         0.7538         0.7554       -54.0996      0.5578003              1              1
      3294.5000       142.5725        64.2295       85.56341         0.8734          0.744         0.7558       -53.8981      0.7626305              1              1
      3295.0000       143.0508        65.6145       87.65493         0.8529         0.7299         0.7386       -53.4925       1.171558              1              1
      3295.5000       148.0647        66.1846       88.51666         0.8335         0.7127         0.7187       -52.9365       1.730888              1              1
      3296.0000       149.7039        65.6432       87.69657         0.8163         0.6869         0.6981        -52.355        2.31572              1              1
      3296.5000       150.9958         64.594       86.10767         0.7975         0.6605         0.6714       -51.8807        2.79335              1              1
      3297.0000       153.0657        65.1658       86.97292         0.7823         0.6384         0.6458       -51.5839       3.093479              1              1
      3297.5000       154.3345        66.8837       89.57334         0.7684         0.6242         0.6299       -51.4472       3.233505              1              1
      3298.0000       154.6338        69.0797       92.89759         0.7559         0.6163          0.623       -51.4733       3.210735              1              1
      3298.5000       154.6289         69.636        93.7394         0.7453          0.609         0.6187        -51.739       2.948368              1              1
      3299.0000       154.4368        68.3184       91.74416         0.7371         0.6023         0.6133       -52.0723       2.618397              1              1
      3299.5000       154.0244        66.6483       89.21523         0.7312         0.5978         0.6067       -52.4405       2.253529              1              1
      3300.0000       153.7622        63.8201       84.93298         0.7217         0.5832         0.5908       -52.8218       1.875553              1              1
      3300.5000       152.9431        61.4781       81.38682         0.7255         0.5843         0.5899       -52.9616       1.739082              1              1
      3301.0000       151.6494        61.5455       81.48842         0.7342         0.5911         0.5919       -52.9555       1.748512              1              1
      3301.5000       150.3691        62.2354       82.53249         0.7449         0.6003          0.598       -52.9006       1.806744              1              1
      3302.0000       149.8845        63.6646       84.69582         0.7605         0.6167         0.6097       -52.7064       2.004272              1              1
      3302.5000       148.7849        63.1269       83.88134         0.7855         0.6443         0.6233        -52.548          2.166              1              1
      3303.0000       147.0291        62.1009       82.32756         0.8135         0.6877         0.6438        -52.583       2.134331              1              1
      3303.5000       145.4355        61.9894       82.15832         0.8392         0.7265         0.6771       -52.9431       1.777561              1              1
      3304.0000       143.7913        62.1096       82.33987         0.8642         0.7662         0.7289       -53.3709       1.353092              1              1
      3304.5000       142.8752        61.3343       81.16565         0.8787         0.7835         0.7793       -53.8068      0.9205208              1              1
