#------------------------------------------------------------------------------
# Created by    : vladimir.rabinovich
# Created on    : 09/19/2023 17:20:39
#------------------------------------------------------------------------------
~Version Information Section
VERS.           2.0     :   CWLS log ASCII Standard - VERSION 2.0
WRAP.           NO      :   One line per depth step
~Well Information Section
#MNEM       .UNIT                                         VALUE :DESCRIPTION
#------------------------------------------------------------------------------
STRT        .FT                                             502 :START DEPTH
STOP        .FT                                           11475 :STOP DEPTH
STEP        .FT                                             0.5 :STEP      
NULL        .                                           -999.25 :NULL      
COMP        .                                      SHELL OIL CO :COMPANY   
WELL        .                                OCS 00730 ST00BP00 :WELL      
FLD         .                                           WILDCAT :FIELD     
LOC         .                                                   :LOCATION  
CNTY        .                             GALVESTON LARGE BLOCK :LOCATION  
STAT        .                                             TEXAS :STATE     
CTRY        .                                     UNITED STATES :COUNTRY   
SRVC        .                                                   :SERVICE COMPANY
DATE        .                             9/13/2023 11:19:42 AM :LOG DATE  
API         .                                    42706000250000 :API NUMBER
UWI         .                                    42706000250000 :UNIQUE WELL ID
XCOORD      .                                  958538.282477158 :SURFACE X 
YCOORD      .                                   10357465.718335 :SURFACE Y 
LAT         .                                         28.524406 :LATITUDE  
LON         .                                        -95.123893 :LONGITUDE 
ELEV        .FT                                              80 :ELEVATION VALUE
ELEV_TYPE   .                                                KB :ELEVATION REFERENCE TYPE
~Curve Information Section
#MNEM       .UNIT                                      API CODE :CURVE DESCRIPTION
#------------------------------------------------------------------------------
DEPT        .FT                                                 :DEPTH     
ASN         .OHMM                                               :          
CILD        .MMHO                                               :          
ILD         .OHMM                                               :          
LAT         .OHMM                                               :          
LN          .OHMM                                               :          
SP          .MV                                                 :          
SP_NORM     .MV                                                 :SP Normalized
VSH_SP      .V/V                                                :Volume of Shale from SP
~A        DEPTH            ASN           CILD            ILD            LAT             LN             SP        SP_NORM         VSH_SP
# ...
      3422.5000          0.857        -999.25        -999.25         0.9852         0.5733       -41.1298     -0.4107208              1
      3423.0000         0.8534        -999.25        -999.25         0.9849         0.5685       -41.2946     -0.5735359              1
      3423.5000         0.8498        -999.25        -999.25         0.9847         0.5637       -41.4595     -0.7364426              1
      3424.0000         0.8463        -999.25        -999.25         0.9844         0.5588       -41.6244     -0.8993568              1
      3424.5000         0.8427        -999.25        -999.25         0.9842          0.555       -41.7892      -1.062164      0.9980574
      3425.0000         0.8391        -999.25        -999.25         0.9839         0.5522       -41.9541      -1.225079      0.9929663
      3425.5000         0.8356        -999.25        -999.25         0.9836         0.5493       -42.1406      -1.409588      0.9872004
      3426.0000          0.832        -999.25        -999.25         0.9834         0.5464       -42.3361        -1.6031      0.9811531
      3426.5000         0.8285        -999.25        -999.25         0.9831         0.5435       -42.5319      -1.796909      0.9750966
      3427.0000         0.8262        -999.25        -999.25         0.9828         0.5406       -42.7274      -1.990421      0.9690493
      3427.5000         0.8238        -999.25        -999.25         0.9825         0.5377       -42.9232      -2.184231      0.9629928
      3428.0000         0.8215        -999.25        -999.25          0.982         0.5348       -43.1188      -2.377846      0.9569423
      3428.5000         0.8191        -999.25        -999.25         0.9815         0.5319       -42.8334      -2.090454      0.9659233
      3429.0000         0.8168        -999.25        -999.25          0.981         0.5291       -42.4944      -1.749466      0.9765792
      3429.5000         0.8145        -999.25        -999.25         0.9806         0.5262       -42.1554      -1.408474      0.9872352
      3430.0000         0.8121        -999.25        -999.25         0.9801         0.5233       -41.8163      -1.067387      0.9978942
      3430.5000         0.8101        -999.25        -999.25         0.9796         0.5204       -41.4772     -0.7262993              1
      3431.0000         0.8081        -999.25        -999.25         0.9791         0.5175       -41.1382     -0.3853073              1
      3431.5000         0.8062        -999.25        -999.25         0.9786         0.5146       -41.0067     -0.2518196              1
      3432.0000         0.8042        -999.25        -999.25         0.9781         0.5117        -40.892      -0.135128              1
      3432.5000         0.8022        -999.25        -999.25         0.9776         0.5109       -40.8289    -0.07004166              1
      3433.0000         0.8002        -999.25        -999.25         0.9771          0.512        -41.105     -0.3441544              1
      3433.5000          0.799        -999.25        -999.25         0.9766         0.5131       -41.3813     -0.6184654              1
      3434.0000         0.8005        -999.25        -999.25         0.9761         0.5142       -41.6577     -0.8928757              1
      3434.5000         0.8019        -999.25        -999.25         0.9756         0.5153        -41.934      -1.167183      0.9947755
      3435.0000         0.8026        -999.25        -999.25         0.9751         0.5164       -42.2103      -1.441498      0.9862032
      3435.5000         0.8012        -999.25        -999.25         0.9747         0.5174       -42.4866      -1.715805      0.9776311
      3436.0000         0.7998        -999.25        -999.25         0.9742         0.5185       -42.7337      -1.960918      0.9699713
      3436.5000         0.7984        -999.25        -999.25         0.9737         0.5196       -42.9203      -2.145531      0.9642022
      3437.0000         0.7971        -999.25        -999.25         0.9732         0.5207        -43.107      -2.330238      0.9584301
      3437.5000         0.7984        -999.25        -999.25         0.9727         0.5218       -43.2935      -2.514751       0.952664
      3438.0000         0.8012        -999.25        -999.25         0.9722         0.5228       -43.2209      -2.440163      0.9549949
      3438.5000          0.804        -999.25        -999.25         0.9717         0.5239        -42.915      -2.132275      0.9646164
      3439.0000         0.8068        -999.25        -999.25         0.9712          0.525       -42.6091      -1.824387      0.9742379
      3439.5000         0.8097        -999.25        -999.25         0.9707         0.5261       -42.3032      -1.516495      0.9838595
      3440.0000         0.8157        -999.25        -999.25         0.9702         0.5272       -41.9974      -1.208706      0.9934779
      3440.5000         0.8223        -999.25        -999.25         0.9697         0.5283       -41.6915     -0.9008179              1
      3441.0000          0.829        -999.25        -999.25         0.9692         0.5316       -41.3858     -0.5931282              1
      3441.5000         0.8356        -999.25        -999.25         0.9687         0.5351       -41.1894     -0.3947411              1
      3442.0000         0.8423        -999.25        -999.25         0.9682         0.5386       -41.0811     -0.2844505              1
      3442.5000         0.8489        -999.25        -999.25         0.9677         0.5422       -40.9727     -0.1740608              1
      3443.0000         0.8507        -999.25        -999.25         0.9672         0.5457       -40.8644    -0.06377029              1
      3443.5000         0.8496        -999.25        -999.25         0.9667         0.5492        -40.756      0.0466156              1
      3444.0000         0.8484        -999.25        -999.25         0.9662         0.5528       -40.6477      0.1569023              1
      3444.5000         0.8472        -999.25        -999.25         0.9657         0.5563       -40.8604     -0.0538063              1
      3445.0000         0.8492        -999.25        -999.25         0.9652         0.5598       -41.0835     -0.2749176              1
      3445.5000         0.8511        -999.25        -999.25         0.9647         0.5633       -41.3067     -0.4961281              1
      3446.0000         0.8531        -999.25        -999.25         0.9642         0.5669         -41.53     -0.7174377              1
      3446.5000          0.855        -999.25        -999.25         0.9637         0.5704       -41.7532     -0.9386482              1
      3447.0000         0.8587        -999.25        -999.25         0.9633         0.5739       -41.7745      -0.957962              1
      3447.5000         0.8634        -999.25        -999.25         0.9628         0.5775       -41.6407     -0.8221741              1
      3448.0000         0.8682        -999.25        -999.25         0.9623          0.581       -41.5069     -0.6863823              1
      3448.5000         0.8729        -999.25        -999.25         0.9618         0.5845       -41.3732     -0.5506935              1
      3449.0000         0.8776        -999.25        -999.25         0.9633         0.5881       -41.2394     -0.4149017              1
      3449.5000         0.8824        -999.25        -999.25         0.9664         0.5884       -41.1056     -0.2791138              1
      3450.0000         0.8871        -999.25        -999.25         0.9694         0.5874       -40.9434     -0.1149292              1
      3450.5000         0.8889        -999.25        -999.25         0.9725         0.5865       -40.6535      0.1769638              1
      3451.0000         0.8863        -999.25        -999.25         0.9755         0.5855       -40.3636      0.4688492              1
      3451.5000         0.8836        -999.25        -999.25         0.9786         0.5845       -40.0737      0.7607422              1
