#------------------------------------------------------------------------------
# Created by    : vladimir.rabinovich
# Created on    : 09/19/2023 17:19:56
#------------------------------------------------------------------------------
~Version Information Section
VERS.           2.0     :   CWLS log ASCII Standard - VERSION 2.0
WRAP.           NO      :   One line per depth step
~Well Information Section
#MNEM       .UNIT                                         VALUE :DESCRIPTION
#------------------------------------------------------------------------------
STRT        .FT                                            3966 :START DEPTH
STOP        .FT                                           12200 :STOP DEPTH
STEP        .FT                                             0.5 :STEP      
NULL        .                                           -999.25 :NULL      
COMP        .                       HOUSTON OIL & MINERALS CORP :COMPANY   
WELL        .                                ST TR 00526-L SW/4 :WELL      
FLD         .                                           CAVALLO :FIELD     
LOC         .                                                   :LOCATION  
CNTY        .                      MATAGORDA ISLAND LARGE BLOCK :LOCATION  
STAT        .                                             TEXAS :STATE     
CTRY        .                                     UNITED STATES :COUNTRY   
SRVC        .                                                   :SERVICE COMPANY
DATE        .                             9/13/2023 11:19:05 AM :LOG DATE  
API         .                                    42703302090000 :API NUMBER
UWI         .                                    42703302090000 :UNIQUE WELL ID
XCOORD      .                                  601997.830501628 :SURFACE X 
YCOORD      .                                  10286578.1750905 :SURFACE Y 
LAT         .                                        28.3077871 :LATITUDE  
LON         .                                       -96.2273179 :LONGITUDE 
ELEV        .FT                                             113 :ELEVATION VALUE
ELEV_TYPE   .                                                KB :ELEVATION REFERENCE TYPE
~Curve Information Section
#MNEM       .UNIT                                      API CODE :CURVE DESCRIPTION
#------------------------------------------------------------------------------
DEPT        .FT                                                 :DEPTH     
ASFL        .OHMM                                               :          
CILD        .MMHO                                               :          
ILD         .OHMM                                               :          
SP          .MV                                                 :          
SP_NORM     .MV                                                 :SP Normalized
VSH_SP      .V/V                                                :Volume of Shale from SP
~A        DEPTH           ASFL           CILD            ILD             SP        SP_NORM         VSH_SP
# ...
      6170.0000         0.8685           1792         0.5098          -92.7      -37.26806      0.5098911
      6170.5000          0.796           1832         0.4902          -93.3      -37.86571      0.5018148
      6171.0000         0.7721           1880         0.4706          -95.7      -40.26334      0.4694143
      6171.5000         0.7721           1920          0.451          -98.4      -42.96099      0.4329596
      6172.0000         0.8861           1968         0.4314         -100.8      -45.35863      0.4005591
      6172.5000          0.992       2016.327         0.4118         -103.5      -48.05627      0.3641045
      6173.0000          0.992        2024.49         0.4118      -106.1882      -50.74211      0.3278093
      6173.5000          0.992       2032.653         0.3922      -108.5647      -53.11625      0.2957264
      6174.0000         1.1004       2032.653         0.3922      -111.2382      -55.78739      0.2596299
      6174.5000          1.208       2032.653         0.3922      -113.7618      -58.30863       0.225559
      6175.0000         1.3283           1960          0.451      -113.7618      -58.30627      0.2255909
      6175.5000         1.4239           1888         0.5098      -113.7618      -58.30391      0.2256228
      6176.0000         1.4159           1816          0.549      -113.1676      -57.70736      0.2336844
      6176.5000            1.4           1744         0.5686      -112.4265      -56.96389      0.2437312
      6177.0000         1.3801           1672         0.6078      -110.6294      -55.16444      0.2680482
      6177.5000         1.3641           1600         0.6471      -108.7206      -53.25327      0.2938747
      6178.0000         1.3442       1529.412         0.6863      -107.3824      -51.91272      0.3119903
      6178.5000         1.3482       1458.823         0.6863      -106.3412      -50.86916      0.3260925
      6179.0000         1.5841       1390.118         0.6863      -105.5971       -50.1227      0.3361798
      6179.5000         1.5801       1382.196         0.6863         -104.7      -49.22323      0.3483347
      6180.0000          1.541       1382.196         0.6863         -103.5      -48.02088      0.3645827
      6180.5000          1.506       1382.196         0.6863         -102.6      -47.11852      0.3767768
      6181.0000         1.4709       1382.196         0.6863         -101.4      -45.91616      0.3930249
      6181.5000         1.4709       1398.039         0.6863         -100.2      -44.71379      0.4092731
      6182.0000         1.4709       1427.451         0.6667          -99.3      -43.81144       0.421467
      6182.5000          1.412       1458.823         0.6471          -98.1      -42.60908      0.4377151
      6183.0000         1.4199       1490.196         0.6471          -96.9      -41.40672      0.4539632
      6183.5000         1.4845       1521.569         0.6275          -96.9      -41.40437       0.453995
      6184.0000         1.5729       1529.412         0.6078          -96.9        -41.402       0.454027
      6184.5000          1.592       1537.255         0.6078          -97.2      -41.69964      0.4500048
      6185.0000          1.612        1549.02         0.6078          -99.6      -44.09728      0.4176043
      6185.5000         1.5729       1552.941         0.6078           -102      -46.49493      0.3852037
      6186.0000         1.5331       1560.784         0.6078      -105.5824      -50.07496      0.3368248
      6186.5000           1.49       1560.784         0.6078      -107.9588      -52.44901      0.3047431
      6187.0000           1.49       1560.784         0.6078      -110.3353      -54.82314      0.2726602
      6187.5000           1.49       1466.667         0.6078      -112.7118      -57.19729      0.2405772
      6188.0000          1.447       1458.823         0.6275      -113.7618      -58.24493      0.2264199
      6188.5000          1.408       1443.137         0.6471      -113.7618      -58.24257      0.2264517
      6189.0000         1.3641       1427.451         0.6471      -117.3529      -61.83131      0.1779553
      6189.5000         1.3203       1403.922         0.6667      -108.2853      -52.76135      0.3005223
      6190.0000         1.2757       1382.196         0.6863         -102.6      -47.07369      0.3773826
      6190.5000         1.2359       1366.432         0.7056          -97.5      -41.97133      0.4463333
      6191.0000          1.192       1342.724          0.725          -87.3      -31.76897      0.5842031
      6191.5000         1.1482       1318.995          0.764          -82.2      -26.66661      0.6531539
      6192.0000         1.0956       1295.242         0.8032          -77.1      -21.56425      0.7221047
      6192.5000         1.0757       1279.407         0.8424          -77.1      -21.56189      0.7221366
      6193.0000         1.0598       1255.612         0.8423          -77.1      -21.55954      0.7221684
      6193.5000         1.0398       1231.794         0.8618            -72      -16.45718      0.7911192
      6194.0000         1.0199       1196.064         0.8815          -68.7      -13.15482      0.8357458
      6194.5000         0.9865       1180.107         0.9011          -65.4      -9.852459      0.8803722
      6195.0000         0.9641       1165.466          0.901          -62.7      -7.150101      0.9168905
      6195.5000         0.9442        1136.35         0.9603          -61.2      -5.647739      0.9371927
      6196.0000         0.9124       1112.525         0.9802          -60.9      -5.345383      0.9412786
      6196.5000         0.9163       1088.724         1.0197          -60.3      -4.743019      0.9494187
      6197.0000         0.9243       1064.945         1.0197       -59.7059      -4.146561      0.9574789
      6197.5000         0.9841        1041.19         1.0394       -58.8235      -3.261803      0.9694351
      6198.0000         1.0438       1017.457          1.059       -58.2353      -2.671242      0.9774157
      6198.5000         1.1044        993.746          1.059       -57.9412      -2.374783      0.9814218
      6199.0000         1.1562       970.0573         1.0589       -57.3529      -1.784126      0.9894037
      6199.5000         1.1163       962.2408         1.0785       -57.0588      -1.487663      0.9934099
      6200.0000         1.0757       958.4314         1.0784       -56.7647      -1.191208      0.9974161
      6200.5000         1.0677       958.4314         1.0784       -56.4706     -0.8947449              1
      6201.0000         1.0558       958.4314         1.0784       -56.1765     -0.5982857              1
      6201.5000         1.0558       958.4314         1.0784       -55.8824     -0.3018265              1
      6202.0000         1.0637       958.4314         1.0784       -55.5882   -0.005268097              1
      6202.5000         1.0677       958.4314         1.0784       -55.5882   -0.002910614              1
      6203.0000         1.0717       958.4314         1.0784       -55.5882  -0.0005493164              1
      6203.5000         1.0717        966.353         1.0588       -55.5882    0.001808167              1
      6204.0000         1.0717       974.2745         1.0588       -55.5882    0.004169464              1
      6204.5000         1.0717       974.2745         1.0392       -55.8824      -0.287674              1
      6205.0000         1.0637       974.2745         1.0392       -56.1765     -0.5794106              1
      6205.5000         1.0518       982.1961         1.0196       -56.4706     -0.8711548              1
      6206.0000         1.0359       982.1961         1.0196       -57.0588      -1.456993      0.9938244
      6206.5000         1.0319       982.1961         1.0196       -57.6471      -2.042934      0.9859063
      6207.0000         1.0239       982.1961              1       -57.9412      -2.334675      0.9819639
      6207.5000         1.0239       974.2745              1       -58.2353      -2.626415      0.9780214
