#------------------------------------------------------------------------------
# Created by    : vladimir.rabinovich
# Created on    : 09/19/2023 17:21:33
#------------------------------------------------------------------------------
~Version Information Section
VERS.           2.0     :   CWLS log ASCII Standard - VERSION 2.0
WRAP.           NO      :   One line per depth step
~Well Information Section
#MNEM       .UNIT                                         VALUE :DESCRIPTION
#------------------------------------------------------------------------------
STRT        .FT                                            3683 :START DEPTH
STOP        .FT                                            9328 :STOP DEPTH
STEP        .FT                                             0.5 :STEP      
NULL        .                                           -999.25 :NULL      
COMP        .                                SHELL OFFSHORE INC :COMPANY   
WELL        .                               OCS G11316 ST00BP00 :WELL      
FLD         .                                           WILDCAT :FIELD     
LOC         .                                                   :LOCATION  
CNTY        .                             GALVESTON LARGE BLOCK :LOCATION  
STAT        .                                             TEXAS :STATE     
CTRY        .                                     UNITED STATES :COUNTRY   
SRVC        .                                                   :SERVICE COMPANY
DATE        .                             9/13/2023 11:19:34 AM :LOG DATE  
API         .                                    42706402670000 :API NUMBER
UWI         .                                    42706402670000 :UNIQUE WELL ID
XCOORD      .                                  1097534.45360284 :SURFACE X 
YCOORD      .                                  10461685.9172371 :SURFACE Y 
LAT         .                                         28.817107 :LATITUDE  
LON         .                                        -94.695737 :LONGITUDE 
ELEV        .FT                                              91 :ELEVATION VALUE
ELEV_TYPE   .                                                KB :ELEVATION REFERENCE TYPE
~Curve Information Section
#MNEM       .UNIT                                      API CODE :CURVE DESCRIPTION
#------------------------------------------------------------------------------
DEPT        .FT                                                 :DEPTH     
CALI        .IN                                                 :          
CALI_1      .IN                                                 :          
CILD        .MMHO                                               :          
DRHO        .G/C3                                               :          
DT          .US/F                                               :          
GR          .GAPI                                               :          
GR_1        .GAPI                                               :          
GR_NORM     .GAPI                                               :GammaRay Normalized
ILD         .OHMM                                               :          
ILM         .OHMM                                               :          
NPHI        .%                                                  :          
RHOB        .G/C3                                               :          
SFL         .OHMM                                               :          
SP          .MV                                                 :          
SP_NORM     .MV                                                 :SP Normalized
VSH_GR      .V/V                                                :Volume of Shale from GR
VSH_SP      .V/V                                                :Volume of Shale from SP
~A        DEPTH           CALI         CALI_1           CILD           DRHO             DT             GR           GR_1        GR_NORM            ILD            ILM           NPHI           RHOB            SFL             SP        SP_NORM         VSH_GR         VSH_SP
# ...
      8933.0000         12.536        12.5404       922.9209         0.0242        82.7488        46.5095        46.9217       48.17497         1.0668         0.7666        29.3719          2.399         1.0988       -70.9233      -43.25106      0.3228717      0.3345991
      8933.5000         12.548        12.5446       1001.188          0.027        79.0105        42.3362        42.6566       41.51075          1.015         0.7261        28.4144         2.3996         1.0968       -66.0497      -37.04583      0.1810799      0.4300642
      8934.0000        12.5596        12.5476       995.0684         0.0346         77.609         42.277        40.9826       38.89513         1.0122         0.8502        27.9126         2.4087         1.3733        -59.489      -28.69339      0.1254283      0.5585632
      8934.5000        12.5659        12.5543       964.6699          0.042          81.14        46.5982        42.9278        41.9345         1.0196         0.9323        28.7697         2.4212         1.4617       -53.3425      -20.86811      0.1900958      0.6789521
      8935.0000         12.572        12.5621       943.6846         0.0486        84.6881        51.5015        47.3556       48.85294         1.0381         0.9653        30.3518         2.4337         1.4715       -50.0818      -16.71567      0.3372966      0.7428359
      8935.5000        12.5796        12.5607       947.0586         0.0547        88.2264         55.808        53.7458       58.83763         1.0487         0.9793         32.252         2.4445         1.4716       -48.9522      -15.27554      0.5497369      0.7649916
      8936.0000        12.5872        12.5591       942.6543         0.0609        91.7993        60.4202        60.2346       68.97638         1.0482         0.9847        34.5834         2.4493         1.4621        -48.573      -14.79046      0.7654549      0.7724544
      8936.5000        12.5872        12.5515       943.4609         0.0669        94.2766        66.5519        65.5991       77.35841         1.0464         0.9927        36.1409         2.4497         1.4548       -48.5339      -14.73824      0.9437959      0.7732579
      8937.0000        12.5858        12.5434       941.9072         0.0637        96.3788        69.2477        69.6276       83.65295         1.0427         0.9965         36.449         2.4484         1.4528       -48.6063      -14.82792              1      0.7718782
      8937.5000        12.5836         12.533       936.1211         0.0577        97.8519        71.3423        71.2443       86.17904         1.0356         0.9839        36.3097         2.4465         1.4563       -48.5375       -14.7379              1      0.7732631
      8938.0000         12.579        12.5245       929.9648         0.0529         98.475        70.6659        69.7262       83.80699         1.0273         0.9648         36.271         2.4454         1.4635       -48.4647      -14.64278              1      0.7747265
      8938.5000        12.5743        12.5187       923.6611         0.0503        97.8112        67.0895        66.5952       78.91481         1.0201         0.9511        36.7015         2.4444         1.4763       -48.5832      -14.79114      0.9769108       0.772444
      8939.0000        12.5706        12.5171       920.4502         0.0516        97.4473        64.8105        64.2161       75.19748         1.0134         0.9496        37.2122         2.4448         1.4656       -48.7543      -15.00645      0.8978187      0.7691316
      8939.5000         12.567        12.5181       928.4482         0.0554        97.1776        64.1918        63.4143       73.94466         1.0135         0.9313        37.3629         2.4467         1.4376       -48.8058      -15.06953      0.8711629       0.768161
      8940.0000        12.5639         12.519       934.2334         0.0609        96.6885        63.9677         63.728       74.43481         1.0211         0.9018        36.6591         2.4523          1.449       -48.7341      -14.97582      0.8815918      0.7696028
      8940.5000        12.5604        12.5198       915.0254         0.0666         95.783        64.4578        64.8127       76.12965         1.0476         0.8837        35.0711         2.4609         1.5616        -47.497      -13.39886      0.9176522      0.7938636
      8941.0000        12.5555        12.5206       855.1162         0.0711         94.828        65.5184        64.9452       76.33669         1.1302         0.9458        33.5054         2.4705          1.751       -46.3748      -11.96815      0.9220572      0.8158746
      8941.5000        12.5528        12.5214       780.0078         0.0727        93.9102        65.2416        64.7834       76.08388         1.2495         1.0705        32.5635         2.4771         1.9226         -45.76      -11.18322      0.9166782      0.8279505
      8942.0000        12.5644        12.5222       722.5654          0.071        93.3568        64.7631        64.4792       75.60857         1.3276         1.1616        32.1609         2.4785         1.9265       -45.3762      -10.69228      0.9065652      0.8355033
      8942.5000        12.5712        12.5229       785.1396          0.069        92.8066        64.2205        63.9394       74.76513         1.2284         1.0844        32.2163         2.4767         1.6469       -45.0565      -10.28293      0.8886198      0.8418011
      8943.0000        12.5769        12.5236        863.209         0.0672         93.714        63.7117        63.2177       73.63747         1.1394         1.0011        32.4252         2.4749         1.4696       -44.4213      -9.472036      0.8646269      0.8542764
      8943.5000        12.5826         12.526       924.7959          0.066        96.5072        63.5804        62.9439       73.20966         1.0759         0.9311        32.6602         2.4738         1.3629       -43.7283      -8.587574      0.8555246      0.8678835
      8944.0000        12.5861        12.5295       973.5527         0.0653        98.3059        64.6428         64.549       75.71763         1.0312         0.8863        32.8126         2.4727          1.303       -43.5446      -8.351316      0.9088857      0.8715182
      8944.5000        12.5896        12.5342       967.7295          0.067        99.0215        66.7985        67.0291       79.59278         1.0254         0.8812        32.7824         2.4705         1.3472       -44.0834      -9.034604      0.9913357      0.8610061
      8945.0000        12.5891        12.5391          924.5          0.068        98.6982        68.4905        68.2291       81.46779         1.0461         0.9016        32.5304         2.4668         1.5299       -44.4744      -9.529778              1       0.853388
      8945.5000        12.5857        12.5464       901.4785          0.064        97.4843        68.2919        67.9672       81.05857         1.0508         0.9341        32.2974         2.4626         1.6562       -44.5453      -9.617553              1      0.8520377
      8946.0000        12.5806        12.5525       897.7158         0.0597        96.2876        67.6118        66.9191       79.42091         1.0406         0.9513        32.4535         2.4583         1.6355       -44.1778      -9.147363       0.987679      0.8592713
      8946.5000        12.5725        12.5552       918.2822         0.0552        95.6139        67.0432        66.6664       79.02606         1.0316         0.9279        32.8438         2.4536         1.6062       -43.7659       -8.62067      0.9792779      0.8673743
      8947.0000        12.5656        12.5572       925.2402         0.0511        95.0156        66.4976         66.532       78.81606         1.0543         0.9378        33.2876         2.4496         1.5711       -44.5126      -9.568555      0.9748098      0.8527915
      8947.5000        12.5606        12.5579       882.7021         0.0481        94.4918        65.8711        65.8827       77.80153         1.1514         0.9935        33.7485         2.4473         1.5875       -45.9061      -11.33964       0.953224       0.825544
