#------------------------------------------------------------------------------
# Created by    : vladimir.rabinovich
# Created on    : 09/19/2023 17:21:39
#------------------------------------------------------------------------------
~Version Information Section
VERS.           2.0     :   CWLS log ASCII Standard - VERSION 2.0
WRAP.           NO      :   One line per depth step
~Well Information Section
#MNEM       .UNIT                                         VALUE :DESCRIPTION
#------------------------------------------------------------------------------
STRT        .FT                                            3004 :START DEPTH
STOP        .FT                                           10487 :STOP DEPTH
STEP        .FT                                             0.5 :STEP      
NULL        .                                           -999.25 :NULL      
COMP        .                                    TENNECO OIL CO :COMPANY   
WELL        .                               OCS G04082 ST00BP00 :WELL      
FLD         .                            SABINE PASS BLOCK 0017 :FIELD     
LOC         .                                                   :LOCATION  
CNTY        .                                       SABINE PASS :LOCATION  
STAT        .                                             TEXAS :STATE     
CTRY        .                                     UNITED STATES :COUNTRY   
SRVC        .                                                   :SERVICE COMPANY
DATE        .                             9/13/2023 11:20:07 AM :LOG DATE  
API         .                                    42715400130000 :API NUMBER
UWI         .                                    42715400130000 :UNIQUE WELL ID
XCOORD      .                                  1369313.82013612 :SURFACE X 
YCOORD      .                                  10714127.2468036 :SURFACE Y 
LAT         .                                        29.5195329 :LATITUDE  
LON         .                                       -93.8526471 :LONGITUDE 
ELEV        .FT                                             111 :ELEVATION VALUE
ELEV_TYPE   .                                                KB :ELEVATION REFERENCE TYPE
~Curve Information Section
#MNEM       .UNIT                                      API CODE :CURVE DESCRIPTION
#------------------------------------------------------------------------------
DEPT        .FT                                                 :DEPTH     
CALI        .IN                                                 :          
DPHI        .%                                                  :          
DRHO        .G/C3                                               :          
GR          .GAPI                                               :          
GR_NORM     .GAPI                                               :GammaRay Normalized
ILD         .OHMM                                               :          
ILM         .OHMM                                               :          
NPHI        .%                                                  :          
SFL         .OHMM                                               :          
SP          .MV                                                 :          
SP_NORM     .MV                                                 :SP Normalized
VSH_GR      .V/V                                                :Volume of Shale from GR
VSH_SP      .V/V                                                :Volume of Shale from SP
~A        DEPTH           CALI           DPHI           DRHO             GR        GR_NORM            ILD            ILM           NPHI            SFL             SP        SP_NORM         VSH_GR         VSH_SP
# ...
      4505.0000        17.1554        29.5992         0.0043         40.091       50.47318         0.5417         0.4962         36.095         0.5095       -67.2163      -42.20161      0.3717698      0.3507445
      4505.5000        16.9823        31.7592         -0.005         40.094       50.47614         0.5104         0.4579         34.398         0.4576       -69.7662      -48.00559      0.3718327      0.2614525
      4506.0000         17.425        31.8641        -0.0053        41.0042       51.44418         0.4804         0.4372        32.7262         0.4298        -71.236      -51.34681      0.3924294      0.2100492
      4506.5000        18.2191        30.8505        -0.0032        42.1782       52.69287         0.4454         0.4201        32.6796         0.4211       -72.4054      -54.00306      0.4189973      0.1691837
      4507.0000        18.4706          29.94         0.0102        41.3343       51.79486         0.4035         0.3992        34.0543         0.4497       -73.2069      -55.82044      0.3998908       0.141224
      4507.5000        18.0936        30.0106         0.0163        39.1436       49.46409         0.3605         0.3612        35.3854         0.4763       -73.9382      -57.47776      0.3502997      0.1157268
      4508.0000        17.4569        30.9549         0.0171        36.9128       47.09064          0.328         0.3238        34.8112         0.4908       -74.7426      -59.30174       0.299801      0.0876655
      4508.5000        17.1398          32.27          0.018        35.5446       45.63487         0.3035         0.2989        33.4779         0.4263       -75.7072      -61.49101       0.268827     0.05398442
      4509.0000        16.8774        33.0728          0.019        36.1881        46.3192         0.2861         0.2839        32.2828         0.3646       -76.4412      -63.15449      0.2833872      0.0283925
      4509.5000        16.6676        33.3486         0.0191        38.3416       48.60991         0.2742         0.2751        32.0098         0.2846       -76.7444      -63.83567      0.3321258     0.01791276
      4510.0000        16.6961        33.0828         0.0217        40.4293       50.83062         0.2646         0.2695        32.2457         0.2577       -76.8444      -64.05352      0.3793748     0.01456123
      4510.5000        16.8706        32.7014         0.0241        41.8177        52.3074          0.261         0.2656        34.2614         0.2708       -76.8204      -63.98863      0.4107957      0.0155595
      4511.0000        17.3425        33.1362         0.0177        39.2043       49.52694         0.2548         0.2663        36.7949         0.2872       -76.3467      -62.89837       0.351637     0.03233273
      4511.5000        17.9601        34.6979         0.0055         34.797       44.83808          0.251         0.2676        38.8424          0.301       -75.4698      -60.88875      0.2518741     0.06325003
      4512.0000        18.1666        36.2645        -0.0016        31.3621       41.18369         0.2568         0.2683        38.8521         0.3169       -74.8625      -59.49385       0.174121     0.08470999
      4512.5000        18.7328        37.1302        -0.0024        29.8217       39.54471         0.2619         0.2661        37.3465         0.3295       -74.6372      -58.96997      0.1392492     0.09276974
      4513.0000        19.0761        36.9628        -0.0009        29.3069       38.99681         0.2577         0.2578        36.1176         0.3384        -74.843      -59.42907      0.1275917     0.08570662
      4513.5000        19.0782        37.0819        -0.0001        29.1188       38.79646         0.2496         0.2446        36.1349          0.329            -75      -59.77687      0.1233288     0.08035578
      4514.0000        19.0428        37.6628              0        29.1089       38.78569          0.241         0.2333        36.3398         0.2903        -74.941      -59.63219      0.1230997     0.08258162
      4514.5000        19.1986        38.3777        -0.0023        29.5595        39.2648         0.2299         0.2235        36.9372         0.2615       -74.6068      -58.85999      0.1332936     0.09446165
      4515.0000        19.2348        38.8129        -0.0053        30.0888       39.82763         0.2136         0.2172        37.7697         0.2473       -74.6846      -59.02724      0.1452688     0.09188861
      4515.5000        19.0357        38.9794        -0.0082        30.5945       40.36537         0.2015         0.2115        38.3219         0.2476       -75.0782      -59.91455        0.15671     0.07823762
      4516.0000        18.7704        38.6279        -0.0088        30.6837       40.46002         0.1912         0.2075        37.9249         0.2593        -75.196      -60.17299      0.1587239     0.07426177
      4516.5000        18.6637        37.9157        -0.0051        31.6176       41.45328         0.1855         0.2045        37.1635          0.268       -75.2645      -60.31903       0.179857     0.07201497
      4517.0000        19.0378        36.9302        -0.0007        33.4709       43.42463         0.1845         0.2021        36.7158         0.2745       -74.7423      -59.11816      0.2218007     0.09048978
      4517.5000        20.0575        35.5834         0.0028        34.4804       44.49833         0.1838         0.2001        36.6617         0.2815       -74.3466      -58.20575      0.2446452      0.1045269
      4518.0000        20.1786        35.1376         0.0006        34.4333       44.44798         0.1847          0.199        36.5895         0.2931        -73.575      -56.43622      0.2435739      0.1317505
      4518.5000        21.5112         34.655        -0.0019        34.5244       44.54464         0.1871         0.1994        35.1213         0.3023       -72.3335      -53.59525      0.2456307      0.1754576
      4519.0000        22.3919        33.3504         0.0011           37.5       47.70993         0.1992         0.2059        32.7407         0.2977       -70.1919      -48.70191      0.3129772      0.2507398
      4519.5000        22.2123        31.7514           0.01        41.8293       52.31532         0.2178         0.2231        30.6826         0.2717       -66.8132       -40.9878      0.4109643      0.3694184
      4520.0000         20.742         30.358         0.0202        49.2173       60.17465         0.2421          0.248        33.4722         0.2534       -62.3971      -30.90826      0.5781841      0.5244883
      4520.5000         19.486        29.0257          0.021        55.5146       66.87366         0.2812          0.278        46.2464         0.2469       -58.4608      -21.92274      0.7207161      0.6627271
      4521.0000        19.0033        28.1168         0.0128        57.0588       68.51618         0.3254         0.3136         53.251         0.2656       -55.8235      -15.89913      0.7556635       0.755398
      4521.5000        18.3368        27.1336         0.0034        54.9313       66.25264         0.3859          0.359        57.3653         0.3201       -55.0294       -14.0783       0.707503      0.7834107
      4522.0000         17.789        26.0685         0.0058        52.1343       63.27686         0.4547         0.4145        52.1399         0.3962       -55.4902      -15.11884      0.6441886      0.7674025
      4522.5000        17.6857        25.1554          0.011        50.5441       61.58492          0.532         0.4503        43.9676         0.4511       -56.5931      -17.62346      0.6081898      0.7288699
      4523.0000        18.2765        24.9505         0.0109        50.5392       61.57945         0.5886         0.4857        39.1521          0.496        -57.598      -19.90462      0.6080735      0.6937751
      4523.5000        18.8672        25.2416         0.0061        50.5882       61.63134         0.6251         0.5173        35.1069         0.5264       -58.7156      -22.44275      0.6091774      0.6547269
