#------------------------------------------------------------------------------
# Created by    : vladimir.rabinovich
# Created on    : 09/19/2023 17:22:52
#------------------------------------------------------------------------------
~Version Information Section
VERS.           2.0     :   CWLS log ASCII Standard - VERSION 2.0
WRAP.           NO      :   One line per depth step
~Well Information Section
#MNEM       .UNIT                                         VALUE :DESCRIPTION
#------------------------------------------------------------------------------
STRT        .FT                                            2993 :START DEPTH
STOP        .FT                                           15023 :STOP DEPTH
STEP        .FT                                             0.5 :STEP      
NULL        .                                           -999.25 :NULL      
COMP        .                                        TEXACO INC :COMPANY   
WELL        .                                     ST TR 00018-L :WELL      
FLD         .                                           WILDCAT :FIELD     
LOC         .                                                   :LOCATION  
CNTY        .                                       SABINE PASS :LOCATION  
STAT        .                                             TEXAS :STATE     
CTRY        .                                     UNITED STATES :COUNTRY   
SRVC        .                                                   :SERVICE COMPANY
DATE        .                             9/13/2023 11:20:07 AM :LOG DATE  
API         .                                    42715000300000 :API NUMBER
UWI         .                                    42715000300000 :UNIQUE WELL ID
XCOORD      .                                  1367853.58567514 :SURFACE X 
YCOORD      .                                  10716828.2466652 :SURFACE Y 
LAT         .                                         29.526933 :LATITUDE  
LON         .                                       -93.8573019 :LONGITUDE 
ELEV        .FT                                              75 :ELEVATION VALUE
ELEV_TYPE   .                                                KB :ELEVATION REFERENCE TYPE
~Curve Information Section
#MNEM       .UNIT                                      API CODE :CURVE DESCRIPTION
#------------------------------------------------------------------------------
DEPT        .FT                                                 :DEPTH     
ILD         .OHMM                                               :          
SFLA        .OHMM                                               :          
SP          .MV                                                 :          
SP_NORM     .MV                                                 :SP Normalized
VSH_SP      .V/V                                                :Volume of Shale from SP
~A        DEPTH            ILD           SFLA             SP        SP_NORM         VSH_SP
# ...
      5369.0000          0.373         0.5305       -67.8686       -58.1274      0.1473523
      5369.5000         0.3731         0.5356       -67.7308      -57.98552      0.1494699
      5370.0000         0.3731         0.5405        -67.628      -57.87864      0.1510651
      5370.5000         0.3822         0.5533       -67.5742      -57.82077      0.1519289
      5371.0000          0.419          0.566        -67.975      -58.21748      0.1460077
      5371.5000         0.4379         0.5788       -70.6369      -60.87531      0.1063386
      5372.0000         0.4707         0.5916       -71.4705      -61.70483     0.09395776
      5372.5000            0.5         0.6044       -71.7433      -61.97356     0.08994692
      5373.0000         0.5565         0.6052       -71.7423      -61.96848      0.0900227
      5373.5000         0.6687         0.5883       -71.4832       -61.7053     0.09395076
      5374.0000         0.7074         0.5822       -70.8127      -61.03072      0.1040191
      5374.5000         0.7352         0.5855       -67.4978      -57.71175       0.153556
      5375.0000         0.7398         0.6037       -63.6665      -53.87637      0.2108005
      5375.5000         0.7587         0.6756       -59.8352      -50.04099      0.2680449
      5376.0000         0.7704          0.761       -57.8258      -48.02752      0.2980968
      5376.5000         0.7705         0.8465       -57.3325      -47.53014      0.3055204
      5377.0000         0.7701          0.932       -57.2056      -47.39916      0.3074752
      5377.5000         0.7508         1.0174       -57.6541      -47.84358       0.300842
      5378.0000         0.7145         1.1029       -59.0583      -49.24371      0.2799447
      5378.5000         0.6793         1.1774       -65.0555      -55.23682      0.1904952
      5379.0000         0.6461         1.0947       -64.9192      -55.09645      0.1925903
      5379.5000         0.6076         0.8946        -63.805      -53.97818       0.209281
      5380.0000         0.5691         0.8271       -62.7379        -52.907      0.2252687
      5380.5000         0.5306         0.8018       -62.3986      -52.56362      0.2303937
      5381.0000         0.4921         0.7766        -62.298      -52.45894      0.2319561
      5381.5000         0.4536          0.713       -62.4514      -52.60827      0.2297273
      5382.0000         0.4359         0.6251        -63.258      -53.41079      0.2177494
      5382.5000         0.4216         0.6096       -64.6715      -54.82021      0.1967132
      5383.0000         0.3992         0.5992        -66.085      -56.22963      0.1756771
      5383.5000         0.3752         0.5887       -67.4985      -57.63905       0.154641
      5384.0000         0.3753         0.5887       -68.7076      -58.84409      0.1366554
      5384.5000         0.3754         0.5887       -68.7743       -58.9067      0.1357208
      5385.0000         0.3754         0.5944       -67.7029      -57.83123      0.1517727
      5385.5000         0.3837          0.601       -66.2283      -56.35255      0.1738425
      5386.0000          0.403         0.6201       -64.7536      -54.87377      0.1959139
      5386.5000         0.4224         0.6771       -63.7038      -53.81989      0.2116434
      5387.0000         0.4367         0.7341       -63.0585      -53.17052      0.2213356
      5387.5000         0.4459         0.7606       -62.6541      -52.76204      0.2274323
      5388.0000         0.4652          0.765       -61.8671      -51.97096      0.2392394
      5388.5000         0.4846         0.7728       -61.0802      -51.17999       0.251045
      5389.0000          0.498         0.7903       -60.2725      -50.36821       0.263161
      5389.5000         0.4981         0.8146       -54.1479      -44.23953      0.3546338
      5390.0000         0.5134         0.8389       -47.8574      -37.94495      0.4485828
      5390.5000         0.5135         0.8289       -40.4857      -30.56918       0.558669
      5391.0000         0.5067         0.7736        -39.563       -29.6424      0.5725015
      5391.5000         0.4984         0.7183       -38.4488      -28.52412      0.5891922
      5392.0000         0.4685         0.6629       -37.5794      -27.65065      0.6022292
      5392.5000           0.43         0.6076       -37.3906      -27.45777       0.605108
      5393.0000         0.3915         0.5523       -38.3266      -28.38969      0.5911986
      5393.5000         0.3767         0.5014       -46.9691      -37.02811       0.462267
      5394.0000         0.3451         0.4884       -55.6117      -45.66663      0.3333338
      5394.5000         0.3159         0.4806       -58.4066      -48.45746      0.2916797
      5395.0000         0.3073         0.4787        -58.715      -48.76178      0.2871376
      5395.5000         0.2881         0.4787       -58.4828      -48.52551      0.2906641
      5396.0000         0.2689         0.4787       -57.9893      -48.02793      0.2980906
      5396.5000         0.2552         0.4787       -57.3006      -47.33515      0.3084306
      5397.0000         0.2553         0.4787       -56.6119      -46.64238      0.3187705
      5397.5000         0.2554         0.4787       -54.7436         -44.77      0.3467165
      5398.0000         0.2555         0.4788       -51.4685      -41.49082      0.3956594
      5398.5000         0.2555         0.4788       -48.4315      -38.44974      0.4410486
      5399.0000         0.2556         0.4788       -47.7659      -37.78007      0.4510438
      5399.5000         0.2557         0.4788       -47.3719      -37.38199      0.4569852
      5400.0000         0.2863         0.4788       -47.2672      -37.27321      0.4586088
      5400.5000         0.2937         0.4842       -47.6394      -37.64133      0.4531144
      5401.0000         0.3017         0.4928       -50.6622      -40.66006      0.4080589
      5401.5000          0.317         0.5083       -58.0518      -48.04558      0.2978272
      5402.0000         0.3213         0.5239       -65.4414       -55.4311      0.1875955
      5402.5000         0.3407         0.5394        -72.831      -62.81663     0.07736377
      5403.0000         0.3477          0.555       -76.5293      -66.51085     0.02222613
      5403.5000         0.3642          0.579       -75.6115      -65.58897     0.03598546
      5404.0000         0.3783         0.6179       -74.5869       -64.5603     0.05133888
      5404.5000         0.3784         0.6569       -72.3963      -62.36562     0.08409523
      5405.0000         0.3785         0.6492       -70.2057      -60.17094      0.1168516
      5405.5000         0.3959         0.6113       -68.0151      -57.97626       0.149608
      5406.0000         0.4091         0.5735       -65.8244      -55.78149      0.1823659
      5406.5000         0.4092         0.5365       -63.6338      -53.58681      0.2151223
      5407.0000         0.4245         0.5191        -62.255      -52.20393      0.2357622
      5407.5000         0.4246         0.5074       -61.9353      -51.88015      0.2405947
      5408.0000         0.4247         0.4984       -63.3966      -53.33738      0.2188451
      5408.5000         0.4248         0.4914       -67.9812       -57.9179      0.1504791
      5409.0000         0.4248         0.4891       -73.2149      -63.14752     0.07242505
      5409.5000         0.4249         0.4786       -72.6795      -62.60804     0.08047696
      5410.0000          0.425         0.4657       -70.1444      -60.06887      0.1183751
      5410.5000         0.4251         0.4535       -63.6963      -53.61669      0.2146762
      5411.0000         0.4244         0.4444       -57.2482      -47.16451      0.3109774
      5411.5000           0.41         0.4372          -50.8      -40.71223      0.4072801
      5412.0000           0.41         0.4363       -47.0747      -36.98286      0.4629424
      5412.5000         0.3844         0.4371       -48.3501      -38.25418      0.4439674
