#------------------------------------------------------------------------------
# Created by    : vladimir.rabinovich
# Created on    : 09/19/2023 17:20:40
#------------------------------------------------------------------------------
~Version Information Section
VERS.           2.0     :   CWLS log ASCII Standard - VERSION 2.0
WRAP.           NO      :   One line per depth step
~Well Information Section
#MNEM       .UNIT                                         VALUE :DESCRIPTION
#------------------------------------------------------------------------------
STRT        .FT                                             769 :START DEPTH
STOP        .FT                                           10573 :STOP DEPTH
STEP        .FT                                             0.5 :STEP      
NULL        .                                           -999.25 :NULL      
COMP        .                                        TEXACO INC :COMPANY   
WELL        .                               OCS G01846 ST00BP00 :WELL      
FLD         .                            HIGH ISLAND BLOCK 0129 :FIELD     
LOC         .                                                   :LOCATION  
CNTY        .                                  HIGH ISLAND EAST :LOCATION  
STAT        .                                             TEXAS :STATE     
CTRY        .                                     UNITED STATES :COUNTRY   
SRVC        .                                                   :SERVICE COMPANY
DATE        .                             9/13/2023 11:19:51 AM :LOG DATE  
API         .                                    42710300030000 :API NUMBER
UWI         .                                    42710300030000 :UNIQUE WELL ID
XCOORD      .                                   1386052.0565626 :SURFACE X 
YCOORD      .                                   10637380.600337 :SURFACE Y 
LAT         .                                        29.3087467 :LATITUDE  
LON         .                                       -93.7983562 :LONGITUDE 
ELEV        .FT                                              81 :ELEVATION VALUE
ELEV_TYPE   .                                                KB :ELEVATION REFERENCE TYPE
~Curve Information Section
#MNEM       .UNIT                                      API CODE :CURVE DESCRIPTION
#------------------------------------------------------------------------------
DEPT        .FT                                                 :DEPTH     
ASN         .OHMM                                               :          
CALI        .IN                                                 :          
DRHO        .G/C3                                               :          
GR          .GAPI                                               :          
GR_1        .GAPI                                               :          
GR_NORM     .GAPI                                               :GammaRay Normalized
ILD         .OHMM                                               :          
RHOB        .G/C3                                               :          
SP          .MV                                                 :          
SP_NORM     .MV                                                 :SP Normalized
VSH_GR      .V/V                                                :Volume of Shale from GR
VSH_SP      .V/V                                                :Volume of Shale from SP
~A        DEPTH            ASN           CALI           DRHO             GR           GR_1        GR_NORM            ILD           RHOB             SP        SP_NORM         VSH_GR         VSH_SP
# ...
     10547.5000          0.758         9.6479        -0.2082        -999.25        -999.25        -999.25         0.8224        -999.25       -44.3153      -7.278263        -999.25      0.8960248
     10548.0000         0.7398         9.7289        -0.1982        -999.25        -999.25        -999.25         0.8132        -999.25        -44.405      -7.367962        -999.25      0.8947434
     10548.5000         0.7426         9.9053         -0.183        -999.25        -999.25        -999.25         0.8053        -999.25       -44.4183      -7.381264        -999.25      0.8945534
     10549.0000         0.7477         10.176        -0.1728        -999.25        -999.25        -999.25         0.8086        -999.25       -43.9483      -6.911263        -999.25      0.9012677
     10549.5000         0.7468         10.377         -0.175        -999.25        -999.25        -999.25         0.8138        -999.25       -43.4783      -6.441261        -999.25       0.907982
     10550.0000         0.7436        10.3749        -0.1774        -999.25        -999.25        -999.25         0.8178        -999.25       -43.0089      -5.971863        -999.25      0.9146877
     10550.5000         0.7376        10.4546        -0.1812        -999.25        -999.25        -999.25         0.8218        -999.25       -42.6356      -5.598564        -999.25      0.9200205
     10551.0000         0.7297        10.3735        -0.1849        -999.25        -999.25        -999.25         0.8205        -999.25       -42.2727      -5.235664        -999.25      0.9252048
     10551.5000         0.7206        10.3131        -0.1833        -999.25        -999.25        -999.25         0.7975        -999.25       -42.0508      -5.013763        -999.25      0.9283748
     10552.0000          0.711        10.4036        -0.1742        -999.25        -999.25        -999.25         0.7746        -999.25        -42.064      -5.026962        -999.25      0.9281862
     10552.5000         0.7038        10.5645        -0.1698        -999.25        -999.25        -999.25         0.7492        -999.25        -42.087      -5.049965        -999.25      0.9278576
     10553.0000         0.6989        10.6679        -0.1758        -999.25        -999.25        -999.25          0.722        -999.25       -42.2443      -5.207264        -999.25      0.9256105
     10553.5000          0.698        10.4427        -0.1833        -999.25        -999.25        -999.25         0.7199        -999.25       -42.4017      -5.364662        -999.25       0.923362
     10554.0000         0.7079        10.4306        -0.1839        -999.25        -999.25        -999.25         0.7351        -999.25       -42.4586      -5.421562        -999.25      0.9225491
     10554.5000         0.7202        10.5229        -0.1702        -999.25        -999.25        -999.25         0.7641        -999.25       -42.3516      -5.314564        -999.25      0.9240777
     10555.0000         0.7426        10.6188        -0.1587        -999.25        -999.25        -999.25          0.794        -999.25       -42.2445      -5.207462        -999.25      0.9256077
     10555.5000         0.7719         10.726        -0.1517        -999.25        -999.25        -999.25         0.8292        -999.25       -41.9296      -4.892563        -999.25      0.9301062
     10556.0000         0.8135        10.7782        -0.1469        -999.25        -999.25        -999.25         0.8746        -999.25       -41.6556      -4.618565        -999.25      0.9340205
     10556.5000         0.8766         9.6342        -0.1364        -999.25        -999.25        -999.25         0.9199        -999.25       -41.6628      -4.625763        -999.25      0.9339177
     10557.0000         0.9891         9.1361         -0.135        -999.25        -999.25        -999.25         0.9919        -999.25       -42.4279      -5.390862        -999.25      0.9229877
     10557.5000          1.071         9.0005        -0.1441        -999.25        -999.25        -999.25          1.076        -999.25       -44.4904      -7.453362        -999.25      0.8935234
     10558.0000         1.1379         8.9019         -0.149        -999.25        -999.25        -999.25         1.1793        -999.25       -47.2946      -10.25756        -999.25      0.8534634
     10558.5000         1.1662         8.8054        -0.1595        -999.25        -999.25        -999.25         1.2286        -999.25       -49.3793      -12.34226        -999.25       0.823682
     10559.0000         1.1629         8.7006        -0.1748        -999.25        -999.25        -999.25         1.2611        -999.25       -50.0773      -13.04026        -999.25      0.8137105
     10559.5000         1.1695         8.7791        -0.1776        -999.25        -999.25        -999.25         1.2907        -999.25       -50.4623      -13.42526        -999.25      0.8082106
     10560.0000         1.2206         8.9181        -0.1885        -999.25        -999.25        -999.25         1.3008        -999.25       -50.9133      -13.87626        -999.25      0.8017676
     10560.5000          1.265         8.7167        -0.2022        -999.25        -999.25        -999.25         1.3109        -999.25       -51.7326      -14.69556        -999.25      0.7900634
     10561.0000         1.2386         8.8018        -0.2008        -999.25        -999.25        -999.25         1.3053        -999.25       -52.9992      -15.96216        -999.25      0.7719691
     10561.5000         1.2001          8.639        -0.2048        -999.25        -999.25        -999.25         1.2888        -999.25       -54.9976      -17.96056        -999.25      0.7434205
     10562.0000         1.1793         8.5498        -0.2258        -999.25        -999.25        -999.25         1.2225        -999.25       -55.0518      -18.01476        -999.25      0.7426462
     10562.5000         1.1338         8.7439        -0.2519        -999.25        -999.25        -999.25         1.1425        -999.25       -50.6804      -13.64336        -999.25      0.8050948
     10563.0000         1.0094         9.1096         -0.266        -999.25        -999.25        -999.25         1.0438        -999.25       -48.5773      -11.54026        -999.25      0.8351391
     10563.5000         0.9014         8.8305        -0.2746        -999.25        -999.25        -999.25         0.9607        -999.25       -47.6692      -10.63216        -999.25      0.8481119
     10564.0000         0.8574         9.0641        -0.2734        -999.25        -999.25        -999.25         0.9044        -999.25       -46.7415      -9.704464        -999.25      0.8613648
     10564.5000          0.828         9.2563        -0.2704        -999.25        -999.25        -999.25         0.8669        -999.25       -45.8026      -8.765564        -999.25      0.8747777
     10565.0000         0.8035         9.2646        -0.2705        -999.25        -999.25        -999.25           0.83        -999.25       -44.8441      -7.807064        -999.25      0.8884705
     10565.5000         0.7694         9.2704        -0.2692        -999.25        -999.25        -999.25         0.8066        -999.25       -44.2838      -7.246761        -999.25      0.8964748
     10566.0000         0.7324         9.2685        -0.2668        -999.25        -999.25        -999.25         0.7831        -999.25       -44.2202      -7.183163        -999.25      0.8973834
     10566.5000         0.7066        -999.25        -999.25        -999.25        -999.25        -999.25         0.7597        -999.25       -44.1566      -7.119564        -999.25      0.8982919
     10567.0000         0.6918        -999.25        -999.25        -999.25        -999.25        -999.25         0.7433        -999.25        -44.093      -7.055962        -999.25      0.8992006
     10567.5000         0.6959        -999.25        -999.25        -999.25        -999.25        -999.25          0.729        -999.25       -44.0394      -7.002361        -999.25      0.8999662
