#------------------------------------------------------------------------------
# Created by    : vladimir.rabinovich
# Created on    : 09/19/2023 17:20:45
#------------------------------------------------------------------------------
~Version Information Section
VERS.           2.0     :   CWLS log ASCII Standard - VERSION 2.0
WRAP.           NO      :   One line per depth step
~Well Information Section
#MNEM       .UNIT                                         VALUE :DESCRIPTION
#------------------------------------------------------------------------------
STRT        .FT                                             565 :START DEPTH
STOP        .FT                                           11656 :STOP DEPTH
STEP        .FT                                             0.5 :STEP      
NULL        .                                           -999.25 :NULL      
COMP        .                     MITCHELL ENERGY OFFSHORE CORP :COMPANY   
WELL        .                               OCS G02394 ST00BP00 :WELL      
FLD         .                            HIGH ISLAND BLOCK 0047 :FIELD     
LOC         .                                                   :LOCATION  
CNTY        .                                  HIGH ISLAND EAST :LOCATION  
STAT        .                                             TEXAS :STATE     
CTRY        .                                     UNITED STATES :COUNTRY   
SRVC        .                                                   :SERVICE COMPANY
DATE        .                             9/13/2023 11:11:59 AM :LOG DATE  
API         .                                    42710400050000 :API NUMBER
UWI         .                                    42710400050000 :UNIQUE WELL ID
XCOORD      .                                  1370895.90844183 :SURFACE X 
YCOORD      .                                  10676661.5178287 :SURFACE Y 
LAT         .                                        29.4165067 :LATITUDE  
LON         .                                        -93.846815 :LONGITUDE 
ELEV        .FT                                              96 :ELEVATION VALUE
ELEV_TYPE   .                                                KB :ELEVATION REFERENCE TYPE
~Curve Information Section
#MNEM       .UNIT                                      API CODE :CURVE DESCRIPTION
#------------------------------------------------------------------------------
DEPT        .FT                                                 :DEPTH     
ASN         .OHMM                                               :          
CILD        .MMHO                                               :          
GR          .GAPI                                               :          
GR_NORM     .GAPI                                               :GammaRay Normalized
ILD         .OHMM                                               :          
SP          .MV                                                 :          
SP_NORM     .MV                                                 :SP Normalized
VSH_GR      .V/V                                                :Volume of Shale from GR
VSH_SP      .V/V                                                :Volume of Shale from SP
~A        DEPTH            ASN           CILD             GR        GR_NORM            ILD             SP        SP_NORM         VSH_GR         VSH_SP
# ...
      2791.0000         1.0149       1297.504        87.5779       81.06232         0.7847       -68.3447      -8.596767              1      0.8436952
      2791.5000         1.0044       1339.043        88.2637       81.61096         0.7512       -68.4779      -8.833239              1      0.8393956
      2792.0000         0.9876       1355.492        88.9701       82.17608         0.7371       -67.4655      -7.054645              1      0.8717337
      2792.5000         0.9665       1371.941        89.6769       82.74152         0.7262       -66.7045       -5.71825              1      0.8960318
      2793.0000         0.9464       1382.311        90.1219       83.09752         0.7154        -65.973      -4.433743              1      0.9193865
      2793.5000         0.9289       1391.189        89.5488       82.63904         0.7133       -65.3345      -3.312832              1      0.9397667
      2794.0000          0.917       1396.836        89.1561       82.32487         0.7117       -64.7708      -2.323476              1       0.957755
      2794.5000          0.912       1400.908         88.825          82.06         0.7112       -64.2068       -1.33361              1      0.9757525
      2795.0000         0.9077        1404.98        88.6041       81.88329         0.7125       -63.9866     -0.9484655              1      0.9827552
      2795.5000         0.9051       1409.055        88.3833       81.70664         0.7137       -64.4314       -1.73304              1      0.9684902
      2796.0000         0.9082       1413.127        88.2412       81.59296         0.7152       -64.8763      -2.517797              1      0.9542219
      2796.5000         0.9132       1418.285        88.1442       81.51537         0.7168       -65.3464      -3.346879              1      0.9391477
      2797.0000         0.9183       1423.461        88.0471       81.43768         0.7173       -65.8732      -4.275697              1        0.92226
      2797.5000         0.9243       1428.635        88.3134       81.65072          0.711       -66.3702      -5.152098              1      0.9063255
      2798.0000         0.9287       1433.807        88.7954       82.03632         0.7047        -66.274      -4.985074              1      0.9093623
      2798.5000         0.9238       1441.965        90.4275         83.342         0.6968       -65.9938      -4.494388              1      0.9182839
      2799.0000         0.9164         1451.4        92.2657       84.81256         0.6877       -65.4895      -3.609526              1      0.9343722
      2799.5000         0.9012       1460.836        93.9213       86.13704         0.6786       -64.7362      -2.286672              1      0.9584242
      2800.0000         0.8879       1471.023        95.6688       87.53504         0.6692        -63.983     -0.9640058              1      0.9824726
      2800.5000         0.8747       1509.963        96.6969       88.35752         0.6564       -63.2297      0.3588484              1              1
      2801.0000         0.8649       1555.215        97.4608       88.96864         0.6435       -63.3868     0.08032487              1              1
      2801.5000         0.8554       1595.061          98.25           89.6         0.6336       -63.5439     -0.1981986              1      0.9963964
      2802.0000         0.8511       1615.484        99.0675         90.254          0.624       -63.7009     -0.4765477              1      0.9913355
      2802.5000         0.8468       1632.895        99.9114       90.92912         0.6143        -63.858     -0.7550712              1      0.9862714
      2803.0000         0.8425       1638.566       100.7947       91.63576         0.6078        -64.042      -1.080907              1      0.9803472
      2803.5000         0.8382       1644.238        101.678        92.3424         0.6012       -64.2466      -1.442976              1      0.9737641
      2804.0000         0.8341       1649.912       102.5037       93.00296         0.5946       -64.4512      -1.805058              1      0.9671807
      2804.5000         0.8299       1655.584       103.3225         93.658         0.5877       -64.6558      -2.167128              1      0.9605977
      2805.0000         0.8258       1661.256       104.0808       94.26464         0.5807       -64.6681      -2.190941              1      0.9601647
      2805.5000         0.8217       1664.727        103.533        93.8264         0.5738       -64.4647      -1.835354              1      0.9666299
      2806.0000          0.819       1666.676       100.9916       91.79328         0.5698       -63.9395     -0.9137281              1      0.9833868
      2806.5000         0.8175       1667.518         98.246        89.5968         0.5707       -63.4144    0.007723158              1              1
      2807.0000         0.8161       1650.891        93.9695        86.1756         0.5717       -62.8918      0.9247727              1              1
      2807.5000         0.8158        1634.27        92.9077       85.32616         0.5729       -62.4437       1.710783              1              1
      2808.0000         0.8192       1615.949        95.3466       87.27728         0.5749       -61.9956       2.496788              1              1
      2808.5000         0.8227       1592.492        97.1818       88.74544         0.5768        -61.637       3.125369              1              1
      2809.0000         0.8262       1569.047        98.7953       90.03624         0.5788        -61.363       3.605145              1              1
      2809.5000         0.8314       1545.602       100.0388       91.03104         0.5834       -61.5121       3.340692              1              1
      2810.0000         0.8388       1517.682       100.6808       91.54464         0.5893       -61.8596       2.727261              1              1
      2810.5000         0.8465       1482.861       100.1663       91.13304         0.5958       -62.2843       1.978034              1              1
      2811.0000         0.8627       1448.055        98.7397       89.99176         0.6062       -62.7235       1.203316              1              1
      2811.5000         0.8787       1402.805        97.6083       89.08664         0.6166       -63.1481      0.4542639              1              1
      2812.0000         0.8937        1353.15        96.8107       88.44856         0.6335       -63.4591    -0.09495928              1      0.9982735
      2812.5000         0.9063       1312.105        96.4178       88.13424         0.6553       -63.7703     -0.6445448              1       0.988281
      2813.0000         0.9184       1277.813        96.0527       87.84216         0.6832       -64.0098       -1.06801              1      0.9805816
      2813.5000         0.9297       1245.795        95.4574       87.36592         0.7111       -63.8491     -0.7875206              1      0.9856814
      2814.0000         0.9374       1224.234        95.1975         87.158         0.7391       -63.6884     -0.5070444              1       0.990781
      2814.5000         0.9451       1203.883        95.1237       87.09896         0.7678       -63.5277     -0.2265616              1      0.9958807
      2815.0000         0.9498       1188.068        95.0497       87.03976         0.7977       -63.3497     0.08434413              1              1
      2815.5000         0.9537       1175.063        95.0322       87.02576         0.8248       -63.1398      0.4513652              1              1
      2816.0000         0.9576       1169.596        95.1215        87.0972         0.8364       -62.9301      0.8180374              1              1
      2816.5000         0.9595       1163.881        95.2246       87.17968          0.848       -62.7203       1.184891              1              1
      2817.0000         0.9601       1156.063         95.389        87.3112          0.856       -62.6886       1.238463              1              1
