#------------------------------------------------------------------------------
# Created by    : vladimir.rabinovich
# Created on    : 09/19/2023 17:20:45
#------------------------------------------------------------------------------
~Version Information Section
VERS.           2.0     :   CWLS log ASCII Standard - VERSION 2.0
WRAP.           NO      :   One line per depth step
~Well Information Section
#MNEM       .UNIT                                         VALUE :DESCRIPTION
#------------------------------------------------------------------------------
STRT        .FT                                             565 :START DEPTH
STOP        .FT                                           11656 :STOP DEPTH
STEP        .FT                                             0.5 :STEP      
NULL        .                                           -999.25 :NULL      
COMP        .                     MITCHELL ENERGY OFFSHORE CORP :COMPANY   
WELL        .                               OCS G02394 ST00BP00 :WELL      
FLD         .                            HIGH ISLAND BLOCK 0047 :FIELD     
LOC         .                                                   :LOCATION  
CNTY        .                                  HIGH ISLAND EAST :LOCATION  
STAT        .                                             TEXAS :STATE     
CTRY        .                                     UNITED STATES :COUNTRY   
SRVC        .                                                   :SERVICE COMPANY
DATE        .                             9/13/2023 11:11:59 AM :LOG DATE  
API         .                                    42710400050000 :API NUMBER
UWI         .                                    42710400050000 :UNIQUE WELL ID
XCOORD      .                                  1370895.90844183 :SURFACE X 
YCOORD      .                                  10676661.5178287 :SURFACE Y 
LAT         .                                        29.4165067 :LATITUDE  
LON         .                                        -93.846815 :LONGITUDE 
ELEV        .FT                                              96 :ELEVATION VALUE
ELEV_TYPE   .                                                KB :ELEVATION REFERENCE TYPE
~Curve Information Section
#MNEM       .UNIT                                      API CODE :CURVE DESCRIPTION
#------------------------------------------------------------------------------
DEPT        .FT                                                 :DEPTH     
ASN         .OHMM                                               :          
CILD        .MMHO                                               :          
GR          .GAPI                                               :          
GR_NORM     .GAPI                                               :GammaRay Normalized
ILD         .OHMM                                               :          
SP          .MV                                                 :          
SP_NORM     .MV                                                 :SP Normalized
VSH_GR      .V/V                                                :Volume of Shale from GR
VSH_SP      .V/V                                                :Volume of Shale from SP
~A        DEPTH            ASN           CILD             GR        GR_NORM            ILD             SP        SP_NORM         VSH_GR         VSH_SP
# ...
      7216.5000         0.6666       1894.822        -999.25        -999.25         0.5186       -43.9209      -2.355309        -999.25      0.9663528
      7217.0000         0.6673       1915.697        -999.25        -999.25         0.5167       -44.9576      -3.392784        -999.25      0.9515316
      7217.5000         0.6677       1944.398        -999.25        -999.25         0.5147       -45.7596       -4.19556        -999.25      0.9400634
      7218.0000         0.6662       1980.064        -999.25        -999.25         0.5127       -46.2217      -4.658432        -999.25       0.933451
      7218.5000         0.6621       2015.732        -999.25        -999.25         0.5107       -45.7552      -4.192703        -999.25      0.9401042
      7219.0000          0.658        2032.77        -999.25        -999.25         0.5017       -45.2882      -3.726479        -999.25      0.9467646
      7219.5000         0.6539       2045.844        -999.25        -999.25          0.492       -44.8217      -3.260754        -999.25      0.9534178
      7220.0000         0.6503       2054.613        -999.25        -999.25          0.485       -44.3552      -2.795029        -999.25       0.960071
      7220.5000         0.6484       2047.156        -999.25        -999.25         0.4805       -43.7139      -2.154499        -999.25      0.9692214
      7221.0000         0.6465       2039.686        -999.25        -999.25          0.476       -43.0176      -1.458973        -999.25      0.9791575
      7221.5000         0.6445       2032.229        -999.25        -999.25          0.472       -42.3219     -0.7640457        -999.25      0.9890851
      7222.0000         0.6426        2024.76        -999.25        -999.25         0.4707       -41.6262    -0.06912231        -999.25      0.9990125
      7222.5000         0.6423       2017.303        -999.25        -999.25         0.4695        -40.936      0.6203079        -999.25              1
      7223.0000         0.6423       2040.631        -999.25        -999.25         0.4681       -40.4782       1.077335        -999.25              1
      7223.5000         0.6424       2068.938        -999.25        -999.25         0.4666        -40.021        1.53376        -999.25              1
      7224.0000         0.6444       2097.246        -999.25        -999.25         0.4651       -40.1582        1.39579        -999.25              1
      7224.5000         0.6489       2132.055        -999.25        -999.25         0.4625       -40.3995       1.153713        -999.25              1
      7225.0000         0.6533       2171.156        -999.25        -999.25         0.4598       -40.6407      0.9117393        -999.25              1
      7225.5000         0.6577       2184.809        -999.25        -999.25         0.4568        -41.541     0.01066589        -999.25              1
      7226.0000         0.6612       2197.453        -999.25        -999.25         0.4524       -43.2239      -1.673004        -999.25         0.9761
      7226.5000         0.6647       2210.109        -999.25        -999.25          0.448       -47.1312      -5.581078        -999.25      0.9202703
      7227.0000         0.6681       2222.742        -999.25        -999.25         0.4394       -51.2634      -9.714054        -999.25      0.8612278
      7227.5000         0.6654       2238.543        -999.25        -999.25         0.4281       -53.0107      -11.46213        -999.25      0.8362553
      7228.0000         0.6622       2295.625        -999.25        -999.25         0.4156       -55.9887       -14.4409        -999.25      0.7937015
      7228.5000         0.6589       2467.336        -999.25        -999.25         0.3992        -56.095      -14.54797        -999.25      0.7921718
      7229.0000         0.6557       2737.367        -999.25        -999.25         0.3827       -55.3573      -13.81105        -999.25      0.8026993
      7229.5000         0.6524       2761.703        -999.25        -999.25         0.3654       -54.6183      -13.07282        -999.25      0.8132454
      7230.0000         0.6488       2764.523        -999.25        -999.25         0.3477       -54.8198      -13.27509        -999.25      0.8103558
      7230.5000         0.6452       2736.656        -999.25        -999.25         0.3389       -55.3591      -13.81517        -999.25      0.8026405
      7231.0000         0.6418       2708.789        -999.25        -999.25         0.3423       -56.2186      -14.67544        -999.25      0.7903509
      7231.5000         0.6385       2680.898        -999.25        -999.25         0.3461       -57.7187      -16.17632        -999.25      0.7689098
      7232.0000         0.6353       2648.617        -999.25        -999.25          0.359       -60.0393      -18.49768        -999.25      0.7357473
      7232.5000         0.6321        2610.84        -999.25        -999.25         0.3718       -61.9448      -20.40396        -999.25      0.7085149
      7233.0000         0.6289       2573.063        -999.25        -999.25         0.3818       -69.6456      -28.10553        -999.25      0.5984924
      7233.5000          0.626       2535.238        -999.25        -999.25         0.3839       -65.8496      -24.31031        -999.25      0.6527098
      7234.0000          0.623       2496.723        -999.25        -999.25         0.3815       -61.4357      -19.89718        -999.25      0.7157546
      7234.5000         0.6201       2457.621        -999.25        -999.25         0.3669       -55.8108      -14.27305        -999.25      0.7960992
      7235.0000         0.6234       2568.008        -999.25        -999.25         0.3522       -53.3023      -11.76533        -999.25      0.8319239
      7235.5000         0.6286       2624.539        -999.25        -999.25         0.3387       -51.3054      -9.769199        -999.25        0.86044
      7236.0000         0.6337       2621.121        -999.25        -999.25          0.336        -49.311      -7.775574        -999.25      0.8889204
      7236.5000          0.639       2608.438        -999.25        -999.25         0.3333       -49.6669      -8.132248        -999.25       0.883825
      7237.0000         0.6443       2575.566        -999.25        -999.25         0.3365       -51.1942       -9.66032        -999.25      0.8619954
      7237.5000         0.6497       2542.695        -999.25        -999.25         0.3534       -52.7363      -11.20319        -999.25      0.8399544
      7238.0000         0.6551       2509.824        -999.25        -999.25         0.3702        -54.837      -13.30467        -999.25      0.8099333
      7238.5000         0.6625       2422.301        -999.25        -999.25         0.4011       -64.0355      -22.50394        -999.25      0.6785151
      7239.0000         0.6725       2129.406        -999.25        -999.25         0.4373       -61.6729      -20.14212        -999.25      0.7122555
      7239.5000         0.6825       1799.521        -999.25        -999.25         0.4718        -57.521      -15.99099        -999.25      0.7715573
      7240.0000         0.6974       1724.801        -999.25        -999.25          0.505       -47.9517      -6.422459        -999.25      0.9082506
      7240.5000         0.7242        1705.84        -999.25        -999.25         0.5355       -44.0395      -2.511036        -999.25      0.9641281
      7241.0000         0.7438       1686.877        -999.25        -999.25         0.5534       -43.0336      -1.505909        -999.25       0.978487
      7241.5000         0.7609       1670.344        -999.25        -999.25         0.5669       -42.0859      -0.558979        -999.25      0.9920146
      7242.0000         0.7764       1655.086        -999.25        -999.25         0.5627       -42.5758      -1.049656        -999.25      0.9850049
      7242.5000         0.7793       1657.834        -999.25        -999.25         0.5486       -42.9709       -1.44553        -999.25      0.9793496
