#------------------------------------------------------------------------------
# Created by    : vladimir.rabinovich
# Created on    : 09/19/2023 17:20:22
#------------------------------------------------------------------------------
~Version Information Section
VERS.           2.0     :   CWLS log ASCII Standard - VERSION 2.0
WRAP.           NO      :   One line per depth step
~Well Information Section
#MNEM       .UNIT                                         VALUE :DESCRIPTION
#------------------------------------------------------------------------------
STRT        .FT                                             538 :START DEPTH
STOP        .FT                                           11949 :STOP DEPTH
STEP        .FT                                             0.5 :STEP      
NULL        .                                           -999.25 :NULL      
COMP        .                                 CITIES SERVICE CO :COMPANY   
WELL        .                               OCS G03070 ST00BP00 :WELL      
FLD         .                                           WILDCAT :FIELD     
LOC         .                                                   :LOCATION  
CNTY        .                               MUSTANG ISLAND EAST :LOCATION  
STAT        .                                             TEXAS :STATE     
CTRY        .                                     UNITED STATES :COUNTRY   
SRVC        .                                                   :SERVICE COMPANY
DATE        .                             9/13/2023 11:20:11 AM :LOG DATE  
API         .                                    42712400020000 :API NUMBER
UWI         .                                    42712400020000 :UNIQUE WELL ID
XCOORD      .                                  546520.538281646 :SURFACE X 
YCOORD      .                                  9992103.69354039 :SURFACE Y 
LAT         .                                        27.4947268 :LATITUDE  
LON         .                                       -96.3742825 :LONGITUDE 
ELEV        .FT                                              65 :ELEVATION VALUE
ELEV_TYPE   .                                                KB :ELEVATION REFERENCE TYPE
~Curve Information Section
#MNEM       .UNIT                                      API CODE :CURVE DESCRIPTION
#------------------------------------------------------------------------------
DEPT        .FT                                                 :DEPTH     
ASFL        .OHMM                                               :          
CILD        .MMHO                                               :          
DT          .US/F                                               :          
GR          .GAPI                                               :          
GR_NORM     .GAPI                                               :GammaRay Normalized
ILD         .OHMM                                               :          
SFL         .OHMM                                               :          
SP          .MV                                                 :          
SP_NORM     .MV                                                 :SP Normalized
VSH_GR      .V/V                                                :Volume of Shale from GR
VSH_SP      .V/V                                                :Volume of Shale from SP
~A        DEPTH           ASFL           CILD             DT             GR        GR_NORM            ILD            SFL             SP        SP_NORM         VSH_GR         VSH_SP
# ...
      9650.5000         0.3046       3821.848       116.6512        32.9824       69.61119         0.2611         0.3136      -102.7187      -3.303497      0.7789615        0.93393
      9651.0000         0.3058       3837.852       117.1798        33.3537       70.09298          0.261         0.3135       -103.287      -3.871803      0.7892123      0.9225639
      9651.5000         0.3069       3853.859       117.5347        33.8551       70.74418         0.2612         0.3131      -104.2531      -4.837898      0.8030676      0.9032421
      9652.0000         0.3067       3869.863       117.5527        33.5974       70.40695         0.2613         0.3128       -105.052      -5.636803      0.7958926       0.887264
      9652.5000         0.3057       3885.867       117.5707        32.8597       69.44473         0.2615         0.3111       -104.113        -4.6978      0.7754198       0.906044
      9653.0000         0.3046       3897.945       117.5724        33.7606        70.6161         0.2617         0.3104      -103.1434      -3.728203      0.8003425       0.925436
      9653.5000         0.3035        3908.43       117.5728        34.6861        71.8195          0.262         0.3109      -102.9768        -3.5616      0.8259469       0.928768
      9654.0000         0.3024       3918.926       117.5958         35.587       72.99088         0.2624         0.3101      -103.0775        -3.6623      0.8508697       0.926754
      9654.5000         0.3013        3929.41        117.641        36.3578       73.99284         0.2623         0.3083      -103.9658      -4.550598      0.8721882      0.9089881
      9655.0000         0.3002       3939.906       117.6102        37.1299       74.99651         0.2622         0.3073      -105.5099      -6.094704      0.8935426      0.8781059
      9655.5000         0.2991        3948.07       117.5503        37.4666       75.43324          0.262         0.3069      -106.5956      -7.180397       0.902835      0.8563921
      9656.0000         0.2971       3932.438       117.5521        37.4153       75.36476         0.2617         0.3073      -105.9113      -6.496101      0.9013779       0.870078
      9656.5000          0.295       3900.727       117.5826        37.5076       75.48328         0.2614          0.308      -105.6572      -6.242004      0.9038995      0.8751599
      9657.0000          0.293       3864.879       117.8541        37.7062       75.74019         0.2608         0.3092      -105.8719      -6.456703      0.9093657      0.8708659
      9657.5000          0.291       3820.902       118.2312        38.0161       76.14205         0.2601         0.3103      -106.1899      -6.774704       0.917916      0.8645059
      9658.0000          0.291       3776.926       118.4672        38.2708         76.472         0.2596         0.3102      -105.4351      -6.019897      0.9249362      0.8796021
      9658.5000         0.2968       3730.254       118.3839        37.6626       75.67841         0.2591         0.3097       -104.663      -5.247803      0.9080512       0.895044
      9659.0000         0.3027       3682.891       117.9326        36.5309       74.20316         0.2588         0.3077      -103.8896      -4.474403       0.876663      0.9105119
      9659.5000         0.3086       3635.621       117.5375        34.9819       72.18456         0.2587         0.3059      -103.0427      -3.627502      0.8337141      0.9274499
      9660.0000         0.3142       3608.074       117.8529        34.4565       71.49877         0.2585         0.3044      -102.7502      -3.334999      0.8191228         0.9333
      9660.5000         0.3195       3589.102       118.4425        36.1529       73.70595         0.2581          0.303      -103.0267      -3.611504       0.866084      0.9277699
      9661.0000         0.3193       3570.105       118.6781        38.5856       76.87186         0.2576         0.3026      -102.8654      -3.450203      0.9334438      0.9309959
      9661.5000         0.3161       3551.109       118.7585        40.6354       79.53918         0.2569         0.3022      -102.2894      -2.874199      0.9901954       0.942516
      9662.0000         0.3129       3556.043       118.6932        42.6632       82.17787         0.2563         0.3027      -100.6749      -1.259697              1      0.9748061
      9662.5000         0.3097       3578.633       118.5753        44.7155       84.84847         0.2556         0.3043      -100.9324      -1.517204              1      0.9696559
      9663.0000         0.3067       3608.098       118.4728        41.9537        81.2507         0.2544         0.3077      -101.0182      -1.603004              1      0.9679399
      9663.5000         0.3052       3637.566       118.4542        39.3516       77.86087         0.2532         0.3114      -100.4352      -1.020004      0.9544866      0.9795999
      9664.0000         0.3036       3667.082       118.3376        39.1515       77.59865         0.2519         0.3086      -101.3099      -1.894699      0.9489074       0.962106
      9664.5000         0.3021       3679.133       118.2996        39.9775        78.6725         0.2506         0.3075      -103.3989      -3.983704      0.9717553      0.9203259
      9665.0000         0.3005       3679.172       118.2999        40.3501       79.15598         0.2491         0.3089      -104.4753      -5.060104      0.9820422      0.8987979
      9665.5000         0.3007       3679.207       118.3579        40.1423       78.88373         0.2475         0.3088      -104.8135        -5.3983      0.9762495       0.892034
      9666.0000         0.3044       3673.141       118.4531        39.9282       78.60328         0.2458         0.3078      -105.5885      -6.173302      0.9702826       0.876534
      9666.5000         0.3081       3663.059       118.6018        39.9702       78.65629         0.2443          0.299        -106.15      -6.734802      0.9714104      0.8653039
      9667.0000         0.3118       3652.973       118.8031        38.0431       76.14537         0.2431         0.2772      -106.3195      -6.904305      0.9179866      0.8619139
      9667.5000         0.3154       3642.902       119.0299        37.0145       74.80438          0.242         0.2701      -106.8317      -7.416504       0.889455      0.8516699
      9668.0000         0.3191       3632.816       119.2814        36.6797       74.36677         0.2413         0.2769      -106.6704      -7.255203       0.880144      0.8548959
      9668.5000         0.3198       3622.734       119.6243        36.7216       74.41965         0.2408         0.2894      -106.0311      -6.615898      0.8812691       0.867682
      9669.0000         0.3203       3637.863       120.0262        37.1827       75.01836         0.2407         0.2994      -105.3929      -5.977699      0.8940077       0.880446
      9669.5000         0.3207       3660.551       120.4868        37.6772       75.66056         0.2406          0.304      -106.2211      -6.805901      0.9076715       0.863882
      9670.0000         0.3204       3685.281       120.9437        37.6202       75.58468         0.2405         0.3047      -106.6499      -7.234703       0.906057      0.8553059
      9670.5000         0.3195       3716.395       121.2148         37.648        75.6192         0.2399          0.297      -106.4835      -7.068298      0.9067915      0.8586341
      9671.0000         0.3186       3747.508       121.4866         37.967       76.03288         0.2392         0.2799      -106.1084      -6.693199      0.9155933       0.866136
      9671.5000         0.3177       3778.621       121.5708        39.0128       77.39293         0.2379         0.2736      -105.8652      -6.449997      0.9445304      0.8710001
      9672.0000         0.3168       3819.902       121.6486        40.1838       78.91599         0.2365         0.2772       -105.756      -6.340797       0.976936       0.873184
      9672.5000         0.3159       3861.637       121.6566         41.286       80.34948         0.2346         0.2886      -105.8406        -6.4254              1       0.871492
