#------------------------------------------------------------------------------
# Created by    : vladimir.rabinovich
# Created on    : 09/19/2023 17:20:40
#------------------------------------------------------------------------------
~Version Information Section
VERS.           2.0     :   CWLS log ASCII Standard - VERSION 2.0
WRAP.           NO      :   One line per depth step
~Well Information Section
#MNEM       .UNIT                                         VALUE :DESCRIPTION
#------------------------------------------------------------------------------
STRT        .FT                                             769 :START DEPTH
STOP        .FT                                           10573 :STOP DEPTH
STEP        .FT                                             0.5 :STEP      
NULL        .                                           -999.25 :NULL      
COMP        .                                        TEXACO INC :COMPANY   
WELL        .                               OCS G01846 ST00BP00 :WELL      
FLD         .                            HIGH ISLAND BLOCK 0129 :FIELD     
LOC         .                                                   :LOCATION  
CNTY        .                                  HIGH ISLAND EAST :LOCATION  
STAT        .                                             TEXAS :STATE     
CTRY        .                                     UNITED STATES :COUNTRY   
SRVC        .                                                   :SERVICE COMPANY
DATE        .                             9/13/2023 11:19:51 AM :LOG DATE  
API         .                                    42710300030000 :API NUMBER
UWI         .                                    42710300030000 :UNIQUE WELL ID
XCOORD      .                                   1386052.0565626 :SURFACE X 
YCOORD      .                                   10637380.600337 :SURFACE Y 
LAT         .                                        29.3087467 :LATITUDE  
LON         .                                       -93.7983562 :LONGITUDE 
ELEV        .FT                                              81 :ELEVATION VALUE
ELEV_TYPE   .                                                KB :ELEVATION REFERENCE TYPE
~Curve Information Section
#MNEM       .UNIT                                      API CODE :CURVE DESCRIPTION
#------------------------------------------------------------------------------
DEPT        .FT                                                 :DEPTH     
ASN         .OHMM                                               :          
CALI        .IN                                                 :          
DRHO        .G/C3                                               :          
GR          .GAPI                                               :          
GR_1        .GAPI                                               :          
GR_NORM     .GAPI                                               :GammaRay Normalized
ILD         .OHMM                                               :          
RHOB        .G/C3                                               :          
SP          .MV                                                 :          
SP_NORM     .MV                                                 :SP Normalized
VSH_GR      .V/V                                                :Volume of Shale from GR
VSH_SP      .V/V                                                :Volume of Shale from SP
~A        DEPTH            ASN           CALI           DRHO             GR           GR_1        GR_NORM            ILD           RHOB             SP        SP_NORM         VSH_GR         VSH_SP
# ...
      6591.0000         1.1287        -999.25         0.0302        -999.25        -999.25        -999.25         1.1075        -999.25       -23.9199      -4.831678        -999.25       0.930976
      6591.5000         1.1413        -999.25         0.0307        -999.25        -999.25        -999.25         1.1173        -999.25       -23.9029      -4.815519        -999.25      0.9312069
      6592.0000         1.1554        -999.25         0.0311        -999.25        -999.25        -999.25         1.1207        -999.25       -24.0019      -4.915359        -999.25      0.9297806
      6592.5000         1.1674        -999.25         0.0316        -999.25        -999.25        -999.25         1.1159        -999.25        -24.047        -4.9613        -999.25      0.9291243
      6593.0000         1.1749        -999.25          0.032        -999.25        -999.25        -999.25         1.1029        -999.25       -24.0533      -4.968441        -999.25      0.9290223
      6593.5000         1.1657        -999.25         0.0324        -999.25        -999.25        -999.25         1.0823        -999.25       -24.0596      -4.975582        -999.25      0.9289203
      6594.0000          1.133        -999.25         0.0319        -999.25        -999.25        -999.25         1.0525        -999.25       -24.0001      -4.916922        -999.25      0.9297583
      6594.5000         1.0981        -999.25         0.0326        -999.25        -999.25        -999.25         1.0257        -999.25        -23.624      -4.541662        -999.25      0.9351191
      6595.0000         1.0713        -999.25         0.0336        -999.25        -999.25        -999.25         1.0039        -999.25       -23.2019      -4.120403        -999.25      0.9411371
      6595.5000         1.0546        -999.25         0.0345        -999.25        -999.25        -999.25         1.0032        -999.25       -22.7427      -3.662045        -999.25      0.9476851
      6596.0000         1.0425        -999.25         0.0352        -999.25        -999.25        -999.25         1.0036        -999.25       -22.3102      -3.230383        -999.25      0.9538517
      6596.5000          1.033        -999.25          0.032        -999.25        -999.25        -999.25         1.0072        -999.25        -21.918      -2.839024        -999.25      0.9594425
      6597.0000         1.0326        -999.25         0.0262        -999.25        -999.25        -999.25         1.0108        -999.25       -21.6816      -2.603466        -999.25      0.9628077
      6597.5000         1.0397        -999.25         0.0161        -999.25        -999.25        -999.25         1.0142        -999.25         -21.54      -2.462708        -999.25      0.9648185
      6598.0000         1.0503        -999.25         0.0051        -999.25        -999.25        -999.25         1.0177        -999.25       -21.5244      -2.447947        -999.25      0.9650294
      6598.5000         1.0606        -999.25        -0.0064        -999.25        -999.25        -999.25          1.025        -999.25       -21.5497      -2.474087        -999.25      0.9646559
      6599.0000         1.0692        -999.25        -0.0094        -999.25        -999.25        -999.25          1.035        -999.25       -21.7427      -2.667929        -999.25      0.9618867
      6599.5000         1.0759        -999.25         -0.001        -999.25        -999.25        -999.25         1.0451        -999.25       -22.0146      -2.940668        -999.25      0.9579905
      6600.0000         1.0813        -999.25        -0.0021        -999.25        -999.25        -999.25         1.0516        -999.25        -22.163      -3.089909        -999.25      0.9558585
      6600.5000         1.0849        -999.25          -0.01        -999.25        -999.25        -999.25         1.0562        -999.25       -22.2969      -3.224649        -999.25      0.9539336
      6601.0000         1.0868        -999.25        -0.0204        -999.25        -999.25        -999.25         1.0546        -999.25       -22.3818      -3.310389        -999.25      0.9527087
      6601.5000          1.085        -999.25        -0.0224        -999.25        -999.25        -999.25         1.0473        -999.25       -22.3909       -3.32033        -999.25      0.9525667
      6602.0000         1.0795        -999.25        -0.0064        -999.25        -999.25        -999.25         1.0339        -999.25       -22.2875      -3.217772        -999.25      0.9540318
      6602.5000         1.0724        -999.25         0.0037        -999.25        -999.25        -999.25         1.0172        -999.25       -22.1469      -3.078012        -999.25      0.9560284
      6603.0000         1.0622        -999.25         0.0099        -999.25        -999.25        -999.25         1.0006        -999.25       -21.9029      -2.834852        -999.25      0.9595021
      6603.5000         1.0518        -999.25         0.0128        -999.25        -999.25        -999.25         0.9882        -999.25       -21.6483      -2.581093        -999.25      0.9631273
      6604.0000         1.0352        -999.25         0.0199        -999.25        -999.25        -999.25         0.9831        -999.25       -21.3536      -2.287233        -999.25      0.9673252
      6604.5000           1.02        -999.25         0.0275        -999.25        -999.25        -999.25         0.9791        -999.25       -21.0662      -2.000673        -999.25       0.971419
      6605.0000          1.014        -999.25         0.0331        -999.25        -999.25        -999.25         0.9765        -999.25       -21.1492      -2.084515        -999.25      0.9702212
      6605.5000         1.0225        -999.25         0.0383        -999.25        -999.25        -999.25          0.974        -999.25       -21.3243      -2.260456        -999.25      0.9677078
      6606.0000         1.0293        -999.25         0.0425        -999.25        -999.25        -999.25         0.9738        -999.25       -21.4639      -2.400894        -999.25      0.9657015
      6606.5000         1.0332        -999.25         0.0459        -999.25        -999.25        -999.25          0.974        -999.25       -21.5274      -2.465235        -999.25      0.9647824
      6607.0000         1.0318        -999.25         0.0483        -999.25        -999.25        -999.25         0.9742        -999.25       -21.5615      -2.500177        -999.25      0.9642832
      6607.5000         1.0264        -999.25         0.0503        -999.25        -999.25        -999.25         0.9728        -999.25       -21.4374      -2.376919        -999.25       0.966044
      6608.0000         1.0256        -999.25         0.0517        -999.25        -999.25        -999.25         0.9707        -999.25       -21.3134      -2.253757        -999.25      0.9678035
      6608.5000         1.0295        -999.25         0.0513        -999.25        -999.25        -999.25         0.9686        -999.25       -21.1364      -2.077599        -999.25        0.97032
      6609.0000         1.0337        -999.25         0.0406        -999.25        -999.25        -999.25         0.9665        -999.25       -20.9053       -1.84734        -999.25      0.9736094
      6609.5000         1.0381        -999.25          0.022        -999.25        -999.25        -999.25         0.9644        -999.25       -20.7106      -1.653479        -999.25      0.9763789
      6610.0000         1.0404        -999.25         0.0145        -999.25        -999.25        -999.25         0.9623        -999.25       -20.5824      -1.526119        -999.25      0.9781983
      6610.5000         1.0408        -999.25         0.0161        -999.25        -999.25        -999.25         0.9602        -999.25       -20.4789      -1.423462        -999.25      0.9796648
      6611.0000         1.0404        -999.25         0.0176        -999.25        -999.25        -999.25         0.9572        -999.25       -20.4854      -1.430799        -999.25        0.97956
