#------------------------------------------------------------------------------
# Created by    : vladimir.rabinovich
# Created on    : 09/19/2023 17:20:40
#------------------------------------------------------------------------------
~Version Information Section
VERS.           2.0     :   CWLS log ASCII Standard - VERSION 2.0
WRAP.           NO      :   One line per depth step
~Well Information Section
#MNEM       .UNIT                                         VALUE :DESCRIPTION
#------------------------------------------------------------------------------
STRT        .FT                                             769 :START DEPTH
STOP        .FT                                           10573 :STOP DEPTH
STEP        .FT                                             0.5 :STEP      
NULL        .                                           -999.25 :NULL      
COMP        .                                        TEXACO INC :COMPANY   
WELL        .                               OCS G01846 ST00BP00 :WELL      
FLD         .                            HIGH ISLAND BLOCK 0129 :FIELD     
LOC         .                                                   :LOCATION  
CNTY        .                                  HIGH ISLAND EAST :LOCATION  
STAT        .                                             TEXAS :STATE     
CTRY        .                                     UNITED STATES :COUNTRY   
SRVC        .                                                   :SERVICE COMPANY
DATE        .                             9/13/2023 11:19:51 AM :LOG DATE  
API         .                                    42710300030000 :API NUMBER
UWI         .                                    42710300030000 :UNIQUE WELL ID
XCOORD      .                                   1386052.0565626 :SURFACE X 
YCOORD      .                                   10637380.600337 :SURFACE Y 
LAT         .                                        29.3087467 :LATITUDE  
LON         .                                       -93.7983562 :LONGITUDE 
ELEV        .FT                                              81 :ELEVATION VALUE
ELEV_TYPE   .                                                KB :ELEVATION REFERENCE TYPE
~Curve Information Section
#MNEM       .UNIT                                      API CODE :CURVE DESCRIPTION
#------------------------------------------------------------------------------
DEPT        .FT                                                 :DEPTH     
ASN         .OHMM                                               :          
CALI        .IN                                                 :          
DRHO        .G/C3                                               :          
GR          .GAPI                                               :          
GR_1        .GAPI                                               :          
GR_NORM     .GAPI                                               :GammaRay Normalized
ILD         .OHMM                                               :          
RHOB        .G/C3                                               :          
SP          .MV                                                 :          
SP_NORM     .MV                                                 :SP Normalized
VSH_GR      .V/V                                                :Volume of Shale from GR
VSH_SP      .V/V                                                :Volume of Shale from SP
~A        DEPTH            ASN           CALI           DRHO             GR           GR_1        GR_NORM            ILD           RHOB             SP        SP_NORM         VSH_GR         VSH_SP
# ...
      4643.5000         1.1138        -999.25         0.0002        -999.25        -999.25        -999.25         1.1013        -999.25       -24.5725      -2.152876        -999.25      0.9692447
      4644.0000         1.0964        -999.25         0.0062        -999.25        -999.25        -999.25         1.0882        -999.25       -24.3098      -1.891359        -999.25      0.9729806
      4644.5000         1.0808        -999.25         0.0123        -999.25        -999.25        -999.25         1.0789        -999.25       -24.0471      -1.629845        -999.25      0.9767165
      4645.0000         1.0701        -999.25         0.0174        -999.25        -999.25        -999.25         1.0715        -999.25       -23.7967       -1.38063        -999.25      0.9802767
      4645.5000         1.0654        -999.25         0.0155        -999.25        -999.25        -999.25         1.0643        -999.25       -23.5472      -1.132315        -999.25      0.9838241
      4646.0000         1.0668        -999.25         0.0041        -999.25        -999.25        -999.25         1.0573        -999.25       -23.2613      -0.847599        -999.25      0.9878914
      4646.5000         1.0706        -999.25        -0.0029        -999.25        -999.25        -999.25         1.0505        -999.25       -22.9748     -0.5622845        -999.25      0.9919674
      4647.0000         1.0764        -999.25         0.0032        -999.25        -999.25        -999.25          1.047        -999.25       -22.7656     -0.3542709        -999.25       0.994939
      4647.5000         1.0846        -999.25         0.0101        -999.25        -999.25        -999.25         1.0434        -999.25       -22.6742     -0.2640553        -999.25      0.9962278
      4648.0000         1.0899        -999.25         0.0039        -999.25        -999.25        -999.25         1.0408        -999.25          -22.8     -0.3910389        -999.25      0.9944137
      4648.5000         1.0906        -999.25         0.0007        -999.25        -999.25        -999.25         1.0388        -999.25       -23.2367     -0.8289242        -999.25      0.9881582
      4649.0000         1.0872        -999.25         0.0028        -999.25        -999.25        -999.25         1.0358        -999.25       -23.7158       -1.30921        -999.25       0.981297
      4649.5000         1.0861        -999.25         0.0065        -999.25        -999.25        -999.25         1.0302        -999.25       -24.1802      -1.774796        -999.25      0.9746458
      4650.0000         1.0949        -999.25          0.015        -999.25        -999.25        -999.25         1.0253        -999.25       -24.6445       -2.24028        -999.25       0.967996
      4650.5000         1.1033        -999.25         0.0236        -999.25        -999.25        -999.25         1.0258        -999.25       -25.1526      -2.749565        -999.25      0.9607205
      4651.0000         1.1105        -999.25         0.0211        -999.25        -999.25        -999.25         1.0263        -999.25       -25.6672       -3.26535        -999.25      0.9533522
      4651.5000         1.1178        -999.25         0.0179        -999.25        -999.25        -999.25         1.0268        -999.25       -26.1509      -3.750235        -999.25      0.9464252
      4652.0000         1.1258        -999.25          0.015        -999.25        -999.25        -999.25         1.0272        -999.25       -26.6208      -4.221319        -999.25      0.9396954
      4652.5000         1.1339        -999.25          0.012        -999.25        -999.25        -999.25         1.0277        -999.25       -26.9893      -4.591005        -999.25      0.9344142
      4653.0000         1.1433        -999.25         0.0089        -999.25        -999.25        -999.25         1.0363        -999.25       -26.9124      -4.515289        -999.25      0.9354959
      4653.5000         1.1526        -999.25         0.0056        -999.25        -999.25        -999.25         1.0489        -999.25       -26.2972      -3.901274        -999.25      0.9442675
      4654.0000         1.1623        -999.25         0.0023        -999.25        -999.25        -999.25         1.0765        -999.25       -25.6949      -3.300159        -999.25      0.9528549
      4654.5000         1.1718        -999.25         0.0003        -999.25        -999.25        -999.25         1.1023        -999.25       -25.0956      -2.702045        -999.25      0.9613994
      4655.0000         1.1796        -999.25        -0.0005        -999.25        -999.25        -999.25         1.1171        -999.25       -24.8207      -2.428329        -999.25      0.9653096
      4655.5000         1.1862        -999.25         0.0021        -999.25        -999.25        -999.25          1.132        -999.25       -25.1834      -2.792213        -999.25      0.9601113
      4656.0000         1.1916        -999.25          0.008        -999.25        -999.25        -999.25         1.1482        -999.25       -25.7057      -3.315699        -999.25      0.9526329
      4656.5000         1.1921        -999.25         0.0161        -999.25        -999.25        -999.25         1.1642        -999.25       -26.2094      -3.820585        -999.25      0.9454202
      4657.0000         1.1857        -999.25         0.0151        -999.25        -999.25        -999.25         1.1695        -999.25       -26.7015      -4.313869        -999.25      0.9383733
      4657.5000         1.1776        -999.25         0.0048        -999.25        -999.25        -999.25         1.1747        -999.25       -26.9859      -4.599455        -999.25      0.9342935
      4658.0000         1.1679        -999.25        -0.0021        -999.25        -999.25        -999.25         1.1716        -999.25       -26.4355       -4.05024        -999.25      0.9421394
      4658.5000         1.1566        -999.25        -0.0079        -999.25        -999.25        -999.25         1.1659        -999.25       -25.9046      -3.520525        -999.25      0.9497068
      4659.0000         1.1454        -999.25        -0.0121        -999.25        -999.25        -999.25         1.1505        -999.25       -25.4593      -3.076408        -999.25      0.9560513
      4659.5000          1.137        -999.25        -0.0201        -999.25        -999.25        -999.25         1.1303        -999.25       -25.0396      -2.657894        -999.25      0.9620301
      4660.0000         1.1392        -999.25        -0.0356        -999.25        -999.25        -999.25          1.099        -999.25       -24.6516       -2.27108        -999.25       0.967556
      4660.5000         1.1399        -999.25        -0.0515        -999.25        -999.25        -999.25          1.057        -999.25       -24.5909      -2.211565        -999.25      0.9684062
      4661.0000         1.1356        -999.25        -0.0601        -999.25        -999.25        -999.25         1.0209        -999.25        -24.849       -2.47085        -999.25      0.9647021
      4661.5000         1.1279        -999.25        -0.0645        -999.25        -999.25        -999.25         1.0016        -999.25       -25.1729      -2.795933        -999.25      0.9600581
      4662.0000         1.1249        -999.25        -0.0689        -999.25        -999.25        -999.25         0.9945        -999.25       -25.4381      -3.062321        -999.25      0.9562526
      4662.5000         1.1261        -999.25        -0.0733        -999.25        -999.25        -999.25         0.9888        -999.25       -25.6452      -3.270605        -999.25      0.9532771
      4663.0000         1.1287        -999.25         -0.074        -999.25        -999.25        -999.25         0.9884        -999.25        -25.754      -3.380589        -999.25      0.9517059
      4663.5000         1.1328        -999.25        -0.0726        -999.25        -999.25        -999.25         0.9886        -999.25       -25.6143      -3.242075        -999.25      0.9536846
