#------------------------------------------------------------------------------
# Created by    : vladimir.rabinovich
# Created on    : 09/19/2023 17:21:38
#------------------------------------------------------------------------------
~Version Information Section
VERS.           2.0     :   CWLS log ASCII Standard - VERSION 2.0
WRAP.           NO      :   One line per depth step
~Well Information Section
#MNEM       .UNIT                                         VALUE :DESCRIPTION
#------------------------------------------------------------------------------
STRT        .FT                                            1242 :START DEPTH
STOP        .FT                                            7802 :STOP DEPTH
STEP        .FT                                             0.5 :STEP      
NULL        .                                           -999.25 :NULL      
COMP        .                                    CITIES SERVICE :COMPANY   
WELL        .                               OCS G03070 ST00BP00 :WELL      
FLD         .                                           WILDCAT :FIELD     
LOC         .                                                   :LOCATION  
CNTY        .                               MUSTANG ISLAND EAST :LOCATION  
STAT        .                                             TEXAS :STATE     
CTRY        .                                     UNITED STATES :COUNTRY   
SRVC        .                                                   :SERVICE COMPANY
DATE        .                             9/13/2023 11:20:08 AM :LOG DATE  
API         .                                    42712400230000 :API NUMBER
UWI         .                                    42712400230000 :UNIQUE WELL ID
XCOORD      .                                  541821.370048326 :SURFACE X 
YCOORD      .                                   9995115.4612029 :SURFACE Y 
LAT         .                                         27.502648 :LATITUDE  
LON         .                                       -96.3890109 :LONGITUDE 
ELEV        .FT                                              64 :ELEVATION VALUE
ELEV_TYPE   .                                                KB :ELEVATION REFERENCE TYPE
~Curve Information Section
#MNEM       .UNIT                                      API CODE :CURVE DESCRIPTION
#------------------------------------------------------------------------------
DEPT        .FT                                                 :DEPTH     
CALI        .IN                                                 :          
CILD        .MMHO                                               :          
DRHO        .G/C3                                               :          
DT          .US/F                                               :          
GR          .GAPI                                               :          
GR_1        .GAPI                                               :          
GR_NORM     .GAPI                                               :GammaRay Normalized
ILD         .OHMM                                               :          
NPHI        .%                                                  :          
RHOB        .G/C3                                               :          
SFL         .OHMM                                               :          
SP          .MV                                                 :          
SP_NORM     .MV                                                 :SP Normalized
VSH_GR      .V/V                                                :Volume of Shale from GR
VSH_SP      .V/V                                                :Volume of Shale from SP
~A        DEPTH           CALI           CILD           DRHO             DT             GR           GR_1        GR_NORM            ILD           NPHI           RHOB            SFL             SP        SP_NORM         VSH_GR         VSH_SP
# ...
      2109.0000        -999.25       1299.391        -999.25        -999.25        -999.25        85.5339       56.74009         0.7297        -999.25        -999.25          1.078       -80.8796       4.500511      0.5051084              1
      2109.5000        -999.25       1314.617        -999.25        -999.25        -999.25        85.0416       56.11012         0.7237        -999.25        -999.25         1.0403       -83.0653       2.314812      0.4917047              1
      2110.0000        -999.25        1329.85        -999.25        -999.25        -999.25        84.5638       55.49827           0.72        -999.25        -999.25         1.0468       -86.2889     -0.9087906      0.4786865      0.9818242
      2110.5000        -999.25       1344.213        -999.25        -999.25        -999.25        84.1299        54.9413         0.7186        -999.25        -999.25         1.0739       -88.3125      -2.932388      0.4668362      0.9413522
      2111.0000        -999.25       1358.369        -999.25        -999.25        -999.25        85.4304       56.55232         0.7186        -999.25        -999.25         1.0869       -90.1265      -4.746391      0.5011132      0.9050722
      2111.5000        -999.25       1372.527        -999.25        -999.25        -999.25         87.174       58.71723         0.7211        -999.25        -999.25         1.0624       -91.3682      -5.988091      0.5471752      0.8802382
      2112.0000        -999.25       1375.635        -999.25        -999.25        -999.25        89.3021       61.36275         0.7259        -999.25        -999.25          1.066       -91.7859      -6.405785      0.6034629      0.8718843
      2112.5000        -999.25       1365.738        -999.25       202.6953        -999.25        90.8323       63.26091         0.7317        -999.25        -999.25         1.1369        -92.354      -6.973885      0.6438491      0.8605223
      2113.0000        -999.25       1355.842        -999.25       202.0283        -999.25        92.3446       65.13668         0.7397        -999.25        -999.25         1.2013       -93.2015      -7.821388      0.6837592      0.8435723
      2113.5000        -999.25       1347.857        -999.25       201.0757        -999.25        93.6814       66.79308         0.7457        -999.25        -999.25         1.2672       -92.9248      -7.544685      0.7190016      0.8491063
      2114.0000        -999.25        1343.01        -999.25       199.6516        -999.25        94.6997       68.05136         0.7488        -999.25        -999.25         1.2879       -91.8555      -6.475388      0.7457736      0.8704922
      2114.5000        -999.25       1338.162        -999.25       198.3582        -999.25        95.6665       69.24526         0.7475        -999.25        -999.25         1.2446       -91.3718      -5.991692      0.7711758      0.8801662
      2115.0000        -999.25       1333.316        -999.25       197.4202        -999.25        96.5387       70.32091         0.7441        -999.25        -999.25         1.2097       -92.2228       -6.84269      0.7940618      0.8631462
      2115.5000        -999.25       1333.344        -999.25       196.5942        -999.25        96.9283       70.79331         0.7374        -999.25        -999.25           1.18       -94.5631      -9.182991       0.804113      0.8163402
      2116.0000        -999.25       1335.434        -999.25       196.2444        -999.25        97.4338       71.41059         0.7266        -999.25        -999.25          1.156       -94.3783      -8.998192      0.8172466      0.8200362
      2116.5000        -999.25       1337.523        -999.25       196.0012        -999.25        97.9042       71.98399         0.7171        -999.25        -999.25         1.1392        -93.833      -8.452888      0.8294467      0.8309422
      2117.0000        -999.25       1350.492        -999.25       195.4407        -999.25        98.3853       72.57077         0.7096        -999.25        -999.25         1.1327       -93.4069      -8.026787      0.8419313      0.8394642
      2117.5000        -999.25        1366.52        -999.25       194.4746        -999.25        99.0005       73.32518         0.7036        -999.25        -999.25         1.1322       -92.6808       -7.30069      0.8579826      0.8539862
      2118.0000        -999.25       1382.549        -999.25       192.5981        -999.25        99.5621       74.01257          0.703        -999.25        -999.25         1.1245       -91.0048      -5.624687      0.8726079      0.8875062
      2118.5000        -999.25       1398.289        -999.25       190.3193        -999.25       100.0377       74.59248         0.7093        -999.25        -999.25         1.0877       -90.4899      -5.109787      0.8849463      0.8978043
      2119.0000        -999.25       1413.658        -999.25       188.0759        -999.25       100.5797       75.25537         0.7159        -999.25        -999.25         1.0571       -90.3715      -4.991386      0.8990505      0.9001723
      2119.5000        -999.25       1427.807        -999.25       186.1621        -999.25       101.6267       76.54953         0.7271        -999.25        -999.25         1.0662       -89.2814      -3.901291      0.9265857      0.9219742
      2120.0000        -999.25       1422.238        -999.25       184.1743        -999.25       102.2369       77.29768         0.7379        -999.25        -999.25         1.1069       -87.8761      -2.495987      0.9425038      0.9500803
      2120.5000        -999.25       1394.668        -999.25        183.925        -999.25       101.2332       76.02846         0.7483        -999.25        -999.25         1.1507       -86.5428      -1.162689      0.9154991      0.9767462
      2121.0000        -999.25       1364.588        -999.25       184.7861        -999.25       100.1652       74.67886         0.7563        -999.25        -999.25         1.1996       -85.7732     -0.3930893      0.8867843      0.9921382
      2121.5000        -999.25       1334.521        -999.25       186.5474        -999.25        99.0139       73.22514         0.7617        -999.25        -999.25         1.1717       -85.9767     -0.5965881       0.855854      0.9880682
      2122.0000        -999.25       1320.727        -999.25        188.208        -999.25        97.7543       71.63605         0.7657        -999.25        -999.25         1.1398       -87.2357      -1.855591      0.8220435      0.9628882
      2122.5000        -999.25       1313.096        -999.25       189.7207        -999.25        96.2939       69.79594         0.7672        -999.25        -999.25         1.1099       -88.6139      -3.233788      0.7828924      0.9353243
      2123.0000        -999.25       1313.008        -999.25       191.6865        -999.25        95.1145        68.3071          0.765        -999.25        -999.25         1.0791       -88.9768      -3.596687      0.7512149      0.9280663
      2123.5000        -999.25        1312.92        -999.25       193.1846        -999.25        94.4362       67.44462         0.7609        -999.25        -999.25         1.0858       -87.8086       -2.42849      0.7328642      0.9514302
      2124.0000        -999.25       1312.832        -999.25       194.7546        -999.25        94.2034       67.13902         0.7575        -999.25        -999.25         1.1131       -87.1398      -1.759689      0.7263622      0.9648062
      2124.5000        -999.25       1312.744        -999.25       196.4458        -999.25        94.7156       67.76467         0.7559        -999.25        -999.25         1.1308       -89.2302       -3.85009      0.7396739      0.9229982
      2125.0000        -999.25       1312.656        -999.25       198.8342        -999.25        95.5629        68.8092         0.7555        -999.25        -999.25         1.1383        -91.546      -6.165886      0.7618978      0.8766823
      2125.5000        -999.25       1316.432        -999.25       200.7712        -999.25        95.9438       69.27072         0.7581        -999.25        -999.25         1.1235       -93.4611      -8.080986      0.7717175      0.8383803
