#------------------------------------------------------------------------------
# Created by    : vladimir.rabinovich
# Created on    : 09/19/2023 17:20:40
#------------------------------------------------------------------------------
~Version Information Section
VERS.           2.0     :   CWLS log ASCII Standard - VERSION 2.0
WRAP.           NO      :   One line per depth step
~Well Information Section
#MNEM       .UNIT                                         VALUE :DESCRIPTION
#------------------------------------------------------------------------------
STRT        .FT                                             769 :START DEPTH
STOP        .FT                                           10573 :STOP DEPTH
STEP        .FT                                             0.5 :STEP      
NULL        .                                           -999.25 :NULL      
COMP        .                                        TEXACO INC :COMPANY   
WELL        .                               OCS G01846 ST00BP00 :WELL      
FLD         .                            HIGH ISLAND BLOCK 0129 :FIELD     
LOC         .                                                   :LOCATION  
CNTY        .                                  HIGH ISLAND EAST :LOCATION  
STAT        .                                             TEXAS :STATE     
CTRY        .                                     UNITED STATES :COUNTRY   
SRVC        .                                                   :SERVICE COMPANY
DATE        .                             9/13/2023 11:19:51 AM :LOG DATE  
API         .                                    42710300030000 :API NUMBER
UWI         .                                    42710300030000 :UNIQUE WELL ID
XCOORD      .                                   1386052.0565626 :SURFACE X 
YCOORD      .                                   10637380.600337 :SURFACE Y 
LAT         .                                        29.3087467 :LATITUDE  
LON         .                                       -93.7983562 :LONGITUDE 
ELEV        .FT                                              81 :ELEVATION VALUE
ELEV_TYPE   .                                                KB :ELEVATION REFERENCE TYPE
~Curve Information Section
#MNEM       .UNIT                                      API CODE :CURVE DESCRIPTION
#------------------------------------------------------------------------------
DEPT        .FT                                                 :DEPTH     
ASN         .OHMM                                               :          
CALI        .IN                                                 :          
DRHO        .G/C3                                               :          
GR          .GAPI                                               :          
GR_1        .GAPI                                               :          
GR_NORM     .GAPI                                               :GammaRay Normalized
ILD         .OHMM                                               :          
RHOB        .G/C3                                               :          
SP          .MV                                                 :          
SP_NORM     .MV                                                 :SP Normalized
VSH_GR      .V/V                                                :Volume of Shale from GR
VSH_SP      .V/V                                                :Volume of Shale from SP
~A        DEPTH            ASN           CALI           DRHO             GR           GR_1        GR_NORM            ILD           RHOB             SP        SP_NORM         VSH_GR         VSH_SP
# ...
      4008.0000         0.9153        -999.25        -0.0576        -999.25        -999.25        -999.25         0.8013        -999.25        -23.196      0.7297325        -999.25              1
      4008.5000         0.9238        -999.25        -0.0631        -999.25        -999.25        -999.25         0.8058        -999.25       -22.7443       1.180246        -999.25              1
      4009.0000          0.942        -999.25        -0.0594        -999.25        -999.25        -999.25         0.8293        -999.25       -22.7759       1.147461        -999.25              1
      4009.5000          0.964        -999.25        -0.0551        -999.25        -999.25        -999.25         0.8663        -999.25       -23.2977      0.6244755        -999.25              1
      4010.0000         0.9783        -999.25        -0.0545        -999.25        -999.25        -999.25         0.9259        -999.25       -24.1147     -0.1937084        -999.25      0.9972327
      4010.5000         1.0208        -999.25        -0.0589        -999.25        -999.25        -999.25         0.9855        -999.25       -25.2925      -1.372694        -999.25      0.9803901
      4011.0000         1.0806        -999.25        -0.0632        -999.25        -999.25        -999.25         1.0452        -999.25       -27.0935      -3.174879        -999.25      0.9546446
      4011.5000         1.1279        -999.25        -0.0673        -999.25        -999.25        -999.25         1.1071        -999.25       -29.1854      -5.267963        -999.25      0.9247434
      4012.0000         1.1663        -999.25        -0.0714        -999.25        -999.25        -999.25         1.1637        -999.25       -31.4523      -7.536047        -999.25      0.8923422
      4012.5000         1.2001        -999.25        -0.0789        -999.25        -999.25        -999.25         1.2053        -999.25       -33.4061      -9.491035        -999.25      0.8644138
      4013.0000         1.2256        -999.25        -0.0868        -999.25        -999.25        -999.25         1.2267        -999.25       -35.2737      -11.35982        -999.25      0.8377169
      4013.5000         1.2385        -999.25        -0.0973        -999.25        -999.25        -999.25         1.2251        -999.25       -36.4904       -12.5777        -999.25      0.8203185
      4014.0000         1.2274        -999.25        -0.1011        -999.25        -999.25        -999.25         1.2279        -999.25       -36.8253      -12.91379        -999.25      0.8155174
      4014.5000          1.208        -999.25        -0.0964        -999.25        -999.25        -999.25         1.2318        -999.25       -35.9541      -12.04378        -999.25      0.8279461
      4015.0000            1.2        -999.25         -0.094        -999.25        -999.25        -999.25         1.2259        -999.25       -34.7258      -10.81666        -999.25      0.8454763
      4015.5000         1.2089        -999.25         -0.092        -999.25        -999.25        -999.25           1.22        -999.25       -33.6638      -9.755842        -999.25      0.8606308
      4016.0000         1.2212        -999.25        -0.0916        -999.25        -999.25        -999.25         1.2131        -999.25       -32.8644      -8.957628        -999.25      0.8720339
      4016.5000         1.2262        -999.25        -0.0866        -999.25        -999.25        -999.25         1.2052        -999.25       -32.1685      -8.262913        -999.25      0.8819584
      4017.0000         1.2206        -999.25         -0.077        -999.25        -999.25        -999.25         1.1993        -999.25       -31.5121      -7.607698        -999.25      0.8913186
      4017.5000         1.2093        -999.25        -0.0731        -999.25        -999.25        -999.25         1.1946        -999.25       -30.7996      -6.896383        -999.25      0.9014803
      4018.0000         1.1958        -999.25        -0.0663        -999.25        -999.25        -999.25         1.1891        -999.25       -30.0816      -6.179569        -999.25      0.9117205
      4018.5000         1.1767        -999.25         -0.066        -999.25        -999.25        -999.25         1.1822        -999.25       -29.3728      -5.471954        -999.25      0.9218292
      4019.0000         1.1605        -999.25        -0.0714        -999.25        -999.25        -999.25         1.1753        -999.25       -28.6664      -4.766739        -999.25      0.9319037
      4019.5000         1.1577        -999.25        -0.0728        -999.25        -999.25        -999.25         1.1651        -999.25       -27.9946      -4.096123        -999.25       0.941484
      4020.0000           1.16        -999.25        -0.0678        -999.25        -999.25        -999.25          1.153        -999.25       -27.4605       -3.56321        -999.25       0.949097
      4020.5000         1.1624        -999.25        -0.0627        -999.25        -999.25        -999.25         1.1396        -999.25       -27.0776      -3.181494        -999.25      0.9545501
      4021.0000         1.1566        -999.25        -0.0565        -999.25        -999.25        -999.25         1.1148        -999.25       -27.3215      -3.426579        -999.25      0.9510489
      4021.5000         1.1434        -999.25        -0.0513        -999.25        -999.25        -999.25         1.0904        -999.25       -28.2418      -4.348063        -999.25      0.9378848
      4022.0000         1.1282        -999.25        -0.0523        -999.25        -999.25        -999.25         1.0703        -999.25       -29.2477      -5.355148        -999.25      0.9234979
      4022.5000         1.1143        -999.25        -0.0559        -999.25        -999.25        -999.25         1.0503        -999.25       -30.1081      -6.216734        -999.25      0.9111895
      4023.0000         1.1026        -999.25        -0.0599        -999.25        -999.25        -999.25         1.0301        -999.25       -30.6804      -6.790218        -999.25      0.9029969
      4023.5000         1.0956        -999.25        -0.0649        -999.25        -999.25        -999.25         1.0101        -999.25       -31.0119      -7.122904        -999.25      0.8982442
      4024.0000         1.0903        -999.25        -0.0667        -999.25        -999.25        -999.25          0.995        -999.25       -31.0306      -7.142788        -999.25      0.8979602
      4024.5000         1.0789        -999.25         -0.057        -999.25        -999.25        -999.25         0.9803        -999.25       -30.6243      -6.737673        -999.25      0.9037476
      4025.0000         1.0659        -999.25        -0.0491        -999.25        -999.25        -999.25         0.9642        -999.25       -29.9515      -6.066057        -999.25      0.9133421
      4025.5000          1.051        -999.25        -0.0578        -999.25        -999.25        -999.25         0.9424        -999.25       -29.0763      -5.192043        -999.25       0.925828
      4026.0000         1.0421        -999.25        -0.0619        -999.25        -999.25        -999.25         0.9258        -999.25       -28.1715      -4.288427        -999.25      0.9387367
      4026.5000         1.0343        -999.25        -0.0615        -999.25        -999.25        -999.25         0.9092        -999.25       -27.4035      -3.521612        -999.25      0.9496912
      4027.0000         1.0241        -999.25        -0.0619        -999.25        -999.25        -999.25         0.8925        -999.25       -26.8876      -3.006897        -999.25      0.9570443
      4027.5000         1.0096        -999.25        -0.0649        -999.25        -999.25        -999.25         0.8757        -999.25       -26.3622      -2.482683        -999.25      0.9645331
      4028.0000         1.0012        -999.25        -0.0666        -999.25        -999.25        -999.25         0.8646        -999.25       -25.7381      -1.859768        -999.25      0.9734319
