#------------------------------------------------------------------------------
# Created by    : vladimir.rabinovich
# Created on    : 09/19/2023 17:20:47
#------------------------------------------------------------------------------
~Version Information Section
VERS.           2.0     :   CWLS log ASCII Standard - VERSION 2.0
WRAP.           NO      :   One line per depth step
~Well Information Section
#MNEM       .UNIT                                         VALUE :DESCRIPTION
#------------------------------------------------------------------------------
STRT        .FT                                            1960 :START DEPTH
STOP        .FT                                           13420 :STOP DEPTH
STEP        .FT                                             0.5 :STEP      
NULL        .                                           -999.25 :NULL      
COMP        .                                 CALIFORNIA CO THE :COMPANY   
WELL        .                                     ST TR 00002-L :WELL      
FLD         .                                           WILDCAT :FIELD     
LOC         .                                                   :LOCATION  
CNTY        .                                       SABINE PASS :LOCATION  
STAT        .                                             TEXAS :STATE     
CTRY        .                                     UNITED STATES :COUNTRY   
SRVC        .                                                   :SERVICE COMPANY
DATE        .                             9/13/2023 11:12:08 AM :LOG DATE  
API         .                                    42715000310000 :API NUMBER
UWI         .                                    42715000310000 :UNIQUE WELL ID
XCOORD      .                                  1372392.72802961 :SURFACE X 
YCOORD      .                                   10750257.969662 :SURFACE Y 
LAT         .                                         29.618979 :LATITUDE  
LON         .                                       -93.8437903 :LONGITUDE 
ELEV        .FT                                              11 :ELEVATION VALUE
ELEV_TYPE   .                                                KB :ELEVATION REFERENCE TYPE
~Curve Information Section
#MNEM       .UNIT                                      API CODE :CURVE DESCRIPTION
#------------------------------------------------------------------------------
DEPT        .FT                                                 :DEPTH     
ASN         .OHMM                                               :          
IL          .OHMM                                               :          
SP          .MV                                                 :          
SP_NORM     .MV                                                 :SP Normalized
VSH_SP      .V/V                                                :Volume of Shale from SP
~A        DEPTH            ASN             IL             SP        SP_NORM         VSH_SP
# ...
      8032.0000         1.7737         0.6097      -106.9261      -50.48951      0.2787212
      8032.5000         1.6949         0.6138      -103.7444      -47.51993      0.3211439
      8033.0000         1.6175         0.6178       -99.0477      -43.13634      0.3837666
      8033.5000         1.5676         0.6218       -93.3527      -37.82101      0.4596999
      8034.0000         1.5449         0.6259       -86.7288       -31.6387      0.5480186
      8034.5000          1.549         0.6299       -81.9019      -27.13359      0.6123772
      8035.0000         1.5583         0.6339       -78.1515      -23.63322      0.6623826
      8035.5000         1.5846         0.6335       -75.2562      -20.93094      0.7009866
      8036.0000         1.6107          0.633       -73.2421      -19.05112      0.7278412
      8036.5000         1.6678         0.6325        -71.317      -17.25435      0.7535092
      8037.0000         1.7246          0.632       -69.6284      -15.67833      0.7760239
      8037.5000         1.7667         0.6315        -67.942      -14.10435      0.7985092
      8038.0000         1.7964         0.6311       -66.3599      -12.62773      0.8196039
      8038.5000         1.8132         0.6294       -64.9296      -11.29278      0.8386745
      8039.0000         1.8156         0.6264       -63.7283      -10.17157      0.8546919
      8039.5000         1.8111         0.6233       -62.7072      -9.218539      0.8683066
      8040.0000         1.8031         0.6202       -62.9589      -9.453461      0.8649505
      8040.5000         1.7651         0.6171       -64.2915      -10.69722      0.8471826
      8041.0000         1.6696         0.6142       -65.6262      -11.94294      0.8293866
      8041.5000         1.5931         0.6137       -66.9611      -13.18884      0.8115879
      8042.0000         1.5481         0.6132       -68.2958      -14.43457      0.7937919
      8042.5000         1.5195         0.6128       -70.1515      -16.16655      0.7690493
      8043.0000         1.5036         0.6123       -73.2074      -19.01872      0.7283039
      8043.5000         1.5167         0.6118       -79.0109      -24.43533      0.6509238
      8044.0000         1.5373         0.6113       -85.0098       -30.0343      0.5709385
      8044.5000         1.5579         0.6083       -90.0885      -34.77442      0.5032225
      8045.0000         1.5763            0.6       -93.3527      -37.82101      0.4596999
      8045.5000         1.5946         0.5917       -95.4667      -39.79407      0.4315133
      8046.0000         1.6129         0.5835       -93.9603       -38.3881      0.4515986
      8046.5000         1.5773         0.5752       -90.3966      -35.06198      0.4991146
      8047.0000         1.4894         0.5669       -86.0342      -30.99041      0.5572799
      8047.5000          1.412         0.5586       -80.3739      -25.70746      0.6327505
      8048.0000         1.3835         0.5503       -82.4487      -27.64394      0.6050866
      8048.5000         1.3211          0.542       -86.1904      -31.13619      0.5551972
      8049.0000         1.2551         0.5338       -89.8844      -34.58393      0.5059439
      8049.5000         1.2172         0.5255        -93.535      -37.99116      0.4572692
      8050.0000         1.2485         0.5186       -96.0222      -40.31254      0.4241065
      8050.5000         1.2869         0.5125       -97.8345      -42.00402      0.3999425
      8051.0000         1.3253         0.5065       -98.6831      -42.79604      0.3886279
      8051.5000         1.3637         0.5005       -99.3239      -43.39413      0.3800839
      8052.0000         1.4021         0.4945       -98.9847      -43.07754      0.3846065
      8052.5000         1.4377         0.4884       -98.2144      -42.35859      0.3948773
      8053.0000         1.4714         0.4824       -95.4319      -39.76159      0.4319772
      8053.5000          1.505         0.4762       -92.3369      -36.87292      0.4732439
      8054.0000         1.5386         0.4676       -85.8953      -30.86077      0.5591319
      8054.5000         1.5677         0.4591       -80.2003      -25.54543      0.6350652
      8055.0000         1.5749         0.4505       -75.2084      -20.88632      0.7016239
      8055.5000         1.5326         0.4419       -69.3397      -15.40887      0.7798733
      8056.0000         1.4917         0.4333        -63.189       -9.66822      0.8618826
      8056.5000         1.4567         0.4321       -61.7587      -8.333275      0.8809532
      8057.0000         1.4219         0.4316       -61.2438      -7.852701      0.8878186
      8057.5000         1.3969         0.4311        -61.553      -8.141288      0.8836959
      8058.0000         1.3736         0.4306       -61.8629      -8.430527      0.8795639
      8058.5000         1.3503          0.404       -62.7809      -9.287326      0.8673239
      8059.0000         1.3079         0.3683        -64.795      -11.16715      0.8404692
      8059.5000         1.2559         0.3326       -69.0142      -15.10507      0.7842132
      8060.0000         1.1932         0.3661       -76.0419      -21.66426      0.6905106
      8060.5000         1.1409         0.4013       -91.8942      -36.45974      0.4791465
      8061.0000         1.0931         0.4365      -101.2268      -45.17017      0.3547119
      8061.5000         1.0389         0.4717      -109.4612       -52.8556        0.24492
      8062.0000         0.9801         0.5069        -113.09      -56.24249      0.1965359
      8062.5000          0.993         0.5421      -106.7482      -50.32347      0.2810932
      8063.0000         1.0375         0.5774        -98.006      -42.16409      0.3976559
      8063.5000         1.0819         0.6125       -85.1748       -30.1883      0.5687386
      8064.0000         1.1243          0.634       -77.3267      -22.86341      0.6733799
      8064.5000         1.1583         0.6517       -61.5178      -8.108433      0.8841652
      8065.0000         1.1923         0.6695       -57.5092      -4.367074      0.9376132
      8065.5000         1.2263         0.6872       -55.7381      -2.714045       0.961228
      8066.0000         1.2588         0.7019       -54.0821      -1.168447      0.9833079
      8066.5000         1.2794         0.7049       -53.5222      -0.645875      0.9907732
      8067.0000         1.2999          0.708       -59.1998      -5.944966      0.9150719
      8067.5000         1.3205          0.711       -66.9871      -13.21311      0.8112413
      8068.0000         1.3327         0.7148       -76.6843      -22.26384      0.6819452
      8068.5000         1.3437         0.7213       -81.1292      -26.41241      0.6226798
      8069.0000          1.345         0.7278       -84.5887      -29.64127      0.5765532
      8069.5000         1.3449         0.7344       -87.8269      -32.66359      0.5333773
      8070.0000         1.3659         0.7442       -84.0115      -29.10255      0.5842493
      8070.5000         1.3895         0.7636       -80.4694      -25.79659      0.6314772
      8071.0000          1.413         0.7831       -86.7374      -31.64672       0.547904
      8071.5000         1.4363         0.8068       -93.8058       -38.2439      0.4536586
      8072.0000         1.4587         0.8354       -93.9897      -38.41554      0.4512066
      8072.5000         1.4811         0.8607       -92.4911      -37.01684       0.471188
      8073.0000         1.5034         0.8441       -90.4769      -35.13692      0.4980439
      8073.5000         1.5216         0.8273       -83.5339      -28.65679      0.5906172
      8074.0000         1.5337         0.8167        -76.337      -21.93969      0.6865759
      8074.5000         1.5304         0.8124       -70.3641      -16.36498      0.7662146
      8075.0000         1.5232          0.808       -72.7646      -18.60545      0.7342079
      8075.5000         1.5126         0.8036       -75.4125      -21.07682      0.6989026
