#------------------------------------------------------------------------------
# Created by    : vladimir.rabinovich
# Created on    : 09/19/2023 17:22:52
#------------------------------------------------------------------------------
~Version Information Section
VERS.           2.0     :   CWLS log ASCII Standard - VERSION 2.0
WRAP.           NO      :   One line per depth step
~Well Information Section
#MNEM       .UNIT                                         VALUE :DESCRIPTION
#------------------------------------------------------------------------------
STRT        .FT                                            2993 :START DEPTH
STOP        .FT                                           15023 :STOP DEPTH
STEP        .FT                                             0.5 :STEP      
NULL        .                                           -999.25 :NULL      
COMP        .                                        TEXACO INC :COMPANY   
WELL        .                                     ST TR 00018-L :WELL      
FLD         .                                           WILDCAT :FIELD     
LOC         .                                                   :LOCATION  
CNTY        .                                       SABINE PASS :LOCATION  
STAT        .                                             TEXAS :STATE     
CTRY        .                                     UNITED STATES :COUNTRY   
SRVC        .                                                   :SERVICE COMPANY
DATE        .                             9/13/2023 11:20:07 AM :LOG DATE  
API         .                                    42715000300000 :API NUMBER
UWI         .                                    42715000300000 :UNIQUE WELL ID
XCOORD      .                                  1367853.58567514 :SURFACE X 
YCOORD      .                                  10716828.2466652 :SURFACE Y 
LAT         .                                         29.526933 :LATITUDE  
LON         .                                       -93.8573019 :LONGITUDE 
ELEV        .FT                                              75 :ELEVATION VALUE
ELEV_TYPE   .                                                KB :ELEVATION REFERENCE TYPE
~Curve Information Section
#MNEM       .UNIT                                      API CODE :CURVE DESCRIPTION
#------------------------------------------------------------------------------
DEPT        .FT                                                 :DEPTH     
ILD         .OHMM                                               :          
SFLA        .OHMM                                               :          
SP          .MV                                                 :          
SP_NORM     .MV                                                 :SP Normalized
VSH_SP      .V/V                                                :Volume of Shale from SP
~A        DEPTH            ILD           SFLA             SP        SP_NORM         VSH_SP
# ...
      6997.0000         0.7103         0.6359        -11.489       1.099483              1
      6997.5000         0.7295         0.6372       -11.3724         1.2125              1
      6998.0000         0.7667          0.639       -11.3722       1.209117              1
      6998.5000         0.7689          0.649       -11.6811      0.8966341              1
      6999.0000         0.7971          0.664       -11.7563      0.8178511              1
      6999.5000         0.7971          0.683       -12.1421      0.4284678              1
      7000.0000         0.7818         0.6946       -12.4135      0.1534843              1
      7000.5000         0.5978         0.7035       -12.9895     -0.4260988              1
      7001.0000         0.4411         0.6843       -14.6142      -2.054381      0.9857516
      7001.5000         0.4312         0.6457       -20.2244      -7.668164      0.9098897
      7002.0000         0.4312         0.6209       -25.8345      -13.28185      0.8340291
      7002.5000          0.452         0.6178       -31.4447      -18.89563      0.7581671
      7003.0000         0.5037         0.6194       -37.0549      -24.50941      0.6823052
      7003.5000          0.542         0.6272        -42.665       -30.1231      0.6064446
      7004.0000         0.5939         0.6411       -48.2752      -35.73688      0.5305827
      7004.5000         0.6491         0.6589       -53.8854      -41.35066      0.4547208
      7005.0000         0.6874         0.6767       -50.4237      -37.89255      0.5014521
      7005.5000         0.7408         0.6944       -40.6282      -28.10063      0.6337752
      7006.0000         0.8078         0.7283       -30.8327      -18.30871      0.7660984
      7006.5000         0.8748         0.7707       -24.8156       -12.2952      0.8473622
      7007.0000         0.9254         0.8132       -24.5893      -12.07248      0.8503719
      7007.5000         0.9446         0.8409       -23.8879      -11.37466      0.8598019
      7008.0000         0.9646         0.8499       -22.3187      -9.809047      0.8809589
      7008.5000         0.9615         0.8573       -20.7262      -8.220129      0.9024307
      7009.0000         0.8797           0.86       -19.1336      -6.631113      0.9239039
      7009.5000         0.6882         0.8581       -19.2504      -6.751496      0.9222771
      7010.0000         0.4919         0.8539       -21.4308      -8.935478      0.8927638
      7010.5000         0.4241         0.8386       -23.0993      -10.60756      0.8701681
      7011.0000         0.3858         0.7885       -25.2173      -12.72915       0.841498
      7011.5000         0.3699         0.7383       -26.1969      -13.71233      0.8282118
      7012.0000         0.3548         0.6882       -27.6993      -15.21831      0.8078607
      7012.5000         0.3433         0.6381       -34.3335      -21.85609      0.7181609
      7013.0000         0.3624         0.6004       -40.9676      -28.49378      0.6284624
      7013.5000         0.3932         0.5894       -47.6017      -35.13146       0.538764
      7014.0000         0.4312         0.5815       -54.2358      -41.76915      0.4490656
      7014.5000         0.4503         0.5815       -60.8699      -48.40683      0.3593672
      7015.0000         0.4694         0.5815        -67.504      -55.04451      0.2696688
      7015.5000         0.4918         0.5838       -70.6855       -58.2296      0.2266271
      7016.0000         0.4925         0.5877       -68.1367      -55.68438      0.2610219
      7016.5000         0.5116         0.5955       -65.5878      -53.13906      0.2954181
      7017.0000         0.5222         0.6032       -63.0389      -50.59374      0.3298143
      7017.5000         0.5222         0.6206       -60.4901      -48.04853      0.3642091
      7018.0000         0.5211         0.6437       -57.9412      -45.50321      0.3986053
      7018.5000          0.502         0.6669       -55.3923      -42.95789      0.4330014
      7019.0000         0.4917         0.7056       -52.8435      -40.41267      0.4673963
      7019.5000         0.4789         0.7635       -52.5012      -40.07396      0.4719735
      7020.0000         0.4597         0.8181       -55.8986      -43.47495      0.4260142
      7020.5000         0.4405         0.8152       -59.2959      -46.87582      0.3800564
      7021.0000         0.4214         0.7838       -62.6933      -50.27681      0.3340972
      7021.5000         0.4002         0.7524       -66.0906      -53.67769      0.2881393
      7022.0000         0.4001          0.721        -69.488      -57.07867      0.2421801
      7022.5000         0.4059         0.6896       -69.9017      -57.49596      0.2365411
      7023.0000         0.4154         0.6582       -65.1517      -52.74954      0.3006819
      7023.5000         0.4306         0.6396       -60.4017      -48.00312      0.3648227
      7024.0000         0.4328         0.6273       -55.6517      -43.25671      0.4289634
      7024.5000          0.452          0.626       -50.9017      -38.51029      0.4931042
      7025.0000         0.4711         0.6299       -46.1517      -33.76387       0.557245
      7025.5000         0.4763         0.6309       -41.4017      -29.01746      0.6213858
      7026.0000         0.5007         0.6383       -36.6517      -24.27104      0.6855265
      7026.5000         0.5677         0.6479       -34.0369      -21.65982      0.7208132
      7027.0000         0.6347         0.6607       -39.7474      -27.37391      0.6435959
      7027.5000         0.7049         0.6739       -42.5821      -30.21219      0.6052407
      7028.0000         0.7414         0.6815       -42.5819      -30.21557      0.6051949
      7028.5000         0.7728         0.6877       -42.8129      -30.45016      0.6020249
      7029.0000         0.7919         0.6923       -35.2902      -22.93104      0.7036346
      7029.5000         0.7963         0.7016       -27.0071      -14.65152        0.81552
      7030.0000         0.7963         0.7063        -18.724      -6.372006      0.9274053
      7030.5000         0.7963          0.714        -9.8909       2.457512              1
      7031.0000          0.785         0.7169        -9.9176       2.427229              1
      7031.5000          0.781         0.7168        -10.045       2.296246              1
      7032.0000         0.7619          0.712       -10.1513       2.186361              1
      7032.5000         0.7427          0.706       -10.5082       1.825879              1
      7033.0000         0.6742         0.7017       -10.6626       1.667896              1
      7033.5000         0.6432         0.6953       -10.7337       1.593213              1
      7034.0000         0.6048         0.6883       -10.9279       1.395429              1
      7034.5000         0.5665         0.6766        -11.122       1.197746              1
      7035.0000          0.537         0.6689       -11.3161       1.000063              1
      7035.5000         0.5045         0.6608       -11.5862      0.7263803              1
      7036.0000         0.4516         0.6493       -11.8978      0.4111967              1
      7036.5000         0.4132         0.6397       -12.2088     0.09661293              1
      7037.0000         0.3845         0.6348       -12.7605     -0.4586697              1
      7037.5000         0.3834         0.6314       -16.3276      -4.029353      0.9590628
      7038.0000         0.3692         0.6314       -23.2783      -10.98363       0.865086
      7038.5000         0.3692         0.6314       -30.2289      -17.93782      0.7711105
      7039.0000         0.3692         0.6345       -37.1795        -24.892      0.6771351
      7039.5000         0.3692         0.6352       -44.1301      -31.84619      0.5831596
      7040.0000         0.3745         0.6376       -51.0808      -38.80047      0.4891829
      7040.5000         0.3936         0.6398       -58.0314      -45.75465      0.3952074
