#------------------------------------------------------------------------------
# Created by    : vladimir.rabinovich
# Created on    : 09/19/2023 17:21:48
#------------------------------------------------------------------------------
~Version Information Section
VERS.           2.0     :   CWLS log ASCII Standard - VERSION 2.0
WRAP.           NO      :   One line per depth step
~Well Information Section
#MNEM       .UNIT                                         VALUE :DESCRIPTION
#------------------------------------------------------------------------------
STRT        .FT                                            1142 :START DEPTH
STOP        .FT                                            9163 :STOP DEPTH
STEP        .FT                                             0.5 :STEP      
NULL        .                                           -999.25 :NULL      
COMP        .                                    ORYX ENERGY CO :COMPANY   
WELL        .                               OCS G06199 ST00BP00 :WELL      
FLD         .                            HIGH ISLAND BLOCK 0129 :FIELD     
LOC         .                                                   :LOCATION  
CNTY        .                                  HIGH ISLAND EAST :LOCATION  
STAT        .                                             TEXAS :STATE     
CTRY        .                                     UNITED STATES :COUNTRY   
SRVC        .                                                   :SERVICE COMPANY
DATE        .                             9/13/2023 11:20:11 AM :LOG DATE  
API         .                                    42710400360000 :API NUMBER
UWI         .                                    42710400360000 :UNIQUE WELL ID
XCOORD      .                                  1376484.19293712 :SURFACE X 
YCOORD      .                                  10620179.8267869 :SURFACE Y 
LAT         .                                        29.2612476 :LATITUDE  
LON         .                                        -93.828002 :LONGITUDE 
ELEV        .FT                                              93 :ELEVATION VALUE
ELEV_TYPE   .                                                KB :ELEVATION REFERENCE TYPE
~Curve Information Section
#MNEM       .UNIT                                      API CODE :CURVE DESCRIPTION
#------------------------------------------------------------------------------
DEPT        .FT                                                 :DEPTH     
CALI        .IN                                                 :          
DRHO        .G/C3                                               :          
DT          .US/F                                               :          
GR          .GAPI                                               :          
GR_1        .GAPI                                               :          
GR_NORM     .GAPI                                               :GammaRay Normalized
ILD         .OHMM                                               :          
ILM         .OHMM                                               :          
NPHI        .%                                                  :          
RFOC        .OHMM                                               :          
RHOB        .G/C3                                               :          
SP          .MV                                                 :          
SP_NORM     .MV                                                 :SP Normalized
VSH_GR      .V/V                                                :Volume of Shale from GR
VSH_SP      .V/V                                                :Volume of Shale from SP
~A        DEPTH           CALI           DRHO             DT             GR           GR_1        GR_NORM            ILD            ILM           NPHI           RFOC           RHOB             SP        SP_NORM         VSH_GR         VSH_SP
# ...
      2213.0000        -999.25        -999.25       137.3833        68.1221        -999.25       64.32138          0.727         0.7629        -999.25         1.2263        -999.25      -101.7141      -18.32886      0.6664124      0.7381592
      2213.5000        -999.25        -999.25       138.4128         67.726        -999.25       63.96331         0.7163          0.771        -999.25         1.2474        -999.25      -105.6888      -22.80251      0.6587938      0.6742499
      2214.0000        -999.25        -999.25       139.5354         67.135        -999.25       63.42983         0.7284         0.7974        -999.25         1.2473        -999.25       -108.141      -25.49992      0.6474432      0.6357155
      2214.5000        -999.25        -999.25       140.4998        67.9354        -999.25       64.14861         0.7493         0.8245        -999.25         1.1926        -999.25      -104.6583      -21.27328      0.6627365      0.6960961
      2215.0000        -999.25        -999.25       141.8772        75.1393        -999.25       70.63054         0.7682         0.8428        -999.25         1.1297        -999.25       -98.7144      -14.17523      0.8006498      0.7974967
      2215.5000        -999.25        -999.25       144.1367        82.5951        -999.25       77.33918         0.7858         0.8616        -999.25         1.0771        -999.25       -94.3475      -8.917018      0.9433868       0.872614
      2216.0000        -999.25        -999.25       145.8701         90.051        -999.25       84.04791         0.8037         0.8808        -999.25         1.0305        -999.25       -91.2981      -5.195891              1       0.925773
      2216.5000        -999.25        -999.25       146.8215        93.9902        -999.25       87.59161          0.803         0.9004        -999.25         1.0158        -999.25       -90.4386      -4.029643              1      0.9424337
      2217.0000        -999.25        -999.25       145.3579        90.1572        -999.25       84.14033         0.7898         0.9204        -999.25          1.024        -999.25       -91.3741      -4.957568              1      0.9291776
      2217.5000        -999.25        -999.25       143.8677        85.9004        -999.25       80.30762         0.7652         0.9099        -999.25         1.0601        -999.25       -92.8018       -6.45973              1      0.9077181
      2218.0000        -999.25        -999.25       142.4802        81.5634        -999.25       76.40275         0.7391          0.892        -999.25         1.1274        -999.25       -94.8044      -8.632596      0.9234627      0.8766772
      2218.5000        -999.25        -999.25        141.323        77.4653        -999.25       72.71288         0.7123         0.8597        -999.25         1.1552        -999.25       -96.9906      -11.01966      0.8449548      0.8425762
      2219.0000        -999.25        -999.25       140.8694        77.7687        -999.25       72.98436         0.6864         0.8267        -999.25         1.1296        -999.25      -100.3241      -14.74525      0.8507311      0.7893535
      2219.5000        -999.25        -999.25       141.0356        79.0989        -999.25       74.17996         0.6645         0.7911        -999.25         1.0938        -999.25      -103.3489      -18.11069      0.8761694      0.7412758
      2220.0000        -999.25        -999.25       141.6594        79.3861        -999.25       74.43685         0.6444         0.7592        -999.25         1.1314        -999.25      -107.6221       -22.9326      0.8816351      0.6723914
      2220.5000        -999.25        -999.25       142.0525         77.668        -999.25       72.88898         0.6277         0.7313        -999.25         1.3193        -999.25      -113.3289      -29.42705      0.8487018      0.5796136
      2221.0000        -999.25        -999.25       141.3708        75.5908        -999.25       71.01792         0.6206         0.7126        -999.25         1.4059        -999.25      -118.6742      -35.49974       0.808892      0.4928609
      2221.5000        -999.25        -999.25        140.689        73.4476        -999.25       69.08746         0.6137         0.7083        -999.25         1.3415        -999.25      -119.1506      -35.89203      0.7678184      0.4872567
      2222.0000        -999.25        -999.25       140.0071        71.3038        -999.25       67.15646         0.6166         0.7252        -999.25         1.2745        -999.25      -114.5929      -30.41123      0.7267333      0.5655539
      2222.5000        -999.25        -999.25       139.2563        69.2045        -999.25       65.26552         0.6224          0.744        -999.25         1.2304        -999.25      -110.1075      -25.01476      0.6865004      0.6426463
      2223.0000        -999.25        -999.25       138.1301        67.4078        -999.25        63.6469         0.6419         0.7656        -999.25         1.2207        -999.25      -105.7203      -19.73287      0.6520617      0.7181019
      2223.5000        -999.25        -999.25       137.0571        67.3429        -999.25       63.58691         0.6672         0.7879        -999.25         1.2411        -999.25      -101.8967      -15.10851      0.6507854      0.7841642
      2224.0000        -999.25        -999.25       136.7449        69.4269        -999.25       65.46094         0.6922           0.81        -999.25         1.2514        -999.25       -99.5225      -12.17512      0.6906583      0.8260698
      2224.5000        -999.25        -999.25       136.7158        73.4674        -999.25        69.0958         0.7181         0.8316        -999.25         1.2238        -999.25       -97.9739      -10.20492      0.7679958      0.8542154
      2225.0000        -999.25        -999.25       138.6284        77.9243        -999.25       73.10543         0.7439         0.8407        -999.25         1.1717        -999.25       -98.3042      -10.42677       0.853307      0.8510461
      2225.5000        -999.25        -999.25          141.2        82.3813        -999.25       77.11516         0.7658         0.8499        -999.25         1.1151        -999.25       -99.5659      -11.73527      0.9386204      0.8323534
      2226.0000        -999.25        -999.25         144.54        85.6904        -999.25       80.09176         0.7739         0.8492        -999.25         1.0657        -999.25      -100.8936      -13.12075              1      0.8125607
      2226.5000        -999.25        -999.25       146.8931        87.2225        -999.25       81.46907         0.7814         0.8459        -999.25         1.0253        -999.25      -102.0668        -14.326              1      0.7953429
      2227.0000        -999.25        -999.25       148.8015        88.2568        -999.25       82.39835         0.7811         0.8472        -999.25          1.001        -999.25        -102.53       -14.7029              1      0.7899586
      2227.5000        -999.25        -999.25       150.2952        89.1011        -999.25       83.15665         0.7816         0.8504        -999.25         0.9906        -999.25      -102.8374      -14.89804              1      0.7871708
      2228.0000        -999.25        -999.25       151.1011        89.3566        -999.25       83.38502         0.7915         0.8626        -999.25         0.9855        -999.25      -103.1449      -15.09329              1      0.7843816
      2228.5000        -999.25        -999.25        150.373        87.5179        -999.25       81.72861         0.8016         0.8843        -999.25         0.9576        -999.25      -103.4524      -15.28855              1      0.7815922
      2229.0000        -999.25        -999.25       148.5496        85.1344        -999.25       79.58187         0.8277         0.9088        -999.25         1.0354        -999.25      -103.5236      -15.20812      0.9911036      0.7827412
      2229.5000        -999.25        -999.25       144.1072        81.2828        -999.25       76.11385         0.8581         0.9452        -999.25         1.1256        -999.25      -102.7537      -14.14641       0.917316      0.7979084
