#------------------------------------------------------------------------------
# Created by    : vladimir.rabinovich
# Created on    : 09/19/2023 17:20:47
#------------------------------------------------------------------------------
~Version Information Section
VERS.           2.0     :   CWLS log ASCII Standard - VERSION 2.0
WRAP.           NO      :   One line per depth step
~Well Information Section
#MNEM       .UNIT                                         VALUE :DESCRIPTION
#------------------------------------------------------------------------------
STRT        .FT                                            1960 :START DEPTH
STOP        .FT                                           13420 :STOP DEPTH
STEP        .FT                                             0.5 :STEP      
NULL        .                                           -999.25 :NULL      
COMP        .                                 CALIFORNIA CO THE :COMPANY   
WELL        .                                     ST TR 00002-L :WELL      
FLD         .                                           WILDCAT :FIELD     
LOC         .                                                   :LOCATION  
CNTY        .                                       SABINE PASS :LOCATION  
STAT        .                                             TEXAS :STATE     
CTRY        .                                     UNITED STATES :COUNTRY   
SRVC        .                                                   :SERVICE COMPANY
DATE        .                             9/13/2023 11:12:08 AM :LOG DATE  
API         .                                    42715000310000 :API NUMBER
UWI         .                                    42715000310000 :UNIQUE WELL ID
XCOORD      .                                  1372392.72802961 :SURFACE X 
YCOORD      .                                   10750257.969662 :SURFACE Y 
LAT         .                                         29.618979 :LATITUDE  
LON         .                                       -93.8437903 :LONGITUDE 
ELEV        .FT                                              11 :ELEVATION VALUE
ELEV_TYPE   .                                                KB :ELEVATION REFERENCE TYPE
~Curve Information Section
#MNEM       .UNIT                                      API CODE :CURVE DESCRIPTION
#------------------------------------------------------------------------------
DEPT        .FT                                                 :DEPTH     
ASN         .OHMM                                               :          
IL          .OHMM                                               :          
SP          .MV                                                 :          
SP_NORM     .MV                                                 :SP Normalized
VSH_SP      .V/V                                                :Volume of Shale from SP
~A        DEPTH            ASN             IL             SP        SP_NORM         VSH_SP
# ...
      6536.0000          1.205         0.6603      -137.6267      -82.66541              0
      6536.5000         1.2038         0.6673      -137.2202      -82.28602              0
      6537.0000         1.2061         0.6743      -136.4653      -81.58144              0
      6537.5000         1.2084         0.6813      -135.6655      -80.83496              0
      6538.0000         1.2107         0.6882      -134.8657      -80.08849              0
      6538.5000         1.2161         0.6952      -134.0659        -79.342              0
      6539.0000          1.224          0.704      -133.1587      -78.49529              0
      6539.5000         1.2102         0.7171      -132.2495      -77.64669              0
      6540.0000         1.1608         0.7303      -132.5942      -77.96841              0
      6540.5000         1.1136         0.7434      -133.3027      -78.62968              0
      6541.0000           1.07         0.7565      -133.7676      -79.06358              0
      6541.5000         1.0458         0.7697      -134.2327      -79.49768              0
      6542.0000         1.0216         0.7912      -133.7759      -79.07133              0
      6542.5000         1.1186         0.8314      -131.8218      -77.24751              0
      6543.0000         1.2753         0.8716      -129.8655      -75.42162              0
      6543.5000         1.3444         0.9118      -126.8127      -72.57235              0
      6544.0000         1.3986         0.9567      -123.3115      -69.30457     0.00993467
      6544.5000          1.424         1.0103      -118.7117      -65.01142     0.07126541
      6545.0000          1.434         1.0638      -113.0309      -59.70934      0.1470094
      6545.5000         1.4352         1.1174      -108.6543      -55.62451      0.2053641
      6546.0000         1.4363         1.1708      -104.3827      -51.63768      0.2623188
      6546.5000         1.4482         1.2241      -100.0281      -47.57339      0.3203801
      6547.0000          1.474         1.2775       -95.6427      -43.48035      0.3788521
      6547.5000         1.4999          1.288       -87.7604      -36.12354      0.4839495
      6548.0000         1.5258          1.274       -82.5392      -31.25042      0.5535654
      6548.5000         1.5452         1.2601       -78.3857      -27.37382      0.6089455
      6549.0000         1.5345         1.2462       -75.0027      -24.21635      0.6540521
      6549.5000         1.5167           1.24       -71.8296      -21.25479      0.6963601
      6550.0000         1.4572         1.2337       -69.3568      -18.94684      0.7293308
      6550.5000         1.4043         1.2274       -67.1248      -16.86365      0.7590907
      6551.0000         1.3803         1.2212       -64.6718      -14.57418      0.7917975
      6551.5000          1.362         1.2149       -62.2186      -12.28453      0.8245068
      6552.0000         1.3881         1.2188       -62.4659      -12.51534      0.8212094
      6552.5000         1.4142         1.2294       -63.4266        -13.412         0.8084
      6553.0000         1.4394         1.2399       -64.3752      -14.29735      0.7957521
      6553.5000         1.4634         1.2505       -65.3239      -15.18281      0.7831028
      6554.0000         1.4874         1.2611       -66.2308      -16.02925      0.7710108
      6554.5000         1.5091         1.2717       -67.0317      -16.77675      0.7603321
      6555.0000         1.5117         1.2823       -67.8094      -17.50261      0.7499627
      6555.5000         1.5143         1.2929       -68.1068      -17.78018      0.7459974
      6556.0000         1.5169         1.3034       -68.1888      -17.85671      0.7449042
      6556.5000          1.523         1.3088       -67.5936      -17.30119      0.7528401
      6557.0000         1.5323         1.3069       -66.9431      -16.69406      0.7615134
      6557.5000         1.5415         1.3049       -65.6477      -15.48502      0.7787855
      6558.0000         1.5508          1.303       -64.3511      -14.27486      0.7960734
      6558.5000         1.5593         1.3011       -63.0557      -13.06582      0.8133454
      6559.0000         1.5639         1.2991       -61.7602      -11.85669      0.8306187
      6559.5000         1.5685         1.2972       -60.6015      -10.77524      0.8460681
      6560.0000          1.572         1.2953       -59.4745      -9.723367      0.8610948
      6560.5000         1.5746         1.2915       -58.3464      -8.670475      0.8761361
      6561.0000         1.5715         1.2807       -57.2195      -7.618702      0.8911614
      6561.5000         1.5427         1.2699       -56.1111      -6.584193      0.9059401
      6562.0000         1.5168         1.2591        -55.017      -5.563033      0.9205281
      6562.5000         1.4912         1.2483       -53.9239      -4.542808      0.9351028
      6563.0000         1.4655         1.2375       -52.8298      -3.521647      0.9496908
      6563.5000         1.4389         1.2267       -51.8089      -2.568806      0.9633028
      6564.0000         1.4123         1.2291       -50.9774      -1.792742      0.9743894
      6564.5000         1.4237         1.2536       -50.1458      -1.016582      0.9854774
      6565.0000         1.4369         1.2781       -49.3154       -0.24154      0.9965494
      6565.5000           1.46         1.3025       -48.5716      0.4526708              1
      6566.0000         1.4857          1.327       -48.2677      0.7363123              1
      6566.5000         1.5115         1.3515       -47.9638       1.019954              1
      6567.0000         1.5376          1.376       -47.6599       1.303592              1
      6567.5000         1.5641         1.4004       -48.4335      0.5815674              1
      6568.0000         1.5905         1.4249        -49.474     -0.3895665      0.9944348
      6568.5000         1.6205         1.4494       -50.7695      -1.598701      0.9771614
      6569.0000         1.6555         1.4739       -53.6274      -4.266074      0.9390561
      6569.5000         1.6904         1.4983       -56.4853      -6.933446      0.9009508
      6570.0000         1.7275         1.5292       -59.0347      -9.312886      0.8669588
      6570.5000         1.7685         1.5801       -61.0304      -11.17554      0.8403494
      6571.0000         1.8095         1.6311       -63.0239      -13.03614      0.8137695
      6571.5000          1.852          1.682        -64.536      -14.44744       0.793608
      6572.0000         1.9062         1.7224        -65.407      -15.26037      0.7819948
      6572.5000         1.9604          1.737       -66.2791      -16.07433      0.7703668
      6573.0000         2.0203         1.7516       -65.4595      -15.30937      0.7812947
      6573.5000          2.092         1.7645       -63.4003      -13.38745      0.8087507
      6574.0000         2.1658         1.7621         -59.12        -9.3925      0.8658214
      6574.5000          2.231         1.7597        -54.494        -5.0749      0.9275014
      6575.0000         2.2808         1.7573       -52.0146      -2.760793      0.9605601
      6575.5000         2.1245         1.7428       -50.4106      -1.263726      0.9819468
      6576.0000         1.9898          1.716       -49.8846     -0.7727956      0.9889601
      6576.5000         1.9274         1.6892        -50.087     -0.9617025      0.9862614
      6577.0000         1.9074         1.6623       -50.2894      -1.150606      0.9835628
      6577.5000          1.887         1.6365       -50.6672      -1.503219      0.9785255
      6578.0000         1.8652         1.6298       -51.0458       -1.85658      0.9734774
      6578.5000         1.8433         1.6231       -51.4249      -2.210407      0.9684228
      6579.0000         1.8147         1.6164       -51.8587      -2.615287      0.9626387
      6579.5000         1.7854         1.6097       -52.3095      -3.036036      0.9566281
