#------------------------------------------------------------------------------
# Created by    : vladimir.rabinovich
# Created on    : 09/19/2023 17:21:39
#------------------------------------------------------------------------------
~Version Information Section
VERS.           2.0     :   CWLS log ASCII Standard - VERSION 2.0
WRAP.           NO      :   One line per depth step
~Well Information Section
#MNEM       .UNIT                                         VALUE :DESCRIPTION
#------------------------------------------------------------------------------
STRT        .FT                                            3004 :START DEPTH
STOP        .FT                                           10487 :STOP DEPTH
STEP        .FT                                             0.5 :STEP      
NULL        .                                           -999.25 :NULL      
COMP        .                                    TENNECO OIL CO :COMPANY   
WELL        .                               OCS G04082 ST00BP00 :WELL      
FLD         .                            SABINE PASS BLOCK 0017 :FIELD     
LOC         .                                                   :LOCATION  
CNTY        .                                       SABINE PASS :LOCATION  
STAT        .                                             TEXAS :STATE     
CTRY        .                                     UNITED STATES :COUNTRY   
SRVC        .                                                   :SERVICE COMPANY
DATE        .                             9/13/2023 11:20:07 AM :LOG DATE  
API         .                                    42715400130000 :API NUMBER
UWI         .                                    42715400130000 :UNIQUE WELL ID
XCOORD      .                                  1369313.82013612 :SURFACE X 
YCOORD      .                                  10714127.2468036 :SURFACE Y 
LAT         .                                        29.5195329 :LATITUDE  
LON         .                                       -93.8526471 :LONGITUDE 
ELEV        .FT                                             111 :ELEVATION VALUE
ELEV_TYPE   .                                                KB :ELEVATION REFERENCE TYPE
~Curve Information Section
#MNEM       .UNIT                                      API CODE :CURVE DESCRIPTION
#------------------------------------------------------------------------------
DEPT        .FT                                                 :DEPTH     
CALI        .IN                                                 :          
DPHI        .%                                                  :          
DRHO        .G/C3                                               :          
GR          .GAPI                                               :          
GR_NORM     .GAPI                                               :GammaRay Normalized
ILD         .OHMM                                               :          
ILM         .OHMM                                               :          
NPHI        .%                                                  :          
SFL         .OHMM                                               :          
SP          .MV                                                 :          
SP_NORM     .MV                                                 :SP Normalized
VSH_GR      .V/V                                                :Volume of Shale from GR
VSH_SP      .V/V                                                :Volume of Shale from SP
~A        DEPTH           CALI           DPHI           DRHO             GR        GR_NORM            ILD            ILM           NPHI            SFL             SP        SP_NORM         VSH_GR         VSH_SP
# ...
      6481.0000        13.2706        23.3529         0.0025        71.4851        83.0867         0.6465         0.5706        47.2882         0.5479       -49.6372      -6.308252              1      0.9098821
      6481.5000        13.3632        22.8706         0.0052        69.8995       81.29196         0.6352         0.5633        45.2382          0.552       -50.1274      -7.129442              1      0.8981509
      6482.0000        13.3961        22.1372         0.0218        68.0155       79.15952          0.624         0.5549        43.2192         0.5532       -50.6863      -8.065717      0.9821175      0.8847755
      6482.5000         13.426        21.3058          0.041        66.5928       77.54913         0.6145         0.5471        42.7051         0.5522        -51.446      -9.338379      0.9478539      0.8665946
      6483.0000        13.4608        21.3645         0.0419        65.9862       76.86237         0.6066         0.5403        43.4644         0.5589       -52.0882       -10.4142      0.9332418      0.8512257
      6483.5000        13.4588        22.1292          0.031        65.5769       76.39889         0.5979         0.5336        44.6354          0.574       -52.2549      -10.69346      0.9233806      0.8472362
      6484.0000        13.4098         22.647         0.0201         65.631       76.45985         0.5921         0.5274        44.5209         0.5807       -52.0784      -10.39778      0.9246777      0.8514602
      6484.5000        13.3245        22.7088         0.0112        66.7341       77.70801         0.5904         0.5205        44.4117         0.5775       -51.5882      -9.576593      0.9512342      0.8631915
      6485.0000        13.2676           22.9         0.0067        67.6327       78.72472         0.5902         0.5161        45.1723         0.5653       -51.0294      -8.640486      0.9728665      0.8765645
      6485.5000        13.1985        23.4471         0.0027        67.4115       78.47412         0.5922         0.5192        47.1161         0.5527       -50.8382      -8.320185      0.9675345      0.8811402
      6486.0000        13.1667        23.5402         0.0087        66.9094       77.90562         0.5958         0.5257        47.1176         0.5473       -50.8235      -8.295562      0.9554387       0.881492
      6486.5000        13.1931        22.9766         0.0184        67.0515       78.06617            0.6         0.5324        46.5919         0.5454       -50.6569      -8.016466      0.9588547       0.885479
      6487.0000        13.2059        22.0119         0.0288        67.8237       78.93984         0.6046         0.5369          47.01         0.5491       -50.4215      -7.622125      0.9774435      0.8911125
      6487.5000        13.1583        21.5588         0.0351        69.3848       80.70634         0.6095         0.5396        48.6205         0.5579       -50.3922       -7.57304              1      0.8918137
      6488.0000         13.098        21.7177         0.0316        70.0051       81.40808         0.6145         0.5408        50.1176         0.5756       -50.4709      -7.704881              1      0.8899302
      6488.5000        13.1432           21.9         0.0233         70.594        82.0743         0.6202         0.5382        48.8925         0.5919       -50.8626      -8.361057              1      0.8805563
      6489.0000           13.3        21.8823         0.0187         71.703       83.32912         0.6275         0.5372        45.7661         0.6001       -50.9803      -8.558234              1      0.8777395
      6489.5000        13.3235        21.8294         0.0154        71.8811       83.53043         0.6274         0.5391        44.0084         0.5946       -50.8823      -8.394064              1      0.8800848
      6490.0000        13.4539        21.7647         0.0184        71.5466        83.1516         0.6246         0.5441        45.1924         0.5829       -50.7465      -8.166565              1      0.8833348
      6490.5000        13.5446         21.647         0.0204        71.4457       83.03716          0.616         0.5443        47.1792         0.5722       -50.6077      -7.934048              1      0.8866565
      6491.0000        13.5676        21.5882         0.0195        72.5947       84.33726         0.6054         0.5378        48.1705         0.5611       -50.7058      -8.098385              1      0.8843088
      6491.5000         13.422        21.7647         0.0134        73.6637       85.54681         0.5928         0.5314        48.0089         0.5491       -50.9999      -8.591068              1      0.8772705
      6492.0000        13.1924        21.7647         0.0051        72.5533       84.28988         0.5894          0.529        47.4101         0.5295       -51.2155      -8.952243              1      0.8721108
      6492.5000        13.0078        21.5882         0.0015         69.411       80.73337          0.587         0.5328        47.1412         0.5026       -51.5881      -9.576428              1      0.8631939
      6493.0000        13.0235        21.1765         0.0037        63.7769        74.3568         0.5868         0.5435        46.7412         0.4809        -52.176      -10.56128       0.879932      0.8491246
      6493.5000        13.0745         20.647         0.0059         57.549       67.30821         0.5841         0.5596         45.812         0.4788       -53.9208       -13.4842       0.729962      0.8073686
      6494.0000        13.1726             20         0.0184        53.3333       62.53691         0.5693         0.5557        43.5652         0.5391       -56.7432      -18.21232      0.6284449       0.739824
      6494.5000        13.3059        19.2353         0.0309        51.3725       60.31755         0.5482         0.5421         40.577         0.6333       -60.1359      -23.89582      0.5812244      0.6586312
      6495.0000        13.3784        19.2353         0.0346             50       58.76398         0.5275         0.5565        38.6121         0.7047       -63.0775      -28.82363      0.5481698      0.5882339
      6495.5000        13.4039        19.8235         0.0331        49.8039       58.54178         0.5088         0.5784        38.1763         0.6921       -64.8038      -31.71555      0.5434422      0.5469207
      6496.0000        13.3529        20.9412         0.0324        51.0784       59.98392         0.4936         0.5987         39.329         0.6163       -65.5148      -32.90663      0.5741259      0.5299053
      6496.5000        13.2549             22         0.0257        52.7451       61.86992         0.4816         0.4917        40.8705         0.5395       -65.3368      -32.60844      0.6142535      0.5341652
      6497.0000        13.1647        22.8824         0.0199        54.0196       63.31205         0.4774         0.4799        40.5766         0.4903       -64.4711      -31.15821      0.6449373      0.5548828
      6497.5000        13.1373        22.8235         0.0132         55.196       64.64316         0.4812         0.4861        38.3768         0.4898       -62.2951      -27.51294      0.6732587       0.606958
      6498.0000        13.1373        21.8235         0.0125        56.3725       65.97438          0.498          0.504        37.0943         0.5514        -59.807      -23.34484      0.7015826      0.6665023
      6498.5000        13.1373        20.6617         0.0125        58.8235       68.74801         0.5181         0.5347        36.3882         0.6207        -56.947      -18.55373      0.7605959      0.7349467
      6499.0000        13.1412        20.0294         0.0176         61.249       71.49277         0.5551         0.5717        37.1174         0.6888       -55.0097      -15.30834      0.8189951      0.7813094
      6499.5000        13.1333        19.6324         0.0279        62.4426       72.84335          0.593         0.5564        39.5762          0.692       -53.4347      -12.66988      0.8477308      0.8190017
