#------------------------------------------------------------------------------
# Created by    : vladimir.rabinovich
# Created on    : 09/19/2023 17:20:40
#------------------------------------------------------------------------------
~Version Information Section
VERS.           2.0     :   CWLS log ASCII Standard - VERSION 2.0
WRAP.           NO      :   One line per depth step
~Well Information Section
#MNEM       .UNIT                                         VALUE :DESCRIPTION
#------------------------------------------------------------------------------
STRT        .FT                                             769 :START DEPTH
STOP        .FT                                           10573 :STOP DEPTH
STEP        .FT                                             0.5 :STEP      
NULL        .                                           -999.25 :NULL      
COMP        .                                        TEXACO INC :COMPANY   
WELL        .                               OCS G01846 ST00BP00 :WELL      
FLD         .                            HIGH ISLAND BLOCK 0129 :FIELD     
LOC         .                                                   :LOCATION  
CNTY        .                                  HIGH ISLAND EAST :LOCATION  
STAT        .                                             TEXAS :STATE     
CTRY        .                                     UNITED STATES :COUNTRY   
SRVC        .                                                   :SERVICE COMPANY
DATE        .                             9/13/2023 11:19:51 AM :LOG DATE  
API         .                                    42710300030000 :API NUMBER
UWI         .                                    42710300030000 :UNIQUE WELL ID
XCOORD      .                                   1386052.0565626 :SURFACE X 
YCOORD      .                                   10637380.600337 :SURFACE Y 
LAT         .                                        29.3087467 :LATITUDE  
LON         .                                       -93.7983562 :LONGITUDE 
ELEV        .FT                                              81 :ELEVATION VALUE
ELEV_TYPE   .                                                KB :ELEVATION REFERENCE TYPE
~Curve Information Section
#MNEM       .UNIT                                      API CODE :CURVE DESCRIPTION
#------------------------------------------------------------------------------
DEPT        .FT                                                 :DEPTH     
ASN         .OHMM                                               :          
CALI        .IN                                                 :          
DRHO        .G/C3                                               :          
GR          .GAPI                                               :          
GR_1        .GAPI                                               :          
GR_NORM     .GAPI                                               :GammaRay Normalized
ILD         .OHMM                                               :          
RHOB        .G/C3                                               :          
SP          .MV                                                 :          
SP_NORM     .MV                                                 :SP Normalized
VSH_GR      .V/V                                                :Volume of Shale from GR
VSH_SP      .V/V                                                :Volume of Shale from SP
~A        DEPTH            ASN           CALI           DRHO             GR           GR_1        GR_NORM            ILD           RHOB             SP        SP_NORM         VSH_GR         VSH_SP
# ...
      5299.5000         1.0626        -999.25        -0.0084        -999.25        -999.25        -999.25          1.027        -999.25       -21.5117     -0.2522793        -999.25       0.996396
      5300.0000          1.065        -999.25        -0.0091        -999.25        -999.25        -999.25         1.0231        -999.25       -21.2545    0.004079819        -999.25              1
      5300.5000         1.0656        -999.25        -0.0097        -999.25        -999.25        -999.25         1.0078        -999.25       -21.2145     0.04323769        -999.25              1
      5301.0000         1.0593        -999.25        -0.0096        -999.25        -999.25        -999.25          0.997        -999.25       -21.5994     -0.3425007        -999.25      0.9951071
      5301.5000         1.0497        -999.25        -0.0094        -999.25        -999.25        -999.25         0.9878        -999.25       -21.9776     -0.7215424        -999.25      0.9896923
      5302.0000         1.0369        -999.25        -0.0089        -999.25        -999.25        -999.25         0.9706        -999.25       -22.3285      -1.073284        -999.25      0.9846674
      5302.5000         1.0221        -999.25        -0.0082        -999.25        -999.25        -999.25         0.9511        -999.25       -22.5702      -1.315823        -999.25      0.9812025
      5303.0000         1.0052        -999.25        -0.0043        -999.25        -999.25        -999.25         0.9336        -999.25       -22.3723      -1.118763        -999.25      0.9840177
      5303.5000         0.9876        -999.25        -0.0057        -999.25        -999.25        -999.25         0.9408        -999.25       -21.8556     -0.6029053        -999.25      0.9913871
      5304.0000         0.9841        -999.25        -0.0043        -999.25        -999.25        -999.25         0.9483        -999.25       -21.1539      0.0979557        -999.25              1
      5304.5000         1.0128        -999.25        -0.0111        -999.25        -999.25        -999.25         0.9565        -999.25       -20.8966       0.354414        -999.25              1
      5305.0000         1.0347        -999.25        -0.0191        -999.25        -999.25        -999.25         0.9651        -999.25       -21.2047      0.0454731        -999.25              1
      5305.5000         1.0509        -999.25        -0.0251        -999.25        -999.25        -999.25         0.9746        -999.25         -21.71     -0.4606667        -999.25      0.9934191
      5306.0000         1.0581        -999.25        -0.0301        -999.25        -999.25        -999.25         0.9829        -999.25       -21.9569     -0.7084064        -999.25      0.9898799
      5306.5000         1.0499        -999.25        -0.0359        -999.25        -999.25        -999.25         0.9849        -999.25       -21.4698     -0.2221489        -999.25      0.9968265
      5307.0000         1.0349        -999.25        -0.0422        -999.25        -999.25        -999.25          0.987        -999.25       -20.8031      0.4437103        -999.25              1
      5307.5000         1.0175        -999.25        -0.0456        -999.25        -999.25        -999.25         0.9741        -999.25       -20.0949       1.151072        -999.25              1
      5308.0000         0.9976        -999.25        -0.0472        -999.25        -999.25        -999.25         0.9549        -999.25       -19.4652        1.77993        -999.25              1
      5308.5000         0.9838        -999.25        -0.0479        -999.25        -999.25        -999.25         0.9192        -999.25       -19.5027       1.741589        -999.25              1
      5309.0000         0.9709        -999.25        -0.0556        -999.25        -999.25        -999.25         0.8851        -999.25       -19.9249       1.318548        -999.25              1
      5309.5000         0.9624        -999.25        -0.0723        -999.25        -999.25        -999.25         0.8683        -999.25       -20.4589      0.7837086        -999.25              1
      5310.0000         0.9582        -999.25        -0.0848        -999.25        -999.25        -999.25         0.8672        -999.25       -20.9258      0.3159676        -999.25              1
      5310.5000         0.9588        -999.25        -0.0634        -999.25        -999.25        -999.25          0.877        -999.25       -20.8697      0.3712273        -999.25              1
      5311.0000         0.9639        -999.25        -0.0379        -999.25        -999.25        -999.25         0.8867        -999.25       -20.4158      0.8242874        -999.25              1
      5311.5000           0.97        -999.25         -0.014        -999.25        -999.25        -999.25         0.8948        -999.25       -19.9323       1.306946        -999.25              1
      5312.0000         0.9801        -999.25        -0.0017        -999.25        -999.25        -999.25         0.9028        -999.25       -19.3891       1.849306        -999.25              1
      5312.5000         0.9918        -999.25        -0.0056        -999.25        -999.25        -999.25         0.9148        -999.25       -18.9596       2.277966        -999.25              1
      5313.0000         1.0033        -999.25        -0.0166        -999.25        -999.25        -999.25         0.9254        -999.25       -18.7125       2.524225        -999.25              1
      5313.5000         1.0097        -999.25        -0.0192        -999.25        -999.25        -999.25         0.9341        -999.25       -18.7062       2.529684        -999.25              1
      5314.0000         1.0118        -999.25        -0.0195        -999.25        -999.25        -999.25          0.944        -999.25       -18.8324       2.402643        -999.25              1
      5314.5000         1.0111        -999.25        -0.0237        -999.25        -999.25        -999.25         0.9514        -999.25       -19.0102       2.224003        -999.25              1
      5315.0000         1.0109        -999.25        -0.0288        -999.25        -999.25        -999.25         0.9583        -999.25       -19.3808       1.852562        -999.25              1
      5315.5000          1.017        -999.25        -0.0334        -999.25        -999.25        -999.25         0.9617        -999.25       -19.8289       1.403622        -999.25              1
      5316.0000         1.0329        -999.25        -0.0378        -999.25        -999.25        -999.25         0.9651        -999.25       -20.4287      0.8029823        -999.25              1
      5316.5000         1.0506        -999.25        -0.0418        -999.25        -999.25        -999.25         0.9696        -999.25       -21.0088      0.2220402        -999.25              1
      5317.0000         1.0569        -999.25        -0.0431        -999.25        -999.25        -999.25         0.9744        -999.25       -21.5403     -0.3103008        -999.25      0.9955671
      5317.5000         1.0601        -999.25        -0.0431        -999.25        -999.25        -999.25         0.9802        -999.25       -21.9258       -0.69664        -999.25       0.990048
      5318.0000         1.0627        -999.25        -0.0508        -999.25        -999.25        -999.25         0.9884        -999.25       -22.1049     -0.8765812        -999.25      0.9874774
      5318.5000         1.0638        -999.25         -0.052        -999.25        -999.25        -999.25         0.9967        -999.25       -21.9067     -0.6792221        -999.25      0.9902968
      5319.0000          1.065        -999.25         -0.041        -999.25        -999.25        -999.25         1.0054        -999.25        -21.475     -0.2483635        -999.25       0.996452
      5319.5000         1.0665        -999.25        -0.0431        -999.25        -999.25        -999.25         1.0141        -999.25       -20.8758      0.3499985        -999.25              1
