#------------------------------------------------------------------------------
# Created by    : vladimir.rabinovich
# Created on    : 09/19/2023 17:20:21
#------------------------------------------------------------------------------
~Version Information Section
VERS.           2.0     :   CWLS log ASCII Standard - VERSION 2.0
WRAP.           NO      :   One line per depth step
~Well Information Section
#MNEM       .UNIT                                         VALUE :DESCRIPTION
#------------------------------------------------------------------------------
STRT        .FT                                            1439 :START DEPTH
STOP        .FT                                           13833 :STOP DEPTH
STEP        .FT                                             0.5 :STEP      
NULL        .                                           -999.25 :NULL      
COMP        .                                        EXXON CORP :COMPANY   
WELL        .                               OCS G04992 ST00BP00 :WELL      
FLD         .                                           WILDCAT :FIELD     
LOC         .                                                   :LOCATION  
CNTY        .                               MUSTANG ISLAND EAST :LOCATION  
STAT        .                                             TEXAS :STATE     
CTRY        .                                     UNITED STATES :COUNTRY   
SRVC        .                                                   :SERVICE COMPANY
DATE        .                             9/13/2023 11:20:08 AM :LOG DATE  
API         .                                    42712400640000 :API NUMBER
UWI         .                                    42712400640000 :UNIQUE WELL ID
XCOORD      .                                  530427.861923906 :SURFACE X 
YCOORD      .                                  9963308.63528926 :SURFACE Y 
LAT         .                                        27.4144168 :LATITUDE  
LON         .                                       -96.4214066 :LONGITUDE 
ELEV        .FT                                              73 :ELEVATION VALUE
ELEV_TYPE   .                                                KB :ELEVATION REFERENCE TYPE
~Curve Information Section
#MNEM       .UNIT                                      API CODE :CURVE DESCRIPTION
#------------------------------------------------------------------------------
DEPT        .FT                                                 :DEPTH     
ASFL        .OHMM                                               :          
CILD        .MMHO                                               :          
DT          .US/F                                               :          
GR          .GAPI                                               :          
GR_NORM     .GAPI                                               :GammaRay Normalized
ILD         .OHMM                                               :          
SP          .MV                                                 :          
SP_NORM     .MV                                                 :SP Normalized
VSH_GR      .V/V                                                :Volume of Shale from GR
VSH_SP      .V/V                                                :Volume of Shale from SP
~A        DEPTH           ASFL           CILD             DT             GR        GR_NORM            ILD             SP        SP_NORM         VSH_GR         VSH_SP
# ...
      3913.5000         0.9163       1256.094       128.9675        70.5596       73.39279          0.829       -80.5487     -0.6291046      0.8594211      0.9874179
      3914.0000          0.955       1213.113       125.8129        69.9598       72.64621         0.8502       -81.4651      -1.550964      0.8435364      0.9689807
      3914.5000         0.9923       1170.059       122.9791        69.7274       72.35887         0.8706        -82.774      -2.865318      0.8374228      0.9426937
      3915.0000         1.0379       1133.344       121.3252        69.0134       71.46954         0.8909       -83.6973      -3.794075      0.8185009      0.9241185
      3915.5000         1.0616       1098.219       120.6436        68.4398       70.75571         0.9111       -83.9908      -4.093025      0.8033129      0.9181395
      3916.0000         1.0709       1066.873        120.201        68.0029       70.21275         0.9312       -84.1022      -4.209892      0.7917607      0.9158022
      3916.5000         1.0767        1043.99       119.7775        68.5336        70.8793          0.947       -84.1587      -4.271843      0.8059425      0.9145631
      3917.0000         1.0711       1043.473       119.3452        69.3639       71.92033         0.9627       -84.2152      -4.333801      0.8280922       0.913324
      3917.5000         1.0628       1042.953       118.7191        70.1692       72.93014         0.9785       -84.2789      -4.402954      0.8495774      0.9119409
      3918.0000         1.0529       1042.434       118.8423        70.8342       73.76456         0.9942       -84.3457       -4.47522       0.867331      0.9104956
      3918.5000         1.0423       1041.914       119.4698        71.4991       74.59885         1.0014       -84.4125       -4.54747      0.8850818      0.9090506
      3919.0000         1.0327       1041.395       120.0894        72.1252       75.38464         1.0021       -84.4792      -4.619629      0.9018008      0.9076074
      3919.5000         1.0279        1044.27       120.0632        71.9677       75.19093         1.0027       -84.4899       -4.63578      0.8976793      0.9072844
      3920.0000         1.0273       1047.223       119.7584        71.1379       74.15685         1.0034       -84.3717      -4.523041      0.8756775      0.9095392
      3920.5000         1.0267       1048.637       119.4478        69.8165       72.50827         1.0008       -84.2211      -4.377899      0.8406015       0.912442
      3921.0000         1.0262       1042.912       119.2982         70.146       72.92332         0.9955       -84.0609      -4.223152      0.8494323      0.9155369
      3921.5000         1.0313       1037.186       119.6017        70.9955       73.98835         0.9902       -84.0336      -4.201309      0.8720925      0.9159738
      3922.0000         1.0406       1030.633       120.0394        71.6317       74.78677         0.9848       -84.0062      -4.179375      0.8890801      0.9164125
      3922.5000         1.0585       1023.766       120.1067        72.1174       75.39706         0.9795       -83.9788      -4.157425      0.9020652      0.9168515
      3923.0000         1.0598       1024.654       120.0808        72.9484       76.43898         0.9742       -83.7648      -3.948883      0.9242336      0.9210224
      3923.5000         1.0564        1029.33       120.3619        74.1509       77.94528         0.9758       -83.0029      -3.192436      0.9562826      0.9361513
      3924.0000          1.043       1034.006       120.8469        75.3218       79.41207         0.9778       -82.5128      -2.707794      0.9874909      0.9458441
      3924.5000         1.0156       1042.629       121.7196        76.4524       80.82848         0.9798       -82.2535      -2.453957              1      0.9509209
      3925.0000         1.0073       1051.771       122.9486        75.5646        79.7219         0.9879        -82.118      -2.323906       0.994083      0.9535219
      3925.5000         0.9994       1060.912        124.177        72.8741       76.36194         1.0015       -81.9827      -2.194061      0.9225944      0.9561188
      3926.0000         1.0141       1046.713       125.4844        70.1299       72.93486          1.015       -80.8868      -1.103622      0.8496779      0.9779276
      3926.5000         1.0551       1006.219       126.7913        63.3435       64.45503         1.0293       -80.2194     -0.4416809       0.669256      0.9911664
      3927.0000          1.113       959.1123       124.3848        59.4327        59.5697         1.0534       -79.6831     0.08916473      0.5653128              1
      3927.5000         1.1366       934.8633       116.2543         56.668       56.11699         1.0774       -79.3397      0.4271088      0.4918508              1
      3928.0000         1.1642       918.2139       113.7415        57.1537       56.72729         1.1039       -78.9965      0.7648544      0.5048359              1
      3928.5000          1.185       907.7617       111.2815        59.0587        59.1117         1.1319       -79.2946      0.4612885      0.5555681              1
      3929.0000         1.1985       921.4893       109.6948        67.8884       70.15199         1.1441       -80.6097     -0.8592682      0.7904678      0.9828146
      3929.5000         1.1693       938.0449        111.251        69.9552       72.73866         1.1258       -80.9905      -1.245522      0.8455034      0.9750896
      3930.0000         1.1395       971.3174        113.413         72.011       75.31158          1.071        -80.952      -1.212479      0.9002465      0.9757504
      3930.5000         1.0704       1031.822       124.5291        73.7107       77.43938         0.9872       -80.9136      -1.179535      0.9455187      0.9764093
      3931.0000         0.9353       1119.125         131.52        73.5787       77.27753         0.9057       -80.8577      -1.129089      0.9420752      0.9774182
      3931.5000         0.8873       1220.695       133.5684        71.9911        75.2962         0.8426       -80.7488       -1.02565      0.8999192       0.979487
      3932.0000         0.8779       1293.133       134.1641         70.354       73.25301          0.797       -80.6399     -0.9222031      0.8564469      0.9815559
      3932.5000         0.8739       1357.465       134.2078        67.9701        70.2763         0.7639       -80.5309     -0.8186646      0.7931128      0.9836267
      3933.0000           0.87       1394.977        134.248        68.3212       70.71834         0.7407        -80.422     -0.7152176      0.8025178      0.9856957
      3933.5000         0.8661       1403.143       134.7537        69.1224       71.72301         0.7233       -80.3131     -0.6117783      0.8238938      0.9877644
      3934.0000         0.8621       1407.254       135.4238        69.6794       72.42242         0.7066       -79.9747     -0.2788315      0.8387748      0.9944234
      3934.5000         0.8605       1406.803       135.6323        69.8981       72.69897         0.7034       -79.9197     -0.2292862      0.8446589      0.9954143
      3935.0000         0.8597       1406.352       135.1726        69.9379       72.75188         0.7002       -79.9774       -0.29245      0.8457848       0.994151
      3935.5000         0.8606       1396.443       134.4602        69.8204       72.60818          0.701       -80.0492     -0.3697052      0.8427272      0.9926059
      3936.0000          0.865       1381.367       133.4929        69.3494        72.0226         0.7144       -80.1342     -0.4601593       0.830268      0.9907968
      3936.5000         0.8694       1366.291       132.8499        68.8735       71.43089         0.7277       -80.2191     -0.5505142      0.8176784      0.9889897
      3937.0000         0.8773       1351.201        132.303        68.3973       70.83881         0.7454       -80.3041      -0.640976       0.805081      0.9871805
      3937.5000         0.8896       1306.979       132.0115        67.7689       70.05647         0.7662       -80.3921     -0.7344284      0.7884354      0.9853114
