#------------------------------------------------------------------------------
# Created by    : vladimir.rabinovich
# Created on    : 09/19/2023 17:20:47
#------------------------------------------------------------------------------
~Version Information Section
VERS.           2.0     :   CWLS log ASCII Standard - VERSION 2.0
WRAP.           NO      :   One line per depth step
~Well Information Section
#MNEM       .UNIT                                         VALUE :DESCRIPTION
#------------------------------------------------------------------------------
STRT        .FT                                            1960 :START DEPTH
STOP        .FT                                           13420 :STOP DEPTH
STEP        .FT                                             0.5 :STEP      
NULL        .                                           -999.25 :NULL      
COMP        .                                 CALIFORNIA CO THE :COMPANY   
WELL        .                                     ST TR 00002-L :WELL      
FLD         .                                           WILDCAT :FIELD     
LOC         .                                                   :LOCATION  
CNTY        .                                       SABINE PASS :LOCATION  
STAT        .                                             TEXAS :STATE     
CTRY        .                                     UNITED STATES :COUNTRY   
SRVC        .                                                   :SERVICE COMPANY
DATE        .                             9/13/2023 11:12:08 AM :LOG DATE  
API         .                                    42715000310000 :API NUMBER
UWI         .                                    42715000310000 :UNIQUE WELL ID
XCOORD      .                                  1372392.72802961 :SURFACE X 
YCOORD      .                                   10750257.969662 :SURFACE Y 
LAT         .                                         29.618979 :LATITUDE  
LON         .                                       -93.8437903 :LONGITUDE 
ELEV        .FT                                              11 :ELEVATION VALUE
ELEV_TYPE   .                                                KB :ELEVATION REFERENCE TYPE
~Curve Information Section
#MNEM       .UNIT                                      API CODE :CURVE DESCRIPTION
#------------------------------------------------------------------------------
DEPT        .FT                                                 :DEPTH     
ASN         .OHMM                                               :          
IL          .OHMM                                               :          
SP          .MV                                                 :          
SP_NORM     .MV                                                 :SP Normalized
VSH_SP      .V/V                                                :Volume of Shale from SP
~A        DEPTH            ASN             IL             SP        SP_NORM         VSH_SP
# ...
      7284.0000         1.7406         0.6756      -135.7017      -78.93813              0
      7284.5000         1.8332         0.6732      -139.0759      -82.08437              0
      7285.0000         1.9141         0.6721      -142.4502      -85.23071              0
      7285.5000         1.9571          0.671      -143.3552      -86.07236              0
      7286.0000         1.9787         0.6699      -144.1069      -86.77095              0
      7286.5000         1.9915         0.6688      -144.8586      -87.46951              0
      7287.0000         2.0001         0.6677      -145.1997      -87.78487              0
      7287.5000         2.0042         0.6701      -145.2903      -87.86642              0
      7288.0000         2.0084          0.674      -145.3811      -87.94816              0
      7288.5000         1.9915          0.678      -145.4714      -88.02943              0
      7289.0000          1.964         0.6819      -145.5759      -88.12395              0
      7289.5000         1.9365         0.6858      -145.7095      -88.24564              0
      7290.0000         1.8565         0.6952       -145.843      -88.36723              0
      7290.5000         1.7912         0.7078      -145.9768      -88.48911              0
      7291.0000         1.7446         0.7205      -146.1104      -88.61078              0
      7291.5000         1.7126         0.7331      -146.2439      -88.73236              0
      7292.0000          1.691         0.7458      -146.3777      -88.85424              0
      7292.5000         1.6826         0.7587      -146.5408      -89.00346              0
      7293.0000         1.6744         0.7717      -146.7612      -89.20615              0
      7293.5000         1.6771         0.7847      -146.9814      -89.40867              0
      7294.0000         1.6799         0.7977      -147.2019      -89.61145              0
      7294.5000         1.7013         0.8106      -147.4221      -89.81396              0
      7295.0000         1.7276         0.8236      -147.6423      -90.01648              0
      7295.5000         1.7541         0.8366      -147.8074      -90.16756              0
      7296.0000         1.8061         0.8562      -147.9578      -90.30492              0
      7296.5000         1.8568         0.8793      -148.1084      -90.44247              0
      7297.0000           1.89         0.9025       -148.259      -90.58002              0
      7297.5000         1.9232         0.9256      -148.4097      -90.71766              0
      7298.0000         1.9551         0.9372      -148.3018      -90.61395              0
      7298.5000         1.9759         0.9024      -147.8965      -90.23265              0
      7299.0000         1.9967         0.8677       -147.491      -89.85118              0
      7299.5000         1.9931          0.793      -147.6174      -89.96614              0
      7300.0000         1.9895         0.7184      -147.7439      -90.08119              0
      7300.5000         1.9859         0.6437      -147.8706      -90.19645              0
      7301.0000         1.9159         0.6309       -147.386      -89.74114              0
      7301.5000         1.8399         0.6159      -146.9434      -89.32504              0
      7302.0000         1.7994         0.5989       -146.626      -89.02579              0
      7302.5000         1.7729          0.582      -146.3083      -88.72626              0
      7303.0000         1.7564         0.5679      -146.1697      -88.59388              0
      7303.5000         1.7643         0.5716      -146.5261      -88.92352              0
      7304.0000         1.7787         0.5754      -147.8418      -90.14849              0
      7304.5000         1.7931         0.5792      -149.4912      -91.68492              0
      7305.0000         1.8074         0.5747       -150.761      -92.86707              0
      7305.5000         1.8197         0.5695      -152.0208      -94.03986              0
      7306.0000         1.8313         0.5644      -153.1094      -95.05289              0
      7306.5000         1.8418         0.5662      -153.9419      -95.82687              0
      7307.0000         1.8456         0.5686      -154.0574      -95.93166              0
      7307.5000         1.8495         0.5711      -154.1731      -96.03664              0
      7308.0000          1.848         0.5735      -154.0293      -95.89941              0
      7308.5000          1.835         0.5751      -153.7583      -95.64347              0
      7309.0000          1.822         0.5745      -153.4875      -95.38772              0
      7309.5000         1.7893          0.574      -152.9963      -94.92626              0
      7310.0000         1.7439         0.5734      -152.4055      -94.37183              0
      7310.5000         1.7212         0.5747      -151.8152      -93.81787              0
      7311.0000         1.7217          0.578      -151.5037      -93.52412              0
      7311.5000         1.7389         0.5813      -151.2212      -93.25746              0
      7312.0000         1.7873         0.5846      -151.1743      -93.21067              0
      7312.5000         1.8345         0.5846      -151.3484      -93.37016              0
      7313.0000         1.8812          0.584      -151.5225      -93.52964              0
      7313.5000         1.9214         0.5834      -151.6968       -93.6893              0
      7314.0000         1.9601         0.5829      -151.7249      -93.71253              0
      7314.5000          1.984          0.585      -151.4539      -93.45658              0
      7315.0000          2.006         0.5885      -150.9412      -92.97504              0
      7315.5000         2.0112         0.5921      -149.9546      -92.05122              0
      7316.0000         1.9953         0.5946      -148.9683      -91.12766              0
      7316.5000         1.9771          0.594      -147.9819      -90.20401              0
      7317.0000         1.9585         0.5935      -147.1125      -89.38956              0
      7317.5000         1.9515         0.5929      -146.3345      -88.66042              0
      7318.0000         1.9444         0.5923      -145.5564      -87.93118              0
      7318.5000         1.9375         0.5873      -144.9766      -87.38702              0
      7319.0000         1.9314         0.5678      -144.7058      -87.13126              0
      7319.5000         1.9254         0.5485      -144.7424      -87.16242              0
      7320.0000         1.9176         0.5353       -145.238      -87.62197              0
      7320.5000         1.9073         0.5221      -145.8831      -88.22105              0
      7321.0000         1.8956         0.5194      -146.7468      -89.02415              0
      7321.5000         1.8787         0.5189      -147.6096      -89.82643              0
      7322.0000         1.8612         0.5183      -148.2639       -90.4341              0
      7322.5000         1.8415         0.5273      -148.8684      -90.99529              0
      7323.0000         1.8231         0.5421      -149.4651       -91.5492              0
      7323.5000         1.8091         0.6665      -149.3237      -91.41422              0
      7324.0000          1.795         1.0403      -149.1826      -91.27952              0
      7324.5000         1.7813         1.5905      -148.9324      -91.04299              0
      7325.0000         1.7688         2.1333      -148.2998      -90.44955              0
      7325.5000         1.7548         2.3612       -147.667      -89.85593              0
      7326.0000         1.7392         2.6809      -146.3965      -88.66711              0
      7326.5000         1.7184         3.0088      -145.0029      -87.36341              0
      7327.0000         1.6949         3.2543      -143.3926      -85.85745              0
      7327.5000         1.6725         3.5407      -141.5283      -84.11444              0
