#------------------------------------------------------------------------------
# Created by    : vladimir.rabinovich
# Created on    : 09/19/2023 17:20:47
#------------------------------------------------------------------------------
~Version Information Section
VERS.           2.0     :   CWLS log ASCII Standard - VERSION 2.0
WRAP.           NO      :   One line per depth step
~Well Information Section
#MNEM       .UNIT                                         VALUE :DESCRIPTION
#------------------------------------------------------------------------------
STRT        .FT                                            1960 :START DEPTH
STOP        .FT                                           13420 :STOP DEPTH
STEP        .FT                                             0.5 :STEP      
NULL        .                                           -999.25 :NULL      
COMP        .                                 CALIFORNIA CO THE :COMPANY   
WELL        .                                     ST TR 00002-L :WELL      
FLD         .                                           WILDCAT :FIELD     
LOC         .                                                   :LOCATION  
CNTY        .                                       SABINE PASS :LOCATION  
STAT        .                                             TEXAS :STATE     
CTRY        .                                     UNITED STATES :COUNTRY   
SRVC        .                                                   :SERVICE COMPANY
DATE        .                             9/13/2023 11:12:08 AM :LOG DATE  
API         .                                    42715000310000 :API NUMBER
UWI         .                                    42715000310000 :UNIQUE WELL ID
XCOORD      .                                  1372392.72802961 :SURFACE X 
YCOORD      .                                   10750257.969662 :SURFACE Y 
LAT         .                                         29.618979 :LATITUDE  
LON         .                                       -93.8437903 :LONGITUDE 
ELEV        .FT                                              11 :ELEVATION VALUE
ELEV_TYPE   .                                                KB :ELEVATION REFERENCE TYPE
~Curve Information Section
#MNEM       .UNIT                                      API CODE :CURVE DESCRIPTION
#------------------------------------------------------------------------------
DEPT        .FT                                                 :DEPTH     
ASN         .OHMM                                               :          
IL          .OHMM                                               :          
SP          .MV                                                 :          
SP_NORM     .MV                                                 :SP Normalized
VSH_SP      .V/V                                                :Volume of Shale from SP
~A        DEPTH            ASN             IL             SP        SP_NORM         VSH_SP
# ...
      5744.0000         1.6022         1.4302       -52.9209      -3.606673      0.9484761
      5744.5000         1.6156         1.4254       -52.8593       -3.54918      0.9492974
      5745.0000         1.6277         1.4205       -53.2762      -3.938287      0.9437388
      5745.5000          1.637         1.4157       -53.6925      -4.326835      0.9381881
      5746.0000         1.6463         1.4109       -53.8704      -4.492874      0.9358161
      5746.5000         1.6556         1.4182       -53.6951       -4.32926      0.9381534
      5747.0000         1.6507         1.4263       -53.5199      -4.165742      0.9404894
      5747.5000         1.6456         1.4343       -52.8123      -3.505316      0.9499241
      5748.0000         1.6406         1.4424       -51.9949      -2.742407      0.9608228
      5748.5000         1.6438         1.4504       -51.1787       -1.98062      0.9717054
      5749.0000         1.6494         1.4585       -50.4538      -1.304048      0.9813707
      5749.5000         1.6549         1.4668       -49.8143     -0.7071813      0.9898974
      5750.0000         1.6605         1.4751       -49.1753     -0.1107813      0.9984174
      5750.5000          1.666         1.4834       -48.5363      0.4856186              1
      5751.0000         1.6716         1.4917       -47.8973       1.082018              1
      5751.5000          1.677         1.4999       -47.2578       1.678885              1
      5752.0000         1.6804          1.509       -46.7896       2.115872              1
      5752.5000         1.6839         1.5186       -46.7776       2.127073              1
      5753.0000         1.6873         1.5281        -47.312       1.628299              1
      5753.5000         1.6907         1.5377       -49.2202     -0.1526871      0.9978188
      5754.0000         1.6942         1.5472       -51.2225      -2.021501      0.9711214
      5754.5000         1.6964         1.5568        -53.286      -3.947433      0.9436081
      5755.0000          1.689         1.5647       -53.1621      -3.831796        0.94526
      5755.5000         1.6816          1.568        -52.745        -3.4425      0.9508215
      5756.0000         1.6641         1.5714       -52.2422       -2.97322      0.9575254
      5756.5000         1.6456         1.5748       -51.7389      -2.503474      0.9642361
      5757.0000         1.6282         1.5781       -51.2618       -2.05818      0.9705974
      5757.5000         1.6269         1.5815        -50.822      -1.647699      0.9764614
      5758.0000         1.6288          1.588       -51.0058      -1.819246      0.9740108
      5758.5000         1.6718         1.5949        -51.996      -2.743433      0.9608081
      5759.0000         1.7148         1.6018       -52.9851      -3.666594      0.9476201
      5759.5000         1.7295         1.6087       -53.7341      -4.365661      0.9376334
      5760.0000          1.725          1.611       -54.4135      -4.999769      0.9285747
      5760.5000         1.7205          1.604       -54.8055      -5.365634      0.9233481
      5761.0000          1.716         1.5969       -55.1039      -5.644142      0.9193694
      5761.5000         1.7115         1.5899       -56.6429      -7.080539      0.8988494
      5762.0000          1.722         1.5715       -58.2491       -8.57966      0.8774334
      5762.5000         1.7376          1.549       -59.9997      -10.21355      0.8540921
      5763.0000         1.7571         1.5265       -61.7744      -11.86994      0.8304294
      5763.5000         1.7766         1.4661       -62.7411      -12.77219        0.81754
      5764.0000         1.7961         1.3925        -62.275      -12.33717      0.8237547
      5764.5000         1.7418         1.3215       -61.8089      -11.90214      0.8299694
      5765.0000          1.653         1.2714       -61.3428      -11.46711      0.8361841
      5765.5000         1.6129         1.2212        -60.869       -11.0249      0.8425014
      5766.0000         1.6038         1.1717         -60.23       -10.4285      0.8510214
      5766.5000         1.5992         1.1278       -61.5972      -11.70455      0.8327921
      5767.0000          1.604         1.0839        -66.674       -16.4429      0.7651014
      5767.5000         1.6089         1.0528       -78.2894      -27.28394      0.6102294
      5768.0000         1.6203         1.0535       -87.8042      -36.16442      0.4833654
      5768.5000         1.6321         1.0543       -96.6799      -44.44841      0.3650227
      5769.0000         1.6048         1.0794        -99.818       -47.3773      0.3231814
      5769.5000         1.5426         1.1073       -98.8245      -46.45004      0.3364281
      5770.0000         1.4756         1.1395       -95.3013      -43.16171      0.3834041
      5770.5000         1.4478         1.1807       -90.0975      -38.30484      0.4527881
      5771.0000           1.49         1.2219       -84.9331      -33.48473      0.5216468
      5771.5000         1.5256         1.2548       -82.2985      -31.02577      0.5567747
      5772.0000         1.5601         1.2812       -84.2854      -32.88021      0.5302827
      5772.5000         1.4953          1.286       -86.2701       -34.7326      0.5038201
      5773.0000          1.393         1.2562       -88.2572      -36.58722      0.4773254
      5773.5000         1.3655         1.2265       -93.4938      -41.47471      0.4075041
      5774.0000         1.3587         1.2031       -92.3384      -40.39634      0.4229094
      5774.5000         1.3885          1.208       -85.0819      -33.62361      0.5196627
      5775.0000         1.4182         1.2129       -79.2086      -28.14186      0.5979734
      5775.5000         1.4479         1.2178       -73.9567      -23.24009      0.6679987
      5776.0000         1.4781         1.2413       -69.5582      -19.13482      0.7266455
      5776.5000         1.5132         1.2696       -66.5536      -16.33052      0.7667068
      5777.0000         1.5482         1.2977       -64.0765      -14.01857      0.7997348
      5777.5000         1.5887         1.3113       -63.6848      -13.65298      0.8049574
      5778.0000           1.65         1.2784       -67.0154      -16.76155      0.7605494
      5778.5000         1.7188         1.2456       -72.6875       -22.0555      0.6849214
      5779.0000          1.802         1.2127       -78.8672      -27.82322      0.6025254
      5779.5000         1.8707         1.1799       -82.0403      -30.78478      0.5602174
      5780.0000          1.873          1.147       -84.1322      -32.73722      0.5323254
      5780.5000         1.7781         1.1228        -79.725      -28.62383      0.5910881
      5781.0000         1.6676         1.1103       -73.2126       -22.5456        0.67792
      5781.5000         1.6023         1.0977       -69.5845      -19.15937      0.7262947
      5782.0000         1.5796         1.0852       -66.6849      -16.45307      0.7649561
      5782.5000         1.5523         1.0719       -68.6697      -18.30556      0.7384921
      5783.0000          1.568         1.0562       -71.3132      -20.77282      0.7032454
      5783.5000         1.6108         1.0405       -74.3834      -23.63834      0.6623094
      5784.0000         1.6447         1.0248       -77.6023      -26.64265      0.6193907
      5784.5000         1.6436         1.0528       -80.1134      -28.98634      0.5859094
      5785.0000         1.6212         1.0889       -81.0981      -29.90539      0.5727801
      5785.5000         1.5989         1.1249       -82.0479      -30.79187      0.5601161
      5786.0000         1.5626         1.1598       -82.6523      -31.35598      0.5520574
      5786.5000         1.5218         1.1947       -77.9569      -26.97361      0.6146628
      5787.0000         1.4845         1.2296       -71.4008      -20.85458      0.7020774
      5787.5000          1.457         1.2645       -66.7878      -16.54912       0.763584
