#------------------------------------------------------------------------------
# Created by    : vladimir.rabinovich
# Created on    : 09/19/2023 17:20:40
#------------------------------------------------------------------------------
~Version Information Section
VERS.           2.0     :   CWLS log ASCII Standard - VERSION 2.0
WRAP.           NO      :   One line per depth step
~Well Information Section
#MNEM       .UNIT                                         VALUE :DESCRIPTION
#------------------------------------------------------------------------------
STRT        .FT                                             769 :START DEPTH
STOP        .FT                                           10573 :STOP DEPTH
STEP        .FT                                             0.5 :STEP      
NULL        .                                           -999.25 :NULL      
COMP        .                                        TEXACO INC :COMPANY   
WELL        .                               OCS G01846 ST00BP00 :WELL      
FLD         .                            HIGH ISLAND BLOCK 0129 :FIELD     
LOC         .                                                   :LOCATION  
CNTY        .                                  HIGH ISLAND EAST :LOCATION  
STAT        .                                             TEXAS :STATE     
CTRY        .                                     UNITED STATES :COUNTRY   
SRVC        .                                                   :SERVICE COMPANY
DATE        .                             9/13/2023 11:19:51 AM :LOG DATE  
API         .                                    42710300030000 :API NUMBER
UWI         .                                    42710300030000 :UNIQUE WELL ID
XCOORD      .                                   1386052.0565626 :SURFACE X 
YCOORD      .                                   10637380.600337 :SURFACE Y 
LAT         .                                        29.3087467 :LATITUDE  
LON         .                                       -93.7983562 :LONGITUDE 
ELEV        .FT                                              81 :ELEVATION VALUE
ELEV_TYPE   .                                                KB :ELEVATION REFERENCE TYPE
~Curve Information Section
#MNEM       .UNIT                                      API CODE :CURVE DESCRIPTION
#------------------------------------------------------------------------------
DEPT        .FT                                                 :DEPTH     
ASN         .OHMM                                               :          
CALI        .IN                                                 :          
DRHO        .G/C3                                               :          
GR          .GAPI                                               :          
GR_1        .GAPI                                               :          
GR_NORM     .GAPI                                               :GammaRay Normalized
ILD         .OHMM                                               :          
RHOB        .G/C3                                               :          
SP          .MV                                                 :          
SP_NORM     .MV                                                 :SP Normalized
VSH_GR      .V/V                                                :Volume of Shale from GR
VSH_SP      .V/V                                                :Volume of Shale from SP
~A        DEPTH            ASN           CALI           DRHO             GR           GR_1        GR_NORM            ILD           RHOB             SP        SP_NORM         VSH_GR         VSH_SP
# ...
      5935.0000         1.0614        -999.25        -0.0628        -999.25        -999.25        -999.25         0.8738        -999.25       -26.4101      -6.219048        -999.25      0.9111565
      5935.5000         1.0867        -999.25        -0.0677        -999.25        -999.25        -999.25         0.8907        -999.25       -27.8697      -7.679487        -999.25      0.8902931
      5936.0000         1.1173        -999.25         -0.078        -999.25        -999.25        -999.25         0.9088        -999.25       -30.8235      -10.63413        -999.25      0.8480839
      5936.5000          1.149        -999.25        -0.0818        -999.25        -999.25        -999.25         0.9264        -999.25        -33.989      -13.80047        -999.25      0.8028505
      5937.0000         1.1613        -999.25        -0.0746        -999.25        -999.25        -999.25         0.9335        -999.25       -37.0536      -16.86591        -999.25      0.7590584
      5937.5000         1.1484        -999.25        -0.0695        -999.25        -999.25        -999.25         0.9407        -999.25       -39.6624      -19.47555        -999.25      0.7217779
      5938.0000          1.123        -999.25        -0.0646        -999.25        -999.25        -999.25         0.9484        -999.25       -41.7435      -21.55749        -999.25      0.6920359
      5938.5000         1.0985        -999.25        -0.0592        -999.25        -999.25        -999.25         0.9566        -999.25       -40.7648      -20.57963        -999.25      0.7060053
      5939.0000         1.1182        -999.25        -0.0534        -999.25        -999.25        -999.25         0.9604        -999.25       -40.1736      -19.98927        -999.25       0.714439
      5939.5000          1.139        -999.25        -0.0463        -999.25        -999.25        -999.25         0.9578        -999.25       -39.4037      -19.22021        -999.25      0.7254255
      5940.0000         1.1535        -999.25        -0.0415        -999.25        -999.25        -999.25         0.9557        -999.25       -38.4307      -18.24805        -999.25      0.7393135
      5940.5000         1.1623        -999.25        -0.0439        -999.25        -999.25        -999.25         0.9571        -999.25       -37.3849      -17.20309        -999.25      0.7542415
      5941.0000         1.1593        -999.25        -0.0382        -999.25        -999.25        -999.25         0.9595        -999.25       -36.1692      -15.98824        -999.25      0.7715966
      5941.5000         1.1508        -999.25        -0.0306        -999.25        -999.25        -999.25         0.9633        -999.25       -34.8475      -14.66738        -999.25      0.7904661
      5942.0000         1.1408        -999.25        -0.0263        -999.25        -999.25        -999.25         0.9638        -999.25       -33.4163      -13.23702        -999.25      0.8108997
      5942.5000         1.1312        -999.25        -0.0288        -999.25        -999.25        -999.25          0.959        -999.25        -32.251      -12.07256        -999.25      0.8275349
      5943.0000         1.1231        -999.25        -0.0301        -999.25        -999.25        -999.25         0.9581        -999.25       -31.8027       -11.6251        -999.25      0.8339272
      5943.5000         1.1168        -999.25        -0.0294        -999.25        -999.25        -999.25         0.9572        -999.25       -32.9149      -12.73814        -999.25      0.8180266
      5944.0000         1.1149        -999.25        -0.0238        -999.25        -999.25        -999.25         0.9564        -999.25        -32.559      -12.38308        -999.25      0.8230989
      5944.5000         1.1171        -999.25        -0.0147        -999.25        -999.25        -999.25         0.9596        -999.25       -31.1388      -10.96372        -999.25      0.8433754
      5945.0000          1.124        -999.25        -0.0062        -999.25        -999.25        -999.25         0.9655        -999.25       -29.1926      -9.018358        -999.25      0.8711663
      5945.5000         1.1415        -999.25        -0.0026        -999.25        -999.25        -999.25         0.9831        -999.25       -27.4854      -7.311998        -999.25      0.8955429
      5946.0000         1.1641        -999.25        -0.0029        -999.25        -999.25        -999.25         1.0029        -999.25       -26.2389      -6.066339        -999.25       0.913338
      5946.5000         1.1851        -999.25        -0.0037        -999.25        -999.25        -999.25         1.0301        -999.25       -25.8016      -5.629881        -999.25      0.9195731
      5947.0000         1.1993        -999.25        -0.0091        -999.25        -999.25        -999.25         1.0585        -999.25       -25.5188      -5.347921        -999.25      0.9236012
      5947.5000         1.2099        -999.25        -0.0137        -999.25        -999.25        -999.25         1.0904        -999.25       -25.3571      -5.187061        -999.25      0.9258991
      5948.0000         1.2301        -999.25        -0.0162        -999.25        -999.25        -999.25         1.1185        -999.25       -25.5202      -5.351004        -999.25      0.9235571
      5948.5000         1.2548        -999.25        -0.0197        -999.25        -999.25        -999.25         1.1423        -999.25       -26.4138      -6.245441        -999.25      0.9107794
      5949.0000         1.2763        -999.25        -0.0246        -999.25        -999.25        -999.25         1.1585        -999.25       -27.7047      -7.537184        -999.25      0.8923259
      5949.5000         1.2918        -999.25        -0.0295        -999.25        -999.25        -999.25         1.1716        -999.25       -29.3182      -9.151524        -999.25      0.8692639
      5950.0000         1.3024        -999.25        -0.0345        -999.25        -999.25        -999.25         1.1784        -999.25       -30.9017      -10.73586        -999.25      0.8466305
      5950.5000         1.3065        -999.25        -0.0393        -999.25        -999.25        -999.25         1.1773        -999.25       -31.4593       -11.2943        -999.25      0.8386528
      5951.0000         1.3003        -999.25         -0.044        -999.25        -999.25        -999.25         1.1728        -999.25       -31.6609      -11.49675        -999.25      0.8357608
      5951.5000         1.2889        -999.25        -0.0495        -999.25        -999.25        -999.25         1.1605        -999.25       -31.7181      -11.55479        -999.25      0.8349316
      5952.0000         1.2782        -999.25         -0.056        -999.25        -999.25        -999.25         1.1475        -999.25       -31.7066      -11.54413        -999.25      0.8350839
      5952.5000         1.2713        -999.25        -0.0618        -999.25        -999.25        -999.25         1.1312        -999.25       -31.7037      -11.54207        -999.25      0.8351133
      5953.0000         1.2676        -999.25        -0.0668        -999.25        -999.25        -999.25         1.1149        -999.25       -31.8544      -11.69361        -999.25      0.8329484
      5953.5000         1.2638        -999.25        -0.0704        -999.25        -999.25        -999.25          1.097        -999.25        -32.384      -12.22405        -999.25      0.8253708
      5954.0000         1.2516        -999.25        -0.0696        -999.25        -999.25        -999.25         1.0788        -999.25       -33.4902      -13.33109        -999.25      0.8095559
      5954.5000         1.2355        -999.25        -0.0656        -999.25        -999.25        -999.25         1.0534        -999.25       -34.7884      -14.63013        -999.25      0.7909982
      5955.0000         1.2178        -999.25        -0.0631        -999.25        -999.25        -999.25         1.0113        -999.25       -36.3466      -16.18917        -999.25      0.7687262
