#------------------------------------------------------------------------------
# Created by    : vladimir.rabinovich
# Created on    : 09/19/2023 17:20:10
#------------------------------------------------------------------------------
~Version Information Section
VERS.           2.0     :   CWLS log ASCII Standard - VERSION 2.0
WRAP.           NO      :   One line per depth step
~Well Information Section
#MNEM       .UNIT                                         VALUE :DESCRIPTION
#------------------------------------------------------------------------------
STRT        .FT                                             613 :START DEPTH
STOP        .FT                                           12130 :STOP DEPTH
STEP        .FT                                             0.5 :STEP      
NULL        .                                           -999.25 :NULL      
COMP        .                                 CITIES SERVICE CO :COMPANY   
WELL        .                               OCS G03060 ST00BP00 :WELL      
FLD         .                                           WILDCAT :FIELD     
LOC         .                                                   :LOCATION  
CNTY        .                               MUSTANG ISLAND EAST :LOCATION  
STAT        .                                             TEXAS :STATE     
CTRY        .                                     UNITED STATES :COUNTRY   
SRVC        .                                                   :SERVICE COMPANY
DATE        .                             9/13/2023 11:12:08 AM :LOG DATE  
API         .                                    42712400440000 :API NUMBER
UWI         .                                    42712400440000 :UNIQUE WELL ID
XCOORD      .                                  632657.308411808 :SURFACE X 
YCOORD      .                                  10083439.8406154 :SURFACE Y 
LAT         .                                        27.7518805 :LATITUDE  
LON         .                                       -96.1160164 :LONGITUDE 
ELEV        .FT                                             103 :ELEVATION VALUE
ELEV_TYPE   .                                                KB :ELEVATION REFERENCE TYPE
~Curve Information Section
#MNEM       .UNIT                                      API CODE :CURVE DESCRIPTION
#------------------------------------------------------------------------------
DEPT        .FT                                                 :DEPTH     
ASFL        .OHMM                                               :          
CILD        .MMHO                                               :          
GR          .GAPI                                               :          
GR_NORM     .GAPI                                               :GammaRay Normalized
ILD         .OHMM                                               :          
SP          .MV                                                 :          
SP_NORM     .MV                                                 :SP Normalized
VSH_GR      .V/V                                                :Volume of Shale from GR
VSH_SP      .V/V                                                :Volume of Shale from SP
~A        DEPTH           ASFL           CILD             GR        GR_NORM            ILD             SP        SP_NORM         VSH_GR         VSH_SP
# ...
      5224.0000         0.9694       1081.514        41.4406       63.52225           0.96      -111.1895      0.9901047      0.6494095              1
      5224.5000         0.9641       1088.887        43.9683        66.8222         0.9586      -111.7107      0.4677734      0.7196212              1
      5225.0000         0.9588       1096.262        42.8251        65.3296         0.9496      -111.7601       0.417244      0.6878638              1
      5225.5000         0.9545       1103.635         41.652       63.79795         0.9405      -111.4956      0.6806259      0.6552755              1
      5226.0000         0.9512       1111.008        42.2722       64.60756         0.9315      -111.3435      0.8315964      0.6725013              1
      5226.5000         0.9479       1118.383        42.8879       65.41129         0.9225      -111.1917      0.9822693       0.689602              1
      5227.0000         0.9447       1126.029        43.5031       66.21437         0.9135        -111.11       1.062843      0.7066888              1
      5227.5000         0.9398       1134.098        44.1188       67.01811         0.9045       -111.293      0.8787155      0.7237896              1
      5228.0000         0.9317       1142.166        44.5465       67.57641         0.8955      -111.4762       0.694397      0.7356682              1
      5228.5000         0.9219       1150.234        44.6519        67.7139         0.8777      -113.1008     -0.9313354      0.7385936      0.9813733
      5229.0000         0.9039       1165.262        44.4565       67.45872         0.8596      -117.3153      -5.146965      0.7331642      0.8970607
      5229.5000          0.885       1183.807        43.7493       66.53531         0.8414      -119.6849      -7.517685      0.7135172      0.8496463
      5230.0000         0.8656       1246.086        41.9506       64.18692         0.8233      -120.4351      -8.269012      0.6635515      0.8346198
      5230.5000         0.8385       1322.008        40.4454        62.2217         0.8052      -121.1825      -9.017548      0.6217384       0.819649
      5231.0000         0.8192       1390.082        40.4025       62.16559         0.7871       -121.322      -9.158165      0.6205445      0.8168367
      5231.5000         0.8007       1410.279        41.2335       63.25042         0.7691      -120.7349      -8.572197       0.643626      0.8285561
      5232.0000          0.788        1397.01        42.2852       64.62337         0.7512       -119.573      -7.411415      0.6728376      0.8517717
      5232.5000         0.8139       1383.727        43.5155       66.22952         0.7332      -118.1985      -6.038048       0.707011       0.879239
      5233.0000         0.8386       1370.457        44.7457       67.83549         0.7397      -116.8164      -4.657074      0.7411807      0.9068585
      5233.5000         0.8617        1342.49        48.6107       72.88137         0.7572      -115.3909      -3.232697      0.8485398      0.9353461
      5234.0000         0.8855       1309.768        48.4754       72.70464         0.7709      -113.9641       -1.80703      0.8447795      0.9638594
      5234.5000         0.9107       1272.502        48.1514       72.28154         0.7841      -112.9266     -0.7706528      0.8357775       0.984587
      5235.0000         0.9292        1231.09        47.7828        71.8002         0.7972      -111.9438      0.2110214      0.8255362              1
      5235.5000         0.9376       1199.535        47.4143       71.31902         0.8104       -111.108       1.045692      0.8152984              1
      5236.0000         0.9386       1172.648        48.0503       72.14925         0.8236      -110.3013       1.851265      0.8329629              1
      5236.5000         0.9373       1150.123        48.8253       73.16097         0.8368      -109.4722       2.679245      0.8544888              1
      5237.0000          0.935       1140.453        49.3928       73.90177         0.8499      -108.5616       3.588715      0.8702505              1
      5237.5000         0.9372       1130.777         49.637        74.2205         0.8619       -108.072       4.077187      0.8770319              1
      5238.0000           0.95       1121.107        49.2501       73.71528         0.8648       -107.881       4.267067      0.8662825              1
      5238.5000         0.9629        1113.99        48.8632       73.21006         0.8677      -107.6901       4.456833      0.8555332              1
      5239.0000         0.9766       1109.822        47.5458       71.49002         0.8707        -107.59       4.555817      0.8189366              1
      5239.5000         0.9914       1105.654        45.8591       69.28786         0.8736      -107.5118       4.632881      0.7720821              1
      5240.0000         1.0061       1101.484        44.2805        67.2268         0.8765      -107.4337       4.709854      0.7282298              1
      5240.5000         1.0171       1097.316         45.762        69.1609         0.8794      -107.3557       4.786736      0.7693807              1
      5241.0000          1.003       1093.148        46.7759        70.4845         0.8824      -107.3534       4.787903      0.7975426              1
      5241.5000          0.989        1092.76        47.7057        71.6983         0.8853      -107.4434       4.696777       0.823368              1
      5242.0000         0.9749       1093.887        48.6356       72.91225         0.8882      -107.5334       4.605652      0.8491967              1
      5242.5000         0.9612       1095.012         49.441       73.96365         0.8912      -107.6271       4.510826       0.871567              1
      5243.0000         0.9513       1096.137        49.7206       74.32858         0.8941      -107.7521       4.384697      0.8793314              1
      5243.5000         0.9609       1100.135        49.4423       73.96515          0.897      -107.8772       4.258476      0.8715989              1
      5244.0000         0.9677       1106.328        48.7898       73.11317         0.8999       -107.905       4.229546      0.8534716              1
      5244.5000         0.9692       1112.523         48.138       72.26212         0.8988      -107.7496        4.38382      0.8353643              1
      5245.0000         0.9706       1118.711        47.4855       71.41015         0.8977      -107.5941       4.538193      0.8172372              1
      5245.5000          0.972       1124.906         47.582       71.53603         0.8966      -107.4388       4.692368      0.8199156              1
      5246.0000         0.9712       1130.311        47.9632       72.03361         0.8955      -107.2834       4.846642      0.8305023              1
      5246.5000         0.9687       1134.771        48.7245       73.02744         0.8945      -107.1973        4.93161      0.8516476              1
      5247.0000         0.9662       1140.311        48.9876       73.37083         0.8934        -107.16       4.967781      0.8589538              1
      5247.5000         0.9637       1146.344        48.0602       72.15997         0.8923      -107.1229       5.003761      0.8331907              1
      5248.0000         0.9612       1152.266        47.1329       70.94923         0.8912      -107.0857       5.039833      0.8074305              1
      5248.5000         0.9587       1157.943        47.0131       70.79272         0.8901      -107.0485       5.075905      0.8041005              1
      5249.0000         0.9561       1163.623        47.3926       71.28808         0.8891      -107.0154        5.10788        0.81464              1
      5249.5000         0.9529       1169.303        47.8295       71.85838          0.888      -106.9844       5.137756      0.8267741              1
      5250.0000         0.9478       1177.328        48.2664       72.42869         0.8869      -106.9535       5.156708      0.8389083              1
