#------------------------------------------------------------------------------
# Created by    : vladimir.rabinovich
# Created on    : 09/19/2023 17:21:39
#------------------------------------------------------------------------------
~Version Information Section
VERS.           2.0     :   CWLS log ASCII Standard - VERSION 2.0
WRAP.           NO      :   One line per depth step
~Well Information Section
#MNEM       .UNIT                                         VALUE :DESCRIPTION
#------------------------------------------------------------------------------
STRT        .FT                                            3004 :START DEPTH
STOP        .FT                                           10487 :STOP DEPTH
STEP        .FT                                             0.5 :STEP      
NULL        .                                           -999.25 :NULL      
COMP        .                                    TENNECO OIL CO :COMPANY   
WELL        .                               OCS G04082 ST00BP00 :WELL      
FLD         .                            SABINE PASS BLOCK 0017 :FIELD     
LOC         .                                                   :LOCATION  
CNTY        .                                       SABINE PASS :LOCATION  
STAT        .                                             TEXAS :STATE     
CTRY        .                                     UNITED STATES :COUNTRY   
SRVC        .                                                   :SERVICE COMPANY
DATE        .                             9/13/2023 11:20:07 AM :LOG DATE  
API         .                                    42715400130000 :API NUMBER
UWI         .                                    42715400130000 :UNIQUE WELL ID
XCOORD      .                                  1369313.82013612 :SURFACE X 
YCOORD      .                                  10714127.2468036 :SURFACE Y 
LAT         .                                        29.5195329 :LATITUDE  
LON         .                                       -93.8526471 :LONGITUDE 
ELEV        .FT                                             111 :ELEVATION VALUE
ELEV_TYPE   .                                                KB :ELEVATION REFERENCE TYPE
~Curve Information Section
#MNEM       .UNIT                                      API CODE :CURVE DESCRIPTION
#------------------------------------------------------------------------------
DEPT        .FT                                                 :DEPTH     
CALI        .IN                                                 :          
DPHI        .%                                                  :          
DRHO        .G/C3                                               :          
GR          .GAPI                                               :          
GR_NORM     .GAPI                                               :GammaRay Normalized
ILD         .OHMM                                               :          
ILM         .OHMM                                               :          
NPHI        .%                                                  :          
SFL         .OHMM                                               :          
SP          .MV                                                 :          
SP_NORM     .MV                                                 :SP Normalized
VSH_GR      .V/V                                                :Volume of Shale from GR
VSH_SP      .V/V                                                :Volume of Shale from SP
~A        DEPTH           CALI           DPHI           DRHO             GR        GR_NORM            ILD            ILM           NPHI            SFL             SP        SP_NORM         VSH_GR         VSH_SP
# ...
      5987.0000        13.4314        20.7593         0.0401        49.9009       58.91702         0.7087         0.5949        37.7117         0.6318       -59.5491      -16.76523      0.5514259      0.7604967
      5987.5000        13.4216        22.9002         0.0237        49.9495       58.97176         0.6787         0.5681        38.7411         0.6211       -59.6765      -16.97865      0.5525906      0.7574478
      5988.0000        13.4314        23.4773         0.0152        51.3279       60.53149         0.6456         0.5473        40.3529          0.633       -58.9414       -15.7472      0.5857763        0.77504
      5988.5000        13.4397        22.7261         0.0088        54.4216       64.03247         0.6066         0.5299         42.789         0.6229       -57.0588      -12.59345      0.6602653      0.8200936
      5989.0000        13.4412         22.143         0.0185        58.0392       68.12637         0.5875         0.5128        45.6829         0.5764       -54.3258      -8.015092      0.7473696      0.8854987
      5989.5000        13.4314        22.8013         0.0245          61.73        72.3031         0.5728         0.4983        51.3762         0.5245       -51.7324      -3.670588      0.8362362      0.9475631
      5990.0000         13.451        23.7392         0.0318        64.8542       75.83862         0.5607         0.4891        53.8062         0.4895       -50.1688      -1.051226      0.9114599      0.9849825
      5990.5000        13.4833        24.2584         0.0372        67.2155       78.51072         0.5524         0.4816        54.8881         0.4664       -49.3564      0.3097187      0.9683132              1
      5991.0000        13.5167        23.8297         0.0411        67.4974       78.82949         0.5463         0.4756        51.5294         0.4465       -49.7923     -0.4205096      0.9750956      0.9939927
      5991.5000         13.524        23.1176         0.0376        66.1667       77.32323         0.5415         0.4731        47.0676         0.4292       -51.3374      -3.008878      0.9430474      0.9570161
      5992.0000         13.496        22.8824         0.0338        62.6124       73.30045         0.5319         0.4699        44.6823         0.4112        -53.714      -6.990194      0.8574564      0.9001401
      5992.5000        13.5059        22.8735         0.0316        56.5854       66.47922         0.5118         0.4639        44.1176         0.4029       -56.4069      -11.50137      0.7123238      0.8356947
      5993.0000        13.5529        22.8824         0.0324        47.5386        56.2404         0.4761         0.4521        43.4529          0.407       -60.2156      -17.88176      0.4944766      0.7445462
      5993.5000        13.6019        23.5059         0.0321        38.1769       45.64518         0.4356         0.4285        40.8823         0.4356       -65.1884      -26.21227      0.2690463      0.6255391
      5994.0000        13.6412        24.8911         0.0281        33.4429       40.28729         0.3951         0.3985        37.8353         0.4615       -70.2474      -34.68717      0.1550488       0.504469
      5994.5000        13.6887        26.8366         0.0224        31.1078       37.64432         0.3608         0.3695         36.397         0.4507       -74.2673      -41.42137     0.09881535      0.4082662
      5995.0000        13.8333         28.598         0.0119        31.6078       38.20993           0.34         0.3451        36.2235         0.4245       -76.2012      -44.66106      0.1108495      0.3619848
      5995.5000        14.0998        29.6792         0.0043        33.2892       40.11256         0.3277         0.3275        36.4059         0.4031       -77.9165      -47.53455      0.1513312      0.3209351
      5996.0000         14.524        30.1529         0.0007        34.1176       41.04983         0.3166         0.3164        37.1765         0.3932       -78.7959      -49.00773      0.1712729      0.2998895
      5996.5000        15.1114        30.1617         0.0037        33.8235       40.71673         0.3111         0.3114        38.9764         0.3953       -79.4609      -50.12175      0.1641857       0.283975
      5997.0000        15.3059        29.9644         0.0107        32.7451         39.496         0.3078          0.307        40.0882         0.4007        -79.825      -50.73169      0.1382128      0.2752615
      5997.5000         15.195        29.8218         0.0164        31.4706       38.05335         0.3051         0.3029        40.0471         0.4006       -80.2551       -51.4522      0.1075181      0.2649686
      5998.0000        14.7637        30.0585         0.0112        30.2941        36.7216         0.3018         0.2988        38.3411         0.3927       -81.1377      -52.93076     0.07918289      0.2438463
      5998.5000        13.5245        30.8323         0.0005        29.0792        35.3464          0.296         0.2908        36.4853          0.365       -82.4502      -55.12947     0.04992335      0.2124361
      5999.0000        12.8317        31.5882        -0.0059        27.8911       34.00152         0.2855          0.277        33.9294         0.3272       -83.8295      -57.44009      0.0213089      0.1794273
      5999.5000        12.6282        31.9735        -0.0059        27.2277       33.25047         0.2728          0.263        32.5676         0.2916       -84.7703      -59.01614    0.005329132      0.1569123
      6000.0000        12.6239        31.9301        -0.0052        27.3267       33.36224         0.2567           0.25        33.4997         0.2698       -85.2727      -59.85775    0.007707231      0.1448892
      6000.5000        12.6148        31.7177         -0.004        27.5839       33.65307         0.2412         0.2393        35.6003         0.2601       -85.6863      -60.55063     0.01389508       0.134991
      6001.0000        12.6158           31.4        -0.0033        28.4549       34.63855         0.2278         0.2291        36.6943         0.2594       -85.7843       -60.7148     0.03486284      0.1326457
      6001.5000        12.6108        31.2941        -0.0027        29.2079       35.49049         0.2184         0.2198        36.9764         0.2614       -86.4313      -61.79866     0.05298907       0.117162
      6002.0000        12.6137        31.2229        -0.0025        29.0486       35.30994         0.2104          0.211        37.0955         0.2674       -86.9404      -62.65151     0.04914767      0.1049784
      6002.5000        12.6176        31.1382        -0.0022        28.5891       34.78964         0.2046         0.2049        37.6353          0.275       -87.3979      -63.41793      0.0380775     0.09402956
      6003.0000        12.6078        31.1176        -0.0027        28.3564       34.52603         0.1986         0.1988        36.7646         0.2841       -87.9163      -64.28635     0.03246867     0.08162352
      6003.5000        12.6103        31.0147        -0.0037        27.9851       34.10556         0.1977         0.1938        34.7235         0.2913        -88.358       -65.0263     0.02352248     0.07105288
      6004.0000        12.6156        30.3888         0.0001        28.4342       34.61356         0.1991         0.1902        33.0384         0.2922       -88.3877      -65.07606     0.03433106     0.07034203
      6004.5000        12.6176        30.1411         0.0028        29.9256       36.30116         0.2021         0.1895        32.5882         0.2882       -88.3663       -65.0402     0.07023742      0.0708543
      6005.0000        12.6176        30.2236         0.0009        31.4483       38.02419         0.2051         0.1947        33.8586          0.282       -88.0096      -64.44264      0.1068977     0.07939082
      6005.5000        12.6274        30.4471        -0.0004        34.3196       41.27348         0.2083          0.197        34.7998         0.2745       -87.4551      -63.51375      0.1760314     0.09266074
