#------------------------------------------------------------------------------
# Created by    : vladimir.rabinovich
# Created on    : 09/19/2023 17:22:52
#------------------------------------------------------------------------------
~Version Information Section
VERS.           2.0     :   CWLS log ASCII Standard - VERSION 2.0
WRAP.           NO      :   One line per depth step
~Well Information Section
#MNEM       .UNIT                                         VALUE :DESCRIPTION
#------------------------------------------------------------------------------
STRT        .FT                                            2993 :START DEPTH
STOP        .FT                                           15023 :STOP DEPTH
STEP        .FT                                             0.5 :STEP      
NULL        .                                           -999.25 :NULL      
COMP        .                                        TEXACO INC :COMPANY   
WELL        .                                     ST TR 00018-L :WELL      
FLD         .                                           WILDCAT :FIELD     
LOC         .                                                   :LOCATION  
CNTY        .                                       SABINE PASS :LOCATION  
STAT        .                                             TEXAS :STATE     
CTRY        .                                     UNITED STATES :COUNTRY   
SRVC        .                                                   :SERVICE COMPANY
DATE        .                             9/13/2023 11:20:07 AM :LOG DATE  
API         .                                    42715000300000 :API NUMBER
UWI         .                                    42715000300000 :UNIQUE WELL ID
XCOORD      .                                  1367853.58567514 :SURFACE X 
YCOORD      .                                  10716828.2466652 :SURFACE Y 
LAT         .                                         29.526933 :LATITUDE  
LON         .                                       -93.8573019 :LONGITUDE 
ELEV        .FT                                              75 :ELEVATION VALUE
ELEV_TYPE   .                                                KB :ELEVATION REFERENCE TYPE
~Curve Information Section
#MNEM       .UNIT                                      API CODE :CURVE DESCRIPTION
#------------------------------------------------------------------------------
DEPT        .FT                                                 :DEPTH     
ILD         .OHMM                                               :          
SFLA        .OHMM                                               :          
SP          .MV                                                 :          
SP_NORM     .MV                                                 :SP Normalized
VSH_SP      .V/V                                                :Volume of Shale from SP
~A        DEPTH            ILD           SFLA             SP        SP_NORM         VSH_SP
# ...
     14961.0000         0.5523         0.5959       -29.8025      -1.608271      0.9917801
     14961.5000         0.5525         0.5982       -29.4162      -1.227274      0.9969288
     14962.0000         0.5527         0.6019       -29.0299     -0.8462753              1
     14962.5000          0.553         0.6019       -28.9112     -0.7328777              1
     14963.0000         0.5532         0.6019       -28.5679     -0.3948803              1
     14963.5000         0.5534         0.6019       -28.2889     -0.1211834              1
     14964.0000         0.5536         0.6019       -28.1044     0.05801392              1
     14964.5000         0.5538         0.6019       -27.8469      0.3102112              1
     14965.0000          0.554         0.6003       -27.6527      0.4991093              1
     14965.5000         0.5492         0.5988       -27.4586      0.6879082              1
     14966.0000         0.5392         0.5988       -27.2644      0.8768044              1
     14966.5000         0.5394         0.5987       -27.0392       1.096703              1
     14967.0000         0.5385         0.5987       -27.0306            1.1              1
     14967.5000         0.5196         0.5965       -26.8365       1.288799              1
     14968.0000         0.4921         0.5956       -26.6424       1.477596              1
     14968.5000         0.4946          0.595       -26.4123       1.702394              1
     14969.0000         0.4948         0.5911       -26.4105       1.698893              1
     14969.5000         0.4999         0.5851       -26.4084        1.69569              1
     14970.0000         0.5192         0.5698       -26.3293       1.769487              1
     14970.5000          0.526         0.5519       -26.2495       1.843985              1
     14971.0000         0.5414         0.5229       -26.2474       1.840782              1
     14971.5000         0.5464         0.5069       -26.0907        1.99218              1
     14972.0000         0.5571         0.5159       -26.0885       1.989079              1
     14972.5000         0.5573         0.5292       -26.0864       1.985876              1
     14973.0000         0.5575         0.5368       -26.0842       1.982773              1
     14973.5000         0.5577         0.5485       -26.0821        1.97957              1
     14974.0000         0.5494         0.5637       -26.0799       1.976467              1
     14974.5000         0.5429          0.577       -26.0778       1.973265              1
     14975.0000         0.5431         0.5672       -26.0756       1.970163              1
     14975.5000         0.5433         0.5456       -26.0735       1.966961              1
     14976.0000         0.5435         0.5311       -26.0091       2.026058              1
     14976.5000         0.5286          0.528       -25.9146       2.115255              1
     14977.0000         0.5287          0.528       -26.0669       1.957653              1
     14977.5000         0.5289         0.5279       -26.0649       1.954351              1
     14978.0000         0.5208         0.5333       -26.1205       1.893448              1
     14978.5000         0.5141         0.5402       -26.3102       1.698446              1
     14979.0000         0.5136         0.5424       -26.3676       1.635744              1
     14979.5000         0.4993           0.55       -26.7053       1.292742              1
     14980.0000         0.4995         0.5576       -26.9815       1.011238              1
     14980.5000         0.4998         0.5646       -27.0697      0.9177361              1
     14981.0000            0.5         0.5656       -27.2594      0.7227364              1
     14981.5000         0.5002         0.5676       -27.4491      0.5277328              1
     14982.0000         0.5004         0.5646       -27.5912       0.380331              1
     14982.5000         0.4854         0.5645       -27.6742      0.2920284              1
     14983.0000          0.485         0.5645       -27.8956     0.06532669              1
     14983.5000         0.4706         0.5645       -27.8938     0.06182289              1
     14984.0000         0.4626          0.562       -27.9345     0.01582146              1
     14984.5000         0.4405          0.558       -28.1244     -0.1793804              1
     14985.0000         0.4407         0.5513       -28.1965     -0.2567844              1
     14985.5000         0.4367         0.5441       -28.1944     -0.2599869              1
     14986.0000         0.4259          0.507       -28.1922     -0.2630882              1
     14986.5000         0.4109         0.4568       -28.1901     -0.2662907              1
     14987.0000         0.4111         0.4471       -28.1879     -0.2693939              1
     14987.5000         0.4071         0.4449       -28.3403     -0.4270954              1
     14988.0000         0.3963         0.4449       -28.3382     -0.4302979              1
     14988.5000         0.3813          0.448        -28.336     -0.4334011              1
     14989.0000         0.3815         0.4518       -28.4423     -0.5450039              1
     14989.5000         0.3817         0.4541       -28.4863      -0.594305              1
     14990.0000         0.3819         0.4587       -28.4841     -0.5974083              1
     14990.5000         0.3821         0.4663        -28.482     -0.6006107              1
     14991.0000         0.3823         0.4739       -28.4798     -0.6010113              1
     14991.5000         0.3826         0.4785       -28.3368     -0.4580116              1
     14992.0000         0.3906          0.483       -28.1664     -0.2876129              1
     14992.5000         0.4135         0.4906       -28.1643     -0.2855129              1
     14993.0000         0.4139         0.4975       -28.1621     -0.2833118              1
     14993.5000         0.4331         0.5013       -27.8507     0.02808762              1
     14994.0000         0.4446         0.5029       -27.8296     0.04918861              1
     14994.5000         0.4449          0.509       -27.6356      0.2431889              1
     14995.0000         0.4604          0.509       -27.5353      0.3434887              1
     14995.5000         0.4757          0.509       -27.5329      0.3458881              1
     14996.0000          0.476         0.5068       -27.2219      0.6568871              1
     14996.5000         0.4762         0.5028       -27.1162      0.7625885              1
     14997.0000         0.4764         0.5022       -26.9085      0.9702873              1
     14997.5000         0.4919         0.4984       -26.7798       1.098988              1
     14998.0000         0.4921         0.4925       -26.5771       1.301687              1
     14998.5000         0.4923         0.4905       -26.2373       1.641487              1
     14999.0000         0.4773         0.4833        -25.959       1.919788              1
     14999.5000         0.4775         0.4738       -25.6944       2.184387              1
     15000.0000         0.4701         0.4604       -25.4963       2.382488              1
     15000.5000         0.4513         0.4537       -25.1516       2.727188              1
     15001.0000         0.4476         0.4471       -25.0366       2.842188              1
     15001.5000         0.4442         0.4433       -25.0344       2.844387              1
     15002.0000         0.4253         0.4434       -25.0323       2.846487              1
     15002.5000         0.4178         0.4475       -25.6854       2.193388              1
     15003.0000          0.418         0.4545       -26.0236       1.855188              1
     15003.5000         0.4335          0.464       -26.3741       1.504688              1
     15004.0000         0.4411          0.478       -26.5692       1.309587              1
     15004.5000         0.4491         0.4919       -26.9408      0.9379883              1
