#------------------------------------------------------------------------------
# Created by    : vladimir.rabinovich
# Created on    : 09/19/2023 17:20:21
#------------------------------------------------------------------------------
~Version Information Section
VERS.           2.0     :   CWLS log ASCII Standard - VERSION 2.0
WRAP.           NO      :   One line per depth step
~Well Information Section
#MNEM       .UNIT                                         VALUE :DESCRIPTION
#------------------------------------------------------------------------------
STRT        .FT                                            1439 :START DEPTH
STOP        .FT                                           13833 :STOP DEPTH
STEP        .FT                                             0.5 :STEP      
NULL        .                                           -999.25 :NULL      
COMP        .                                        EXXON CORP :COMPANY   
WELL        .                               OCS G04992 ST00BP00 :WELL      
FLD         .                                           WILDCAT :FIELD     
LOC         .                                                   :LOCATION  
CNTY        .                               MUSTANG ISLAND EAST :LOCATION  
STAT        .                                             TEXAS :STATE     
CTRY        .                                     UNITED STATES :COUNTRY   
SRVC        .                                                   :SERVICE COMPANY
DATE        .                             9/13/2023 11:20:08 AM :LOG DATE  
API         .                                    42712400640000 :API NUMBER
UWI         .                                    42712400640000 :UNIQUE WELL ID
XCOORD      .                                  530427.861923906 :SURFACE X 
YCOORD      .                                  9963308.63528926 :SURFACE Y 
LAT         .                                        27.4144168 :LATITUDE  
LON         .                                       -96.4214066 :LONGITUDE 
ELEV        .FT                                              73 :ELEVATION VALUE
ELEV_TYPE   .                                                KB :ELEVATION REFERENCE TYPE
~Curve Information Section
#MNEM       .UNIT                                      API CODE :CURVE DESCRIPTION
#------------------------------------------------------------------------------
DEPT        .FT                                                 :DEPTH     
ASFL        .OHMM                                               :          
CILD        .MMHO                                               :          
DT          .US/F                                               :          
GR          .GAPI                                               :          
GR_NORM     .GAPI                                               :GammaRay Normalized
ILD         .OHMM                                               :          
SP          .MV                                                 :          
SP_NORM     .MV                                                 :SP Normalized
VSH_GR      .V/V                                                :Volume of Shale from GR
VSH_SP      .V/V                                                :Volume of Shale from SP
~A        DEPTH           ASFL           CILD             DT             GR        GR_NORM            ILD             SP        SP_NORM         VSH_GR         VSH_SP
# ...
     12978.5000         1.3097       1278.375       113.7179        67.5099       71.82408         0.8029       -36.9693      -2.265984      0.8260443      0.9546803
     12979.0000         1.3337        1214.17        99.0465        65.2845       69.04233          0.838       -36.8676      -2.169991       0.766858      0.9566002
     12979.5000         1.3434       1158.203        91.7653        62.9734       66.15346         0.8154       -36.7659      -2.073997      0.7053927      0.9585201
     12980.0000         1.2059       1309.422        90.1841        55.7675       57.14608          0.783       -36.5583      -1.872105      0.5137464      0.9625579
     12980.5000          0.964       1377.746         97.728        62.1761       65.15683         0.7507        -36.318      -1.637508      0.6841879      0.9672498
     12981.0000         0.9348       1445.869       106.1641        67.0305       71.22483         0.7184       -35.9692      -1.294415      0.8132943      0.9741117
     12981.5000         0.9128       1513.391        111.765        70.5881       75.67183          0.686       -35.5352     -0.8661194      0.9079112      0.9826776
     12982.0000         0.8907       1605.428       113.0662        72.7428        78.3652         0.6612       -35.1025     -0.4391289      0.9652171      0.9912174
     12982.5000         0.8661       1767.799       113.8368        74.3728       80.40271         0.6435       -34.7379    -0.08023453              1      0.9983953
     12983.0000         0.8313        1883.75       114.4508        75.6418       81.98895         0.6258       -34.4843      0.1676598              1              1
     12983.5000         0.8777       1962.725       113.9373        76.9136        83.5787          0.608       -34.5793     0.06695557              1              1
     12984.0000         0.9142       2044.412          115.2        78.2937       85.30383         0.5903       -34.7638     -0.1232529              1      0.9975349
     12984.5000         0.9442       2061.566       115.5072         79.231       86.47546         0.5726       -34.9479     -0.3130569              1      0.9937389
     12985.0000         0.9728       2051.695       113.5172        73.6108       79.45021         0.5549       -35.3674      -0.738266      0.9883024      0.9852347
     12985.5000         0.9922       2035.797       112.5856        69.4225       74.21483         0.5372       -35.8632      -1.239773      0.8769112      0.9752045
     12986.0000         0.9577       2019.871       112.2991        75.1449       81.36783         0.5194       -36.3603      -1.742573              1      0.9651486
     12986.5000         0.9241       2003.971        111.262          78.98       86.16171         0.5159       -36.6883      -2.076283              1      0.9584743
     12987.0000         0.8981       1996.887       110.6597        77.9707       84.90009         0.5161        -36.933      -2.326687              1      0.9534662
     12987.5000         0.8775       1990.568       113.6287        76.7445       83.36732         0.5163       -37.1784      -2.577793              1      0.9484441
     12988.0000         0.8869       1984.238       115.1033        75.2559       81.50658         0.5166       -37.4231      -2.828201              1       0.943436
     12988.5000         0.9044       1965.438       112.1615        73.3787       79.16008         0.5168       -37.6685      -3.079308      0.9821293      0.9384139
     12989.0000         0.9227       1921.932       108.7985        71.4965       76.80733         0.5171       -37.8212      -3.237713      0.9320708      0.9352458
     12989.5000         0.9409       1878.123       108.3214        70.0104       74.94971          0.527       -37.9085      -3.330719       0.892547      0.9333856
     12990.0000         0.9591       1834.014       108.6715        69.1877       73.92133         0.5452       -37.6572      -3.085125      0.8706665      0.9382975
     12990.5000         0.9678       1789.803       108.8645        71.5015       76.81358         0.5632       -37.3008      -2.734432      0.9322039      0.9453114
     12991.0000         0.9649       1746.195       107.7354        75.1045       81.31733         0.5814       -36.9103       -2.34964              1      0.9530072
     12991.5000         0.9621         1704.9       105.0885        76.9375       83.60858         0.5994        -36.465      -1.910042              1      0.9617991
     12992.0000         0.9566       1663.604       104.1888         77.432        84.2267         0.6167       -36.0873      -1.538048              1      0.9692391
     12992.5000         0.9475       1632.959       103.4751        77.2137       83.95383         0.6288       -35.9856      -1.442055              1      0.9711589
     12993.0000         0.9658       1609.547       102.6227        68.6655       73.26858          0.641       -35.9867       -1.44886      0.8567783      0.9710228
     12993.5000         1.0049       1586.137       103.5371        66.4351       70.48058         0.6531       -36.0604      -1.528267      0.7974591      0.9694347
     12994.0000         1.0439       1556.295        105.604        63.8414       67.23846         0.6653       -36.1342      -1.607777      0.7284778      0.9678445
     12994.5000         1.0775        1511.18       107.4032        68.8472        73.4957         0.6774       -36.1681      -1.647377      0.8616107      0.9670525
     12995.0000         1.1059       1477.695       108.6945        74.4282       80.47195         0.6896       -36.1293      -1.614285              1      0.9677143
     12995.5000         1.1147       1472.396       109.4974        76.8909       83.55033         0.6865       -36.0905      -1.581192              1      0.9683762
     12996.0000         1.1114       1578.701       110.0543        76.5137       83.07883         0.6779       -36.0865      -1.582897              1      0.9683421
     12996.5000         1.0192       1660.891       110.2511        75.8979       82.30908         0.6661       -36.3174      -1.819508              1      0.9636099
     12997.0000         0.9695       1735.043       110.1718        75.2823       81.53958          0.654       -37.2421      -2.749908              1      0.9450018
     12997.5000         0.9413       1775.234       110.2036        74.6667       80.77008         0.6418       -37.8776      -3.391117              1      0.9321777
     12998.0000         0.9212       1789.652       110.1908        73.7471       79.62058         0.6297       -38.0753      -3.594521      0.9919273      0.9281096
     12998.5000         0.9213        1804.07       109.1182        72.7428        78.3652         0.6176       -38.2725      -3.797428      0.9652171      0.9240515
     12999.0000         0.9485       1789.502       106.3127        71.7412        77.1132         0.6054        -38.404      -3.934635      0.9385788      0.9213073
     12999.5000         0.9713       1742.025       104.0204        72.4401       77.98683         0.5933       -38.5355      -4.071838      0.9571666      0.9185632
     13000.0000         0.9941       1717.561       106.8282        74.8193       80.96083         0.5812       -38.8405      -4.382545              1      0.9123491
     13000.5000         1.0155        1702.59       110.2781        73.8303       79.72458           0.58        -38.216      -3.763752        0.99414      0.9247249
     13001.0000         1.0154         1694.5       112.6969        72.8413       78.48833         0.5818       -37.7631      -3.316559      0.9678367      0.9336689
     13001.5000          0.995       1705.578       113.6089        71.8547       77.25508         0.5836       -37.4963      -3.055466      0.9415975      0.9388907
     13002.0000         0.9749       1716.154       113.6832        70.9069       76.07033         0.5853       -37.2295      -2.794373      0.9163899      0.9441125
     13002.5000         0.9547       1726.703       111.9979         70.821       75.96295         0.5871        -36.962      -2.532578      0.9141054      0.9493484
