#------------------------------------------------------------------------------
# Created by    : vladimir.rabinovich
# Created on    : 09/19/2023 17:20:21
#------------------------------------------------------------------------------
~Version Information Section
VERS.           2.0     :   CWLS log ASCII Standard - VERSION 2.0
WRAP.           NO      :   One line per depth step
~Well Information Section
#MNEM       .UNIT                                         VALUE :DESCRIPTION
#------------------------------------------------------------------------------
STRT        .FT                                            1439 :START DEPTH
STOP        .FT                                           13833 :STOP DEPTH
STEP        .FT                                             0.5 :STEP      
NULL        .                                           -999.25 :NULL      
COMP        .                                        EXXON CORP :COMPANY   
WELL        .                               OCS G04992 ST00BP00 :WELL      
FLD         .                                           WILDCAT :FIELD     
LOC         .                                                   :LOCATION  
CNTY        .                               MUSTANG ISLAND EAST :LOCATION  
STAT        .                                             TEXAS :STATE     
CTRY        .                                     UNITED STATES :COUNTRY   
SRVC        .                                                   :SERVICE COMPANY
DATE        .                             9/13/2023 11:20:08 AM :LOG DATE  
API         .                                    42712400640000 :API NUMBER
UWI         .                                    42712400640000 :UNIQUE WELL ID
XCOORD      .                                  530427.861923906 :SURFACE X 
YCOORD      .                                  9963308.63528926 :SURFACE Y 
LAT         .                                        27.4144168 :LATITUDE  
LON         .                                       -96.4214066 :LONGITUDE 
ELEV        .FT                                              73 :ELEVATION VALUE
ELEV_TYPE   .                                                KB :ELEVATION REFERENCE TYPE
~Curve Information Section
#MNEM       .UNIT                                      API CODE :CURVE DESCRIPTION
#------------------------------------------------------------------------------
DEPT        .FT                                                 :DEPTH     
ASFL        .OHMM                                               :          
CILD        .MMHO                                               :          
DT          .US/F                                               :          
GR          .GAPI                                               :          
GR_NORM     .GAPI                                               :GammaRay Normalized
ILD         .OHMM                                               :          
SP          .MV                                                 :          
SP_NORM     .MV                                                 :SP Normalized
VSH_GR      .V/V                                                :Volume of Shale from GR
VSH_SP      .V/V                                                :Volume of Shale from SP
~A        DEPTH           ASFL           CILD             DT             GR        GR_NORM            ILD             SP        SP_NORM         VSH_GR         VSH_SP
# ...
      8862.5000         0.7034       1735.355       125.1788        48.7396       66.27979         0.6223       -54.6522      -4.019287      0.7080807      0.9196143
      8863.0000         0.7015       1710.766       124.0475        47.7013       64.97945         0.6318       -54.3924      -3.759487      0.6804138      0.9248102
      8863.5000         0.7002       1677.779       122.3167         46.317        63.2466         0.6414       -54.0992       -3.46629      0.6435448      0.9306742
      8864.0000         0.7008        1653.66       120.3864        46.4315       63.38726         0.6471       -53.8238      -3.190887      0.6465375      0.9361823
      8864.5000         0.7032       1641.689       118.5931        46.6484       63.65591         0.6502       -53.6498      -3.016888      0.6522535      0.9396622
      8865.0000         0.7174       1629.717       117.6747        46.8651       63.92433         0.6533       -53.4758      -2.842888      0.6579644      0.9431422
      8865.5000          0.727       1617.248       117.7563        46.6238       63.62023         0.6565       -53.3152      -2.682289      0.6514942      0.9463542
      8866.0000         0.7319       1604.355       118.2515         42.723       58.74176         0.6596       -53.4521      -2.819187      0.5476971      0.9436163
      8866.5000         0.7284        1591.49       120.0022         41.996       57.83054         0.6477       -53.7214       -3.08849      0.5283095      0.9382302
      8867.0000         0.7225       1610.814       121.7081        42.0769        57.9292         0.6352       -54.2346      -3.601688      0.5304085      0.9279662
      8867.5000         0.7162       1635.453       123.3317         43.506       59.71311         0.6228       -54.3311      -3.698189      0.5683641      0.9260362
      8868.0000         0.6921       1660.293       124.6348        44.3513       60.76727         0.6064       -54.0948      -3.461887      0.5907929      0.9307622
      8868.5000         0.6743       1720.799       125.0273        43.7625        60.0288           0.59       -53.8586      -3.225689      0.5750809      0.9354862
      8869.0000         0.6641       1779.768       125.4952        43.1724       59.28871         0.5812       -53.7074       -3.07449      0.5593342      0.9385102
      8869.5000          0.657       1812.305       126.1294        42.8135       58.83761         0.5724       -54.1841      -3.551189      0.5497363      0.9289762
      8870.0000         0.6529       1844.844       125.6012        42.5876       58.55277         0.5636       -54.6628      -4.029888       0.543676      0.9194022
      8870.5000         0.6522       1866.279       123.7034         42.371       58.27955          0.552        -55.205       -4.57209      0.5378627      0.9085582
      8871.0000         0.6533       1887.393       124.4391        42.4105       58.32646         0.5411       -55.2715      -4.638588      0.5388608      0.9072282
      8871.5000         0.6542        1907.76       126.0028        44.5816       61.03786         0.5354       -55.1166      -4.483688      0.5965503      0.9103262
      8872.0000         0.6548       1922.949       127.0054         46.073       62.89965         0.5297       -54.9613      -4.328388      0.6361628      0.9134322
      8872.5000         0.6538       1933.643       125.4915        47.4349       64.59955         0.5267       -54.7521       -4.11919      0.6723308      0.9176162
      8873.0000         0.6483       1946.311       124.6735        49.1043       66.68384          0.525       -54.4724      -3.839489      0.7166774      0.9232102
      8873.5000         0.6403       1960.469       126.0153        49.8898       67.66325         0.5234       -54.1926      -3.559689       0.737516      0.9288062
      8874.0000           0.63       1974.627       125.1299        50.4196       68.32302         0.5332       -53.8169      -3.183987      0.7515537      0.9363202
      8874.5000         0.6188       1987.816       115.4832        50.8596       68.87056         0.5492       -53.1976       -2.56469      0.7632034      0.9487062
      8875.0000         0.6066       1967.895       107.0634        50.7189       68.69221          0.571       -53.4323      -2.799389      0.7594087      0.9440122
      8875.5000         0.5982       1902.023        97.9154        48.7022       66.16887         0.6158       -53.8219      -3.188988      0.7057206      0.9362202
      8876.0000         0.6056       1814.293        90.9447        47.7386       64.96191         0.6606        -54.209      -3.576088      0.6800405      0.9284782
      8876.5000         0.7111       1713.846        89.3611        46.7739       63.75356          0.703       -56.7804      -6.147488       0.654331      0.8770502
      8877.0000          0.806       1312.924        97.5863        53.9756       72.75322         0.7447       -57.3854      -6.752487      0.8458132      0.8649502
      8877.5000         0.8619       1299.113       106.0359        57.9692       77.74275         0.7639       -57.9225      -7.289589      0.9519734      0.8542082
      8878.0000          0.908       1285.303       114.3658        57.2073        76.7879         0.7741        -57.312      -6.679089      0.9316575      0.8664182
      8878.5000         0.9253       1286.818       121.5785        49.8674       67.61057         0.7698       -56.5718      -5.938889       0.736395      0.8812222
      8879.0000         0.7886        1355.77       124.4042        45.7493       62.46046         0.7538       -56.3092      -5.676289      0.6268184      0.8864743
      8879.5000         0.7625       1504.803       125.1099        43.2745       59.36451         0.7192       -55.9992      -5.366287      0.5609469      0.8926743
      8880.0000         0.7364       1617.074       123.3142        41.6163       57.28928         0.6845       -55.6877      -5.054787      0.5167932      0.8989043
      8880.5000         0.7109       1680.363       122.2717        42.9932       59.00794           0.65       -55.4116      -4.778687      0.5533605      0.9044263
      8881.0000         0.6941       1742.063       121.8921        44.1372       60.43547         0.6278       -55.3696      -4.736687      0.5837334      0.9052663
      8881.5000         0.6937       1791.043       122.1614        45.0858       61.61875         0.6072       -55.6183       -4.98539      0.6089096      0.9002922
      8882.0000         0.6934       1813.176       122.4426        45.7717       62.47366         0.5865       -55.8666      -5.233688      0.6270992      0.8953263
      8882.5000         0.6918       1827.916       122.5835         44.502       60.88406         0.5693       -56.1221      -5.489189      0.5932779      0.8902162
      8883.0000         0.6859       1837.965       123.2095        42.5226       58.40735         0.5584       -56.3848      -5.751888      0.5405819      0.8849623
      8883.5000         0.6801        1857.66       125.9366        39.8685       55.08726         0.5475       -56.6472       -6.01429      0.4699416      0.8797142
      8884.0000         0.6742       1886.475        127.155         39.002       54.00166         0.5367       -56.5825      -5.949589      0.4468438      0.8810082
      8884.5000         0.6538       1907.586       127.7142        40.8544        56.3147         0.5274       -56.1841      -5.551189      0.4960574      0.8889762
      8885.0000         0.6462       1924.154       127.5004        43.5857       59.72635         0.5258       -55.1907      -4.557789      0.5686458      0.9088442
      8885.5000         0.6409       1934.102        126.847        44.3887       60.72763         0.5243       -54.4661      -3.833187      0.5899497      0.9233363
      8886.0000         0.6369        1941.07       126.1112        44.5757       60.95892         0.5227       -53.8076      -3.174686      0.5948706      0.9365063
      8886.5000         0.6355       1947.775       125.7805        44.5718       60.95158         0.5211       -53.2175      -2.584587      0.5947144      0.9483082
