#------------------------------------------------------------------------------
# Created by    : vladimir.rabinovich
# Created on    : 09/19/2023 17:20:40
#------------------------------------------------------------------------------
~Version Information Section
VERS.           2.0     :   CWLS log ASCII Standard - VERSION 2.0
WRAP.           NO      :   One line per depth step
~Well Information Section
#MNEM       .UNIT                                         VALUE :DESCRIPTION
#------------------------------------------------------------------------------
STRT        .FT                                             769 :START DEPTH
STOP        .FT                                           10573 :STOP DEPTH
STEP        .FT                                             0.5 :STEP      
NULL        .                                           -999.25 :NULL      
COMP        .                                        TEXACO INC :COMPANY   
WELL        .                               OCS G01846 ST00BP00 :WELL      
FLD         .                            HIGH ISLAND BLOCK 0129 :FIELD     
LOC         .                                                   :LOCATION  
CNTY        .                                  HIGH ISLAND EAST :LOCATION  
STAT        .                                             TEXAS :STATE     
CTRY        .                                     UNITED STATES :COUNTRY   
SRVC        .                                                   :SERVICE COMPANY
DATE        .                             9/13/2023 11:19:51 AM :LOG DATE  
API         .                                    42710300030000 :API NUMBER
UWI         .                                    42710300030000 :UNIQUE WELL ID
XCOORD      .                                   1386052.0565626 :SURFACE X 
YCOORD      .                                   10637380.600337 :SURFACE Y 
LAT         .                                        29.3087467 :LATITUDE  
LON         .                                       -93.7983562 :LONGITUDE 
ELEV        .FT                                              81 :ELEVATION VALUE
ELEV_TYPE   .                                                KB :ELEVATION REFERENCE TYPE
~Curve Information Section
#MNEM       .UNIT                                      API CODE :CURVE DESCRIPTION
#------------------------------------------------------------------------------
DEPT        .FT                                                 :DEPTH     
ASN         .OHMM                                               :          
CALI        .IN                                                 :          
DRHO        .G/C3                                               :          
GR          .GAPI                                               :          
GR_1        .GAPI                                               :          
GR_NORM     .GAPI                                               :GammaRay Normalized
ILD         .OHMM                                               :          
RHOB        .G/C3                                               :          
SP          .MV                                                 :          
SP_NORM     .MV                                                 :SP Normalized
VSH_GR      .V/V                                                :Volume of Shale from GR
VSH_SP      .V/V                                                :Volume of Shale from SP
~A        DEPTH            ASN           CALI           DRHO             GR           GR_1        GR_NORM            ILD           RHOB             SP        SP_NORM         VSH_GR         VSH_SP
# ...
      3352.0000         0.8673        -999.25        -0.0576        -999.25        -999.25        -999.25         0.7883        -999.25       -31.4909      -6.010479        -999.25       0.914136
      3352.5000         0.8705        -999.25        -0.0601        -999.25        -999.25        -999.25         0.7902        -999.25       -31.0091      -5.529863        -999.25       0.921002
      3353.0000         0.8738        -999.25        -0.0613        -999.25        -999.25        -999.25         0.7938        -999.25       -30.4217      -4.943647        -999.25      0.9293765
      3353.5000         0.8799        -999.25        -0.0647        -999.25        -999.25        -999.25         0.7995        -999.25       -29.8891      -4.412231        -999.25      0.9369681
      3354.0000         0.8886        -999.25        -0.0714        -999.25        -999.25        -999.25          0.808        -999.25        -29.407      -3.931318        -999.25      0.9438383
      3354.5000         0.9003        -999.25        -0.0839        -999.25        -999.25        -999.25         0.8254        -999.25       -29.1958      -3.721304        -999.25      0.9468385
      3355.0000         0.9173        -999.25        -0.0942        -999.25        -999.25        -999.25         0.8443        -999.25       -29.1373      -3.663988        -999.25      0.9476573
      3355.5000         0.9367        -999.25        -0.0843        -999.25        -999.25        -999.25           0.87        -999.25       -29.1322      -3.660074        -999.25      0.9477132
      3356.0000         0.9587        -999.25        -0.0862        -999.25        -999.25        -999.25         0.8945        -999.25       -29.1765      -3.705559        -999.25      0.9470634
      3356.5000          0.978        -999.25        -0.0905        -999.25        -999.25        -999.25          0.916        -999.25       -29.3137      -3.843943        -999.25      0.9450865
      3357.0000         0.9946        -999.25        -0.0946        -999.25        -999.25        -999.25         0.9404        -999.25       -29.4744      -4.005827        -999.25      0.9427739
      3357.5000         1.0103        -999.25        -0.0983        -999.25        -999.25        -999.25         0.9687        -999.25       -29.6458      -4.178413        -999.25      0.9403084
      3358.0000          1.021        -999.25        -0.1054        -999.25        -999.25        -999.25         0.9928        -999.25       -29.9687      -4.502499        -999.25      0.9356786
      3358.5000         1.0299        -999.25        -0.1171        -999.25        -999.25        -999.25         1.0093        -999.25       -30.3218      -4.856783        -999.25      0.9306174
      3359.0000         1.0347        -999.25        -0.1313        -999.25        -999.25        -999.25         1.0091        -999.25       -30.8445      -5.380667        -999.25      0.9231333
      3359.5000         1.0333        -999.25        -0.1386        -999.25        -999.25        -999.25         0.9941        -999.25       -31.5601      -6.097454        -999.25      0.9128935
      3360.0000         1.0188        -999.25         -0.138        -999.25        -999.25        -999.25         0.9544        -999.25       -32.5983      -7.136839        -999.25      0.8980452
      3360.5000          0.982        -999.25         -0.136        -999.25        -999.25        -999.25         0.9135        -999.25       -33.9728      -8.512524        -999.25      0.8783925
      3361.0000         0.9412        -999.25          -0.12        -999.25        -999.25        -999.25         0.8754        -999.25       -35.2398      -9.780706        -999.25      0.8602756
      3361.5000         0.9071        -999.25        -0.1038        -999.25        -999.25        -999.25          0.845        -999.25       -36.0417      -10.58379        -999.25       0.848803
      3362.0000         0.8732        -999.25        -0.0903        -999.25        -999.25        -999.25         0.8117        -999.25       -34.1051      -8.648376        -999.25      0.8764518
      3362.5000         0.8419        -999.25        -0.0844        -999.25        -999.25        -999.25         0.7713        -999.25       -31.9882      -6.532661        -999.25      0.9066763
      3363.0000         0.8183        -999.25        -0.0794        -999.25        -999.25        -999.25         0.7369        -999.25       -30.4223      -4.967949        -999.25      0.9290293
      3363.5000         0.8024        -999.25         -0.075        -999.25        -999.25        -999.25         0.7314        -999.25       -29.2178      -3.764633        -999.25      0.9462195
      3364.0000         0.7959        -999.25        -0.0729        -999.25        -999.25        -999.25         0.7383        -999.25       -28.4958      -3.043818        -999.25      0.9565169
      3364.5000         0.8081        -999.25        -0.0708        -999.25        -999.25        -999.25         0.7468        -999.25       -27.8863      -2.435501        -999.25      0.9652071
      3365.0000         0.8149        -999.25        -0.0676        -999.25        -999.25        -999.25         0.7592        -999.25       -27.3484      -1.898788        -999.25      0.9728745
      3365.5000         0.8214        -999.25        -0.0641        -999.25        -999.25        -999.25         0.7717        -999.25       -26.9419      -1.493473        -999.25      0.9786647
      3366.0000         0.8258        -999.25        -0.0627        -999.25        -999.25        -999.25         0.7817        -999.25        -26.552      -1.104757        -999.25      0.9842178
      3366.5000         0.8301        -999.25         -0.064        -999.25        -999.25        -999.25         0.7917        -999.25       -26.0471     -0.6010418        -999.25      0.9914137
      3367.0000         0.8352        -999.25        -0.0652        -999.25        -999.25        -999.25          0.798        -999.25       -25.5498      -0.104929        -999.25       0.998501
      3367.5000         0.8408        -999.25        -0.0667        -999.25        -999.25        -999.25         0.8014        -999.25       -25.0677       0.375988        -999.25              1
      3368.0000         0.8458        -999.25        -0.0682        -999.25        -999.25        -999.25         0.8047        -999.25       -24.7013      0.7412033        -999.25              1
      3368.5000         0.8491        -999.25        -0.0697        -999.25        -999.25        -999.25         0.8065        -999.25       -24.7043      0.7370167        -999.25              1
      3369.0000         0.8525        -999.25        -0.0719        -999.25        -999.25        -999.25         0.8081        -999.25       -25.0686      0.3715324        -999.25              1
      3369.5000         0.8519        -999.25        -0.0742        -999.25        -999.25        -999.25         0.8098        -999.25       -25.5043    -0.06535149        -999.25      0.9990664
      3370.0000         0.8509        -999.25        -0.0747        -999.25        -999.25        -999.25         0.8114        -999.25       -25.9152     -0.4774361        -999.25      0.9931795
      3370.5000         0.8485        -999.25        -0.0737        -999.25        -999.25        -999.25          0.813        -999.25       -26.2445     -0.8079224        -999.25      0.9884583
      3371.0000          0.845        -999.25        -0.0713        -999.25        -999.25        -999.25         0.8146        -999.25        -26.375     -0.9396076        -999.25       0.986577
      3371.5000         0.8415        -999.25        -0.0668        -999.25        -999.25        -999.25         0.8135        -999.25       -26.3445     -0.9102917        -999.25      0.9869958
      3372.0000          0.837        -999.25        -0.0617        -999.25        -999.25        -999.25         0.8123        -999.25       -26.2454      -0.812376        -999.25      0.9883946
