#------------------------------------------------------------------------------
# Created by    : vladimir.rabinovich
# Created on    : 09/19/2023 17:19:33
#------------------------------------------------------------------------------
~Version Information Section
VERS.           2.0     :   CWLS log ASCII Standard - VERSION 2.0
WRAP.           NO      :   One line per depth step
~Well Information Section
#MNEM       .UNIT                                         VALUE :DESCRIPTION
#------------------------------------------------------------------------------
STRT        .FT                                          3947.5 :START DEPTH
STOP        .FT                                           10890 :STOP DEPTH
STEP        .FT                                             0.5 :STEP      
NULL        .                                           -999.25 :NULL      
COMP        .                          PALM ENERGY OFFSHORE LLC :COMPANY   
WELL        .                               OCS G21349 ST00BP00 :WELL      
FLD         .                            HIGH ISLAND BLOCK 0074 :FIELD     
LOC         .                                                   :LOCATION  
CNTY        .                                  HIGH ISLAND EAST :LOCATION  
STAT        .                                             TEXAS :STATE     
CTRY        .                                     UNITED STATES :COUNTRY   
SRVC        .                                                   :SERVICE COMPANY
DATE        .                             9/13/2023 11:20:11 AM :LOG DATE  
API         .                                    42710401490000 :API NUMBER
UWI         .                                    42710401490000 :UNIQUE WELL ID
XCOORD      .                                  1378068.78051204 :SURFACE X 
YCOORD      .                                  10648064.4011202 :SURFACE Y 
LAT         .                                        29.3379836 :LATITUDE  
LON         .                                       -93.8236467 :LONGITUDE 
ELEV        .FT                                             104 :ELEVATION VALUE
ELEV_TYPE   .                                                KB :ELEVATION REFERENCE TYPE
~Curve Information Section
#MNEM       .UNIT                                      API CODE :CURVE DESCRIPTION
#------------------------------------------------------------------------------
DEPT        .FT                                                 :DEPTH     
AHFCO90     .MMHO                                               :          
AHT10       .OHMM                                               :          
AHT20       .OHMM                                               :          
AHT30       .OHMM                                               :          
AHT60       .OHMM                                               :          
AHT90       .OHMM                                               :          
DCAL        .IN                                                 :          
DPHZ        .V/V                                                :          
DTLF        .US/F                                               :          
DTLN        .US/F                                               :          
GR          .GAPI                                               :          
GR_NORM     .GAPI                                               :GammaRay Normalized
HDRA        .G/CC                                               :          
NPOR        .V/V                                                :          
RWA         .OHMM                                               :          
SP          .MV                                                 :          
SPHI        .V/V                                                :          
TENS        .LB/F                                               :          
VSH_GR      .V/V                                                :Volume of Shale from GR
~A        DEPTH        AHFCO90          AHT10          AHT20          AHT30          AHT60          AHT90           DCAL           DPHZ           DTLF           DTLN             GR        GR_NORM           HDRA           NPOR            RWA             SP           SPHI           TENS         VSH_GR
# ...
     10414.0000       1241.003         0.7277         0.7837          0.797         0.8105         0.8058        -0.2705          0.215       112.5945        112.607        86.4213       77.67514         -0.004         0.3835          0.046        -3.6875         0.3142           4772      0.9505349
     10414.5000       1235.483         0.7273         0.7824          0.796         0.8074         0.8094        -0.2853         0.2091       112.2799       112.2991         90.333       81.37561        -0.0027          0.403         0.0437        -3.6875         0.3133           4801              1
     10415.0000       1202.212         0.7428         0.8062         0.8191         0.8313         0.8318        -0.2187         0.1996        109.358       109.5728        91.1559       82.15408        -0.0013         0.3867         0.0409        -3.9375         0.3056           4805              1
     10415.5000        1162.25           0.77         0.8345         0.8468         0.8615         0.8604        -0.2039         0.1896       106.3193       106.1561         91.053       82.05673          0.002         0.3611         0.0382        -3.6875         0.2953           4772              1
     10416.0000       1105.461         0.8056         0.8748         0.8857         0.8996         0.9046        -0.1374         0.1866        105.296       105.2275        88.0677       79.23264         0.0047         0.3607         0.0389           -3.5         0.2924           4774      0.9836733
     10416.5000       1092.777         0.8268         0.8957         0.9035         0.9159         0.9151        -0.0024         0.1914       106.2168       106.1639        91.6677       82.63824         0.0071         0.3905         0.0414           -4.5         0.2953           4791              1
     10417.0000       1114.952         0.8177         0.8821         0.8909          0.907         0.8969         0.3507          0.198       108.2021       108.3704        89.6106       80.69221          0.007          0.421         0.0434        -4.8125          0.302           4767              1
     10417.5000       1126.634         0.8152         0.8739         0.8828         0.8985         0.8876         0.3951         0.1959       108.9393       108.9812        91.2576       82.25028         0.0049         0.3868         0.0421         -4.375         0.3038           4807              1
     10418.0000       1087.902         0.8419          0.903         0.9144         0.9313         0.9192         0.1806         0.1836       105.8384       105.8872        88.0691       79.23396          0.005         0.3447         0.0383        -3.4375         0.2945           4785      0.9837012
     10418.5000       1017.191         0.8965          0.963         0.9764         0.9874         0.9831         0.1141         0.1637       102.8805       103.0651        85.6006       76.89876         0.0088           0.35         0.0325         -3.625         0.2854           4772      0.9340161
     10419.0000       960.9841         0.9537         1.0261         1.0366         1.0468         1.0406         0.3359         0.1513       101.3541       101.4071        82.9242       74.36688         0.0133         0.3387         0.0294        -2.5625         0.2799           4774      0.8801464
     10419.5000       921.9989         0.9907         1.0652         1.0806         1.0879         1.0846         0.4801         0.1441        99.9003        99.7161        77.5757       69.30721         0.0137         0.3291         0.0278        -2.9375          0.274           4738      0.7724937
     10420.0000       914.1604         1.0063         1.0808         1.0949         1.0967         1.0939         0.5726          0.145       100.9853       100.9876        82.7185       74.17229         0.0069         0.3475         0.0284         -2.625         0.2784           4734      0.8760062
     10420.5000       888.3361         1.0307         1.1031         1.1217         1.1281         1.1257         0.5948         0.1452       100.8352        100.707        81.1744       72.71157         0.0017         0.3687         0.0293        -2.4375         0.2775           4725       0.844927
     10421.0000       874.8141         1.0491         1.1193         1.1368         1.1451         1.1431         0.7131         0.1452       100.8851       100.8379        83.6429       75.04678         0.0019          0.366         0.0298         -3.125         0.2779           4738      0.8946123
     10421.5000       881.1349         1.0392         1.1065         1.1264         1.1346         1.1349          0.824         0.1446       103.0869       103.0896        80.8658       72.41964         0.0048         0.3663         0.0293        -2.8125         0.2855           4753      0.8387157
     10422.0000       887.7841         1.0306         1.0965         1.1141         1.1268         1.1264         0.8018         0.1449        100.574        100.443        79.6305       71.25105         0.0075         0.3803         0.0292           -4.5         0.2765           4760       0.813852
     10422.5000       874.8141         1.0409         1.1081         1.1314          1.142         1.1431         0.7944         0.1423       100.0438       100.1785        78.2118       69.90895         0.0055         0.3594         0.0286         -3.625         0.2756           4757      0.7852968
     10423.0000        856.531         1.0693         1.1363         1.1584         1.1666         1.1675         0.6761         0.1384        98.5452        98.7516        80.3472       71.92905         0.0018         0.3444         0.0276         -3.125         0.2706           4736      0.8282776
     10423.5000       836.4001         1.0979         1.1644         1.1874           1.19         1.1956         0.5578         0.1323        96.5087        96.6399        80.2443        71.8317        -0.0016         0.3325         0.0258             -4         0.2628           4718      0.8262064
     10424.0000       818.2636         1.1328         1.1989         1.2209         1.2144         1.2221         0.4358         0.1313        95.5673        95.8311        84.2589       75.62952        -0.0034         0.3066          0.026         -3.625         0.2598           4727       0.907011
     10424.5000       785.3608         1.1715          1.242         1.2727         1.2653         1.2733         0.5282         0.1351        96.7469        96.9502        83.2313        74.6574        -0.0027         0.2988         0.0287        -4.1875          0.264           4702      0.8863277
     10425.0000        791.327         1.1959         1.2509         1.2738         1.2662         1.2637         0.5134         0.1369        99.9052        99.9477        83.9518         75.339              0          0.312         0.0292        -3.5625         0.2748           4710      0.9008297
     10425.5000       803.3419         1.1636         1.2247         1.2593         1.2481         1.2448         0.6465         0.1352        98.3361        98.3464        83.1283       74.55997         0.0037         0.3225         0.0281         -4.625         0.2691           4723      0.8842546
     10426.0000       822.7744         1.1414          1.204         1.2337         1.2256         1.2154         0.5578         0.1313         98.679        98.7428        82.9228       74.36555         0.0051         0.3169         0.0259        -3.6875         0.2705           4731      0.8801182
     10426.5000       812.4136         1.1575         1.2225         1.2548         1.2463         1.2309         0.6243         0.1265        97.1202        97.2321         86.011       77.28699         0.0062         0.2916         0.0243        -4.5625          0.265           4708      0.9422765
     10427.0000       799.2328         1.1756         1.2519         1.2834         1.2754         1.2512         0.5652         0.1236        95.4236        95.3426        86.3198       77.57912         0.0056         0.2811         0.0236        -3.9375         0.2579           4718       0.948492
