#------------------------------------------------------------------------------
# Created by    : vladimir.rabinovich
# Created on    : 09/19/2023 17:22:52
#------------------------------------------------------------------------------
~Version Information Section
VERS.           2.0     :   CWLS log ASCII Standard - VERSION 2.0
WRAP.           NO      :   One line per depth step
~Well Information Section
#MNEM       .UNIT                                         VALUE :DESCRIPTION
#------------------------------------------------------------------------------
STRT        .FT                                            2993 :START DEPTH
STOP        .FT                                           15023 :STOP DEPTH
STEP        .FT                                             0.5 :STEP      
NULL        .                                           -999.25 :NULL      
COMP        .                                        TEXACO INC :COMPANY   
WELL        .                                     ST TR 00018-L :WELL      
FLD         .                                           WILDCAT :FIELD     
LOC         .                                                   :LOCATION  
CNTY        .                                       SABINE PASS :LOCATION  
STAT        .                                             TEXAS :STATE     
CTRY        .                                     UNITED STATES :COUNTRY   
SRVC        .                                                   :SERVICE COMPANY
DATE        .                             9/13/2023 11:20:07 AM :LOG DATE  
API         .                                    42715000300000 :API NUMBER
UWI         .                                    42715000300000 :UNIQUE WELL ID
XCOORD      .                                  1367853.58567514 :SURFACE X 
YCOORD      .                                  10716828.2466652 :SURFACE Y 
LAT         .                                         29.526933 :LATITUDE  
LON         .                                       -93.8573019 :LONGITUDE 
ELEV        .FT                                              75 :ELEVATION VALUE
ELEV_TYPE   .                                                KB :ELEVATION REFERENCE TYPE
~Curve Information Section
#MNEM       .UNIT                                      API CODE :CURVE DESCRIPTION
#------------------------------------------------------------------------------
DEPT        .FT                                                 :DEPTH     
ILD         .OHMM                                               :          
SFLA        .OHMM                                               :          
SP          .MV                                                 :          
SP_NORM     .MV                                                 :SP Normalized
VSH_SP      .V/V                                                :Volume of Shale from SP
~A        DEPTH            ILD           SFLA             SP        SP_NORM         VSH_SP
# ...
     14169.0000          1.229         0.9602       -38.4602      -13.00566      0.8377614
     14169.5000         1.1278         0.9892       -37.6682      -12.21366      0.8484641
     14170.0000         0.9887         1.0182       -36.8603      -11.40575      0.8593817
     14170.5000         0.9227          1.046       -36.0525      -10.59796      0.8702979
     14171.0000         0.8937         1.0591       -35.2447      -9.790155      0.8812141
     14171.5000         0.8878          1.063       -34.4369      -8.982355      0.8921303
     14172.0000         0.8708         1.0507       -33.8036      -8.349054      0.9006885
     14172.5000         0.8518           0.99       -33.3453      -7.890753      0.9068817
     14173.0000         0.8426         0.9241        -33.298      -7.843454      0.9075209
     14173.5000         0.8428         0.8583       -31.8359      -6.381353       0.927279
     14174.0000         0.8252         0.7902       -30.7626      -5.308054      0.9417831
     14174.5000         0.8061         0.7871       -30.3034      -4.848854      0.9479885
     14175.0000         0.7871         0.7931       -29.9125      -4.457954      0.9532709
     14175.5000         0.7824         0.8051       -29.6241      -4.169554      0.9571682
     14176.0000         0.7673         0.8201       -29.4398      -3.985254      0.9596587
     14176.5000         0.7827         0.8352         -29.18      -3.725454      0.9631695
     14177.0000         0.7939         0.8502       -28.9998      -3.545254      0.9656047
     14177.5000         0.8135         0.8652       -28.9413      -3.486753      0.9663952
     14178.0000         0.8516         0.8802       -28.7451      -3.290554      0.9690466
     14178.5000         0.8901         0.8952       -30.5392      -5.084654       0.944802
     14179.0000         0.9171          0.905       -30.8467      -5.392155      0.9406465
     14179.5000         0.9364         0.9088       -30.8445      -5.389954      0.9406763
     14180.0000         0.9473         0.9126       -30.7411      -5.286554      0.9420736
     14180.5000         0.9365         0.9153       -30.5446      -5.090054       0.944729
     14181.0000         0.9061         0.9172       -30.3482      -4.893654       0.947383
     14181.5000         0.9063         0.9152       -30.1517      -4.697153      0.9500385
     14182.0000         0.9016         0.8736       -29.9553      -4.500753      0.9526925
     14182.5000         0.8914         0.8406       -29.5958      -4.141254      0.9575506
     14183.0000         0.8763         0.8311       -29.5308      -4.076254       0.958429
     14183.5000          0.875         0.8201         -29.14      -3.685453      0.9637101
     14184.0000         0.8613         0.8125       -28.9716      -3.517054      0.9659858
     14184.5000         0.8521         0.8093       -28.6604      -3.205854      0.9701912
     14185.0000         0.8464         0.8169       -28.4672      -3.012653       0.972802
     14185.5000         0.8466         0.8287       -28.3473      -2.892754      0.9744223
     14186.0000         0.8527         0.8431       -28.0358      -2.581255      0.9786317
     14186.5000         0.8621         0.8576       -28.0311      -2.576553      0.9786952
     14187.0000         0.8166         0.8658        -27.723      -2.268454      0.9828587
     14187.5000         0.7184          0.855       -27.6394      -2.184855      0.9839885
     14188.0000          0.636         0.7834       -27.4095      -1.954954      0.9870952
     14188.5000         0.6083         0.7118        -27.401      -1.946453      0.9872101
     14189.0000         0.5886         0.6329       -27.2046      -1.750053      0.9898642
     14189.5000         0.5855         0.6197       -27.0947      -1.640154      0.9913493
     14190.0000         0.5665         0.6119       -26.7833      -1.328754      0.9955574
     14190.5000         0.5474         0.6082       -26.6152      -1.160654       0.997829
     14191.0000         0.5435         0.6082       -26.4704      -1.015854      0.9997858
     14191.5000         0.5436         0.6076       -26.2854     -0.8308544              1
     14192.0000         0.5438         0.6051       -26.0025     -0.5479546              1
     14192.5000         0.5439          0.605        -25.984     -0.5294533              1
     14193.0000         0.5441         0.6081       -25.8441      -0.389555              1
     14193.5000         0.5443         0.6157       -25.8421     -0.3875542              1
     14194.0000         0.5444         0.6234       -25.8401     -0.3855534              1
     14194.5000         0.5446         0.6311       -25.8381     -0.3835545              1
     14195.0000         0.5447         0.6388       -25.7745     -0.3199539              1
     14195.5000         0.5449           0.65       -25.5778     -0.1232548              1
     14196.0000          0.554         0.6722       -25.5229    -0.06835365              1
     14196.5000         0.5733         0.6944       -25.5209    -0.06635475              1
     14197.0000         0.5911         0.7155       -25.5855     -0.1309547              1
     14197.5000         0.5968         0.7249       -25.6714     -0.2168541              1
     14198.0000         0.6067         0.7384       -25.6694     -0.2148533              1
     14198.5000         0.6068         0.7479       -25.6993     -0.2447548              1
     14199.0000         0.6222         0.7556       -25.8199     -0.3653545              1
     14199.5000         0.6285          0.762       -25.8179     -0.3633537              1
     14200.0000         0.6378         0.7658       -25.8159     -0.3613548              1
     14200.5000          0.638         0.7698       -25.8139      -0.359354              1
     14201.0000         0.6534         0.7704       -25.8887     -0.4341545              1
     14201.5000         0.6602         0.7728       -26.1186     -0.6640549              1
     14202.0000         0.6689         0.7705       -26.4261     -0.9715538              1
     14202.5000         0.6691         0.7697       -26.4241     -0.9695549              1
     14203.0000         0.6726         0.7666       -26.5039      -1.049355       0.999333
     14203.5000         0.6919         0.7665       -26.5746      -1.120054      0.9983776
     14204.0000            0.7         0.7634       -26.5654      -1.110853       0.998502
     14204.5000         0.7154         0.7571        -26.416     -0.9614544              1
     14205.0000         0.7309         0.7542        -26.414     -0.9594536              1
     14205.5000         0.7467         0.7541        -26.412     -0.9574547              1
     14206.0000         0.7735         0.7515         -26.41     -0.9554539              1
     14206.5000         0.7923         0.7447       -26.3559     -0.9013538              1
     14207.0000         0.8014         0.7079       -26.2514      -0.796854              1
     14207.5000         0.8231         0.6711       -26.0946     -0.6400547              1
     14208.0000         0.8385         0.6314       -26.0757     -0.6211548              1
     14208.5000         0.8386         0.6283       -25.8792      -0.424654              1
     14209.0000         0.8387         0.6314       -25.7796     -0.3250542              1
     14209.5000         0.8388         0.6356       -25.6406     -0.1860542              1
     14210.0000         0.5493         0.6433       -25.4443     0.01024628              1
     14210.5000         0.5494         0.6518       -25.2479       0.206646              1
     14211.0000         0.5495         0.6644       -25.1533      0.3012466              1
     14211.5000          0.574         0.6769       -25.1513      0.3032455              1
     14212.0000         0.6107         0.6894       -25.1493      0.3052464              1
     14212.5000         0.6117          0.698       -25.1473      0.3072453              1
