#------------------------------------------------------------------------------
# Created by    : vladimir.rabinovich
# Created on    : 09/19/2023 17:20:40
#------------------------------------------------------------------------------
~Version Information Section
VERS.           2.0     :   CWLS log ASCII Standard - VERSION 2.0
WRAP.           NO      :   One line per depth step
~Well Information Section
#MNEM       .UNIT                                         VALUE :DESCRIPTION
#------------------------------------------------------------------------------
STRT        .FT                                             769 :START DEPTH
STOP        .FT                                           10573 :STOP DEPTH
STEP        .FT                                             0.5 :STEP      
NULL        .                                           -999.25 :NULL      
COMP        .                                        TEXACO INC :COMPANY   
WELL        .                               OCS G01846 ST00BP00 :WELL      
FLD         .                            HIGH ISLAND BLOCK 0129 :FIELD     
LOC         .                                                   :LOCATION  
CNTY        .                                  HIGH ISLAND EAST :LOCATION  
STAT        .                                             TEXAS :STATE     
CTRY        .                                     UNITED STATES :COUNTRY   
SRVC        .                                                   :SERVICE COMPANY
DATE        .                             9/13/2023 11:19:51 AM :LOG DATE  
API         .                                    42710300030000 :API NUMBER
UWI         .                                    42710300030000 :UNIQUE WELL ID
XCOORD      .                                   1386052.0565626 :SURFACE X 
YCOORD      .                                   10637380.600337 :SURFACE Y 
LAT         .                                        29.3087467 :LATITUDE  
LON         .                                       -93.7983562 :LONGITUDE 
ELEV        .FT                                              81 :ELEVATION VALUE
ELEV_TYPE   .                                                KB :ELEVATION REFERENCE TYPE
~Curve Information Section
#MNEM       .UNIT                                      API CODE :CURVE DESCRIPTION
#------------------------------------------------------------------------------
DEPT        .FT                                                 :DEPTH     
ASN         .OHMM                                               :          
CALI        .IN                                                 :          
DRHO        .G/C3                                               :          
GR          .GAPI                                               :          
GR_1        .GAPI                                               :          
GR_NORM     .GAPI                                               :GammaRay Normalized
ILD         .OHMM                                               :          
RHOB        .G/C3                                               :          
SP          .MV                                                 :          
SP_NORM     .MV                                                 :SP Normalized
VSH_GR      .V/V                                                :Volume of Shale from GR
VSH_SP      .V/V                                                :Volume of Shale from SP
~A        DEPTH            ASN           CALI           DRHO             GR           GR_1        GR_NORM            ILD           RHOB             SP        SP_NORM         VSH_GR         VSH_SP
# ...
      2060.5000         0.5606        -999.25        -999.25        48.4305        -999.25        41.9912         0.1842        -999.25       -39.9163      -11.01321      0.1913021      0.2488993
      2061.0000         0.5582        -999.25        -999.25        50.1536        -999.25       44.06576         0.1839        -999.25       -39.7549      -10.85337      0.2354417       0.262219
      2061.5000         0.5558        -999.25        -999.25        51.0037        -999.25       45.08927         0.1864        -999.25       -39.6234      -10.72343      0.2572185      0.2730471
      2062.0000         0.5536        -999.25        -999.25        51.4623        -999.25        45.6414         0.1889        -999.25       -39.5975       -10.6991       0.268966      0.2750753
      2062.5000         0.5516        -999.25        -999.25        51.8658        -999.25        46.1272         0.1905        -999.25        -39.749      -10.85216      0.2793022      0.2623199
      2063.0000         0.5502        -999.25        -999.25        52.4032        -999.25       46.77422         0.1917        -999.25       -39.9017      -11.00642      0.2930685      0.2494647
      2063.5000         0.5497        -999.25        -999.25         52.892        -999.25       47.36272         0.1928        -999.25       -40.0203      -11.12659      0.3055898      0.2394509
      2064.0000         0.5492        -999.25        -999.25        54.3581        -999.25       49.12786         0.1988        -999.25       -40.0836      -11.19145      0.3431461      0.2340458
      2064.5000          0.549        -999.25        -999.25        56.2322        -999.25       51.38423         0.2056        -999.25       -40.1291      -11.23852      0.3911539      0.2301237
      2065.0000         0.5483        -999.25        -999.25        58.0677        -999.25       53.59412         0.2119        -999.25       -40.1297      -11.24068      0.4381728      0.2299434
      2065.5000         0.5508        -999.25        -999.25        59.4714        -999.25       55.28414         0.2113        -999.25       -39.9781      -11.09064      0.4741306      0.2424466
      2066.0000         0.5537        -999.25        -999.25        61.2756        -999.25       57.45634         0.2108        -999.25       -39.7483       -10.8624      0.5203478      0.2614664
      2066.5000          0.553        -999.25        -999.25        62.4825        -999.25       58.90942         0.2067        -999.25       -39.5587      -10.67437      0.5512642      0.2771358
      2067.0000         0.5517        -999.25        -999.25        62.5547        -999.25       58.99635         0.2008        -999.25       -39.4795      -10.59673      0.5531138      0.2836056
      2067.5000         0.5497        -999.25        -999.25        61.4736        -999.25       57.69473         0.1963        -999.25        -39.455       -10.5738      0.5254197      0.2855169
      2068.0000         0.5476        -999.25        -999.25        59.8577        -999.25       55.74923         0.1938        -999.25       -39.4785      -10.59886      0.4840262      0.2834283
      2068.5000         0.5455        -999.25        -999.25        58.2017        -999.25       53.75545         0.1901        -999.25       -39.5574      -10.67932      0.4416054      0.2767231
      2069.0000         0.5434        -999.25        -999.25        56.5746        -999.25       51.79647         0.1811        -999.25       -39.7173      -10.84079      0.3999249      0.2632677
      2069.5000         0.5414        -999.25        -999.25        55.1802        -999.25       50.11765          0.172        -999.25        -39.982      -11.10705      0.3642053      0.2410793
      2070.0000         0.5403        -999.25        -999.25        54.0276        -999.25       48.72995         0.1673        -999.25       -40.1742      -11.30081      0.3346799      0.2249324
      2070.5000         0.5397        -999.25        -999.25         53.149        -999.25       47.67214         0.1634        -999.25       -40.2999      -11.42808      0.3121732      0.2143269
      2071.0000         0.5392        -999.25        -999.25        52.4149        -999.25       46.78831         0.1644        -999.25       -40.0002      -11.12994      0.2933683      0.2391717
      2071.5000         0.5383        -999.25        -999.25        51.6269        -999.25       45.83958          0.171        -999.25       -39.6656       -10.7969      0.2731825      0.2669247
      2072.0000         0.5373        -999.25        -999.25        50.6898        -999.25       44.71133         0.1776        -999.25       -39.3068      -10.43967      0.2491773      0.2966943
      2072.5000         0.5363        -999.25        -999.25        49.7144        -999.25       43.53698         0.1843        -999.25       -38.9989      -10.13333      0.2241911      0.3222222
      2073.0000         0.5355        -999.25        -999.25        47.5931        -999.25         40.983         0.1909        -999.25        -38.969        -10.105       0.169851      0.3245835
      2073.5000         0.5348        -999.25        -999.25        43.2137        -999.25       35.71032         0.1976        -999.25       -39.1038      -10.24136     0.05766645        0.31322
      2074.0000         0.5339        -999.25        -999.25        -999.25        -999.25       36.03627         0.1967        -999.25       -39.4012      -10.54032     0.06460157      0.2883066
      2074.5000         0.5329        -999.25        -999.25        -999.25        -999.25       36.36223         0.1929        -999.25        -39.749      -10.88969     0.07153677      0.2591928
      2075.0000         0.5319        -999.25        -999.25        -999.25        -999.25       36.68818         0.1889        -999.25       -40.1799      -11.32215     0.07847197      0.2231541
      2075.5000         0.5308        -999.25        -999.25        -999.25        -999.25       37.01414         0.1848        -999.25        -40.564      -11.70781     0.08540726      0.1910157
      2076.0000         0.5312        -999.25        -999.25        -999.25        -999.25        37.3401         0.1806        -999.25       -40.6973      -11.84268     0.09234254       0.179777
      2076.5000         0.5318        -999.25        -999.25        -999.25        -999.25       37.66605         0.1765        -999.25       -40.5642      -11.71114     0.09927774      0.1907382
      2077.0000         0.5324        -999.25        -999.25        -999.25        -999.25         37.992         0.1642        -999.25       -40.4565      -11.60501      0.1062129      0.1995829
      2077.5000         0.5376        -999.25        -999.25        -999.25        -999.25       38.31796         0.1665        -999.25       -40.4399      -11.58997      0.1131481      0.2008362
      2078.0000         0.5398        -999.25        -999.25        -999.25        -999.25       38.64392          0.171        -999.25       -40.4329      -11.58453      0.1200833      0.2012892
      2078.5000         0.5419        -999.25        -999.25        -999.25        -999.25       38.96987         0.1787        -999.25       -40.4403      -11.59349      0.1270185      0.2005421
      2079.0000         0.5418        -999.25        -999.25        -999.25        -999.25       39.29583         0.1865        -999.25       -40.3864      -11.54116      0.1339539      0.2049036
      2079.5000         0.5412        -999.25        -999.25        -999.25        -999.25       39.62179         0.1914        -999.25        -40.302      -11.45832      0.1408891      0.2118068
      2080.0000         0.5416        -999.25        -999.25        -999.25        -999.25       39.94774         0.1958        -999.25       -40.1403      -11.29819      0.1478243      0.2251512
      2080.5000         0.5422        -999.25        -999.25        -999.25        -999.25        40.2737         0.1995        -999.25       -40.0373      -11.19675      0.1547595      0.2336043
