#------------------------------------------------------------------------------
# Created by    : vladimir.rabinovich
# Created on    : 09/19/2023 17:22:52
#------------------------------------------------------------------------------
~Version Information Section
VERS.           2.0     :   CWLS log ASCII Standard - VERSION 2.0
WRAP.           NO      :   One line per depth step
~Well Information Section
#MNEM       .UNIT                                         VALUE :DESCRIPTION
#------------------------------------------------------------------------------
STRT        .FT                                            2993 :START DEPTH
STOP        .FT                                           15023 :STOP DEPTH
STEP        .FT                                             0.5 :STEP      
NULL        .                                           -999.25 :NULL      
COMP        .                                        TEXACO INC :COMPANY   
WELL        .                                     ST TR 00018-L :WELL      
FLD         .                                           WILDCAT :FIELD     
LOC         .                                                   :LOCATION  
CNTY        .                                       SABINE PASS :LOCATION  
STAT        .                                             TEXAS :STATE     
CTRY        .                                     UNITED STATES :COUNTRY   
SRVC        .                                                   :SERVICE COMPANY
DATE        .                             9/13/2023 11:20:07 AM :LOG DATE  
API         .                                    42715000300000 :API NUMBER
UWI         .                                    42715000300000 :UNIQUE WELL ID
XCOORD      .                                  1367853.58567514 :SURFACE X 
YCOORD      .                                  10716828.2466652 :SURFACE Y 
LAT         .                                         29.526933 :LATITUDE  
LON         .                                       -93.8573019 :LONGITUDE 
ELEV        .FT                                              75 :ELEVATION VALUE
ELEV_TYPE   .                                                KB :ELEVATION REFERENCE TYPE
~Curve Information Section
#MNEM       .UNIT                                      API CODE :CURVE DESCRIPTION
#------------------------------------------------------------------------------
DEPT        .FT                                                 :DEPTH     
ILD         .OHMM                                               :          
SFLA        .OHMM                                               :          
SP          .MV                                                 :          
SP_NORM     .MV                                                 :SP Normalized
VSH_SP      .V/V                                                :Volume of Shale from SP
~A        DEPTH            ILD           SFLA             SP        SP_NORM         VSH_SP
# ...
     13377.0000         0.4848         0.4738       -19.3288     -0.9139843              1
     13377.5000         0.4849         0.4911       -19.3296     -0.9154072              1
     13378.0000         0.4849         0.5078       -19.1756     -0.7620316              1
     13378.5000         0.4849         0.5192       -19.6381      -1.225157      0.9969574
     13379.0000         0.4951         0.5288       -20.0694      -1.657082      0.9911205
     13379.5000         0.5003         0.5322       -20.5008      -2.089104      0.9852824
     13380.0000         0.5003         0.5349       -20.5085      -2.097427      0.9851699
     13380.5000         0.5003         0.5367          -20.4      -1.989552      0.9866277
     13381.0000         0.5004         0.5379       -20.2193      -1.809475      0.9890612
     13381.5000         0.4852         0.5379       -19.9592      -1.549999      0.9925676
     13382.0000         0.4852         0.5369       -19.7808      -1.372223        0.99497
     13382.5000         0.4853         0.5348       -19.6353      -1.227346      0.9969277
     13383.0000         0.4853         0.5317       -19.4709       -1.06357      0.9991409
     13383.5000         0.4853         0.5254       -19.4706      -1.063896      0.9991366
     13384.0000         0.4854         0.5196       -19.3602     -0.9541206              1
     13384.5000         0.4816         0.5116       -19.1607     -0.7552433              1
     13385.0000         0.4702          0.501       -19.1604     -0.7555676              1
     13385.5000         0.4702         0.4976       -19.0848     -0.6805916              1
     13386.0000         0.4398           0.49       -18.8901      -0.486515              1
     13386.5000         0.4398         0.4856       -18.8502     -0.4472389              1
     13387.0000         0.4399         0.4832       -18.8499     -0.4475613              1
     13387.5000         0.4399         0.4794       -18.8495     -0.4477863              1
     13388.0000           0.44         0.4794       -18.9688     -0.5677109              1
     13388.5000         0.4247         0.4762       -19.1579     -0.7574348              1
     13389.0000         0.4192         0.4733       -19.2472     -0.8473587              1
     13389.5000         0.4096         0.4732       -19.4663      -1.067081      0.9990935
     13390.0000         0.4096         0.4732        -19.775      -1.376406      0.9949135
     13390.5000         0.4097         0.4732       -19.7747       -1.37673       0.994909
     13391.0000         0.4049         0.4732       -19.8241      -1.426754      0.9942331
     13391.5000         0.3945         0.4731       -20.0182      -1.621477      0.9916016
     13392.0000         0.3945         0.4731       -20.0828      -1.686701      0.9907203
     13392.5000         0.4098         0.4731       -20.0824      -1.686926      0.9907172
     13393.0000         0.4099         0.4731       -20.0821       -1.68725      0.9907128
     13393.5000         0.4099         0.4731       -20.0817      -1.687473      0.9907098
     13394.0000          0.421          0.473       -20.0814      -1.687798      0.9907054
     13394.5000         0.4405          0.473        -20.081      -1.688021      0.9907025
     13395.0000         0.4405          0.473       -20.0807      -1.688345       0.990698
     13395.5000         0.4405         0.4759       -19.9812      -1.589468      0.9920342
     13396.0000         0.4406         0.4791       -19.7708      -1.379692      0.9948691
     13396.5000         0.4406         0.4804       -19.7705      -1.380016      0.9948646
     13397.0000         0.4711         0.4842        -19.706      -1.316139      0.9957278
     13397.5000         0.4769         0.4851       -19.5115      -1.122265      0.9983478
     13398.0000         0.4865         0.4887       -19.4603       -1.07169      0.9990312
     13398.5000         0.5018         0.4937       -19.4311      -1.043114      0.9994174
     13399.0000         0.5018         0.4973       -19.2363     -0.8489361              1
     13399.5000         0.5018         0.5001       -19.1501      -0.763361              1
     13400.0000         0.5019         0.5038       -19.1498     -0.7636833              1
     13400.5000         0.5019         0.5076       -19.1156     -0.7301083              1
     13401.0000         0.5175         0.5095       -18.9208     -0.5359306              1
     13401.5000         0.5325         0.5094       -18.8396     -0.4553547              1
     13402.0000         0.5325         0.5094       -19.1483     -0.7646809              1
     13402.5000         0.5325         0.5105       -19.4187      -1.035704      0.9995175
     13403.0000         0.5173         0.5143       -19.7659      -1.383528      0.9948172
     13403.5000         0.5174         0.5155         -19.92      -1.538252      0.9927263
     13404.0000         0.5108         0.5155       -19.9163      -1.535175      0.9927679
     13404.5000         0.5022         0.5154       -19.7648      -1.384298      0.9948068
     13405.0000         0.5023         0.5154       -19.6813      -1.301422      0.9959267
     13405.5000         0.5023         0.5184       -19.4865      -1.107246      0.9985507
     13406.0000         0.5023         0.5184       -19.2917     -0.9130707              1
     13406.5000         0.5024         0.5184       -19.1451     -0.7670956              1
     13407.0000         0.5024         0.5166       -18.9686     -0.5912189              1
     13407.5000         0.5012         0.5153       -18.8353     -0.4585438              1
     13408.0000         0.4872         0.5153       -18.6673     -0.2911663              1
     13408.5000         0.4957         0.5153       -18.5255     -0.1499901              1
     13409.0000         0.5026         0.5152       -18.5251     -0.1502151              1
     13409.5000         0.5026         0.5128       -18.3922    -0.01793861              1
     13410.0000         0.5026         0.5091       -18.2153      0.1583385              1
     13410.5000         0.5027          0.509       -18.3312      0.0418148              1
     13411.0000         0.5027         0.5074       -19.7943      -1.421911      0.9942985
     13411.5000         0.5028         0.5029       -20.6872      -2.315435      0.9822239
     13412.0000         0.5028         0.4966       -20.6641      -2.292959      0.9825276
     13412.5000         0.5028          0.492       -20.4693      -2.098782      0.9851516
     13413.0000         0.5131         0.4859        -20.377      -2.007107      0.9863905
     13413.5000         0.5182         0.4798       -20.3766       -2.00733      0.9863874
     13414.0000         0.5334         0.4721       -20.0398      -1.671154      0.9909304
     13414.5000         0.5335         0.4683       -19.8451      -1.477077       0.993553
     13415.0000         0.5335         0.4629       -19.7574      -1.390001      0.9947297
     13415.5000         0.5033         0.4598       -19.4479      -1.081125      0.9989037
     13416.0000         0.5036         0.4568       -19.4149       -1.04875      0.9993412
     13416.5000         0.5039         0.4529       -19.2204     -0.8548737              1
     13417.0000         0.5042         0.4491       -19.1377     -0.7727966              1
     13417.5000         0.5045         0.4475       -19.1373     -0.7730217              1
     13418.0000         0.5048         0.4474       -18.8279     -0.4642448              1
     13418.5000         0.5052         0.4511       -18.8275      -0.464468              1
     13419.0000         0.4902         0.4535       -18.8272     -0.4647923              1
     13419.5000         0.4853         0.4535       -18.8249     -0.4631157              1
     13420.0000         0.4756         0.4564       -18.6719     -0.3107395              1
     13420.5000         0.4454         0.4596       -18.5897      -0.229166              1
