#------------------------------------------------------------------------------
# Created by    : vladimir.rabinovich
# Created on    : 09/19/2023 17:21:39
#------------------------------------------------------------------------------
~Version Information Section
VERS.           2.0     :   CWLS log ASCII Standard - VERSION 2.0
WRAP.           NO      :   One line per depth step
~Well Information Section
#MNEM       .UNIT                                         VALUE :DESCRIPTION
#------------------------------------------------------------------------------
STRT        .FT                                            3004 :START DEPTH
STOP        .FT                                           10487 :STOP DEPTH
STEP        .FT                                             0.5 :STEP      
NULL        .                                           -999.25 :NULL      
COMP        .                                    TENNECO OIL CO :COMPANY   
WELL        .                               OCS G04082 ST00BP00 :WELL      
FLD         .                            SABINE PASS BLOCK 0017 :FIELD     
LOC         .                                                   :LOCATION  
CNTY        .                                       SABINE PASS :LOCATION  
STAT        .                                             TEXAS :STATE     
CTRY        .                                     UNITED STATES :COUNTRY   
SRVC        .                                                   :SERVICE COMPANY
DATE        .                             9/13/2023 11:20:07 AM :LOG DATE  
API         .                                    42715400130000 :API NUMBER
UWI         .                                    42715400130000 :UNIQUE WELL ID
XCOORD      .                                  1369313.82013612 :SURFACE X 
YCOORD      .                                  10714127.2468036 :SURFACE Y 
LAT         .                                        29.5195329 :LATITUDE  
LON         .                                       -93.8526471 :LONGITUDE 
ELEV        .FT                                             111 :ELEVATION VALUE
ELEV_TYPE   .                                                KB :ELEVATION REFERENCE TYPE
~Curve Information Section
#MNEM       .UNIT                                      API CODE :CURVE DESCRIPTION
#------------------------------------------------------------------------------
DEPT        .FT                                                 :DEPTH     
CALI        .IN                                                 :          
DPHI        .%                                                  :          
DRHO        .G/C3                                               :          
GR          .GAPI                                               :          
GR_NORM     .GAPI                                               :GammaRay Normalized
ILD         .OHMM                                               :          
ILM         .OHMM                                               :          
NPHI        .%                                                  :          
SFL         .OHMM                                               :          
SP          .MV                                                 :          
SP_NORM     .MV                                                 :SP Normalized
VSH_GR      .V/V                                                :Volume of Shale from GR
VSH_SP      .V/V                                                :Volume of Shale from SP
~A        DEPTH           CALI           DPHI           DRHO             GR        GR_NORM            ILD            ILM           NPHI            SFL             SP        SP_NORM         VSH_GR         VSH_SP
# ...
      9958.0000        13.5667         16.519        -0.1676        51.5346       75.33748          0.417         0.4326        28.6812         0.5413       -48.1765      -13.11604      0.9007974       0.812628
      9958.5000        13.4799        17.8179        -0.1553        53.5814       77.51357         0.4247         0.4335        29.8039         0.5211       -48.3505      -13.42095      0.9470971      0.8082721
      9959.0000        13.0245        18.6297        -0.1422        55.1127       79.14126         0.4246         0.4312        30.3224          0.492       -48.6274      -13.89825      0.9817289      0.8014535
      9959.5000         12.698        19.1437        -0.1306        55.0732       79.09786         0.4213         0.4281        31.3263          0.473       -48.7794      -14.16632      0.9808056      0.7976241
      9960.0000        13.1515        19.6977        -0.1151        54.2344       78.20417         0.4111         0.4236        31.8674         0.4761       -48.9799      -14.51563      0.9617909       0.792634
      9960.5000        13.4019        20.1149        -0.1002        53.7395       77.67632         0.4012         0.4162        32.2353         0.4793       -49.2256      -14.94066        0.95056       0.786562
      9961.0000        13.0761         20.198         -0.104        53.7095       77.64305         0.3925         0.4079        31.9588         0.4625       -49.6277       -15.6277      0.9498522      0.7767472
      9961.5000        12.9549        20.0435        -0.1096        53.4886       77.40668         0.3841         0.3994        31.4988         0.4334       -49.8824       -16.0678      0.9448231        0.77046
      9962.0000        13.0437        19.8171        -0.1151        52.9991       76.88458         0.3773         0.3923        30.8221         0.4152       -49.9019       -16.1139      0.9337145      0.7698014
      9962.5000        13.1245        19.5028        -0.1179         52.652       76.51397         0.3729         0.3875        30.2409         0.4069       -49.8381      -16.02044      0.9258291      0.7711365
      9963.0000        13.0353        19.2534        -0.1119        52.4755       76.32484         0.3711         0.3869         29.899         0.4165       -49.7353      -15.86166       0.921805      0.7734048
      9963.5000        13.1865        19.1852        -0.0967        51.8651       75.67413         0.3698         0.3886        30.0735         0.4222       -49.4974      -15.47656      0.9079601      0.7789063
      9964.0000        13.3353        19.4257        -0.0848        51.2068       74.97244         0.3792         0.3929        30.4823         0.4166       -49.2353      -15.05091      0.8930307      0.7849869
      9964.5000        13.1551        19.6039        -0.0829        51.4713       75.25247         0.3904          0.398        30.6971         0.4122       -48.9361      -14.56313      0.8989888      0.7919554
      9965.0000        12.9657        19.7287        -0.0847        52.9036       76.77483         0.4013         0.4063        30.8176         0.4237       -48.6863      -14.15808      0.9313793      0.7977417
      9965.5000         12.706        19.9869        -0.0899        53.7454       77.66901         0.4088         0.4151        30.7675         0.4533       -48.6765       -14.1551      0.9504044      0.7977843
      9966.0000        12.4608        20.3287        -0.0914        53.6363       77.55158         0.4165         0.4231        30.9412         0.4712       -48.7255      -14.25062       0.947906      0.7964198
      9966.5000        12.5963        20.2724        -0.0958        53.8506       77.77821         0.4244         0.4241             31           0.48       -48.7769      -14.35015      0.9527278      0.7949978
      9967.0000        12.9167        19.9663        -0.0971        54.9216       78.91621         0.4321         0.4149        31.0059         0.4871       -48.8235      -14.44165      0.9769406      0.7936907
      9967.5000        13.0907        19.7435        -0.0996        55.7725       79.82006         0.4337         0.4027        31.1939         0.5001       -48.7672      -14.36076      0.9961715      0.7948463
      9968.0000        13.1608        20.0079        -0.1098        55.4902       79.51838         0.4274          0.389        31.5292         0.5057       -48.6666      -14.20566      0.9897528      0.7970619
      9968.5000        13.4778         20.688        -0.1248        54.6171       78.58819         0.4129          0.378           32.1         0.4823       -48.5294      -13.98926      0.9699615      0.8001534
      9969.0000        14.1422        21.1485        -0.1439         53.598       77.50269         0.3865           0.37        32.4271         0.4521       -48.3529      -13.70701      0.9468657      0.8041856
      9969.5000        14.3137        21.1099        -0.1527        53.5247       77.42334         0.3593         0.3676        32.2768         0.4289       -48.2181      -13.49463      0.9451774      0.8072196
      9970.0000        14.1924        20.7683        -0.1489        54.4117       78.36561         0.3467         0.3712        32.0975          0.417       -48.3137       -13.6682      0.9652257        0.80474
      9970.5000        14.0108        20.5544        -0.1327        55.3459       79.35808         0.3378         0.3755        32.0771         0.4045       -48.7156       -14.3549      0.9863421        0.79493
      9971.0000        13.5861        20.7564         -0.114        54.4482       78.40173         0.3333         0.3784        32.2201         0.3919       -48.9216      -14.71343      0.9659942      0.7898082
      9971.5000        12.9505        21.2675        -0.1179         53.045       76.90759         0.3303         0.3777        32.3976         0.3941       -48.8186      -14.55431      0.9342041      0.7920814
      9972.0000        12.8529        21.6594          -0.13        52.6331       76.46805         0.3268         0.3687        32.8542         0.4072       -48.3725      -13.82043      0.9248521      0.8025653
      9972.5000        13.2076         21.692        -0.1507        52.9578       76.81211         0.3225          0.359        33.1835         0.4066       -47.8307      -12.92623      0.9321726      0.8153396
      9973.0000        13.6842        21.6237        -0.1584        52.9109       76.76085         0.3207         0.3489        33.1631         0.4024       -47.2451      -11.95865      0.9310819      0.8291622
      9973.5000        13.9382        21.5643        -0.1688        51.6783       75.44822         0.3188         0.3412        32.8251         0.4176       -46.6664      -11.00264      0.9031536      0.8428195
      9974.0000        13.5624        21.6832        -0.1734        51.2178       74.95697         0.3167         0.3365        32.8427         0.4081       -46.3431      -10.47447      0.8927015      0.8503647
      9974.5000        13.3267        22.1076        -0.1699        51.3984       75.14774         0.3153         0.3338          33.07         0.3786       -46.2745      -10.37298      0.8967603      0.8518145
      9975.0000        13.8535        22.4733        -0.1469        51.7822       75.55468         0.3141         0.3358        33.3611         0.3657       -46.4117      -10.61625      0.9054187      0.8483393
      9975.5000        14.3622        23.0101        -0.1322        51.3885       75.13449          0.313         0.3391        33.9471         0.3937       -46.6619      -11.04882      0.8964785      0.8421597
      9976.0000        14.2745        23.9168        -0.1449        50.0719       73.73248          0.312         0.3468        34.7184         0.4201       -46.5686      -10.90595      0.8666486      0.8442007
      9976.5000        14.6821        25.0986        -0.1715        47.4474        70.9391         0.3117         0.3531        35.7867          0.429       -46.1132      -10.15649      0.8072149      0.8549073
