#------------------------------------------------------------------------------
# Created by    : vladimir.rabinovich
# Created on    : 09/19/2023 17:19:33
#------------------------------------------------------------------------------
~Version Information Section
VERS.           2.0     :   CWLS log ASCII Standard - VERSION 2.0
WRAP.           NO      :   One line per depth step
~Well Information Section
#MNEM       .UNIT                                         VALUE :DESCRIPTION
#------------------------------------------------------------------------------
STRT        .FT                                          3947.5 :START DEPTH
STOP        .FT                                           10890 :STOP DEPTH
STEP        .FT                                             0.5 :STEP      
NULL        .                                           -999.25 :NULL      
COMP        .                          PALM ENERGY OFFSHORE LLC :COMPANY   
WELL        .                               OCS G21349 ST00BP00 :WELL      
FLD         .                            HIGH ISLAND BLOCK 0074 :FIELD     
LOC         .                                                   :LOCATION  
CNTY        .                                  HIGH ISLAND EAST :LOCATION  
STAT        .                                             TEXAS :STATE     
CTRY        .                                     UNITED STATES :COUNTRY   
SRVC        .                                                   :SERVICE COMPANY
DATE        .                             9/13/2023 11:20:11 AM :LOG DATE  
API         .                                    42710401490000 :API NUMBER
UWI         .                                    42710401490000 :UNIQUE WELL ID
XCOORD      .                                  1378068.78051204 :SURFACE X 
YCOORD      .                                  10648064.4011202 :SURFACE Y 
LAT         .                                        29.3379836 :LATITUDE  
LON         .                                       -93.8236467 :LONGITUDE 
ELEV        .FT                                             104 :ELEVATION VALUE
ELEV_TYPE   .                                                KB :ELEVATION REFERENCE TYPE
~Curve Information Section
#MNEM       .UNIT                                      API CODE :CURVE DESCRIPTION
#------------------------------------------------------------------------------
DEPT        .FT                                                 :DEPTH     
AHFCO90     .MMHO                                               :          
AHT10       .OHMM                                               :          
AHT20       .OHMM                                               :          
AHT30       .OHMM                                               :          
AHT60       .OHMM                                               :          
AHT90       .OHMM                                               :          
DCAL        .IN                                                 :          
DPHZ        .V/V                                                :          
DTLF        .US/F                                               :          
DTLN        .US/F                                               :          
GR          .GAPI                                               :          
GR_NORM     .GAPI                                               :GammaRay Normalized
HDRA        .G/CC                                               :          
NPOR        .V/V                                                :          
RWA         .OHMM                                               :          
SP          .MV                                                 :          
SPHI        .V/V                                                :          
TENS        .LB/F                                               :          
VSH_GR      .V/V                                                :Volume of Shale from GR
~A        DEPTH        AHFCO90          AHT10          AHT20          AHT30          AHT60          AHT90           DCAL           DPHZ           DTLF           DTLN             GR        GR_NORM           HDRA           NPOR            RWA             SP           SPHI           TENS         VSH_GR
# ...
     10873.0000        1588.31         0.6356         0.6622         0.6637          0.645         0.6296        -5.3215         0.1953       109.3047       109.4729       105.2662       78.89799         0.0493         0.3171         0.0296          -0.75         0.3053           4580      0.9765531
     10873.5000        1588.31         0.6356         0.6621         0.6637          0.645         0.6296        -5.3215         0.1953       109.3047       109.4729       105.2662       82.47895         0.0493         0.3171         0.0296         -3.125         0.3053           4514              1
     10874.0000       1588.058         0.6357         0.6622         0.6639         0.6452         0.6297        -5.3215         0.1953       109.3047       109.4729       105.2662       78.53642         0.0493         0.3171         0.0296          -1.25         0.3053           4414      0.9688599
     10874.5000       1587.806         0.6357         0.6625         0.6641         0.6455         0.6298        -5.3215         0.1953       109.3047       109.4729       105.2662       84.06582         0.0493         0.3171         0.0297         -1.875         0.3053           4368              1
     10875.0000        1588.31         0.6356         0.6624         0.6639         0.6454         0.6296        -5.3215         0.1953       109.3047       109.4729       105.2662        81.0173         0.0494         0.3171         0.0296        -2.1875         0.3053           4389              1
     10875.5000       1588.562         0.6354         0.6622         0.6639         0.6454         0.6295        -5.3215         0.1953       109.3047       109.4729       105.2662       78.81987         0.0494         0.3171         0.0296          -2.25         0.3053           4335      0.9748908
     10876.0000        1588.31         0.6354         0.6623         0.6639         0.6453         0.6296        -5.3215         0.1952       109.3047       109.4729       105.2662       79.43404         0.0494         0.3171         0.0296        -3.1875         0.3053           4282      0.9879584
     10876.5000       1588.815         0.6352         0.6621         0.6638         0.6451         0.6294        -5.3215         0.1952       109.3047       109.4729       105.2662       82.32227         0.0494         0.3171         0.0296          -2.75         0.3053           4210              1
     10877.0000       1588.815         0.6351          0.662         0.6636         0.6449         0.6294        -5.3215         0.1952       109.3047       109.4729       105.2662       83.69829         0.0494         0.3171         0.0296          -1.75         0.3053           4195              1
     10877.5000        1588.31         0.6351          0.662         0.6637         0.6451         0.6296        -5.3215         0.1952       109.3047       109.4729       105.2662       81.36749         0.0494         0.3171         0.0296        -1.4375         0.3053           4175              1
     10878.0000       1588.058         0.6351         0.6621         0.6638         0.6451         0.6297        -5.3215         0.1952       109.3047       109.4729       105.2662       84.68745         0.0494         0.3171         0.0296        -1.1875         0.3053           4070              1
     10878.5000       1587.806          0.635          0.662         0.6637          0.645         0.6298        -5.3215         0.1952       109.3047       109.4729       105.2662       82.65904         0.0493         0.3171         0.0296           -1.5         0.3053           4016              1
     10879.0000       1588.058         0.6349         0.6619         0.6636         0.6451         0.6297        -5.3215         0.1953       109.3047       109.4729       105.2662       81.05557         0.0492         0.3171         0.0296         -0.375         0.3053           3954              1
     10879.5000       1588.058         0.6348         0.6618         0.6637         0.6451         0.6297        -5.3215         0.1953       109.3047       109.4729       105.2662       85.11957         0.0491         0.3171         0.0297          -1.75         0.3053           3871              1
     10880.0000        1588.31         0.6347         0.6617         0.6636         0.6451         0.6296        -5.3215         0.1953       109.3047       109.4729       105.2662       79.40862          0.049         0.3171         0.0297          -0.75         0.3053           3804      0.9874173
     10880.5000       1588.562         0.6346         0.6616         0.6635         0.6452         0.6295        -5.3215         0.1952       109.3047       109.4729       105.2662       84.75668         0.0491         0.3171         0.0296         -0.375         0.3053           3776              1
     10881.0000       1588.058         0.6347         0.6617         0.6636         0.6452         0.6297        -5.3215         0.1951       109.3047       109.4729       105.2662       85.18949         0.0491         0.3171         0.0296           -0.5         0.3053           3739              1
     10881.5000       1587.806         0.6347         0.6618         0.6637         0.6453         0.6298        -5.3215         0.1949       109.3047       109.4729       105.2662       80.61621         0.0493         0.3171         0.0295        -0.1875         0.3053           3720              1
     10882.0000       1587.806         0.6347         0.6619         0.6637         0.6453         0.6298        -5.3215         0.1946       109.3047       109.4729       105.2662       82.01917         0.0495         0.3171         0.0294        -1.5625         0.3053           3660              1
     10882.5000       1588.058         0.6347         0.6619         0.6637         0.6452         0.6297        -5.3215         0.1942       109.3047       109.4729       105.2662       80.81495         0.0499         0.3171         0.0293         -2.125         0.3053           3617              1
     10883.0000       1588.058         0.6347         0.6619         0.6637         0.6452         0.6297        -5.3215         0.1937       109.3047       109.4729       105.2662       81.56392         0.0502         0.3171         0.0292        -1.5625         0.3053           3539              1
     10883.5000        1588.31         0.6347         0.6618         0.6637         0.6451         0.6296        -5.3215         0.1933       109.3047       109.4729       105.2662       85.24954         0.0501         0.3171          0.029         -1.875         0.3053           3469              1
     10884.0000        1588.31         0.6347         0.6619         0.6637         0.6451         0.6296        -5.3215         0.1953       109.3047       109.4729       105.2662       82.45659         0.8696         0.3171         0.0296        -1.4375         0.3053           3404              1
     10884.5000       1588.562         0.6347         0.6618         0.6637          0.645         0.6295        -5.3215          0.197       109.3047       109.4729       105.2662       84.95812         1.6896         0.3171         0.0302           -0.5         0.3053           3313              1
     10885.0000       1588.562         0.6347         0.6618         0.6637          0.645         0.6295        -5.3215       607.2121       109.3047       109.4729       105.2662       83.76366         2.2387         0.3171       286546.1         -0.125         0.3053           3216              1
     10885.5000       1588.562         0.6346         0.6618         0.6637          0.645         0.6295        -5.3215       607.2121       109.3047       109.4729       105.2662       82.97115        -999.25         0.3171       286532.5         -2.125         0.3053           3130              1
     10886.0000       1588.562         0.6346         0.6618         0.6637          0.645         0.6295        -5.3215       607.2121       109.3047       109.4729       105.2662       84.69556        -999.25         0.3171       286522.9        -0.4375         0.3053           3032              1
