#------------------------------------------------------------------------------
# Created by    : vladimir.rabinovich
# Created on    : 09/19/2023 17:21:28
#------------------------------------------------------------------------------
~Version Information Section
VERS.           2.0     :   CWLS log ASCII Standard - VERSION 2.0
WRAP.           NO      :   One line per depth step
~Well Information Section
#MNEM       .UNIT                                         VALUE :DESCRIPTION
#------------------------------------------------------------------------------
STRT        .FT                                             999 :START DEPTH
STOP        .FT                                           14605 :STOP DEPTH
STEP        .FT                                             0.5 :STEP      
NULL        .                                           -999.25 :NULL      
COMP        .                                      GETTY OIL CO :COMPANY   
WELL        .                               OCS G03116 ST00BP00 :WELL      
FLD         .                                           WILDCAT :FIELD     
LOC         .                                                   :LOCATION  
CNTY        .                                  HIGH ISLAND EAST :LOCATION  
STAT        .                                             TEXAS :STATE     
CTRY        .                                     UNITED STATES :COUNTRY   
SRVC        .                                                   :SERVICE COMPANY
DATE        .                             9/13/2023 11:19:51 AM :LOG DATE  
API         .                                    42710400090000 :API NUMBER
UWI         .                                    42710400090000 :UNIQUE WELL ID
XCOORD      .                                  1371379.55461592 :SURFACE X 
YCOORD      .                                  10664640.0845049 :SURFACE Y 
LAT         .                                        29.3834483 :LATITUDE  
LON         .                                       -93.8450221 :LONGITUDE 
ELEV        .FT                                              80 :ELEVATION VALUE
ELEV_TYPE   .                                                KB :ELEVATION REFERENCE TYPE
~Curve Information Section
#MNEM       .UNIT                                      API CODE :CURVE DESCRIPTION
#------------------------------------------------------------------------------
DEPT        .FT                                                 :DEPTH     
CALI        .IN                                                 :          
DRHO        .G/C3                                               :          
GR          .GAPI                                               :          
GR_NORM     .GAPI                                               :GammaRay Normalized
NPHI        .%                                                  :          
RHOB        .G/C3                                               :          
VSH_GR      .V/V                                                :Volume of Shale from GR
~A        DEPTH           CALI           DRHO             GR        GR_NORM           NPHI           RHOB         VSH_GR
# ...
      3712.5000        17.5193         0.0552         59.702       79.98995        43.9326         3.0957      0.9997862
      3713.0000        17.5338         0.0533         57.913       77.26357        42.7403         3.1264       0.941778
      3713.5000        17.5883         0.0592        56.1838       74.62709         41.905         3.1485      0.8856828
      3714.0000        17.6281           0.06        54.9386       72.71857        41.4804         3.1515      0.8450759
      3714.5000        17.6586         0.0488         53.887       71.10122        40.5667         3.1615      0.8106642
      3715.0000        17.6711         0.0449        53.1256       69.92033        39.6904         3.1647       0.785539
      3715.5000        17.6893         0.0456        53.2542         70.078        39.1036          3.162      0.7888935
      3716.0000        17.6987         0.0428        53.6412       70.62431         39.424         3.1597      0.8005171
      3716.5000        17.6916         0.0394         54.027       71.16881        39.8175         3.1475      0.8121023
      3717.0000        17.6242         0.0471        54.4935       71.83469        39.7507         3.1538      0.8262699
      3717.5000        17.5505          0.051        54.6274       72.00031        38.7015         3.1523      0.8297939
      3718.0000        17.5871         0.0371        54.5482       71.84546        37.8491         3.1478      0.8264991
      3718.5000        17.6754         0.0226        54.6697       71.99245        37.9702         3.1273      0.8296267
      3719.0000        17.7293         0.0228        54.8879       72.28488        38.9273         3.1278      0.8358486
      3719.5000        17.7801         0.0529         53.961       70.85508        40.0107         3.1347      0.8054273
      3720.0000        17.7655         0.0785        52.8318       69.12102         40.704         3.1254      0.7685323
      3720.5000        17.6506         0.0867        51.9824       67.80779        40.6519         3.1273      0.7405912
      3721.0000        17.5629         0.0739        51.4864       67.02605        40.3815         3.1144      0.7239586
      3721.5000        17.4621         0.0677        51.2067       66.56963        40.1235          3.116      0.7142475
      3722.0000        17.6715         0.0712        51.2809        66.6455        40.0693         3.1282      0.7158617
      3722.5000        18.6859         0.0741        52.6898       68.72874         40.108          3.128      0.7601861
      3723.0000        19.8145         0.0762        54.8278       71.90855        40.7187         3.1316      0.8278416
      3723.5000        18.6992         0.0831         55.814       73.35605        41.6628         3.1213      0.8586394
      3724.0000        17.9612         0.0829        56.1354       73.80369        42.5264         3.1076      0.8681636
      3724.5000        17.7433         0.0749        56.8852       74.89566         43.858         3.0929      0.8913971
      3725.0000        17.6218         0.0561        57.9156       76.40963        45.0846         3.0663      0.9236091
      3725.5000        17.8788         0.0495        58.1633       76.74642        46.6144         3.0649      0.9307749
      3726.0000        17.7279         0.0647        58.0306       76.51109        47.9714         3.0414       0.925768
      3726.5000        18.0765         0.0553        57.9225       76.31277        49.4363         3.0145      0.9215484
      3727.0000        18.5997         0.0639        57.7718       76.05038        50.8171         2.9972      0.9159656
      3727.5000        18.8499         0.0378        57.5242       75.64223        52.9893         2.9451      0.9072816
      3728.0000        19.3251         0.0288        57.0323       74.86668        53.1554         2.9711      0.8907805
      3728.5000        19.8666         0.0508        56.8763       74.59632        53.2792         3.0017      0.8850281
      3729.0000        19.4647         0.0473          57.39       75.33318        53.5593         3.0168      0.9007061
      3729.5000        18.8024         0.0431        57.8517       75.99183        54.0024          3.022      0.9147198
      3730.0000        18.5259         0.0409         58.057       76.26485        54.4897         3.0124      0.9205288
      3730.5000        18.6769         0.0471        57.7281       75.73446        54.6109         2.9945      0.9092438
      3731.0000        19.4795         0.0778        56.3345       73.60274        54.4819         2.9858       0.863888
      3731.5000        20.0772         0.0824        55.2248       71.89801        54.3805         2.9527      0.8276172
      3732.0000        19.9551         0.0774        54.5604         70.863        54.2776         2.9362      0.8055957
      3732.5000        19.8971         0.0682        54.6888       71.02039        54.2922         2.9636      0.8089444
      3733.0000        20.0946         0.0606        55.9777       72.92313        53.1331         2.9715      0.8494284
      3733.5000        20.0978         0.0612        57.4385       75.08444        52.0325         2.9686      0.8954136
      3734.0000        20.0918         0.0958        58.1234       76.07878        51.2739         2.9716      0.9165698
      3734.5000        20.0908         0.1079        58.4451       76.52688        51.4222         2.9316      0.9261038
      3735.0000        20.0937         0.0955        59.0486        77.3988        52.7158         2.9267      0.9446552
      3735.5000        20.0919         0.1045        59.7067       78.35284        54.4953         2.9338      0.9649541
      3736.0000        19.9004         0.1035        59.7609       78.39861        55.6704         2.9232      0.9659278
      3736.5000        19.8808         0.1033        58.1953       76.00821        56.2829         2.9394      0.9150683
      3737.0000        20.1082         0.1077        56.4652       73.37038        55.8798         2.9631      0.8589444
      3737.5000        20.1162         0.1145        55.3698       71.68717         53.619         2.9772      0.8231313
      3738.0000        20.1088         0.1233          55.02       71.12534        52.9726         2.9874      0.8111774
      3738.5000        20.1039         0.1209        55.4092       71.67494        53.2762         2.9784      0.8228711
      3739.0000        20.1015         0.1122        55.7519       72.15462         53.964         2.9743       0.833077
      3739.5000        20.0457         0.1167        55.7811        72.1628        54.7915         2.9507       0.833251
      3740.0000        20.0959         0.1221        55.3317       71.45113        54.8254         2.9453      0.8181092
      3740.5000        20.1161         0.1236        54.9955       70.90976        54.0821         2.9661      0.8065906
      3741.0000        20.1154         0.1204        54.7321       70.47787        53.7773         2.9926      0.7974014
      3741.5000        20.1148         0.1036         54.515        70.1156        53.3896          3.004      0.7896937
      3742.0000        20.1128         0.0943        54.4379        69.9639        53.2728         2.9985      0.7864659
      3742.5000        20.1097         0.0953        54.6249        70.2094         54.183         2.9886      0.7916895
      3743.0000        20.1088         0.0915        54.2026       69.53854        55.3992         2.9623      0.7774156
      3743.5000        20.1064         0.0837        53.7943        68.8887        55.8671         2.9275      0.7635894
      3744.0000        20.1005         0.0858        53.6296       68.60526        55.5392         2.9027      0.7575586
      3744.5000        20.0953         0.0995        53.9861       69.10568        55.5054          2.892       0.768206
      3745.0000        20.0977          0.097        54.9724       70.55333        56.3273          2.875       0.799007
      3745.5000        20.1042          0.092        55.9266       71.95271        57.4648         2.8966      0.8287809
