#------------------------------------------------------------------------------
# Created by    : vladimir.rabinovich
# Created on    : 09/19/2023 17:20:21
#------------------------------------------------------------------------------
~Version Information Section
VERS.           2.0     :   CWLS log ASCII Standard - VERSION 2.0
WRAP.           NO      :   One line per depth step
~Well Information Section
#MNEM       .UNIT                                         VALUE :DESCRIPTION
#------------------------------------------------------------------------------
STRT        .FT                                            1439 :START DEPTH
STOP        .FT                                           13833 :STOP DEPTH
STEP        .FT                                             0.5 :STEP      
NULL        .                                           -999.25 :NULL      
COMP        .                                        EXXON CORP :COMPANY   
WELL        .                               OCS G04992 ST00BP00 :WELL      
FLD         .                                           WILDCAT :FIELD     
LOC         .                                                   :LOCATION  
CNTY        .                               MUSTANG ISLAND EAST :LOCATION  
STAT        .                                             TEXAS :STATE     
CTRY        .                                     UNITED STATES :COUNTRY   
SRVC        .                                                   :SERVICE COMPANY
DATE        .                             9/13/2023 11:20:08 AM :LOG DATE  
API         .                                    42712400640000 :API NUMBER
UWI         .                                    42712400640000 :UNIQUE WELL ID
XCOORD      .                                  530427.861923906 :SURFACE X 
YCOORD      .                                  9963308.63528926 :SURFACE Y 
LAT         .                                        27.4144168 :LATITUDE  
LON         .                                       -96.4214066 :LONGITUDE 
ELEV        .FT                                              73 :ELEVATION VALUE
ELEV_TYPE   .                                                KB :ELEVATION REFERENCE TYPE
~Curve Information Section
#MNEM       .UNIT                                      API CODE :CURVE DESCRIPTION
#------------------------------------------------------------------------------
DEPT        .FT                                                 :DEPTH     
ASFL        .OHMM                                               :          
CILD        .MMHO                                               :          
DT          .US/F                                               :          
GR          .GAPI                                               :          
GR_NORM     .GAPI                                               :GammaRay Normalized
ILD         .OHMM                                               :          
SP          .MV                                                 :          
SP_NORM     .MV                                                 :SP Normalized
VSH_GR      .V/V                                                :Volume of Shale from GR
VSH_SP      .V/V                                                :Volume of Shale from SP
~A        DEPTH           ASFL           CILD             DT             GR        GR_NORM            ILD             SP        SP_NORM         VSH_GR         VSH_SP
# ...
      3080.5000         0.7931       1548.291       148.6648        77.9106       77.79881         0.5595       -90.1312      -1.120537      0.9531661      0.9775892
      3081.0000         0.7898       1543.209       148.9771        78.7961       78.90494          0.565       -90.3704      -1.365189      0.9767008      0.9726962
      3081.5000         0.7866       1547.119       148.8594        79.2623       79.48694         0.5722       -90.6094      -1.609642      0.9890838      0.9678072
      3082.0000         0.7834       1551.641       149.1675        79.9205       80.30895         0.5794       -90.8486      -1.854301              1       0.962914
      3082.5000         0.7802        1556.16       150.0483         81.806       82.66508         0.5866       -91.0876      -2.098763              1      0.9580247
      3083.0000         0.7769       1560.682       150.4539        82.7593       83.85596         0.5938       -91.2714      -2.288017              1      0.9542397
      3083.5000         0.7749       1565.418       150.8833        83.6552       84.97509          0.601       -91.4447      -2.466774              1      0.9506645
      3084.0000         0.7734       1570.965       151.2295        82.6116       83.66985         0.6026       -91.5001      -2.527626              1      0.9494475
      3084.5000          0.774        1576.51       151.2075        80.5447       81.08548         0.6039       -91.2312      -2.264183              1      0.9547163
      3085.0000         0.7767       1582.061       150.4746        77.7212       77.55536         0.6053       -90.8776      -1.916046      0.9479864      0.9616791
      3085.5000         0.7794       1585.602       149.4055        73.7769       72.62424         0.6066       -90.8002      -1.844101       0.843069       0.963118
      3086.0000         0.7825       1588.156       148.7749        72.7347       71.32076         0.6088       -91.2917      -2.341057      0.8153352      0.9531789
      3086.5000         0.7915       1560.408       148.3298        71.9697       70.36376          0.616       -91.7834      -2.838211      0.7949737      0.9432358
      3087.0000         0.8005       1510.668       148.7344         72.123       70.55464         0.6233       -92.3691      -3.429375       0.799035      0.9314125
      3087.5000         0.8138       1482.963       149.0503        72.6567       71.22102         0.6305       -93.0029      -4.068626      0.8132131      0.9186275
      3088.0000         0.8286        1460.08       148.7297        72.9937       71.64153         0.6377       -93.6367      -4.707886      0.8221601      0.9058423
      3088.5000          0.843       1443.072       147.6445        73.1508       71.83716         0.6485       -93.9635      -5.040138      0.8263225      0.8991972
      3089.0000         0.8567       1431.459       146.6018        73.3484        72.0834         0.6596        -94.095      -5.177101      0.8315618       0.896458
      3089.5000         0.8732       1422.672       145.8289        74.1692       73.10867         0.6707       -94.0686      -5.156158      0.8533759      0.8968768
      3090.0000         0.8911       1413.879       145.4026        76.6106       76.15968         0.6817       -94.0424      -5.135406       0.918291      0.8972919
      3090.5000         0.8966       1396.865       145.0059        77.1466       76.82893         0.6909        -93.787      -4.885468      0.9325303      0.9022906
      3091.0000         0.8945       1379.607       144.6001         72.401       70.89619         0.7001       -93.4835      -4.587425      0.8063018      0.9082515
      3091.5000         0.8891       1365.781       144.2905        72.5704       71.10719         0.7093       -93.2345       -4.34388      0.8107912      0.9131224
      3092.0000         0.8829       1351.953       144.0908        74.6692       73.72994         0.7184       -93.3939      -4.508736      0.8665945      0.9098253
      3092.5000         0.8728       1338.125       144.2556        75.3234       74.54696         0.7274       -93.5533      -4.673592      0.8839778      0.9065282
      3093.0000         0.8627        1330.91       144.8281         75.504       74.77196         0.7227       -93.7126      -4.838348       0.888765      0.9032331
      3093.5000         0.8528       1339.674       145.5339        75.6781       74.98885          0.718       -93.9197      -5.050911      0.8933797      0.8989818
      3094.0000         0.8436        1348.43       146.0518         75.949       75.32672         0.7133       -94.1656      -5.302269      0.9005685      0.8939546
      3094.5000         0.8343       1357.186       146.5447        76.4298       75.92698         0.7086       -93.8466      -4.988724        0.91334      0.9002255
      3095.0000         0.8272       1370.803       146.6428         76.873       76.48024         0.7027        -93.566      -4.713577      0.9251115      0.9057285
      3095.5000          0.823       1387.705       146.7991         77.155       76.83199         0.6951       -93.3196      -4.472641      0.9325954      0.9105472
      3096.0000         0.8213       1404.609       146.7961        77.0994       76.76175         0.6875       -93.0325      -4.190994       0.931101      0.9161801
      3096.5000         0.8209        1471.51       146.3909        76.6168       76.15775           0.68        -92.614      -3.777946      0.9182501      0.9244411
      3097.0000         0.8205       1487.736        146.519        76.0939       75.50339         0.6724       -92.8326      -4.002007      0.9043274      0.9199598
      3097.5000           0.82       1503.961       147.3628        75.5725       74.85089         0.6661       -94.0912      -5.266068      0.8904445      0.8946787
      3098.0000         0.8194       1514.246       148.1038        75.0682       74.21977         0.6614       -94.7998      -5.980118      0.8770164      0.8803976
      3098.5000         0.8188       1523.494       148.7065        74.5636       73.58827         0.6567       -95.4332      -6.618973      0.8635803      0.8676205
      3099.0000         0.8132       1532.748        149.228        74.5997       73.63266         0.6521       -96.0995      -7.290733      0.8645247      0.8541853
      3099.5000         0.8067       1540.883       149.6394        74.7885       73.86791         0.6474       -95.7097      -6.906395        0.86953      0.8618721
      3100.0000            0.8       1546.979        150.001        75.7162       75.02679         0.6456         -94.14      -5.342148      0.8941871      0.8931571
      3100.5000         0.7923       1553.076       150.3613        76.6893       76.24243         0.6443       -92.9413      -4.148903      0.9200518      0.9170219
      3101.0000         0.7845       1557.828       150.9072        77.4846        77.2358         0.6431       -92.0193      -3.232361      0.9411873      0.9353528
      3101.5000         0.7786       1560.652       151.5447        78.3149       78.27294         0.6418       -91.9272      -3.145721      0.9632541      0.9370856
      3102.0000         0.7753       1563.031        151.769        78.9769       79.09969         0.6453       -92.0055      -3.229477      0.9808446      0.9354104
      3102.5000          0.772       1552.895       151.8496        79.1024       79.25583         0.6513       -92.0837      -3.313133      0.9841666      0.9337373
      3103.0000         0.7687       1536.297       151.6841        79.2278       79.41183         0.6573       -92.1382      -3.373085      0.9874858      0.9325383
      3103.5000         0.7742       1518.074       151.1753        79.0543       79.19421         0.6633        -92.178      -3.418343      0.9828556      0.9316332
      3104.0000         0.7898       1487.885       150.2437        78.7899       78.86298          0.673       -92.1151      -3.360901       0.975808       0.932782
      3104.5000         0.8245       1444.121       147.9226        78.0428       77.92835         0.6949        -91.903      -3.154259      0.9559224      0.9369148
