#------------------------------------------------------------------------------
# Created by    : vladimir.rabinovich
# Created on    : 09/19/2023 17:21:38
#------------------------------------------------------------------------------
~Version Information Section
VERS.           2.0     :   CWLS log ASCII Standard - VERSION 2.0
WRAP.           NO      :   One line per depth step
~Well Information Section
#MNEM       .UNIT                                         VALUE :DESCRIPTION
#------------------------------------------------------------------------------
STRT        .FT                                            1242 :START DEPTH
STOP        .FT                                            7802 :STOP DEPTH
STEP        .FT                                             0.5 :STEP      
NULL        .                                           -999.25 :NULL      
COMP        .                                    CITIES SERVICE :COMPANY   
WELL        .                               OCS G03070 ST00BP00 :WELL      
FLD         .                                           WILDCAT :FIELD     
LOC         .                                                   :LOCATION  
CNTY        .                               MUSTANG ISLAND EAST :LOCATION  
STAT        .                                             TEXAS :STATE     
CTRY        .                                     UNITED STATES :COUNTRY   
SRVC        .                                                   :SERVICE COMPANY
DATE        .                             9/13/2023 11:20:08 AM :LOG DATE  
API         .                                    42712400230000 :API NUMBER
UWI         .                                    42712400230000 :UNIQUE WELL ID
XCOORD      .                                  541821.370048326 :SURFACE X 
YCOORD      .                                   9995115.4612029 :SURFACE Y 
LAT         .                                         27.502648 :LATITUDE  
LON         .                                       -96.3890109 :LONGITUDE 
ELEV        .FT                                              64 :ELEVATION VALUE
ELEV_TYPE   .                                                KB :ELEVATION REFERENCE TYPE
~Curve Information Section
#MNEM       .UNIT                                      API CODE :CURVE DESCRIPTION
#------------------------------------------------------------------------------
DEPT        .FT                                                 :DEPTH     
CALI        .IN                                                 :          
CILD        .MMHO                                               :          
DRHO        .G/C3                                               :          
DT          .US/F                                               :          
GR          .GAPI                                               :          
GR_1        .GAPI                                               :          
GR_NORM     .GAPI                                               :GammaRay Normalized
ILD         .OHMM                                               :          
NPHI        .%                                                  :          
RHOB        .G/C3                                               :          
SFL         .OHMM                                               :          
SP          .MV                                                 :          
SP_NORM     .MV                                                 :SP Normalized
VSH_GR      .V/V                                                :Volume of Shale from GR
VSH_SP      .V/V                                                :Volume of Shale from SP
~A        DEPTH           CALI           CILD           DRHO             DT             GR           GR_1        GR_NORM            ILD           NPHI           RHOB            SFL             SP        SP_NORM         VSH_GR         VSH_SP
# ...
      1684.0000        -999.25       1517.723        -999.25       195.0664        -999.25        110.498       82.94808          0.655        -999.25        -999.25         1.1599       -81.1493      -5.908585              1      0.8818283
      1684.5000        -999.25       1513.039        -999.25       195.4324        -999.25       110.7031       83.20446         0.6583        -999.25        -999.25         1.1686       -81.7085      -6.526169              1      0.8694766
      1685.0000        -999.25       1508.355        -999.25       195.6956        -999.25       110.9081        83.4607         0.6671        -999.25        -999.25         1.1554       -81.3069      -6.182945              1      0.8763411
      1685.5000        -999.25       1503.672        -999.25       195.8279        -999.25       111.1132       83.71708         0.6714        -999.25        -999.25         1.1448       -80.6771      -5.611519              1      0.8877696
      1686.0000        -999.25       1498.988        -999.25       196.0249        -999.25       111.3182       83.97333         0.6724        -999.25        -999.25         1.1592        -80.144      -5.136795              1      0.8972641
      1686.5000        -999.25       1494.303        -999.25       196.2634        -999.25       111.4592       84.14958         0.6769        -999.25        -999.25         1.1705       -79.6991      -4.750275              1      0.9049945
      1687.0000        -999.25       1489.619        -999.25       196.4512        -999.25       111.5719       84.29046         0.6815        -999.25        -999.25         1.1472       -79.3392      -4.448761              1      0.9110248
      1687.5000        -999.25       1484.936        -999.25       196.5344        -999.25       111.5659       84.28296         0.6824        -999.25        -999.25          1.122       -80.6733       -5.84124              1      0.8831752
      1688.0000        -999.25       1480.252        -999.25       196.5574        -999.25       111.3994       84.07483         0.6849        -999.25        -999.25         1.1217       -82.2651      -7.491409              1      0.8501718
      1688.5000        -999.25       1475.566        -999.25       196.5779        -999.25       111.0067       83.58395         0.6859        -999.25        -999.25         1.1378       -82.8763      -8.160988              1      0.8367803
      1689.0000        -999.25        1473.16        -999.25       196.7466        -999.25       110.5829       83.05421         0.6856        -999.25        -999.25          1.149        -82.834      -8.177071              1      0.8364586
      1689.5000        -999.25       1471.252        -999.25       196.8145        -999.25       110.1318       82.49033         0.6847        -999.25        -999.25         1.1608       -83.6317       -9.03315              1       0.819337
      1690.0000        -999.25       1469.346        -999.25        196.895        -999.25       109.4733       81.66721         0.6829        -999.25        -999.25         1.1662       -85.5898      -11.04963              1      0.7790074
      1690.5000        -999.25       1467.438        -999.25       197.0203        -999.25       108.6682       80.66083         0.6809        -999.25        -999.25         1.1668       -86.8099       -12.3281              1      0.7534379
      1691.0000        -999.25       1465.531        -999.25       197.1433        -999.25       107.6818       79.42783         0.6806        -999.25        -999.25         1.1641       -86.8419      -12.41849      0.9878262      0.7516302
      1691.5000        -999.25       1463.623        -999.25       197.2356        -999.25       106.6893       78.18721         0.6801        -999.25        -999.25         1.1638       -86.0999      -11.73486        0.96143      0.7653027
      1692.0000        -999.25       1461.996        -999.25       197.3203        -999.25       105.6772       76.92208         0.6763        -999.25        -999.25         1.1623       -84.0845      -9.777847      0.9345124      0.8044431
      1692.5000        -999.25       1462.365        -999.25       197.3762        -999.25       104.9222       75.97833          0.676        -999.25        -999.25         1.1526       -83.9282      -9.679924      0.9144326      0.8064015
      1693.0000        -999.25       1462.734        -999.25       197.3347        -999.25         103.78       74.55058          0.672        -999.25        -999.25         1.1288       -84.3499         -10.16       0.884055      0.7968001
      1693.5000        -999.25       1463.104        -999.25       197.2251        -999.25       104.7936       75.81758         0.6728        -999.25        -999.25         1.0998       -84.9249      -10.79337      0.9110124      0.7841325
      1694.0000        -999.25       1463.473        -999.25       197.1348        -999.25       105.5647       76.78146         0.6761        -999.25        -999.25         1.0851       -85.2281      -11.15496      0.9315203      0.7769008
      1694.5000        -999.25       1463.898        -999.25       196.8743        -999.25       106.2495       77.63745         0.6781        -999.25        -999.25         1.0905       -85.2693      -11.25454       0.949733      0.7749092
      1695.0000        -999.25       1464.328        -999.25       196.5615        -999.25       106.7687       78.28645         0.6802        -999.25        -999.25         1.1101       -84.6277      -10.67132      0.9635416      0.7865736
      1695.5000        -999.25       1464.758        -999.25       196.3391        -999.25       107.1117       78.71521          0.683        -999.25        -999.25         1.1571       -82.6392      -8.741188      0.9726641      0.8251762
      1696.0000        -999.25       1463.955        -999.25       196.2605        -999.25       107.3619       79.02795         0.6846        -999.25        -999.25         1.2159        -80.986       -7.14637      0.9793182      0.8570726
      1696.5000        -999.25       1459.916        -999.25       196.2625        -999.25       107.6514       79.38983         0.6869        -999.25        -999.25         1.2524         -79.88      -6.098747      0.9870177      0.8780251
      1697.0000        -999.25       1455.879        -999.25       196.3086        -999.25       108.1962       80.07083         0.6892        -999.25        -999.25         1.2534       -79.2377      -5.514832              1      0.8897034
      1697.5000        -999.25       1451.842        -999.25       196.3303        -999.25       108.9304       80.98858         0.6915        -999.25        -999.25         1.2339       -79.4576      -5.793114              1      0.8841377
      1698.0000        -999.25       1447.801        -999.25       196.3508        -999.25       109.9622       82.27833         0.6899        -999.25        -999.25         1.2086       -80.4552      -6.849091              1      0.8630182
      1698.5000        -999.25       1443.764        -999.25       196.3711        -999.25       110.4989       82.94921         0.6878        -999.25        -999.25         1.1837       -81.1829      -7.635162              1      0.8472968
      1699.0000        -999.25       1439.727        -999.25        196.418        -999.25        110.088       82.43558         0.6836        -999.25        -999.25         1.1722       -80.9203      -7.430946              1      0.8513811
      1699.5000        -999.25       1442.502        -999.25       196.4731        -999.25       109.5494       81.76233          0.683        -999.25        -999.25         1.1632       -79.3024      -5.871422              1      0.8825716
      1700.0000        -999.25       1445.547        -999.25       196.5701        -999.25       109.0109       81.08921         0.6827        -999.25        -999.25         1.1353       -77.7866      -4.414001              1        0.91172
      1700.5000        -999.25        1448.59        -999.25         196.71        -999.25       108.2563       80.14596         0.6764        -999.25        -999.25         1.0997       -80.6288      -7.314583              1      0.8537083
