#------------------------------------------------------------------------------
# Created by    : vladimir.rabinovich
# Created on    : 09/19/2023 17:20:10
#------------------------------------------------------------------------------
~Version Information Section
VERS.           2.0     :   CWLS log ASCII Standard - VERSION 2.0
WRAP.           NO      :   One line per depth step
~Well Information Section
#MNEM       .UNIT                                         VALUE :DESCRIPTION
#------------------------------------------------------------------------------
STRT        .FT                                             613 :START DEPTH
STOP        .FT                                           12130 :STOP DEPTH
STEP        .FT                                             0.5 :STEP      
NULL        .                                           -999.25 :NULL      
COMP        .                                 CITIES SERVICE CO :COMPANY   
WELL        .                               OCS G03060 ST00BP00 :WELL      
FLD         .                                           WILDCAT :FIELD     
LOC         .                                                   :LOCATION  
CNTY        .                               MUSTANG ISLAND EAST :LOCATION  
STAT        .                                             TEXAS :STATE     
CTRY        .                                     UNITED STATES :COUNTRY   
SRVC        .                                                   :SERVICE COMPANY
DATE        .                             9/13/2023 11:12:08 AM :LOG DATE  
API         .                                    42712400440000 :API NUMBER
UWI         .                                    42712400440000 :UNIQUE WELL ID
XCOORD      .                                  632657.308411808 :SURFACE X 
YCOORD      .                                  10083439.8406154 :SURFACE Y 
LAT         .                                        27.7518805 :LATITUDE  
LON         .                                       -96.1160164 :LONGITUDE 
ELEV        .FT                                             103 :ELEVATION VALUE
ELEV_TYPE   .                                                KB :ELEVATION REFERENCE TYPE
~Curve Information Section
#MNEM       .UNIT                                      API CODE :CURVE DESCRIPTION
#------------------------------------------------------------------------------
DEPT        .FT                                                 :DEPTH     
ASFL        .OHMM                                               :          
CILD        .MMHO                                               :          
GR          .GAPI                                               :          
GR_NORM     .GAPI                                               :GammaRay Normalized
ILD         .OHMM                                               :          
SP          .MV                                                 :          
SP_NORM     .MV                                                 :SP Normalized
VSH_GR      .V/V                                                :Volume of Shale from GR
VSH_SP      .V/V                                                :Volume of Shale from SP
~A        DEPTH           ASFL           CILD             GR        GR_NORM            ILD             SP        SP_NORM         VSH_GR         VSH_SP
# ...
      4455.5000         0.7719       1395.971        49.9236       75.12772         0.7764      -115.4696      -1.558739      0.8963344      0.9688252
      4456.0000         0.7734       1388.686        50.3094       75.63091         0.7779      -115.2716       -1.36187      0.9070407      0.9727626
      4456.5000          0.775       1241.221        50.6033       76.01414         0.7987       -115.649      -1.740395      0.9151944      0.9651921
      4457.0000         0.7798       1191.789        50.4418       75.80281         0.8206       -116.027      -2.119522      0.9106981      0.9576095
      4457.5000         0.7944       1144.768        49.2867       74.29429         0.8424      -116.4048      -2.498451      0.8786019       0.950031
      4458.0000         0.9205        1094.74        48.1312       72.78524         0.8776      -116.2117      -2.306473      0.8464945      0.9538705
      4458.5000         0.9466       1036.992        48.5643       73.35019         0.9187       -115.869      -1.964905      0.8585147      0.9607019
      4459.0000         0.9839       1000.274        49.0458       73.97834         0.9598      -115.5262       -1.62323      0.8718796      0.9675354
      4459.5000         1.0361       976.9365        49.5272       74.60636         1.0081      -115.1836      -1.281754      0.8852417      0.9743649
      4460.0000         1.0896       960.7646        49.9041       75.09795         1.0608      -115.5331      -1.632378       0.895701      0.9673524
      4460.5000         1.1081       956.8613        50.2711        75.5766         1.1135      -116.0869      -2.187309      0.9058851      0.9562538
      4461.0000         1.1036       961.2031        50.6383       76.05553         1.1417      -116.5466      -2.648132      0.9160751      0.9470373
      4461.5000         1.0991       975.6455        50.4623       75.82527         1.1163      -117.0062      -3.108864       0.911176      0.9378227
      4462.0000         1.0647       1002.881        49.6226       74.72852         1.0908      -117.4656      -3.569382      0.8878407      0.9286124
      4462.5000         1.0205       1030.115        48.7239       73.55473         1.0628      -117.8403      -3.945213      0.8628666      0.9210957
      4463.0000         0.9903       1057.352        47.8245       72.38004         1.0297      -118.2119       -4.31794      0.8378733      0.9136412
      4463.5000          0.969       1084.586         45.553       69.41399         0.9966      -118.5802      -4.687363      0.7747658      0.9062527
      4464.0000         0.9476       1096.143        44.2578       67.72256         0.9634      -118.9337      -5.041992      0.7387778      0.8991601
      4464.5000         0.9307       1105.348         43.212       66.35673         0.9429      -119.2874       -5.39682      0.7097176      0.8920636
      4465.0000         0.9171       1114.553        41.5775       64.22231         0.9229      -115.5773      -1.687843      0.6643046      0.9662431
      4465.5000         0.9034       1123.758        39.8508       61.96754         0.9028      -115.4099      -1.521568      0.6163306      0.9695686
      4466.0000         0.8921       1132.955         39.528       61.54562         0.8844      -117.0165      -3.129303      0.6073536      0.9374139
      4466.5000          0.882       1141.186        39.2055        61.1241         0.8734      -118.5242      -4.638123      0.5983852      0.9072375
      4467.0000         0.8718       1147.225        39.8719       61.99364         0.8625      -119.5765      -5.691551      0.6168861       0.886169
      4467.5000         0.8617        1153.27        41.0201        63.4922         0.8515       -120.262      -6.378174      0.6487703      0.8724365
      4468.0000         0.8555       1159.309           42.6       65.55437         0.8406      -119.9957      -6.112999      0.6926463        0.87774
      4468.5000         0.8507       1165.355        44.1797       67.61628         0.8334       -119.033      -5.151428      0.7365166      0.8969715
      4469.0000          0.846         1171.4        45.8205       69.75796         0.8273      -117.2068      -3.326355      0.7820842      0.9334729
      4469.5000          0.841       1177.439        47.5881       72.06519         0.8211      -117.4998      -3.620483      0.8311741      0.9275903
      4470.0000         0.8353       1183.484        47.8046       72.34735          0.815      -117.7924      -3.914207      0.8371777      0.9217159
      4470.5000         0.8295       1192.906        44.0927       67.50079         0.8089       -114.928      -1.050934      0.7340593      0.9789813
      4471.0000         0.8238       1208.623        44.4534       67.97122         0.8027      -116.9966      -3.120659      0.7440686      0.9375868
      4471.5000         0.8142       1224.338        45.3329       69.11898         0.7965      -120.4884      -6.613594      0.7684889      0.8677281
      4472.0000         0.8017       1240.066        46.2117       70.26582         0.7901      -119.7308      -5.857109      0.7928898      0.8828578
      4472.5000         0.7904       1266.965        47.0912       71.41358         0.7836      -118.0303      -4.157738      0.8173103      0.9168453
      4473.0000         0.7812       1301.475        47.9707       72.56134         0.7771      -116.3317      -2.460266      0.8417307      0.9507947
      4473.5000         0.7719       1325.818        48.8495       73.70817         0.7707      -115.2592      -1.388893      0.8661312      0.9722221
      4474.0000         0.7629       1348.273        48.5728       73.34645         0.7642      -115.7172      -1.848022      0.8584351      0.9630396
      4474.5000         0.7573       1368.793        48.2531        72.9286         0.7577      -116.1753      -2.307243      0.8495446      0.9538552
      4475.0000         0.7518        1384.57        48.1827        72.8362         0.7513      -116.6334      -2.766472      0.8475786      0.9446706
      4475.5000         0.7463        1400.35        48.1204       72.75438         0.7448      -117.0914      -3.225601      0.8458378       0.935488
      4476.0000         0.7407       1416.127         48.058       72.67243         0.7383      -118.6884      -4.823723      0.8440943      0.9035255
      4476.5000         0.7352       1431.916        48.4409       73.17185         0.7321       -120.186      -6.322449      0.8547202       0.873551
      4477.0000         0.7299       1442.301        48.9686       73.86033         0.7275      -120.5704      -6.707977      0.8693687      0.8658404
      4477.5000         0.7252       1452.367         49.496       74.54838          0.723      -117.4581      -3.596802       0.884008       0.928064
      4478.0000         0.7205       1462.436        50.0238       75.23698         0.7184      -114.9615      -1.101334      0.8986592      0.9779733
      4478.5000         0.7158       1472.502        50.5512       75.92506         0.7138      -114.7164     -0.8573608      0.9132993      0.9828528
      4479.0000         0.7111        1482.57        51.0787       76.61325         0.7093      -115.4666      -1.608681      0.9279415      0.9678264
      4479.5000         0.7064       1492.637        51.6064       77.30171         0.7047      -116.2161      -2.359314      0.9425896      0.9528137
      4480.0000         0.7017       1502.711        51.8229       77.58389         0.7001      -115.6432      -1.787537      0.9485934      0.9642493
      4480.5000         0.6981       1510.754        51.7753       77.52126         0.6956      -117.0239      -3.169365      0.9472609      0.9366127
      4481.0000         0.6964       1518.303         50.958       76.45376          0.691      -118.4048      -4.551392       0.924548      0.9089721
      4481.5000         0.6947        1525.85        50.1407       75.38625         0.6865       -119.757      -5.904716      0.9018352      0.8819057
