#------------------------------------------------------------------------------
# Created by    : vladimir.rabinovich
# Created on    : 09/19/2023 17:21:38
#------------------------------------------------------------------------------
~Version Information Section
VERS.           2.0     :   CWLS log ASCII Standard - VERSION 2.0
WRAP.           NO      :   One line per depth step
~Well Information Section
#MNEM       .UNIT                                         VALUE :DESCRIPTION
#------------------------------------------------------------------------------
STRT        .FT                                            1242 :START DEPTH
STOP        .FT                                            7802 :STOP DEPTH
STEP        .FT                                             0.5 :STEP      
NULL        .                                           -999.25 :NULL      
COMP        .                                    CITIES SERVICE :COMPANY   
WELL        .                               OCS G03070 ST00BP00 :WELL      
FLD         .                                           WILDCAT :FIELD     
LOC         .                                                   :LOCATION  
CNTY        .                               MUSTANG ISLAND EAST :LOCATION  
STAT        .                                             TEXAS :STATE     
CTRY        .                                     UNITED STATES :COUNTRY   
SRVC        .                                                   :SERVICE COMPANY
DATE        .                             9/13/2023 11:20:08 AM :LOG DATE  
API         .                                    42712400230000 :API NUMBER
UWI         .                                    42712400230000 :UNIQUE WELL ID
XCOORD      .                                  541821.370048326 :SURFACE X 
YCOORD      .                                   9995115.4612029 :SURFACE Y 
LAT         .                                         27.502648 :LATITUDE  
LON         .                                       -96.3890109 :LONGITUDE 
ELEV        .FT                                              64 :ELEVATION VALUE
ELEV_TYPE   .                                                KB :ELEVATION REFERENCE TYPE
~Curve Information Section
#MNEM       .UNIT                                      API CODE :CURVE DESCRIPTION
#------------------------------------------------------------------------------
DEPT        .FT                                                 :DEPTH     
CALI        .IN                                                 :          
CILD        .MMHO                                               :          
DRHO        .G/C3                                               :          
DT          .US/F                                               :          
GR          .GAPI                                               :          
GR_1        .GAPI                                               :          
GR_NORM     .GAPI                                               :GammaRay Normalized
ILD         .OHMM                                               :          
NPHI        .%                                                  :          
RHOB        .G/C3                                               :          
SFL         .OHMM                                               :          
SP          .MV                                                 :          
SP_NORM     .MV                                                 :SP Normalized
VSH_GR      .V/V                                                :Volume of Shale from GR
VSH_SP      .V/V                                                :Volume of Shale from SP
~A        DEPTH           CALI           CILD           DRHO             DT             GR           GR_1        GR_NORM            ILD           NPHI           RHOB            SFL             SP        SP_NORM         VSH_GR         VSH_SP
# ...
      3418.0000        -999.25        988.835        -999.25       122.2743        -999.25       103.6986       77.38264         1.0052        -999.25        -999.25          1.157       -78.0004      -2.141113      0.9443116      0.9571778
      3418.5000        -999.25        979.085        -999.25       121.9424        -999.25       103.3684       76.97414          1.015        -999.25        -999.25         1.1939       -77.4181      -1.565506        0.93562      0.9686899
      3419.0000        -999.25       971.1387        -999.25       122.3422        -999.25       103.0466       76.57613         1.0201        -999.25        -999.25          1.225       -76.3772     -0.5312958      0.9271516      0.9893741
      3419.5000        -999.25       963.2002        -999.25       121.3856        -999.25       102.7864       76.25512         1.0179        -999.25        -999.25         1.2188       -75.4316       0.407608      0.9203217              1
      3420.0000        -999.25       955.2539        -999.25       120.7843        -999.25       102.5753       75.99549         1.0075        -999.25        -999.25         1.1834       -74.9385      0.8940277      0.9147977              1
      3420.5000        -999.25       948.0361        -999.25       121.7072        -999.25        102.364       75.73561         0.9924        -999.25        -999.25         1.1452        -74.874      0.9518356      0.9092683              1
      3421.0000        -999.25       943.5195        -999.25       124.4525        -999.25       102.1528       75.47585          0.963        -999.25        -999.25         1.1151       -75.4171      0.4020462      0.9037415              1
      3421.5000        -999.25       939.0059        -999.25       128.8076        -999.25       101.7865       75.02222         0.9266        -999.25        -999.25          1.087       -76.1957     -0.3832474      0.8940897      0.9923351
      3422.0000        -999.25       954.2695        -999.25        131.981        -999.25        101.323        74.4471         0.9002        -999.25        -999.25         1.0738       -76.4032     -0.5974274      0.8818532      0.9880515
      3422.5000        -999.25       979.3428        -999.25       134.8311        -999.25       101.8804       75.14809         0.8803        -999.25        -999.25         1.0861       -76.4119     -0.6128235       0.896768      0.9877436
      3423.0000        -999.25       1009.174        -999.25       136.8984        -999.25       102.6741       76.14447         0.8628        -999.25        -999.25         1.1044       -76.3922     -0.5998077      0.9179674      0.9880038
      3423.5000        -999.25       1041.527        -999.25         137.03        -999.25       103.5312       77.22008         0.8465        -999.25        -999.25         1.1151       -76.3163     -0.5306015      0.9408527       0.989388
      3424.0000        -999.25       1073.904        -999.25       136.5432        -999.25       104.4672       78.39433         0.8305        -999.25        -999.25         1.0974       -76.2074     -0.4283829      0.9658367      0.9914324
      3424.5000        -999.25       1106.258        -999.25        136.675        -999.25       105.1421       79.24219         0.8145        -999.25        -999.25         1.0445       -76.1698     -0.3974762      0.9838763      0.9920505
      3425.0000        -999.25       1138.139        -999.25        137.969        -999.25       105.6713       79.90794         0.7939        -999.25        -999.25         0.9989       -76.1785     -0.4128647      0.9980413      0.9917427
      3425.5000        -999.25       1169.896        -999.25        139.626        -999.25       105.1747       79.29143         0.7832        -999.25        -999.25         0.9909       -76.2168     -0.4578552       0.984924      0.9908429
      3426.0000        -999.25       1199.803        -999.25       140.4597        -999.25       104.6464        78.6353         0.7725        -999.25        -999.25          1.018       -76.3019     -0.5496521      0.9709638      0.9890069
      3426.5000        -999.25       1218.414        -999.25       141.0837        -999.25       104.1178       77.97879         0.7621        -999.25        -999.25         1.0706       -76.4304     -0.6848297      0.9569955      0.9863034
      3427.0000        -999.25       1237.039        -999.25       142.0981        -999.25       103.4526       77.15155         0.7531        -999.25        -999.25         1.0899       -76.8092       -1.07032      0.9393947      0.9785936
      3427.5000        -999.25        1255.65        -999.25       143.8601        -999.25       102.7804       76.31554         0.7442        -999.25        -999.25         1.0915       -76.0458     -0.3136139      0.9216073      0.9937277
      3428.0000        -999.25       1274.275        -999.25        144.564        -999.25       102.2721       75.68442         0.7365        -999.25        -999.25         1.0894       -74.7941      0.9313965      0.9081791              1
      3428.5000        -999.25       1285.041        -999.25       145.1362        -999.25       102.1615        75.5504         0.7295        -999.25        -999.25         1.0924       -73.9385       1.780312      0.9053277              1
      3429.0000        -999.25        1292.93        -999.25       145.5957        -999.25       102.1123       75.49315         0.7241        -999.25        -999.25         1.0915       -73.4982       2.213921      0.9041095              1
      3429.5000        -999.25       1300.826        -999.25       145.1169        -999.25       102.1036       75.48652         0.7206        -999.25        -999.25         1.0747       -73.2648       2.440628      0.9039685              1
      3430.0000        -999.25       1312.859        -999.25       144.5005        -999.25       102.0948       75.47977         0.7183        -999.25        -999.25         1.0366       -73.1796       2.519135      0.9038248              1
      3430.5000        -999.25       1325.072        -999.25       144.4468        -999.25       102.0841       75.47063         0.7203        -999.25        -999.25         1.0121       -73.3043       2.387756      0.9036304              1
      3431.0000        -999.25       1340.883        -999.25       144.4604        -999.25       102.0447       75.42563         0.7257        -999.25        -999.25          1.003        -73.625       2.060364      0.9026729              1
      3431.5000        -999.25       1357.779        -999.25       143.9341        -999.25       102.0052       75.38051         0.7325        -999.25        -999.25         0.9907       -74.1024       1.576271       0.901713              1
      3432.0000        -999.25       1374.678        -999.25       143.4192        -999.25       101.9548       75.32175         0.7432        -999.25        -999.25         0.9988       -74.4139        1.25808      0.9004627              1
      3432.5000        -999.25       1339.391        -999.25       143.3542        -999.25        101.884        75.2375         0.7595        -999.25        -999.25         1.0476       -74.6021       1.063194      0.8986701              1
      3433.0000        -999.25       1302.342        -999.25       143.5061        -999.25        101.813       75.15298         0.7818        -999.25        -999.25         1.1172       -74.5376        1.12101       0.896872              1
      3433.5000        -999.25       1265.291        -999.25        143.394        -999.25        101.731       75.05473          0.807        -999.25        -999.25         1.1586       -74.3585       1.293419      0.8947815              1
      3434.0000        -999.25       1232.926        -999.25       141.8391        -999.25       101.6132       74.91172         0.8335        -999.25        -999.25         1.1302       -74.1849       1.460327      0.8917387              1
      3434.5000        -999.25       1204.139        -999.25       139.2231        -999.25       101.4954       74.76871         0.8596        -999.25        -999.25         1.0839       -74.2384       1.400131      0.8886961              1
