#------------------------------------------------------------------------------
# Created by    : vladimir.rabinovich
# Created on    : 09/19/2023 17:20:22
#------------------------------------------------------------------------------
~Version Information Section
VERS.           2.0     :   CWLS log ASCII Standard - VERSION 2.0
WRAP.           NO      :   One line per depth step
~Well Information Section
#MNEM       .UNIT                                         VALUE :DESCRIPTION
#------------------------------------------------------------------------------
STRT        .FT                                             538 :START DEPTH
STOP        .FT                                           11949 :STOP DEPTH
STEP        .FT                                             0.5 :STEP      
NULL        .                                           -999.25 :NULL      
COMP        .                                 CITIES SERVICE CO :COMPANY   
WELL        .                               OCS G03070 ST00BP00 :WELL      
FLD         .                                           WILDCAT :FIELD     
LOC         .                                                   :LOCATION  
CNTY        .                               MUSTANG ISLAND EAST :LOCATION  
STAT        .                                             TEXAS :STATE     
CTRY        .                                     UNITED STATES :COUNTRY   
SRVC        .                                                   :SERVICE COMPANY
DATE        .                             9/13/2023 11:20:11 AM :LOG DATE  
API         .                                    42712400020000 :API NUMBER
UWI         .                                    42712400020000 :UNIQUE WELL ID
XCOORD      .                                  546520.538281646 :SURFACE X 
YCOORD      .                                  9992103.69354039 :SURFACE Y 
LAT         .                                        27.4947268 :LATITUDE  
LON         .                                       -96.3742825 :LONGITUDE 
ELEV        .FT                                              65 :ELEVATION VALUE
ELEV_TYPE   .                                                KB :ELEVATION REFERENCE TYPE
~Curve Information Section
#MNEM       .UNIT                                      API CODE :CURVE DESCRIPTION
#------------------------------------------------------------------------------
DEPT        .FT                                                 :DEPTH     
ASFL        .OHMM                                               :          
CILD        .MMHO                                               :          
DT          .US/F                                               :          
GR          .GAPI                                               :          
GR_NORM     .GAPI                                               :GammaRay Normalized
ILD         .OHMM                                               :          
SFL         .OHMM                                               :          
SP          .MV                                                 :          
SP_NORM     .MV                                                 :SP Normalized
VSH_GR      .V/V                                                :Volume of Shale from GR
VSH_SP      .V/V                                                :Volume of Shale from SP
~A        DEPTH           ASFL           CILD             DT             GR        GR_NORM            ILD            SFL             SP        SP_NORM         VSH_GR         VSH_SP
# ...
     10415.5000         0.3441       3576.688       115.0634        41.9814       78.76609         0.2703         0.3274      -100.4427      -1.027504      0.9737466      0.9794499
     10416.0000         0.3449       3556.246       115.0074        40.8186       77.25035         0.2746         0.3451       -99.5554     -0.1401978      0.9414968       0.997196
     10416.5000          0.345       3540.039       114.9344        38.6243       74.39151         0.2795         0.3636       -99.1191      0.2960968      0.8806704              1
     10417.0000         0.3444       3523.836       114.7163        37.0325       72.31718         0.2847         0.3858      -100.4071     -0.9918976      0.8365358       0.980162
     10417.5000         0.3438       3507.633       114.4464        36.6552       71.82423           0.29         0.3748      -100.5612      -1.146004      0.8260474      0.9770799
     10418.0000         0.3443       3491.426        114.037        36.7225       71.91018         0.2938         0.3701      -100.2089     -0.7937012      0.8278762       0.984126
     10418.5000          0.345       3473.625       113.7295         36.868       72.09797          0.296         0.3707       -99.9368     -0.5215988      0.8318717       0.989568
     10419.0000         0.3456        3440.57       113.5179        36.8889        72.1235         0.2966         0.3738       -99.7397      -0.324501       0.832415        0.99351
     10419.5000         0.3448       3407.563       113.6586        35.8212        70.7316         0.2954         0.3732        -99.746     -0.3308029      0.8027999      0.9933839
     10420.0000         0.3412       3374.504       113.9574        34.8001       69.40035          0.295          0.368       -99.8778     -0.4626007      0.7744756       0.990748
     10420.5000         0.3376       3923.762       114.1711        34.0012       68.35846         0.2888         0.3601      -100.2145     -0.7993011      0.7523077       0.984014
     10421.0000          0.334       3962.355       114.3286        33.7858       68.07631         0.2807         0.3446      -100.8464      -1.431198      0.7463045      0.9713761
     10421.5000          0.329         4003.5         114.58         34.308       68.75459         0.2767         0.3277      -101.6945      -2.279305      0.7607359      0.9544139
     10422.0000          0.324           4116       115.4994        35.0493       69.71813         0.2749         0.3144      -102.5088      -3.093597      0.7812368      0.9381281
     10422.5000          0.319       4143.328       115.8201        36.3857       71.45657         0.2734         0.3191      -102.9518      -3.536598       0.818225      0.9292681
     10423.0000         0.3143       4154.469       115.7336        37.6866       73.14877          0.272          0.331      -102.9307      -3.515503      0.8542292      0.9296899
     10423.5000           0.31       4123.984       115.4298        38.8538       74.66689         0.2711         0.3546      -103.4077        -3.9925      0.8865296        0.92015
     10424.0000         0.3056       4082.199       115.0664        39.6049       75.64322         0.2719         0.3643      -103.9907        -4.5755      0.9073026        0.90849
     10424.5000         0.3051       4040.516       114.6198        39.7816       75.87162         0.2731         0.3635      -104.1656      -4.750404      0.9121621      0.9049919
     10425.0000          0.305       4007.211        114.173        38.4623        74.1521         0.2749         0.3655      -103.8643      -4.449104      0.8755766      0.9110179
     10425.5000         0.3088       3981.688       113.8823        36.5772       71.69587         0.2769         0.3699      -103.6139        -4.1987      0.8233164       0.916026
     10426.0000          0.313        3941.25       113.6232        34.9744       69.60722         0.2781         0.3758      -104.4694      -5.054199       0.778877       0.898916
     10426.5000         0.3172       3853.012       113.4253        34.2975       68.72416         0.2776          0.365      -105.0701        -5.6549      0.7600885       0.886902
     10427.0000         0.3213       3747.109       113.3408        33.9828       68.31272         0.2764         0.3575      -104.8221      -5.406898      0.7513345       0.891862
     10427.5000         0.3255       3699.344       113.1958        33.7183       67.96663         0.2746         0.3275      -104.8422      -5.427002      0.7439708      0.8914599
     10428.0000         0.3296       3662.996       112.9495        33.4397       67.60222         0.2764         0.3258      -104.9231      -5.507904      0.7362174      0.8898419
     10428.5000         0.3343       3626.648       112.6808        33.8208       68.09676          0.279         0.3397      -105.4634      -6.048203      0.7467395      0.8790359
     10429.0000         0.3392       3583.668       112.2502        34.5627        69.0611         0.2822         0.3559      -106.1792         -6.764      0.7672575        0.86472
     10429.5000          0.344       3513.363        111.819        34.1279       68.49329         0.2849         0.3646      -106.2465      -6.831299      0.7551763       0.863374
     10430.0000         0.3488       3456.574       111.3599        35.0038       69.63209         0.2868         0.3579      -105.6046        -6.1894      0.7794061       0.876212
     10430.5000         0.3537       3426.809       110.8748        37.2988       72.61871         0.2886         0.3582       -104.743      -5.327797      0.8429512      0.8934441
     10431.0000         0.3555       3397.043       110.7654        39.3238       75.25374         0.2898         0.3653      -104.7092      -5.293999      0.8990157        0.89412
     10431.5000         0.3567       3367.273       110.4026        32.9887       67.00325          0.291          0.374      -104.9565      -5.541298      0.7234734       0.889174
     10432.0000         0.3562       3339.555       109.9456        29.7708        62.8116         0.2922         0.3744      -104.5037      -5.100418      0.6342894      0.8979917
     10432.5000         0.3553        3329.23       110.4249        30.6545       63.96056         0.2933         0.3632      -103.8815      -4.491394      0.6587354      0.9101721
     10433.0000         0.3545        3318.91       111.0226        31.7271       65.35551         0.2951         0.3565      -103.4185      -4.041565      0.6884152      0.9191687
     10433.5000         0.3537       3308.566       111.3773        32.8022        66.7537         0.2967         0.3501      -103.2354      -3.871635      0.7181638      0.9225673
     10434.0000         0.3524       3310.461       111.5703        34.1202       68.46818         0.2971           0.35      -103.1434      -3.792809      0.7546421      0.9241439
     10434.5000          0.351       3317.043       111.6162        35.4272       70.16833         0.2978         0.3535      -102.7365      -3.399086      0.7908157      0.9320183
     10435.0000         0.3496       3323.621       111.6296        36.1404       71.09531         0.2985         0.3571      -102.2308      -2.906548      0.8105384       0.941869
     10435.5000         0.3483       3330.203       111.6111        36.0642       70.99441         0.2994         0.3599      -102.0109      -2.699829      0.8083916      0.9460034
     10436.0000         0.3469       3336.785       111.6061        35.2456       69.92685         0.2998         0.3626      -103.1906        -3.8927      0.7856777       0.922146
     10436.5000         0.3455       3347.406       111.6774        34.3037       68.69874         0.2995         0.3654      -102.0443      -2.759567      0.7595476      0.9448087
     10437.0000         0.3442       3360.742       112.0377        35.2027       69.86764         0.2981         0.3677       -100.871      -1.599449      0.7844178       0.968011
     10437.5000         0.3438       3374.082       112.6702        36.8104       71.95932         0.2968          0.354       -99.8597     -0.6013184      0.8289217      0.9879736
