#------------------------------------------------------------------------------
# Created by    : vladimir.rabinovich
# Created on    : 09/19/2023 17:21:48
#------------------------------------------------------------------------------
~Version Information Section
VERS.           2.0     :   CWLS log ASCII Standard - VERSION 2.0
WRAP.           NO      :   One line per depth step
~Well Information Section
#MNEM       .UNIT                                         VALUE :DESCRIPTION
#------------------------------------------------------------------------------
STRT        .FT                                            1142 :START DEPTH
STOP        .FT                                            9163 :STOP DEPTH
STEP        .FT                                             0.5 :STEP      
NULL        .                                           -999.25 :NULL      
COMP        .                                    ORYX ENERGY CO :COMPANY   
WELL        .                               OCS G06199 ST00BP00 :WELL      
FLD         .                            HIGH ISLAND BLOCK 0129 :FIELD     
LOC         .                                                   :LOCATION  
CNTY        .                                  HIGH ISLAND EAST :LOCATION  
STAT        .                                             TEXAS :STATE     
CTRY        .                                     UNITED STATES :COUNTRY   
SRVC        .                                                   :SERVICE COMPANY
DATE        .                             9/13/2023 11:20:11 AM :LOG DATE  
API         .                                    42710400360000 :API NUMBER
UWI         .                                    42710400360000 :UNIQUE WELL ID
XCOORD      .                                  1376484.19293712 :SURFACE X 
YCOORD      .                                  10620179.8267869 :SURFACE Y 
LAT         .                                        29.2612476 :LATITUDE  
LON         .                                        -93.828002 :LONGITUDE 
ELEV        .FT                                              93 :ELEVATION VALUE
ELEV_TYPE   .                                                KB :ELEVATION REFERENCE TYPE
~Curve Information Section
#MNEM       .UNIT                                      API CODE :CURVE DESCRIPTION
#------------------------------------------------------------------------------
DEPT        .FT                                                 :DEPTH     
CALI        .IN                                                 :          
DRHO        .G/C3                                               :          
DT          .US/F                                               :          
GR          .GAPI                                               :          
GR_1        .GAPI                                               :          
GR_NORM     .GAPI                                               :GammaRay Normalized
ILD         .OHMM                                               :          
ILM         .OHMM                                               :          
NPHI        .%                                                  :          
RFOC        .OHMM                                               :          
RHOB        .G/C3                                               :          
SP          .MV                                                 :          
SP_NORM     .MV                                                 :SP Normalized
VSH_GR      .V/V                                                :Volume of Shale from GR
VSH_SP      .V/V                                                :Volume of Shale from SP
~A        DEPTH           CALI           DRHO             DT             GR           GR_1        GR_NORM            ILD            ILM           NPHI           RFOC           RHOB             SP        SP_NORM         VSH_GR         VSH_SP
# ...
      4882.0000        12.6329           0.03       124.6567        95.6023        91.4279        88.4949         0.8088         0.8011         40.222         1.0244         2.2274       -64.2662      -2.947636              1      0.9578909
      4882.5000        12.6298          0.006       124.9657        91.2347        92.3356       83.84814         0.8236         0.8131        39.3392         1.0485         2.2224       -64.4113      -3.090416              1      0.9558512
      4883.0000        12.6266        -0.0029       125.2749          88.17        93.0854       80.58744         0.8398         0.8182          38.11         1.0626         2.2102       -64.6992      -3.375996              1      0.9517715
      4883.5000        12.6266         0.0072       125.1342         87.158        93.6228       79.51047         0.8575         0.8233        36.7278         1.0396         2.1978        -64.976      -3.650467      0.9895844      0.9478505
      4884.0000        12.6373         0.0181       124.9701        87.8099        91.6974       80.20361         0.8689         0.8202        36.5211         0.9768         2.1939        -65.205      -3.877144              1      0.9446122
      4884.5000        12.6481         0.0168        124.465        90.0073        89.4133        82.5409         0.8715         0.8167        36.9947         0.9497         2.1971       -65.4338      -4.103619              1      0.9413769
      4885.0000        12.6588         0.0143         123.98        92.2097        91.2435       84.88351         0.8656         0.8127        37.4764         0.9598         2.2007       -65.1708      -3.838295              1      0.9451672
      4885.5000        12.6601         0.0167       123.8914        93.9147        94.1812       86.69697         0.8579         0.8085        37.6917         0.9675         2.2042       -64.8203       -3.48547              1      0.9502076
      4886.0000         12.657         0.0369       124.2661        95.5231        96.5946       88.40766         0.8552         0.8064        36.6328         0.9745         2.2046       -64.4756      -3.138451              1       0.955165
      4886.5000        12.6539         0.0502       124.6387        95.4545        97.7921       88.33431         0.8548         0.8087         34.979         0.9755         2.2036        -64.132       -2.79253              1      0.9601067
      4887.0000        12.6614         0.0525       124.9771        94.4059        98.3973       87.21841         0.8544         0.8118        36.0479         0.9559         2.2034       -63.9827      -2.640903              1      0.9622728
      4887.5000        12.6645          0.054       125.1256        93.1921        98.2205       85.92676         0.8634         0.8207        37.8799         0.9414         2.2065       -63.8988      -2.554676              1      0.9635046
      4888.0000        12.6676         0.0537       125.1707        91.8596        97.6935       84.50883         0.8728         0.8297        39.8885         0.9515         2.2069       -63.7587      -2.412254              1      0.9655392
      4888.5000        12.6611         0.0517       124.9985        90.4169        97.7123       82.97367         0.8824          0.838        39.5455         0.9932         2.2033       -63.5869      -2.238129              1      0.9680268
      4889.0000        12.6538         0.0492        124.516        88.7639         97.951        81.2148         0.8925         0.8461         38.009         1.0127         2.2002        -63.514      -2.162907              1      0.9691013
      4889.5000        12.6465         0.0453        124.192        87.8409        96.3715        80.2325          0.903         0.8543        36.9672         1.0142         2.2033       -63.5146      -2.161182              1       0.969126
      4890.0000        12.6382         0.0325       124.6792        89.6881         93.271       82.19724         0.9227         0.8598        38.7646         1.0089         2.2063       -63.7675      -2.411762              1      0.9655463
      4890.5000         12.629         0.0275       125.6499        91.7185        91.3989       84.35686         0.9375         0.8626        40.4289         0.9996         2.2041        -64.092       -2.73394              1      0.9609437
      4891.0000        12.6198          0.035       126.6292        91.1741        94.3958       83.77735         0.9428         0.8638        40.4949         0.9901         2.2011       -64.5712      -3.210808              1      0.9541313
      4891.5000        12.6153         0.0489       127.6017        87.9634        96.9856       80.36134         0.9337         0.8634        39.7772         0.9869         2.1985       -65.0592      -3.696484              1      0.9471931
      4892.0000        12.6118         0.0326       128.5139        85.0905        98.6184       77.30469         0.9247         0.8612        39.8722         0.9892            2.2       -65.2712      -3.906166      0.9426529      0.9441977
      4892.5000        12.6052         0.0287        129.426        85.7759        95.2443       78.03347         0.9083         0.8508        40.4666         0.9922         2.2059       -65.4819      -4.114544      0.9581589      0.9412208
      4893.0000        12.5863         0.0324       129.7415        91.0912        92.4829       83.68767         0.8921         0.8405        40.2195         0.9958         2.2107       -65.1543      -3.784615              1      0.9459341
      4893.5000        12.5674         0.0375       129.4778        96.0552        92.7585       88.96815         0.8756         0.8269        39.2961         0.9976         2.2119       -64.5771      -3.205097              1      0.9542129
      4894.0000        12.5462         0.0424       128.1118        94.0483        93.4622       86.83278         0.8584         0.8158        39.5515          0.999         2.2101       -63.9025      -2.528172              1      0.9638833
      4894.5000        12.5237         0.0477        126.524        90.5469        94.2434       83.10751         0.8416         0.8065        42.8042         0.9914         2.2082        -63.694      -2.317348              1       0.966895
      4895.0000         12.509         0.0532       126.3717        89.4185        94.9575       81.90672         0.8337         0.7996          44.55         0.9812         2.2068       -63.5237      -2.144722              1      0.9693611
      4895.5000        12.5104         0.0394       126.4354        91.7643        94.4155       84.40187         0.8273          0.802         45.296         0.9763         2.2055       -63.5536      -2.172298              1      0.9689671
      4896.0000        12.5122         0.0211       126.4299        94.0111        92.3929       86.79172         0.8226         0.8044        44.3385         0.9732         2.2081       -63.5834      -2.199776              1      0.9685746
      4896.5000        12.5168         0.0142       126.4243        92.5759        90.1669       85.26453         0.8278         0.8071        42.9883         0.9883         2.2256       -63.6138      -2.227852              1      0.9681736
      4897.0000         12.511         0.0345       126.4305        89.8936        92.6593       82.41065          0.833         0.8185        38.8003         1.0022         2.2354       -63.6383      -2.250031              1      0.9678567
      4897.5000        12.4963         0.0476       126.5652        87.4957         94.751       79.85932         0.8383         0.8301        33.9072         0.9923         2.2386       -63.5825      -2.191906      0.9970068      0.9686871
      4898.0000        12.4825         0.0575        127.368        88.3074        95.1073       80.72247         0.8495         0.8419        36.1103         0.9773         2.2347       -63.5268      -2.133881              1       0.969516
      4898.5000        12.4694         0.0643       128.7671         91.267        92.7753       83.87061         0.8614          0.854         38.473         0.9835         2.2292        -63.172      -1.776756              1      0.9746178
