#------------------------------------------------------------------------------
# Created by    : vladimir.rabinovich
# Created on    : 09/19/2023 17:20:10
#------------------------------------------------------------------------------
~Version Information Section
VERS.           2.0     :   CWLS log ASCII Standard - VERSION 2.0
WRAP.           NO      :   One line per depth step
~Well Information Section
#MNEM       .UNIT                                         VALUE :DESCRIPTION
#------------------------------------------------------------------------------
STRT        .FT                                             613 :START DEPTH
STOP        .FT                                           12130 :STOP DEPTH
STEP        .FT                                             0.5 :STEP      
NULL        .                                           -999.25 :NULL      
COMP        .                                 CITIES SERVICE CO :COMPANY   
WELL        .                               OCS G03060 ST00BP00 :WELL      
FLD         .                                           WILDCAT :FIELD     
LOC         .                                                   :LOCATION  
CNTY        .                               MUSTANG ISLAND EAST :LOCATION  
STAT        .                                             TEXAS :STATE     
CTRY        .                                     UNITED STATES :COUNTRY   
SRVC        .                                                   :SERVICE COMPANY
DATE        .                             9/13/2023 11:12:08 AM :LOG DATE  
API         .                                    42712400440000 :API NUMBER
UWI         .                                    42712400440000 :UNIQUE WELL ID
XCOORD      .                                  632657.308411808 :SURFACE X 
YCOORD      .                                  10083439.8406154 :SURFACE Y 
LAT         .                                        27.7518805 :LATITUDE  
LON         .                                       -96.1160164 :LONGITUDE 
ELEV        .FT                                             103 :ELEVATION VALUE
ELEV_TYPE   .                                                KB :ELEVATION REFERENCE TYPE
~Curve Information Section
#MNEM       .UNIT                                      API CODE :CURVE DESCRIPTION
#------------------------------------------------------------------------------
DEPT        .FT                                                 :DEPTH     
ASFL        .OHMM                                               :          
CILD        .MMHO                                               :          
GR          .GAPI                                               :          
GR_NORM     .GAPI                                               :GammaRay Normalized
ILD         .OHMM                                               :          
SP          .MV                                                 :          
SP_NORM     .MV                                                 :SP Normalized
VSH_GR      .V/V                                                :Volume of Shale from GR
VSH_SP      .V/V                                                :Volume of Shale from SP
~A        DEPTH           ASFL           CILD             GR        GR_NORM            ILD             SP        SP_NORM         VSH_GR         VSH_SP
# ...
      3687.0000          0.831       1109.842        51.7874       78.10758         0.9039      -122.2257      -6.583588      0.9597358      0.8683283
      3687.5000         0.8252       1118.867        52.4769       79.00751         0.9008      -122.3513       -6.71032      0.9788831      0.8657936
      3688.0000         0.8229       1127.723        53.1819       79.92767         0.8934      -122.4285      -6.788635      0.9984609      0.8642273
      3688.5000         0.8207       1136.586        53.8865        80.8473         0.8861      -122.5056      -6.866867              1      0.8626627
      3689.0000         0.8185       1145.443        54.5916       81.76758         0.8787      -122.5828      -6.945198              1       0.861096
      3689.5000         0.8138       1154.301        53.7078       80.61348         0.8713      -122.6599      -7.023415              1      0.8595317
      3690.0000         0.8092       1163.164         52.299       78.77396         0.8639      -122.7371      -7.101746       0.973914      0.8579651
      3690.5000         0.8045       1171.381        51.0743       77.17477         0.8565      -122.6683      -7.034073      0.9398888      0.8593186
      3691.0000         0.7995       1178.545        51.7432       78.04781         0.8491      -121.9531          -6.32       0.958464         0.8736
      3691.5000         0.7877       1185.701        52.4125       78.92135         0.8417      -121.2378      -5.605827      0.9770499      0.8878834
      3692.0000         0.7759       1192.889        53.2033       79.95353         0.8335      -120.5226      -4.891747      0.9990113      0.9021651
      3692.5000         0.7641       1201.744        54.1605       81.20293         0.8253      -120.5648      -4.935074              1      0.9012985
      3693.0000          0.759       1210.602        55.1177       82.45236          0.817       -120.948      -5.319405              1      0.8936119
      3693.5000         0.7542       1219.465        55.5225       82.98059         0.8088      -121.2899       -5.66243              1      0.8867514
      3694.0000         0.7495       1228.322        55.0829        82.4064         0.8005       -121.369      -5.742661              1      0.8851468
      3694.5000         0.7463       1240.494        53.2543       80.01881         0.7923       -119.757       -4.13179              1      0.9173642
      3695.0000         0.7458       1254.242        51.4257       77.63121         0.7841      -120.5194      -4.895309      0.9496002      0.9020938
      3695.5000         0.7453       1267.984        51.3556       77.53942         0.7761      -121.9562      -6.333237      0.9476473      0.8733352
      3696.0000         0.7448       1281.732        51.5427       77.78344         0.7774      -122.2578      -6.635963      0.9528391      0.8672807
      3696.5000         0.7452       1298.012        51.7299       78.02758         0.7788      -122.1921      -6.571388      0.9580336      0.8685722
      3697.0000         0.7456       1294.723        51.9171       78.27171         0.7801      -122.1262      -6.506615      0.9632279      0.8698677
      3697.5000         0.7459        1278.25        52.1041       78.51559         0.7814      -122.0604       -6.44194      0.9684169      0.8711612
      3698.0000         0.7463       1261.777        52.6746       79.26014         0.7829      -121.9946      -6.377266      0.9842583      0.8724547
      3698.5000         0.7467       1242.586        53.3221       80.10525         0.7883      -121.9288      -6.312599              1       0.873748
      3699.0000         0.7456       1220.924        53.9699       80.95072         0.7938      -121.8931      -6.278015              1      0.8744397
      3699.5000         0.7435       1199.262        54.6174       81.79581         0.7992      -121.9175      -6.303551              1       0.873929
      3700.0000         0.7414       1177.602        55.0798       82.39923         0.8046      -121.9418      -6.328979              1      0.8734204
      3700.5000         0.7393       1172.008        54.1437       81.17685           0.81      -121.9662        -6.3545              1        0.87291
      3701.0000         0.7369       1172.592         53.207       79.95367         0.8154      -121.9905      -6.379929      0.9990143      0.8724014
      3701.5000         0.7339       1173.178         52.271       78.73141         0.8208      -122.0149      -6.405457      0.9730088      0.8718908
      3702.0000         0.7311       1173.762        51.7147       78.00487         0.8255      -122.0392      -6.430878      0.9575503      0.8713825
      3702.5000         0.7289       1174.348        51.5793       77.82784         0.8279      -122.0636      -6.456406      0.9537838      0.8708719
      3703.0000         0.7267       1174.934        51.9538       78.31651         0.8303       -122.088      -6.481926      0.9641809      0.8703615
      3703.5000         0.7245       1175.518        52.3282       78.80505         0.8328      -122.1538      -6.548859      0.9745755      0.8690228
      3704.0000         0.7235       1176.104        52.7026       79.29359         0.8352       -122.256      -6.652184      0.9849701      0.8669564
      3704.5000         0.7266       1176.688        53.0864        79.7944         0.8376      -122.3582      -6.755508      0.9956256      0.8648899
      3705.0000         0.7297       1175.723        53.5289       80.37185         0.8401      -122.4603      -6.858734              1      0.8628253
      3705.5000         0.7328       1174.152        51.4817       77.69886         0.8425      -122.5625      -6.962067      0.9510396      0.8607587
      3706.0000         0.7359       1172.584        52.6473       79.22036         0.8449      -122.6086      -7.009285      0.9834119      0.8598143
      3706.5000          0.739       1171.014        54.9274       82.19689         0.8474      -122.5664      -6.968216              1      0.8606357
      3707.0000         0.7421       1169.445         57.021       84.92994         0.8498      -122.5243      -6.927246              1      0.8614551
      3707.5000         0.7452       1167.877        58.5918       86.98045         0.8522      -122.4821      -6.886169              1      0.8622766
      3708.0000         0.7479       1166.309        57.9626       86.15874         0.8547      -122.4399        -6.8451              1       0.863098
      3708.5000         0.7503        1164.74        57.3336       85.33728         0.8571      -122.3977      -6.804016              1      0.8639197
      3709.0000         0.7527       1159.334        56.0519       83.66368         0.8595      -122.3527      -6.760147              1      0.8647971
      3709.5000         0.7551       1153.484        52.9943       79.67155          0.862      -122.1815       -6.59008      0.9930118      0.8681984
      3710.0000         0.7575       1147.631        51.1844       77.30837         0.8669      -122.0105      -6.420197      0.9427313      0.8715961
      3710.5000          0.761       1139.572         52.452       78.96304         0.8729      -121.8375      -6.248329      0.9779371      0.8750334
      3711.0000         0.7662       1130.418        53.7195       80.61758          0.879      -121.6006      -6.012558              1      0.8797488
      3711.5000         0.7713       1121.268        54.6699       81.85811          0.885      -121.3636       -5.77668              1      0.8844664
      3712.0000         0.7779       1112.113        55.4014       82.81287         0.8911      -121.1267      -5.540909              1      0.8891819
      3712.5000          0.785       1103.004         55.077       82.38909         0.8971      -120.8948      -5.310135              1      0.8937973
      3713.0000          0.792       1098.555          54.71       81.90968         0.9002      -120.6902      -5.106659              1      0.8978668
