#------------------------------------------------------------------------------
# Created by    : vladimir.rabinovich
# Created on    : 09/19/2023 17:21:48
#------------------------------------------------------------------------------
~Version Information Section
VERS.           2.0     :   CWLS log ASCII Standard - VERSION 2.0
WRAP.           NO      :   One line per depth step
~Well Information Section
#MNEM       .UNIT                                         VALUE :DESCRIPTION
#------------------------------------------------------------------------------
STRT        .FT                                            1142 :START DEPTH
STOP        .FT                                            9163 :STOP DEPTH
STEP        .FT                                             0.5 :STEP      
NULL        .                                           -999.25 :NULL      
COMP        .                                    ORYX ENERGY CO :COMPANY   
WELL        .                               OCS G06199 ST00BP00 :WELL      
FLD         .                            HIGH ISLAND BLOCK 0129 :FIELD     
LOC         .                                                   :LOCATION  
CNTY        .                                  HIGH ISLAND EAST :LOCATION  
STAT        .                                             TEXAS :STATE     
CTRY        .                                     UNITED STATES :COUNTRY   
SRVC        .                                                   :SERVICE COMPANY
DATE        .                             9/13/2023 11:20:11 AM :LOG DATE  
API         .                                    42710400360000 :API NUMBER
UWI         .                                    42710400360000 :UNIQUE WELL ID
XCOORD      .                                  1376484.19293712 :SURFACE X 
YCOORD      .                                  10620179.8267869 :SURFACE Y 
LAT         .                                        29.2612476 :LATITUDE  
LON         .                                        -93.828002 :LONGITUDE 
ELEV        .FT                                              93 :ELEVATION VALUE
ELEV_TYPE   .                                                KB :ELEVATION REFERENCE TYPE
~Curve Information Section
#MNEM       .UNIT                                      API CODE :CURVE DESCRIPTION
#------------------------------------------------------------------------------
DEPT        .FT                                                 :DEPTH     
CALI        .IN                                                 :          
DRHO        .G/C3                                               :          
DT          .US/F                                               :          
GR          .GAPI                                               :          
GR_1        .GAPI                                               :          
GR_NORM     .GAPI                                               :GammaRay Normalized
ILD         .OHMM                                               :          
ILM         .OHMM                                               :          
NPHI        .%                                                  :          
RFOC        .OHMM                                               :          
RHOB        .G/C3                                               :          
SP          .MV                                                 :          
SP_NORM     .MV                                                 :SP Normalized
VSH_GR      .V/V                                                :Volume of Shale from GR
VSH_SP      .V/V                                                :Volume of Shale from SP
~A        DEPTH           CALI           DRHO             DT             GR           GR_1        GR_NORM            ILD            ILM           NPHI           RFOC           RHOB             SP        SP_NORM         VSH_GR         VSH_SP
# ...
      8078.0000        11.1982         0.0781        104.937        81.0327        87.1831       75.43787         0.9181         0.9222        29.6161         1.0877         2.3303       -53.4587       2.096855      0.9029335              1
      8078.5000        11.1997         0.0854       105.8174        79.8914        84.7435       74.22373         0.9132         0.9103        31.4717         1.0727         2.3252       -53.4506       2.104954      0.8771007              1
      8079.0000        11.2012         0.0935       107.1232        78.4611        82.1827       72.70213         0.9097         0.9024        33.3126         1.0608          2.318       -53.6426       1.912952      0.8447261              1
      8079.5000         11.205         0.0921       108.5151        76.9567        82.5935       71.10171         0.9063         0.8946        34.0725         1.0496         2.3098        -53.901       1.654552      0.8106746              1
      8080.0000         11.211         0.0725       109.8282        75.5313        84.5951       69.58533         0.9114         0.8948        33.8646         1.0417         2.3002       -54.2007       1.354855      0.7784112              1
      8080.5000        11.2171         0.0521       110.1455        74.4723        85.4792       68.45872         0.9188         0.9024        33.3303         1.0774         2.2888       -54.2026       1.352955       0.754441              1
      8081.0000        11.2189         0.0455       108.6208         75.257         85.496       69.29352         0.9263         0.9102        32.7715          1.115         2.2779        -53.951       1.604553      0.7722025              1
      8081.5000        11.2204         0.0469       107.0568        77.1913        85.1394       71.35128         0.9421         0.9213         33.065         1.1396         2.2703       -53.8351       1.720455      0.8159847              1
      8082.0000        11.2204         0.0519       105.3796         78.298        84.2845       72.52862         0.9581         0.9368        33.7072         1.1539         2.2804       -54.0298       1.525753      0.8410344              1
      8082.5000        11.2186         0.0612        103.714        77.4432        82.7766       71.61926         0.9744         0.9525         34.067         1.1322         2.3024       -54.4597       1.095852      0.8216863              1
      8083.0000        11.2159         0.0766       103.6177         75.504        81.2302       69.55627         0.9928         0.9685         33.961         1.1182         2.3157       -54.8955      0.6600533       0.777793              1
      8083.5000        11.2057         0.0856       103.4474        73.7699         80.337       67.71149         1.0122         0.9847        33.4111         1.1202         2.3211       -55.3721      0.1834526      0.7385423              1
      8084.0000        11.1956         0.0781       103.2657        73.6315        78.8699       67.56425         1.0321         0.9978        32.7649         1.1383         2.3191       -55.6087    -0.05314636      0.7354097      0.9992408
      8084.5000        11.1831         0.0718       102.9131        74.4294        76.3066       68.41309         1.0507         1.0454        32.1995         1.1653         2.3268       -55.5985    -0.04294586      0.7534699      0.9993865
      8085.0000        11.1698         0.0787       102.5129        73.4697        74.3719       67.39214         1.0689         1.0531        31.7415         1.1658         2.3343       -55.3759      0.1796532      0.7317476              1
      8085.5000        11.1612         0.0797        102.058        72.4594        75.4061       66.31734         1.0856           1.06        31.3454         1.1623         2.3375        -54.744       0.811554      0.7088795              1
      8086.0000        11.1528          0.074       101.5741        73.2943        77.8159       67.20553         1.0963          1.067        30.9975         1.1564         2.3423       -54.1122       1.443352      0.7277772              1
      8086.5000        11.1436         0.0773       101.2861        73.9823        80.1404       67.93745         1.1058         1.0698        31.9727         1.1698         2.3511       -53.6481       1.907452      0.7433499              1
      8087.0000        11.1343         0.0819       101.1434        74.4014        81.2512        68.3833         1.0999         1.0726        32.4892         1.1782         2.3551       -53.1919       2.363655      0.7528362              1
      8087.5000        11.1219         0.0795       101.2417         75.304        82.3634       69.34351          1.094         1.0714        32.4892         1.1779         2.3484       -52.9996       2.555954      0.7732663              1
      8088.0000        11.1089         0.0817       101.3556        76.5972        82.2867       70.71925         1.0867         1.0657        31.0627         1.1712          2.337       -52.9293       2.626255      0.8025373              1
      8088.5000        11.0883         0.0848       101.5129        77.6925        80.4312       71.88447         1.0792           1.06        29.8103         1.1535         2.3287       -52.8589       2.696655      0.8273291              1
      8089.0000        11.0677         0.0724       101.7253        77.9651        78.4839       72.17448         1.0706         1.0496        29.4517         1.1203         2.3289        -52.923       2.632553      0.8334995              1
      8089.5000        11.0434         0.0703       102.1163        78.3066        77.1121       72.53777         1.0606         1.0391        29.8258         1.0891         2.3333       -53.0079       2.547653      0.8412292              1
      8090.0000        11.0185         0.0815       102.8295        78.6013        78.9788       72.85128         1.0507          1.026        30.4135         1.0713         2.3366       -53.1942       2.361355      0.8478996              1
      8090.5000        10.9974         0.0936        103.451        77.3531        83.2739       71.52341         1.0407         1.0128        30.4483         1.0837         2.3393       -53.5596       1.995953       0.819647              1
      8091.0000        10.9784         0.0817       103.6427        76.7294         86.134       70.85989         1.0289         1.0028        29.8103         1.1029          2.342       -53.8831       1.672455      0.8055297              1
      8091.5000        10.9604         0.0693       103.7057        78.4277         88.665        72.6666         1.0151         0.9964        28.9877         1.1025         2.3452       -54.0014       1.554153      0.8439701              1
      8092.0000          10.95         0.0673       103.7729        79.0854        89.1117       73.36628         1.0047         0.9901        29.4501         1.0909         2.3502       -54.1198       1.435753       0.858857              1
      8092.5000        10.9397         0.0725       104.0129        79.2101        89.6455       73.49894         0.9952         0.9896        31.1605         1.0762         2.3543       -53.4175       2.138054      0.8616796              1
      8093.0000        10.9241         0.0786       104.5792         78.907        90.9078       73.17649         0.9882         0.9911          32.57         1.0635         2.3523       -52.6861       2.869453      0.8548189              1
      8093.5000        10.9072         0.0874        105.194        78.0325        92.0051       72.24617         0.9828         0.9925        33.1154         1.0552         2.3449       -52.3456       3.209953      0.8350249              1
      8094.0000        10.8899         0.0953       105.8346        77.3334        92.3318       71.50245         0.9807         0.9957        32.0186         1.0526         2.3352       -52.1446       3.410954      0.8192011              1
      8094.5000        10.8711         0.0984        105.834        77.9818        91.5883       72.19223         0.9812         0.9996        31.3287         1.0631         2.3271       -52.2729       3.282654      0.8338773              1
