#------------------------------------------------------------------------------
# Created by    : vladimir.rabinovich
# Created on    : 09/19/2023 17:21:28
#------------------------------------------------------------------------------
~Version Information Section
VERS.           2.0     :   CWLS log ASCII Standard - VERSION 2.0
WRAP.           NO      :   One line per depth step
~Well Information Section
#MNEM       .UNIT                                         VALUE :DESCRIPTION
#------------------------------------------------------------------------------
STRT        .FT                                             999 :START DEPTH
STOP        .FT                                           14605 :STOP DEPTH
STEP        .FT                                             0.5 :STEP      
NULL        .                                           -999.25 :NULL      
COMP        .                                      GETTY OIL CO :COMPANY   
WELL        .                               OCS G03116 ST00BP00 :WELL      
FLD         .                                           WILDCAT :FIELD     
LOC         .                                                   :LOCATION  
CNTY        .                                  HIGH ISLAND EAST :LOCATION  
STAT        .                                             TEXAS :STATE     
CTRY        .                                     UNITED STATES :COUNTRY   
SRVC        .                                                   :SERVICE COMPANY
DATE        .                             9/13/2023 11:19:51 AM :LOG DATE  
API         .                                    42710400090000 :API NUMBER
UWI         .                                    42710400090000 :UNIQUE WELL ID
XCOORD      .                                  1371379.55461592 :SURFACE X 
YCOORD      .                                  10664640.0845049 :SURFACE Y 
LAT         .                                        29.3834483 :LATITUDE  
LON         .                                       -93.8450221 :LONGITUDE 
ELEV        .FT                                              80 :ELEVATION VALUE
ELEV_TYPE   .                                                KB :ELEVATION REFERENCE TYPE
~Curve Information Section
#MNEM       .UNIT                                      API CODE :CURVE DESCRIPTION
#------------------------------------------------------------------------------
DEPT        .FT                                                 :DEPTH     
CALI        .IN                                                 :          
DRHO        .G/C3                                               :          
GR          .GAPI                                               :          
GR_NORM     .GAPI                                               :GammaRay Normalized
NPHI        .%                                                  :          
RHOB        .G/C3                                               :          
VSH_GR      .V/V                                                :Volume of Shale from GR
~A        DEPTH           CALI           DRHO             GR        GR_NORM           NPHI           RHOB         VSH_GR
# ...
      5521.5000        11.7569        -0.0041        64.6156       79.28305        48.4619         2.0911      0.9847457
      5522.0000        11.7229         0.0014          62.87       76.65736        47.9376         2.1115      0.9288799
      5522.5000         11.678        -0.0056        62.6801       76.37144        46.5233         2.1313      0.9227967
      5523.0000        11.6406        -0.0078        63.2381       77.21036        46.7631         2.1514      0.9406459
      5523.5000        11.6069         -0.004        62.5216       76.13242         47.525         2.1443      0.9177111
      5524.0000        11.5789         -0.008        61.1835       74.11961        48.3293         2.1438      0.8748853
      5524.5000        11.5319        -0.0263        59.8529        72.1181        47.6352         2.1403      0.8322999
      5525.0000        11.5025        -0.0425        58.8614       70.62656        46.2574         2.1355       0.800565
      5525.5000        11.4714        -0.0561         57.992       69.31865        45.1678         2.1616      0.7727372
      5526.0000        11.3177        -0.0773        57.6381       68.78608        44.3895         2.1823      0.7614059
      5526.5000        11.1469        -0.0835        57.6208       68.75975        42.8493         2.2122      0.7608458
      5527.0000        11.0719        -0.0767        56.6918       67.36224        42.6184         2.2177      0.7311114
      5527.5000        11.0799        -0.0763        56.4985       67.07119         43.962         2.2106       0.724919
      5528.0000        11.0856        -0.0801        56.5963       67.21796        45.4709         2.2151      0.7280418
      5528.5000        11.0897        -0.0821        55.5995       65.71847        46.1147          2.225      0.6961376
      5529.0000        11.0933        -0.0833        54.5784       64.18243        44.9823         2.2134      0.6634559
      5529.5000        11.0965        -0.0814        54.1724       63.57149        43.6358         2.2276      0.6504573
      5530.0000        11.0997        -0.0775        54.2606       63.70383         42.535         2.2379       0.653273
      5530.5000        11.0979         -0.074        54.7092       64.37821         42.141         2.2483      0.6676216
      5531.0000        11.0952        -0.0789        55.1846        65.0929        42.6921         2.2534      0.6828277
      5531.5000        11.0927        -0.0797        55.5887       65.70036        42.5112          2.244      0.6957523
      5532.0000        11.0914        -0.0725        55.6242       65.75343        42.0775          2.253      0.6968815
      5532.5000        11.0901        -0.0731        56.6502       67.29622        42.4504         2.2365      0.7297068
      5533.0000        11.0936        -0.0784        57.3766       68.38841        42.5735         2.2338      0.7529449
      5533.5000        11.1002         -0.081        57.0153       67.84472        42.1142         2.2441       0.741377
      5534.0000        11.1076        -0.0702        56.0052        66.3252        41.2726         2.2508      0.7090469
      5534.5000        11.1212        -0.0632        54.8497       64.58703        41.3076         2.2417      0.6720644
      5535.0000        11.1348        -0.0743        53.7633       62.95277        41.5735         2.2153       0.637293
      5535.5000        11.1445        -0.0849        52.8149       61.52607        40.8392         2.1977      0.6069376
      5536.0000        11.1529        -0.0946        52.2742       60.71254        40.1696         2.1914      0.5896284
      5536.5000        11.1485        -0.0978        52.9531        61.7333        39.4769          2.202      0.6113467
      5537.0000        11.0711         -0.085        51.1538       59.02682        38.4454         2.2128      0.5537623
      5537.5000        11.0257        -0.0849        48.6898       55.32066         37.993         2.2071      0.4749076
      5538.0000         11.052        -0.0715        46.6353       52.23038        37.6098         2.2104      0.4091569
      5538.5000        11.1188        -0.0719         46.028       51.31669        37.9531         2.1508      0.3897168
      5539.0000        11.2168        -0.0733        46.6575       52.26315        38.5311         2.1193      0.4098541
      5539.5000        11.2839        -0.0675        47.4504       53.45535        38.5452         2.1172      0.4352202
      5540.0000        11.2135        -0.0783        49.7529         56.918        38.0239         2.1271      0.5088935
      5540.5000        11.1077        -0.0864        53.1614       62.04408        37.5942         2.1426       0.617959
      5541.0000        11.0396        -0.0908         55.882       66.13554        37.0519         2.1716      0.7050115
      5541.5000        10.9844        -0.0893        57.5258        68.6075          37.16         2.2052      0.7576063
      5542.0000        10.9482        -0.0898        58.7516       70.45078        37.4753         2.2174       0.796825
      5542.5000        10.9544        -0.0922        59.8171       72.05299        37.0579         2.2221      0.8309147
      5543.0000        10.9586        -0.0968        61.2662       74.23212        37.6776         2.2183      0.8772792
      5543.5000        10.9618        -0.1017        63.2393       77.19936        40.3871         2.1979       0.940412
      5544.0000        10.9644        -0.1035        64.5699       79.20027        42.1671         2.1909      0.9829845
      5544.5000        10.9701        -0.0977        62.9865       76.81853         43.679         2.1983      0.9323091
      5545.0000        10.9714        -0.0897         61.355       74.36443        44.5705         2.2028      0.8800942
      5545.5000        10.9694        -0.0873        60.3043       72.78387        43.2649         2.2095      0.8464654
      5546.0000        10.9697         -0.092        60.1699       72.58142        41.3657         2.2136      0.8421579
      5546.5000        10.9754        -0.0955        60.0413        72.3877         39.398         2.2074      0.8380361
      5547.0000         10.978        -0.0899        59.5317       71.62095        38.5272         2.2139      0.8217223
      5547.5000        10.9731        -0.0837        58.9904       70.80652        38.8491         2.2109       0.804394
      5548.0000        10.9637        -0.0829        59.2198       71.15121        39.4203         2.2345      0.8117279
      5548.5000        10.9527        -0.0769        61.2736       74.23984        38.9601         2.2439      0.8774434
      5549.0000        10.9283        -0.0819        63.2282       77.17922         37.329         2.2301      0.9399834
      5549.5000        10.9004        -0.0859        64.3849       78.91859        37.2352         2.2101      0.9769914
      5550.0000        10.8704        -0.0728        64.5477       79.16313        38.3017         2.2138      0.9821943
      5550.5000        10.8338        -0.0646        63.0151        76.8578        39.7391         2.2133      0.9331446
      5551.0000        10.7873        -0.0715        64.2308       78.68588        40.8548         2.2144      0.9720401
      5551.5000        10.7352        -0.0659        65.9561       81.28043        41.0414           2.23              1
      5552.0000        10.6724        -0.0572        67.2177       83.17756        41.2555         2.2319              1
      5552.5000        10.7449        -0.0508        69.8912        87.1982        42.3697         2.2265              1
      5553.0000        10.9745        -0.0506        70.7711       88.52126        43.2194         2.1968              1
      5553.5000        11.0245        -0.0578        68.9146       85.72875        43.6058         2.1902              1
      5554.0000        11.0096        -0.0622        65.8488       81.11749        43.1472         2.1812              1
      5554.5000        11.0051        -0.0538        63.4354       77.48743        40.3677         2.1959       0.946541
