#------------------------------------------------------------------------------
# Created by    : vladimir.rabinovich
# Created on    : 09/19/2023 17:19:33
#------------------------------------------------------------------------------
~Version Information Section
VERS.           2.0     :   CWLS log ASCII Standard - VERSION 2.0
WRAP.           NO      :   One line per depth step
~Well Information Section
#MNEM       .UNIT                                         VALUE :DESCRIPTION
#------------------------------------------------------------------------------
STRT        .FT                                          3947.5 :START DEPTH
STOP        .FT                                           10890 :STOP DEPTH
STEP        .FT                                             0.5 :STEP      
NULL        .                                           -999.25 :NULL      
COMP        .                          PALM ENERGY OFFSHORE LLC :COMPANY   
WELL        .                               OCS G21349 ST00BP00 :WELL      
FLD         .                            HIGH ISLAND BLOCK 0074 :FIELD     
LOC         .                                                   :LOCATION  
CNTY        .                                  HIGH ISLAND EAST :LOCATION  
STAT        .                                             TEXAS :STATE     
CTRY        .                                     UNITED STATES :COUNTRY   
SRVC        .                                                   :SERVICE COMPANY
DATE        .                             9/13/2023 11:20:11 AM :LOG DATE  
API         .                                    42710401490000 :API NUMBER
UWI         .                                    42710401490000 :UNIQUE WELL ID
XCOORD      .                                  1378068.78051204 :SURFACE X 
YCOORD      .                                  10648064.4011202 :SURFACE Y 
LAT         .                                        29.3379836 :LATITUDE  
LON         .                                       -93.8236467 :LONGITUDE 
ELEV        .FT                                             104 :ELEVATION VALUE
ELEV_TYPE   .                                                KB :ELEVATION REFERENCE TYPE
~Curve Information Section
#MNEM       .UNIT                                      API CODE :CURVE DESCRIPTION
#------------------------------------------------------------------------------
DEPT        .FT                                                 :DEPTH     
AHFCO90     .MMHO                                               :          
AHT10       .OHMM                                               :          
AHT20       .OHMM                                               :          
AHT30       .OHMM                                               :          
AHT60       .OHMM                                               :          
AHT90       .OHMM                                               :          
DCAL        .IN                                                 :          
DPHZ        .V/V                                                :          
DTLF        .US/F                                               :          
DTLN        .US/F                                               :          
GR          .GAPI                                               :          
GR_NORM     .GAPI                                               :GammaRay Normalized
HDRA        .G/CC                                               :          
NPOR        .V/V                                                :          
RWA         .OHMM                                               :          
SP          .MV                                                 :          
SPHI        .V/V                                                :          
TENS        .LB/F                                               :          
VSH_GR      .V/V                                                :Volume of Shale from GR
~A        DEPTH        AHFCO90          AHT10          AHT20          AHT30          AHT60          AHT90           DCAL           DPHZ           DTLF           DTLN             GR        GR_NORM           HDRA           NPOR            RWA             SP           SPHI           TENS         VSH_GR
# ...
      9482.5000       872.2198         1.0075         1.0915         1.1177         1.1306         1.1465         0.5578         0.1577       103.6265       103.5882        76.1296       67.93919         0.0341           0.37         0.0352            -23         0.2871           4561      0.7433871
      9483.0000       864.2296         1.0172         1.1024         1.1271         1.1373         1.1571         0.6132         0.1558        103.816       103.0281        75.5119       67.35485         0.0377         0.3738         0.0347       -23.0625         0.2853           4516      0.7309543
      9483.5000       858.8114          1.032         1.1106         1.1315         1.1397         1.1644         0.6021         0.1543       103.4732       102.9389        80.6589       72.22391         0.0322         0.3634         0.0342       -23.3125          0.285           4619      0.8345512
      9484.0000       851.8613         1.0465          1.116         1.1392         1.1474         1.1739         0.4468         0.1489       104.0065       103.7225        81.2756       72.80731         0.0255         0.4017         0.0321        -22.875         0.2876           4458      0.8469641
      9484.5000       843.3836         1.0655         1.1263          1.152         1.1607         1.1857           0.58         0.1505       101.9079       103.0531        76.2396       68.04325         0.0168         0.3769         0.0331       -22.8125         0.2854           4489      0.7456011
      9485.0000       838.9261          1.087         1.1389         1.1594         1.1671          1.192           0.58         0.1491        98.8844       100.6426        77.8367       69.55412          0.015         0.4063         0.0327       -22.3125         0.2772           4560      0.7777472
      9485.5000       837.3807         1.1062         1.1587          1.183         1.1829         1.1942         0.5578          0.158        97.9881         99.262        70.7134       62.81546         0.0131         0.3712         0.0368            -23         0.2724           4377      0.6343716
      9486.0000       827.7461         1.1642         1.1954         1.2103         1.2005         1.2081         0.4247           0.17        99.8922       100.1363        72.4201       64.43001         0.0086         0.3002         0.0431       -23.3125         0.2755           4502      0.6687236
      9486.5000       816.9935         1.2257         1.2339         1.2415         1.2253          1.224         0.3248         0.1885        100.389       100.3518        62.9653       55.48577         0.0087         0.2848         0.0537       -22.8125         0.2762           4498      0.4784206
      9487.0000       841.5383         1.2411         1.2288         1.2222            1.2         1.1883         0.3026         0.2026       105.2301       104.8326        63.3778       55.87599         0.0103         0.3059         0.0602       -23.6875         0.2911           4381      0.4867232
      9487.5000       899.5232         1.1173         1.1573         1.1505         1.1263         1.1117         0.3137         0.2108       105.3895       105.4121        62.7911       55.32097         0.0149         0.3294          0.061          -22.5          0.293           4557      0.4749143
      9488.0000       963.1127         1.0551         1.0817         1.0751          1.055         1.0383         0.2361         0.2243       103.3591       103.0793        61.5901       54.18483         0.0096         0.3492         0.0645       -23.1875         0.2855           4543       0.450741
      9488.5000       988.6307         1.0528         1.0657         1.0532         1.0337         1.0115         0.2028         0.2383       100.7441       100.6147        61.6086       54.20233         0.0041         0.3172         0.0709       -23.3125         0.2771           4467      0.4511133
      9489.0000       1012.453         1.0339         1.0355          1.034         1.0169         0.9877         0.1806         0.2468       102.5757       102.1838        60.6835       53.32718        -0.0009         0.2853         0.0743          -23.5         0.2825           4634      0.4324932
      9489.5000       1037.022          1.018         1.0157         1.0022         0.9842         0.9643         0.2028         0.2344       106.5661        106.567        59.6541       52.35337        -0.0036         0.2706         0.0654       -23.1875         0.2966           4557      0.4117738
      9490.0000       1064.849         0.9872         0.9767          0.968         0.9602         0.9391          0.225         0.2152       109.0471       109.3626        56.0695       48.96234        -0.0045         0.3187         0.0537       -24.6875          0.305           4525      0.3396242
      9490.5000       1093.613         0.9535           0.94         0.9341         0.9293         0.9144         0.2915         0.1923       108.1451       108.1382        58.2341       51.01005         -0.003         0.3495         0.0417          -26.5         0.3013           4647      0.3831926
      9491.0000       1120.323          0.932         0.9145         0.9125         0.9071         0.8926         0.3581         0.1823       107.5605       107.5168        66.0452       58.39935        -0.0008         0.3699         0.0366        -25.125         0.2995           4476      0.5404116
      9491.5000       1109.262         0.9399         0.9186           0.92         0.9074         0.9015         0.4912         0.1844       106.5913        106.253        69.4446       61.61518        -0.0042         0.3768         0.0379        -25.625         0.2956           4639      0.6088337
      9492.0000       1078.051         0.9581         0.9478           0.95          0.927         0.9276         0.5134          0.189       108.2624       108.0283        71.0242       63.10949        -0.0034         0.3288         0.0409        -26.125          0.301           4679      0.6406274
      9492.5000       1054.074           0.96         0.9678         0.9669         0.9479         0.9487          0.469         0.1872       108.7022       107.9123        71.6097       63.66337         0.0001         0.3317         0.0411       -25.5625         0.3007           4485      0.6524121
      9493.0000       1040.908         0.9609         0.9867          0.972         0.9563         0.9607         0.5023         0.1795       107.3821       105.9776        74.8285       66.70835         0.0017         0.3503         0.0382       -24.6875         0.2947           4630       0.717199
      9493.5000       1014.919         0.9847         1.0318         1.0283          1.012         0.9853         0.4801         0.1581        99.9462       100.2166        69.3372       61.51358         -0.003         0.4054         0.0304         -25.25         0.2758           4591      0.6066719
      9494.0000        918.611         1.1112         1.1965         1.1622         1.1474         1.0886         0.3359         0.1351        90.9582        93.0754        59.4714       52.18054        -0.0074         0.2831         0.0245        -24.875          0.249           4459      0.4080966
      9494.5000       786.6583         1.2957         1.4213         1.4128         1.3779         1.2712         0.3914         0.1249        79.4319        83.4867        53.0891       46.14288        -0.0083         0.1715         0.0245         -24.25         0.2058           4572      0.2796357
      9495.0000        729.927         1.3854         1.5363         1.5391         1.5077           1.37         0.3803         0.1439        85.8915        89.9047        57.0009       49.84344        -0.0025         0.1865          0.035        -23.625         0.2357           4540      0.3583711
      9495.5000       741.6747         1.3244         1.4462         1.4707         1.4702         1.3483         0.3803         0.1701        95.7703        97.5762        67.0722       59.37089         0.0062         0.2977         0.0482          -23.5         0.2663           4509      0.5610828
