#------------------------------------------------------------------------------
# Created by    : vladimir.rabinovich
# Created on    : 09/19/2023 17:21:28
#------------------------------------------------------------------------------
~Version Information Section
VERS.           2.0     :   CWLS log ASCII Standard - VERSION 2.0
WRAP.           NO      :   One line per depth step
~Well Information Section
#MNEM       .UNIT                                         VALUE :DESCRIPTION
#------------------------------------------------------------------------------
STRT        .FT                                             999 :START DEPTH
STOP        .FT                                           14605 :STOP DEPTH
STEP        .FT                                             0.5 :STEP      
NULL        .                                           -999.25 :NULL      
COMP        .                                      GETTY OIL CO :COMPANY   
WELL        .                               OCS G03116 ST00BP00 :WELL      
FLD         .                                           WILDCAT :FIELD     
LOC         .                                                   :LOCATION  
CNTY        .                                  HIGH ISLAND EAST :LOCATION  
STAT        .                                             TEXAS :STATE     
CTRY        .                                     UNITED STATES :COUNTRY   
SRVC        .                                                   :SERVICE COMPANY
DATE        .                             9/13/2023 11:19:51 AM :LOG DATE  
API         .                                    42710400090000 :API NUMBER
UWI         .                                    42710400090000 :UNIQUE WELL ID
XCOORD      .                                  1371379.55461592 :SURFACE X 
YCOORD      .                                  10664640.0845049 :SURFACE Y 
LAT         .                                        29.3834483 :LATITUDE  
LON         .                                       -93.8450221 :LONGITUDE 
ELEV        .FT                                              80 :ELEVATION VALUE
ELEV_TYPE   .                                                KB :ELEVATION REFERENCE TYPE
~Curve Information Section
#MNEM       .UNIT                                      API CODE :CURVE DESCRIPTION
#------------------------------------------------------------------------------
DEPT        .FT                                                 :DEPTH     
CALI        .IN                                                 :          
DRHO        .G/C3                                               :          
GR          .GAPI                                               :          
GR_NORM     .GAPI                                               :GammaRay Normalized
NPHI        .%                                                  :          
RHOB        .G/C3                                               :          
VSH_GR      .V/V                                                :Volume of Shale from GR
~A        DEPTH           CALI           DRHO             GR        GR_NORM           NPHI           RHOB         VSH_GR
# ...
      4617.0000        11.8221         -0.027        70.2963       88.39175        49.1154         2.0798              1
      4617.5000          11.86        -0.0134        71.0746         89.562        49.2636         2.1004              1
      4618.0000        11.8784        -0.0066        71.4557       90.13487        48.3507         2.1108              1
      4618.5000        11.8152         -0.001        70.9601       89.38917        47.3707         2.1132              1
      4619.0000        11.7317         0.0022        70.2075       88.25694        46.9429         2.1113              1
      4619.5000        11.7038         0.0042        70.5054       88.70467         47.066         2.1152              1
      4620.0000        11.6968         0.0054        70.7056       89.00546         47.501          2.121              1
      4620.5000        11.6986         0.0056        70.3278       88.43694         48.083         2.1222              1
      4621.0000        11.6985          0.005        70.4751       88.65816        47.0461         2.1206              1
      4621.5000        11.6977         0.0012        71.5565       90.28428        45.4927         2.1331              1
      4622.0000         11.699         0.0053         72.873       92.26398        45.4585         2.1428              1
      4622.5000        11.7091         0.0054        73.3475       92.97733        46.5963          2.152              1
      4623.0000        11.7382         0.0045        72.4276       91.59348        47.3439           2.16              1
      4623.5000        11.7935        -0.0011        71.3065       89.90702        47.1537         2.1506              1
      4624.0000        11.8352        -0.0032        69.9615       87.88383        47.8444         2.1373              1
      4624.5000        11.8581         0.0013        68.4718       85.64302        48.7431         2.1316              1
      4625.0000        11.8194        -0.0072        66.6578       82.91444        48.4959         2.1383              1
      4625.5000        11.7271        -0.0195        64.3229       79.40245        46.8733          2.158      0.9872862
      4626.0000        11.5219        -0.0355        62.5449       76.72801        45.4406         2.1771      0.9303833
      4626.5000        11.3284         -0.055        61.2252       74.74288        43.2454         2.1978      0.8881464
      4627.0000        11.1822        -0.0513        60.1406       73.11133        40.7761         2.2317      0.8534325
      4627.5000        11.0358        -0.0554        59.0884       71.52852        38.4126         2.2344      0.8197557
      4628.0000        11.0166        -0.0617        59.3627       71.94074        37.7997         2.2165      0.8285264
      4628.5000        11.0389        -0.0607        59.1704       71.65121        38.1943         2.2183      0.8223663
      4629.0000         11.139        -0.0559        58.9509       71.32077        38.1935         2.2145      0.8153355
      4629.5000        11.1242        -0.0564        58.8849       71.22118        37.8124         2.2206      0.8132167
      4630.0000        11.0907         -0.066        59.1371       71.60019        38.2011         2.2248      0.8212806
      4630.5000         11.102        -0.0741        59.8239       72.63282        39.4499         2.2156      0.8432515
      4631.0000        11.1579        -0.0775        61.0526       74.48048          39.86         2.2152      0.8825635
      4631.5000        11.2432        -0.0797        62.2021       76.20902        40.1259         2.2064      0.9193409
      4632.0000        11.3138        -0.0797        63.0639       77.50484        40.8566         2.2015      0.9469116
      4632.5000        11.3782        -0.0607        63.3621       77.95303        42.1746         2.1995      0.9564475
      4633.0000        11.4267         -0.061        63.5169       78.18553          44.69         2.1791      0.9613943
      4633.5000        11.4404        -0.0757        63.2984        77.8566        46.2687         2.1635      0.9543957
      4634.0000        11.3975        -0.0866        61.9868       75.88365        46.5066         2.1509      0.9124181
      4634.5000        11.3507        -0.0924        61.3492       74.92439        45.8338         2.1472      0.8920084
      4635.0000        11.3174        -0.0846        61.8825       75.72614        44.4115           2.16      0.9090669
      4635.5000        11.2958        -0.0724        62.3831       76.47874        43.6233         2.1796      0.9250795
      4636.0000        11.3394         -0.059        63.3788       77.97596        43.1389         2.1909      0.9569353
      4636.5000        11.4464        -0.0464        65.1742       80.67593        42.8218          2.196              1
      4637.0000        11.5388        -0.0406        67.0686       83.52481        43.2997          2.194              1
      4637.5000        11.6121        -0.0359         69.156       86.66393        44.3579         2.1855              1
      4638.0000        11.6322        -0.0356        70.6761       88.94985        45.7556         2.1621              1
      4638.5000        11.6202        -0.0309        73.4917        93.1842        48.0111         2.1531              1
      4639.0000         11.598        -0.0227        74.5947        94.8428        48.7796         2.1399              1
      4639.5000        11.5666        -0.0118        72.9943       92.43549        49.5362         2.1339              1
      4640.0000        11.5497        -0.0066        71.9401       90.84965        50.0543         2.1205              1
      4640.5000        11.5426        -0.0088        73.4929       93.18475        49.9131         2.1148              1
      4641.0000         11.538        -0.0136        73.0834       92.56855        49.6572         2.1128              1
      4641.5000        11.5389        -0.0172        72.8307       92.18819        49.2177         2.1208              1
      4642.0000        11.5399        -0.0146        72.8212       92.17358        49.4375         2.1214              1
      4642.5000        11.5471        -0.0113         72.858       92.22861        49.9051          2.121              1
      4643.0000        11.5532        -0.0077        72.9357       92.34516        49.9064         2.1244              1
      4643.5000        11.5434        -0.0149        73.1122       92.61031          49.98         2.1203              1
      4644.0000        11.5334        -0.0209        73.4562       93.12737        48.5607         2.1196              1
      4644.5000        11.5228        -0.0221         73.991       93.93139        47.2836         2.1092              1
      4645.0000        11.5062        -0.0149        74.3202        94.4262        46.2642         2.1156              1
      4645.5000        11.4963        -0.0078        73.3846       93.01875        45.4362         2.0965              1
      4646.0000        11.5322        -0.0029        72.9979       92.43684        45.5013         2.1043              1
      4646.5000        11.5723        -0.0084        73.1522        92.6686        46.0382         2.1082              1
      4647.0000        11.5973        -0.0088        72.9578        92.3759        46.4582         2.0961              1
      4647.5000        11.6042        -0.0021         72.203       91.24038        47.0699          2.108              1
      4648.0000        11.5949          0.007        71.8906       90.77022        48.0811         2.1085              1
      4648.5000        11.5889           0.01        72.1504       91.16064        50.1289         2.1089              1
      4649.0000         11.587         -0.002        71.8243       90.66987        51.4853          2.083              1
      4649.5000        11.5881        -0.0135        70.8054       89.13713        51.1156         2.0771              1
      4650.0000        11.5855        -0.0193        69.5841       87.29998        49.6315         2.0746              1
