#------------------------------------------------------------------------------
# Created by    : vladimir.rabinovich
# Created on    : 09/19/2023 17:20:45
#------------------------------------------------------------------------------
~Version Information Section
VERS.           2.0     :   CWLS log ASCII Standard - VERSION 2.0
WRAP.           NO      :   One line per depth step
~Well Information Section
#MNEM       .UNIT                                         VALUE :DESCRIPTION
#------------------------------------------------------------------------------
STRT        .FT                                             565 :START DEPTH
STOP        .FT                                           11656 :STOP DEPTH
STEP        .FT                                             0.5 :STEP      
NULL        .                                           -999.25 :NULL      
COMP        .                     MITCHELL ENERGY OFFSHORE CORP :COMPANY   
WELL        .                               OCS G02394 ST00BP00 :WELL      
FLD         .                            HIGH ISLAND BLOCK 0047 :FIELD     
LOC         .                                                   :LOCATION  
CNTY        .                                  HIGH ISLAND EAST :LOCATION  
STAT        .                                             TEXAS :STATE     
CTRY        .                                     UNITED STATES :COUNTRY   
SRVC        .                                                   :SERVICE COMPANY
DATE        .                             9/13/2023 11:11:59 AM :LOG DATE  
API         .                                    42710400050000 :API NUMBER
UWI         .                                    42710400050000 :UNIQUE WELL ID
XCOORD      .                                  1370895.90844183 :SURFACE X 
YCOORD      .                                  10676661.5178287 :SURFACE Y 
LAT         .                                        29.4165067 :LATITUDE  
LON         .                                        -93.846815 :LONGITUDE 
ELEV        .FT                                              96 :ELEVATION VALUE
ELEV_TYPE   .                                                KB :ELEVATION REFERENCE TYPE
~Curve Information Section
#MNEM       .UNIT                                      API CODE :CURVE DESCRIPTION
#------------------------------------------------------------------------------
DEPT        .FT                                                 :DEPTH     
ASN         .OHMM                                               :          
CILD        .MMHO                                               :          
GR          .GAPI                                               :          
GR_NORM     .GAPI                                               :GammaRay Normalized
ILD         .OHMM                                               :          
SP          .MV                                                 :          
SP_NORM     .MV                                                 :SP Normalized
VSH_GR      .V/V                                                :Volume of Shale from GR
VSH_SP      .V/V                                                :Volume of Shale from SP
~A        DEPTH            ASN           CILD             GR        GR_NORM            ILD             SP        SP_NORM         VSH_GR         VSH_SP
# ...
      4248.5000         1.0241       1237.477        -999.25        -999.25         0.7824       -64.8265      -8.632577        -999.25       0.843044
      4249.0000         1.0297       1224.457        -999.25        -999.25         0.7919       -60.5468      -4.026425        -999.25      0.9267923
      4249.5000         1.0353       1211.449        -999.25        -999.25         0.8014       -59.5892       -2.99792        -999.25      0.9454924
      4250.0000         1.0415        1198.43        -999.25        -999.25         0.8108       -59.7274       -3.14951        -999.25      0.9427361
      4250.5000         1.0421       1185.408        -999.25        -999.25         0.8201       -60.4821      -3.965024        -999.25      0.9279087
      4251.0000         1.0335         1172.4        -999.25        -999.25         0.8294       -61.2366      -4.780317        -999.25      0.9130852
      4251.5000         1.0222       1159.381        -999.25        -999.25         0.8382       -61.9827      -5.586567        -999.25      0.8984261
      4252.0000         1.0085       1143.652        -999.25        -999.25         0.8345       -62.6114       -6.26639        -999.25      0.8860657
      4252.5000         1.0003       1127.787        -999.25        -999.25         0.8308       -63.0964      -6.791455        -999.25       0.876519
      4253.0000         0.9929       1111.924        -999.25        -999.25         0.8154       -62.9235       -6.60801        -999.25      0.8798544
      4253.5000         0.9753       1174.865        -999.25        -999.25         0.7973       -62.6176      -6.281339        -999.25      0.8857938
      4254.0000         0.9548       1238.961        -999.25        -999.25         0.7786       -62.2239      -5.860112        -999.25      0.8934525
      4254.5000         0.9311       1321.348        -999.25        -999.25         0.7563       -61.8303      -5.438991        -999.25      0.9011093
      4255.0000         0.8837       1397.434        -999.25        -999.25         0.7281       -61.4366      -5.017763        -999.25      0.9087679
      4255.5000          0.811       1445.223        -999.25        -999.25         0.6999        -60.926      -4.470645        -999.25      0.9187155
      4256.0000         0.7891       1499.459        -999.25        -999.25         0.6735       -60.3879      -3.893913        -999.25      0.9292016
      4256.5000         0.7771        1574.98        -999.25        -999.25         0.6473       -59.8502      -3.317607        -999.25      0.9396799
      4257.0000         0.7652       1629.611        -999.25        -999.25         0.6218       -59.3121      -2.740874        -999.25      0.9501659
      4257.5000         0.7534       1673.281        -999.25        -999.25         0.5994       -58.4625      -1.828679        -999.25      0.9667513
      4258.0000         0.7415       1704.938        -999.25        -999.25          0.579       -57.5308     -0.8280646        -999.25      0.9849443
      4258.5000         0.7296       1736.592        -999.25        -999.25         0.5647       -56.5991      0.1725458        -999.25              1
      4259.0000         0.7219       1743.783        -999.25        -999.25         0.5537       -56.1459      0.6578481        -999.25              1
      4259.5000         0.7154       1750.213        -999.25        -999.25         0.5503       -55.7358       1.096737        -999.25              1
      4260.0000         0.7089        1755.73        -999.25        -999.25         0.5468       -55.3261       1.535198        -999.25              1
      4260.5000          0.709       1744.965        -999.25        -999.25         0.5476       -54.9164       1.973651        -999.25              1
      4261.0000         0.7163       1734.201        -999.25        -999.25         0.5486       -54.4993       2.420082        -999.25              1
      4261.5000         0.7256       1723.438        -999.25        -999.25         0.5495       -54.0312       2.921431        -999.25              1
      4262.0000         0.7512        1713.17        -999.25        -999.25         0.5502       -53.5636       3.422241        -999.25              1
      4262.5000         0.7768       1706.941        -999.25        -999.25         0.5468       -53.0141       4.011253        -999.25              1
      4263.0000         0.8025       1700.707        -999.25        -999.25         0.5434       -52.3903        4.68028        -999.25              1
      4263.5000         0.8123       1694.473        -999.25        -999.25         0.5361       -57.8535      -1.205927        -999.25      0.9780741
      4264.0000         0.8039       1700.277        -999.25        -999.25         0.5274       -59.4973      -2.978928        -999.25      0.9458377
      4264.5000         0.7955       1816.158        -999.25        -999.25         0.5187       -60.9349      -4.529869        -999.25      0.9176388
      4265.0000         0.7871        1859.02        -999.25        -999.25         0.5062       -62.2992      -6.001871        -999.25       0.890875
      4265.5000         0.7823       1885.305        -999.25        -999.25         0.4937       -63.4216      -7.213372        -999.25      0.8688478
      4266.0000         0.7774       1911.615        -999.25        -999.25         0.4833       -64.4242      -8.295854        -999.25      0.8491663
      4266.5000         0.7726       1927.842        -999.25        -999.25         0.4751       -65.3226      -9.266117        -999.25      0.8315251
      4267.0000         0.7677       1919.842        -999.25        -999.25         0.4737       -66.1296      -10.13795        -999.25      0.8156736
      4267.5000         0.7629       1898.596        -999.25        -999.25         0.4783       -67.7791      -11.91709        -999.25      0.7833256
      4268.0000         0.7579       1865.271        -999.25        -999.25         0.4829       -70.5914      -14.94848        -999.25      0.7282094
      4268.5000          0.758       1831.949        -999.25        -999.25         0.4955       -70.3662      -14.70872        -999.25      0.7325687
      4269.0000         0.7756       1798.627        -999.25        -999.25         0.5082       -69.3586      -13.62636        -999.25      0.7522479
      4269.5000         0.7913       1765.305        -999.25        -999.25         0.5235       -68.3516      -12.54466        -999.25      0.7719152
      4270.0000         0.8056       1731.982        -999.25        -999.25         0.5391       -67.2983       -11.4131        -999.25      0.7924891
      4270.5000           0.82       1685.713        -999.25        -999.25         0.5538       -66.2407       -10.2769        -999.25      0.8131472
      4271.0000         0.8102       1648.982        -999.25        -999.25         0.5588       -65.1924       -9.15072        -999.25      0.8336233
      4271.5000         0.7759       1679.143        -999.25        -999.25         0.5554       -64.0287      -7.900265        -999.25      0.8563588
      4272.0000         0.7515       1714.475        -999.25        -999.25         0.5447       -62.2542      -5.992024        -999.25      0.8910541
      4272.5000         0.7276       1754.246        -999.25        -999.25          0.534       -61.1929      -4.851844        -999.25      0.9117846
      4273.0000         0.7082       1793.992        -999.25        -999.25         0.5233       -60.4851      -4.092352        -999.25      0.9255936
      4273.5000         0.6934       1813.939        -999.25        -999.25         0.5175       -59.6614      -3.208051        -999.25      0.9416718
      4274.0000         0.6974       1825.391        -999.25        -999.25         0.5127       -58.7494      -2.228655        -999.25       0.959479
      4274.5000         0.7052       1826.924        -999.25        -999.25         0.5079       -57.7165      -1.119056        -999.25      0.9796535
