#------------------------------------------------------------------------------
# Created by    : vladimir.rabinovich
# Created on    : 09/19/2023 17:20:45
#------------------------------------------------------------------------------
~Version Information Section
VERS.           2.0     :   CWLS log ASCII Standard - VERSION 2.0
WRAP.           NO      :   One line per depth step
~Well Information Section
#MNEM       .UNIT                                         VALUE :DESCRIPTION
#------------------------------------------------------------------------------
STRT        .FT                                             565 :START DEPTH
STOP        .FT                                           11656 :STOP DEPTH
STEP        .FT                                             0.5 :STEP      
NULL        .                                           -999.25 :NULL      
COMP        .                     MITCHELL ENERGY OFFSHORE CORP :COMPANY   
WELL        .                               OCS G02394 ST00BP00 :WELL      
FLD         .                            HIGH ISLAND BLOCK 0047 :FIELD     
LOC         .                                                   :LOCATION  
CNTY        .                                  HIGH ISLAND EAST :LOCATION  
STAT        .                                             TEXAS :STATE     
CTRY        .                                     UNITED STATES :COUNTRY   
SRVC        .                                                   :SERVICE COMPANY
DATE        .                             9/13/2023 11:11:59 AM :LOG DATE  
API         .                                    42710400050000 :API NUMBER
UWI         .                                    42710400050000 :UNIQUE WELL ID
XCOORD      .                                  1370895.90844183 :SURFACE X 
YCOORD      .                                  10676661.5178287 :SURFACE Y 
LAT         .                                        29.4165067 :LATITUDE  
LON         .                                        -93.846815 :LONGITUDE 
ELEV        .FT                                              96 :ELEVATION VALUE
ELEV_TYPE   .                                                KB :ELEVATION REFERENCE TYPE
~Curve Information Section
#MNEM       .UNIT                                      API CODE :CURVE DESCRIPTION
#------------------------------------------------------------------------------
DEPT        .FT                                                 :DEPTH     
ASN         .OHMM                                               :          
CILD        .MMHO                                               :          
GR          .GAPI                                               :          
GR_NORM     .GAPI                                               :GammaRay Normalized
ILD         .OHMM                                               :          
SP          .MV                                                 :          
SP_NORM     .MV                                                 :SP Normalized
VSH_GR      .V/V                                                :Volume of Shale from GR
VSH_SP      .V/V                                                :Volume of Shale from SP
~A        DEPTH            ASN           CILD             GR        GR_NORM            ILD             SP        SP_NORM         VSH_GR         VSH_SP
# ...
      9416.0000         1.3348       790.2441        -999.25        -999.25         1.1764       -51.3101      -6.238609        -999.25       0.910877
      9416.5000         1.3235       773.1914        -999.25        -999.25         1.1813       -51.5893      -6.512558        -999.25      0.9069635
      9417.0000         1.3119       780.8115        -999.25        -999.25         1.1863       -51.9447      -6.862709        -999.25      0.9019613
      9417.5000         1.3108       802.2734        -999.25        -999.25         1.1712       -52.3007      -7.213459        -999.25      0.8969506
      9418.0000         1.3152        858.501        -999.25        -999.25         1.1434       -52.5535       -7.46101        -999.25      0.8934141
      9418.5000         1.3218       919.3594        -999.25        -999.25         1.1156       -52.1507      -7.052956        -999.25      0.8992435
      9419.0000         1.3284       980.2178        -999.25        -999.25         1.0724       -51.6514      -6.548409        -999.25      0.9064513
      9419.5000          1.154        1038.92        -999.25        -999.25         1.0146       -51.1527      -6.044453        -999.25      0.9136507
      9420.0000         1.1025       1097.621        -999.25        -999.25         0.9569       -50.6534      -5.539906        -999.25      0.9208585
      9420.5000         1.0244        1153.58        -999.25        -999.25         0.9058       -50.1541      -5.035355        -999.25      0.9280664
      9421.0000         1.0043       1202.971        -999.25        -999.25         0.8623         -49.68      -4.556004        -999.25      0.9349142
      9421.5000          0.985       1252.266        -999.25        -999.25         0.8188       -49.2828      -4.153553        -999.25      0.9406635
      9422.0000         0.9709        1288.33        -999.25        -999.25         0.7768       -48.8855      -3.751003        -999.25      0.9464142
      9422.5000         0.9567       1320.621        -999.25        -999.25         0.7361       -48.4883      -3.348553        -999.25      0.9521635
      9423.0000         0.9425       1352.912        -999.25        -999.25         0.7058       -48.0905      -2.945499        -999.25      0.9579214
      9423.5000           0.93       1364.256        -999.25        -999.25         0.7018       -48.2094      -3.059151        -999.25      0.9562979
      9424.0000         0.9263       1343.848        -999.25        -999.25         0.6978       -48.4622      -3.306702        -999.25      0.9527614
      9424.5000          0.923       1310.381        -999.25        -999.25          0.701       -48.5453      -3.384548        -999.25      0.9516493
      9425.0000          0.931       1276.912        -999.25        -999.25         0.7179       -48.4243      -3.258301        -999.25      0.9534528
      9425.5000         0.9389       1239.574        -999.25        -999.25         0.7348       -48.3033      -3.132046        -999.25      0.9552565
      9426.0000         0.9469       1198.365        -999.25        -999.25         0.7517       -48.1541      -2.977596        -999.25      0.9574629
      9426.5000         0.9549       1157.156        -999.25        -999.25         0.7684       -48.0004      -2.818649        -999.25      0.9597336
      9427.0000         0.9721       1115.947        -999.25        -999.25         0.7844       -47.8466      -2.659595        -999.25      0.9620058
      9427.5000          0.995       1085.641        -999.25        -999.25         0.8003       -47.6929      -2.500648        -999.25      0.9642764
      9428.0000         1.0179       1065.574        -999.25        -999.25         0.8162       -47.6492      -2.451694        -999.25      0.9649758
      9428.5000         1.0262       1045.533        -999.25        -999.25         0.8322       -47.8973      -2.694546        -999.25      0.9615065
      9429.0000         1.0186       1058.396        -999.25        -999.25         0.8478       -48.1454      -2.937393        -999.25      0.9580373
      9429.5000          1.011       1073.391        -999.25        -999.25         0.8537       -48.3936      -3.180344        -999.25      0.9545665
      9430.0000         1.0056       1088.385        -999.25        -999.25         0.8596       -48.6417      -3.423195        -999.25      0.9510972
      9430.5000         1.0037       1103.354        -999.25        -999.25         0.8656       -48.6825       -3.45874        -999.25      0.9505894
      9431.0000         1.0018       1125.209        -999.25        -999.25         0.8696       -48.7194      -3.490391        -999.25      0.9501373
      9431.5000         0.9999       1151.031        -999.25        -999.25         0.8569       -48.6511       -3.41684        -999.25       0.951188
      9432.0000          0.998       1176.805        -999.25        -999.25         0.8442       -48.5579       -3.31839        -999.25      0.9525945
      9432.5000         0.9989       1202.629        -999.25        -999.25         0.8315       -48.4648      -3.220039        -999.25      0.9539995
      9433.0000              1       1228.402        -999.25        -999.25         0.8174       -48.3699      -3.119888        -999.25      0.9554302
      9433.5000         1.0012       1255.744        -999.25        -999.25         0.8011       -48.2202      -2.964939        -999.25      0.9576437
      9434.0000         1.0024       1283.625        -999.25        -999.25         0.7848       -48.0704      -2.809887        -999.25      0.9598588
      9434.5000         0.9884       1311.459        -999.25        -999.25         0.7685       -47.9207      -2.654938        -999.25      0.9620723
      9435.0000         0.9739        1339.34        -999.25        -999.25         0.7524        -47.771      -2.499985        -999.25      0.9642859
      9435.5000         0.9662       1365.896        -999.25        -999.25         0.7365       -47.8746      -2.598335        -999.25      0.9628809
      9436.0000         0.9613       1391.182        -999.25        -999.25         0.7206       -48.2503      -2.968784        -999.25      0.9575888
      9436.5000         0.9565       1416.416        -999.25        -999.25         0.7047       -49.2206      -3.933834        -999.25      0.9438024
      9437.0000         0.9708       1338.701        -999.25        -999.25         0.7069        -49.774      -4.481983        -999.25      0.9359717
      9437.5000           0.99       1165.045        -999.25        -999.25         0.7204       -50.2217      -4.924431        -999.25       0.929651
      9438.0000         1.0092       1077.924        -999.25        -999.25         0.7339       -51.2007      -5.898182        -999.25      0.9157403
      9438.5000         1.1631       1033.234        -999.25        -999.25         0.7475       -53.7046      -8.396832        -999.25      0.8800452
      9439.0000         1.2454       1113.693        -999.25        -999.25         0.7829       -55.2333       -9.92028        -999.25      0.8582817
      9439.5000          1.348       1236.193        -999.25        -999.25         0.8219       -56.2368      -10.91853        -999.25       0.844021
      9440.0000         1.4131       1408.479        -999.25        -999.25         0.7296       -58.9633      -13.63978        -999.25       0.805146
      9440.5000         1.4261       1506.186        -999.25        -999.25         0.6276       -67.3752      -22.04643        -999.25       0.685051
      9441.0000         1.3929        1590.76        -999.25        -999.25         0.5047       -72.7275      -27.39348        -999.25      0.6086646
      9441.5000         1.3402       1834.877        -999.25        -999.25         0.4048       -76.1022      -30.76293        -999.25      0.5605295
      9442.0000         1.2576       1975.705        -999.25        -999.25         0.3229       -79.4768      -34.13227        -999.25      0.5123961
