#------------------------------------------------------------------------------
# Created by    : vladimir.rabinovich
# Created on    : 09/19/2023 17:21:48
#------------------------------------------------------------------------------
~Version Information Section
VERS.           2.0     :   CWLS log ASCII Standard - VERSION 2.0
WRAP.           NO      :   One line per depth step
~Well Information Section
#MNEM       .UNIT                                         VALUE :DESCRIPTION
#------------------------------------------------------------------------------
STRT        .FT                                            1142 :START DEPTH
STOP        .FT                                            9163 :STOP DEPTH
STEP        .FT                                             0.5 :STEP      
NULL        .                                           -999.25 :NULL      
COMP        .                                    ORYX ENERGY CO :COMPANY   
WELL        .                               OCS G06199 ST00BP00 :WELL      
FLD         .                            HIGH ISLAND BLOCK 0129 :FIELD     
LOC         .                                                   :LOCATION  
CNTY        .                                  HIGH ISLAND EAST :LOCATION  
STAT        .                                             TEXAS :STATE     
CTRY        .                                     UNITED STATES :COUNTRY   
SRVC        .                                                   :SERVICE COMPANY
DATE        .                             9/13/2023 11:20:11 AM :LOG DATE  
API         .                                    42710400360000 :API NUMBER
UWI         .                                    42710400360000 :UNIQUE WELL ID
XCOORD      .                                  1376484.19293712 :SURFACE X 
YCOORD      .                                  10620179.8267869 :SURFACE Y 
LAT         .                                        29.2612476 :LATITUDE  
LON         .                                        -93.828002 :LONGITUDE 
ELEV        .FT                                              93 :ELEVATION VALUE
ELEV_TYPE   .                                                KB :ELEVATION REFERENCE TYPE
~Curve Information Section
#MNEM       .UNIT                                      API CODE :CURVE DESCRIPTION
#------------------------------------------------------------------------------
DEPT        .FT                                                 :DEPTH     
CALI        .IN                                                 :          
DRHO        .G/C3                                               :          
DT          .US/F                                               :          
GR          .GAPI                                               :          
GR_1        .GAPI                                               :          
GR_NORM     .GAPI                                               :GammaRay Normalized
ILD         .OHMM                                               :          
ILM         .OHMM                                               :          
NPHI        .%                                                  :          
RFOC        .OHMM                                               :          
RHOB        .G/C3                                               :          
SP          .MV                                                 :          
SP_NORM     .MV                                                 :SP Normalized
VSH_GR      .V/V                                                :Volume of Shale from GR
VSH_SP      .V/V                                                :Volume of Shale from SP
~A        DEPTH           CALI           DRHO             DT             GR           GR_1        GR_NORM            ILD            ILM           NPHI           RFOC           RHOB             SP        SP_NORM         VSH_GR         VSH_SP
# ...
      9149.0000        10.7716         0.1353        -999.25        87.7344       102.5405       82.56734         0.6687         0.6762        37.2873          0.812         2.3938       -29.0967      -5.504587              1      0.9213631
      9149.5000        10.7959         0.1573        -999.25        87.7073       103.4664       82.53851         0.6726         0.6917        34.3263          0.806         2.3793       -26.6846      -5.504587              1      0.9213631
      9150.0000        10.7939         0.1484        -999.25        87.6801       102.5651       82.50957         0.6765         0.6991        32.4055         0.8087         2.3607       -24.4644      -5.504587              1      0.9213631
      9150.5000        10.7814         0.1324        -999.25         87.653       101.4324       82.48074         0.6835         0.7003         32.902         0.8187         2.3432         -22.46      -5.504587              1      0.9213631
      9151.0000        10.7689         0.1283        -999.25        87.6257       100.4731       82.45171         0.6908         0.6999        34.1372         0.8443         2.3294            -22      -5.504587              1      0.9213631
      9151.5000         10.738         0.1356        -999.25        -999.25        99.7738        -999.25         0.6984         0.6994         34.477         0.8632         2.3256        -999.25      -5.504587        -999.25      0.9213631
      9152.0000        10.7006         0.1479        -999.25        -999.25        99.0029        -999.25         0.7038         0.7018        34.0626         0.8754         2.3314        -999.25      -5.504587        -999.25      0.9213631
      9152.5000        10.6523         0.1583        -999.25        -999.25        98.2137        -999.25         0.7057         0.7037        33.5469         0.8783         2.3386        -999.25      -5.504587        -999.25      0.9213631
      9153.0000        10.6084         0.1514        -999.25        -999.25       100.1272        -999.25         0.7075         0.7048        33.6046         0.8785         2.3386        -999.25      -5.504587        -999.25      0.9213631
      9153.5000        10.5775         0.1445        -999.25        -999.25       103.9687        -999.25         0.7093         0.7027        34.0226         0.8623         2.3295        -999.25      -5.504587        -999.25      0.9213631
      9154.0000        10.5371         0.1376        -999.25        -999.25       105.0621        -999.25         0.7079         0.6916        34.4024          0.839         2.3192        -999.25      -5.504587        -999.25      0.9213631
      9154.5000        10.4849         0.1319        -999.25        -999.25       103.2866        -999.25         0.7061         0.6794        34.5712         0.8183         2.3192        -999.25      -5.504587        -999.25      0.9213631
      9155.0000        10.4267         0.1363        -999.25        -999.25       101.5087        -999.25         0.7043         0.6645        34.3747         0.8041         2.3179        -999.25      -5.504587        -999.25      0.9213631
      9155.5000        10.3537         0.1355        -999.25        -999.25       101.0112        -999.25        -999.25        -999.25        34.3625        -999.25         2.2931        -999.25      -5.504587        -999.25      0.9213631
      9156.0000        10.0963         0.1375        -999.25        -999.25       101.5579        -999.25        -999.25        -999.25        35.3207        -999.25         2.2618        -999.25        -999.25        -999.25        -999.25
      9156.5000         9.7338           0.15        -999.25        -999.25        99.3933        -999.25        -999.25        -999.25        36.3239        -999.25         2.2321        -999.25        -999.25        -999.25        -999.25
      9157.0000         9.3329          0.153        -999.25        -999.25        96.4727        -999.25        -999.25        -999.25        37.0864        -999.25         2.2136        -999.25        -999.25        -999.25        -999.25
      9157.5000        -999.25         0.1151        -999.25        -999.25         96.224        -999.25        -999.25        -999.25        36.9091        -999.25          2.189        -999.25        -999.25        -999.25        -999.25
      9158.0000        -999.25         0.0561        -999.25        -999.25        98.8466        -999.25        -999.25        -999.25        35.4344        -999.25         2.1382        -999.25        -999.25        -999.25        -999.25
      9158.5000        -999.25         0.0393        -999.25        -999.25       100.8339        -999.25        -999.25        -999.25        33.8358        -999.25         2.0964        -999.25        -999.25        -999.25        -999.25
      9159.0000        -999.25         0.0266        -999.25        -999.25       101.2708        -999.25        -999.25        -999.25        32.7335        -999.25         2.0839        -999.25        -999.25        -999.25        -999.25
      9159.5000        -999.25         0.0163        -999.25        -999.25       101.2991        -999.25        -999.25        -999.25        32.9906        -999.25         2.0748        -999.25        -999.25        -999.25        -999.25
      9160.0000        -999.25         0.0088        -999.25        -999.25       101.5874        -999.25        -999.25        -999.25         35.204        -999.25         2.0673        -999.25        -999.25        -999.25        -999.25
      9160.5000        -999.25          0.006        -999.25        -999.25       102.5571        -999.25        -999.25        -999.25        36.6697        -999.25         2.0571        -999.25        -999.25        -999.25        -999.25
      9161.0000        -999.25         0.0092        -999.25        -999.25       102.1785        -999.25        -999.25        -999.25        37.6241        -999.25         2.0362        -999.25        -999.25        -999.25        -999.25
      9161.5000        -999.25         0.0156        -999.25        -999.25       101.0515        -999.25        -999.25        -999.25        37.8382        -999.25         2.0176        -999.25        -999.25        -999.25        -999.25
      9162.0000        -999.25         0.0221        -999.25        -999.25       101.0284        -999.25        -999.25        -999.25        37.8663        -999.25         2.0052        -999.25        -999.25        -999.25        -999.25
      9162.5000        -999.25         0.0271        -999.25        -999.25        101.042        -999.25        -999.25        -999.25        38.5461        -999.25          1.997        -999.25        -999.25        -999.25        -999.25
      9163.0000        -999.25         0.0237        -999.25        -999.25        99.8932        -999.25        -999.25        -999.25        38.7541        -999.25         1.9914        -999.25        -999.25        -999.25        -999.25
