#------------------------------------------------------------------------------
# Created by    : vladimir.rabinovich
# Created on    : 09/19/2023 17:20:45
#------------------------------------------------------------------------------
~Version Information Section
VERS.           2.0     :   CWLS log ASCII Standard - VERSION 2.0
WRAP.           NO      :   One line per depth step
~Well Information Section
#MNEM       .UNIT                                         VALUE :DESCRIPTION
#------------------------------------------------------------------------------
STRT        .FT                                             565 :START DEPTH
STOP        .FT                                           11656 :STOP DEPTH
STEP        .FT                                             0.5 :STEP      
NULL        .                                           -999.25 :NULL      
COMP        .                     MITCHELL ENERGY OFFSHORE CORP :COMPANY   
WELL        .                               OCS G02394 ST00BP00 :WELL      
FLD         .                            HIGH ISLAND BLOCK 0047 :FIELD     
LOC         .                                                   :LOCATION  
CNTY        .                                  HIGH ISLAND EAST :LOCATION  
STAT        .                                             TEXAS :STATE     
CTRY        .                                     UNITED STATES :COUNTRY   
SRVC        .                                                   :SERVICE COMPANY
DATE        .                             9/13/2023 11:11:59 AM :LOG DATE  
API         .                                    42710400050000 :API NUMBER
UWI         .                                    42710400050000 :UNIQUE WELL ID
XCOORD      .                                  1370895.90844183 :SURFACE X 
YCOORD      .                                  10676661.5178287 :SURFACE Y 
LAT         .                                        29.4165067 :LATITUDE  
LON         .                                        -93.846815 :LONGITUDE 
ELEV        .FT                                              96 :ELEVATION VALUE
ELEV_TYPE   .                                                KB :ELEVATION REFERENCE TYPE
~Curve Information Section
#MNEM       .UNIT                                      API CODE :CURVE DESCRIPTION
#------------------------------------------------------------------------------
DEPT        .FT                                                 :DEPTH     
ASN         .OHMM                                               :          
CILD        .MMHO                                               :          
GR          .GAPI                                               :          
GR_NORM     .GAPI                                               :GammaRay Normalized
ILD         .OHMM                                               :          
SP          .MV                                                 :          
SP_NORM     .MV                                                 :SP Normalized
VSH_GR      .V/V                                                :Volume of Shale from GR
VSH_SP      .V/V                                                :Volume of Shale from SP
~A        DEPTH            ASN           CILD             GR        GR_NORM            ILD             SP        SP_NORM         VSH_GR         VSH_SP
# ...
     10158.0000         1.5962       842.3184        -999.25        -999.25          1.171       -61.8019      -24.32522        -999.25      0.6524968
     10158.5000         1.5691       865.7949        -999.25        -999.25         1.1547       -61.1907      -23.72591        -999.25      0.6610585
     10159.0000         1.5356       902.6455        -999.25        -999.25         1.1405       -59.0757      -21.62279        -999.25       0.691103
     10159.5000         1.4995       977.6143        -999.25        -999.25         1.1265       -55.7224      -18.28137        -999.25      0.7388375
     10160.0000         1.4669       1063.711        -999.25        -999.25         0.9106       -50.6899      -13.26075        -999.25      0.8105606
     10160.5000         1.3758       1154.494        -999.25        -999.25         0.7891       -47.2032      -9.785938        -999.25      0.8602009
     10161.0000         1.2871       1234.246        -999.25        -999.25          0.717        -44.319       -6.91362        -999.25       0.901234
     10161.5000          1.225       1291.547        -999.25        -999.25         0.6805       -42.7707      -5.377205        -999.25      0.9231828
     10162.0000         1.1684        1347.48        -999.25        -999.25         0.6723       -41.0521       -3.67049        -999.25      0.9475644
     10162.5000          1.092       1396.777        -999.25        -999.25         0.6641       -40.7576      -3.387871        -999.25      0.9516019
     10163.0000         1.0431       1434.164        -999.25        -999.25         0.6568       -40.5434      -3.185555        -999.25      0.9544921
     10163.5000         1.0043       1438.127        -999.25        -999.25         0.6535       -40.3866      -3.040638        -999.25      0.9565623
     10164.0000         0.9855        1436.24        -999.25        -999.25         0.6502       -40.3233       -2.98922        -999.25      0.9572968
     10164.5000         0.9742       1434.354        -999.25        -999.25         0.6469       -40.2601      -2.937904        -999.25      0.9580299
     10165.0000         0.9618       1433.285        -999.25        -999.25         0.6451       -40.1968      -2.886486        -999.25      0.9587645
     10165.5000         0.9408       1432.994        -999.25        -999.25          0.644       -40.1125      -2.814068        -999.25      0.9597991
     10166.0000         0.9284       1432.705        -999.25        -999.25         0.6429       -39.7044       -2.41785        -999.25      0.9654593
     10166.5000         0.9284       1432.414        -999.25        -999.25         0.6424       -39.2964      -2.021732        -999.25      0.9711181
     10167.0000         0.9284       1432.125        -999.25        -999.25          0.646       -38.8605      -1.597717        -999.25      0.9771755
     10167.5000          0.926       1431.834        -999.25        -999.25         0.6496       -38.3432        -1.0923        -999.25      0.9843957
     10168.0000         0.9209       1461.105        -999.25        -999.25         0.6533       -37.8246     -0.5855827        -999.25      0.9916345
     10168.5000         0.9158       1491.465        -999.25        -999.25         0.6569       -37.6833     -0.4561653        -999.25      0.9934834
     10169.0000         0.9107       1515.527        -999.25        -999.25         0.6339       -38.0247     -0.8094521        -999.25      0.9884364
     10169.5000         0.9009       1539.639        -999.25        -999.25         0.6154        -38.366      -1.162636        -999.25      0.9833909
     10170.0000          0.891        1547.24        -999.25        -999.25         0.5969       -38.7068      -1.515316        -999.25      0.9783526
     10170.5000         0.8814       1553.816        -999.25        -999.25         0.5836       -39.0482      -1.868599        -999.25      0.9733057
     10171.0000         0.8785       1560.393        -999.25        -999.25         0.5837       -39.3896      -2.221882        -999.25      0.9682589
     10171.5000         0.8756       1566.971        -999.25        -999.25         0.5839       -39.5016      -2.345764        -999.25      0.9664891
     10172.0000         0.8726       1571.441        -999.25        -999.25         0.5856       -39.5785      -2.434547        -999.25      0.9652207
     10172.5000         0.8709       1573.236        -999.25        -999.25         0.5874       -39.6552      -2.523132        -999.25      0.9639552
     10173.0000         0.8712       1575.033        -999.25        -999.25         0.5891       -39.5777      -2.457516        -999.25      0.9648926
     10173.5000         0.8716       1576.826        -999.25        -999.25         0.5909       -39.4484      -2.340096        -999.25      0.9665701
     10174.0000         0.8719       1578.037        -999.25        -999.25         0.5924       -39.3187      -2.222279        -999.25      0.9682531
     10174.5000         0.8724       1575.133        -999.25        -999.25         0.5937       -39.1891      -2.104561        -999.25      0.9699348
     10175.0000         0.8779       1572.223        -999.25        -999.25         0.5951       -39.0891      -2.016445        -999.25      0.9711936
     10175.5000         0.8833       1565.543        -999.25        -999.25         0.6015       -38.9962      -1.935429        -999.25       0.972351
     10176.0000         0.8887       1556.916        -999.25        -999.25         0.6105       -38.9033      -1.854412        -999.25      0.9735084
     10176.5000         0.9067       1546.861        -999.25        -999.25          0.623       -39.5099      -2.472855        -999.25      0.9646735
     10177.0000         0.9267       1525.484        -999.25        -999.25         0.6388       -40.2446      -3.204212        -999.25      0.9542255
     10177.5000          0.952       1454.371        -999.25        -999.25         0.6612       -41.0422      -3.998474        -999.25       0.942879
     10178.0000         0.9783       1370.029        -999.25        -999.25         0.6897        -41.286      -4.238934        -999.25      0.9394438
     10178.5000         1.0147       1296.623        -999.25        -999.25         0.7467       -40.9175      -3.867092        -999.25      0.9447559
     10179.0000         1.2444        1197.25        -999.25        -999.25         0.8321        -40.549      -3.495255        -999.25      0.9500678
     10179.5000         1.3182       935.0537        -999.25        -999.25         0.9535       -40.1637      -3.106613        -999.25      0.9556198
     10180.0000         1.3521       904.8418        -999.25        -999.25         1.0554       -39.7593      -2.698875        -999.25      0.9614446
     10180.5000         1.3777       874.6299        -999.25        -999.25         1.1067       -39.3557      -2.291935        -999.25      0.9672581
     10181.0000         1.3969       840.4639        -999.25        -999.25         1.1398       -38.9519      -1.884796        -999.25      0.9730743
     10181.5000         1.4126       810.6914        -999.25        -999.25         1.1558       -39.1248      -2.054356        -999.25       0.970652
     10182.0000         1.4024       868.4795        -999.25        -999.25         1.1514       -39.7914      -2.717617        -999.25      0.9611769
     10182.5000         1.3581       918.2637        -999.25        -999.25         1.1469       -40.4594      -3.382275        -999.25      0.9516818
     10183.0000         1.3191       968.1455        -999.25        -999.25         1.1425       -41.0483      -3.967838        -999.25      0.9433166
     10183.5000         1.2816       1014.416        -999.25        -999.25         1.1223       -40.7317      -3.647896        -999.25      0.9478872
     10184.0000         1.2537       1055.414        -999.25        -999.25         1.0961        -40.415      -3.327858        -999.25      0.9524592
