#------------------------------------------------------------------------------
# Created by    : vladimir.rabinovich
# Created on    : 09/19/2023 17:20:21
#------------------------------------------------------------------------------
~Version Information Section
VERS.           2.0     :   CWLS log ASCII Standard - VERSION 2.0
WRAP.           NO      :   One line per depth step
~Well Information Section
#MNEM       .UNIT                                         VALUE :DESCRIPTION
#------------------------------------------------------------------------------
STRT        .FT                                            1439 :START DEPTH
STOP        .FT                                           13833 :STOP DEPTH
STEP        .FT                                             0.5 :STEP      
NULL        .                                           -999.25 :NULL      
COMP        .                                        EXXON CORP :COMPANY   
WELL        .                               OCS G04992 ST00BP00 :WELL      
FLD         .                                           WILDCAT :FIELD     
LOC         .                                                   :LOCATION  
CNTY        .                               MUSTANG ISLAND EAST :LOCATION  
STAT        .                                             TEXAS :STATE     
CTRY        .                                     UNITED STATES :COUNTRY   
SRVC        .                                                   :SERVICE COMPANY
DATE        .                             9/13/2023 11:20:08 AM :LOG DATE  
API         .                                    42712400640000 :API NUMBER
UWI         .                                    42712400640000 :UNIQUE WELL ID
XCOORD      .                                  530427.861923906 :SURFACE X 
YCOORD      .                                  9963308.63528926 :SURFACE Y 
LAT         .                                        27.4144168 :LATITUDE  
LON         .                                       -96.4214066 :LONGITUDE 
ELEV        .FT                                              73 :ELEVATION VALUE
ELEV_TYPE   .                                                KB :ELEVATION REFERENCE TYPE
~Curve Information Section
#MNEM       .UNIT                                      API CODE :CURVE DESCRIPTION
#------------------------------------------------------------------------------
DEPT        .FT                                                 :DEPTH     
ASFL        .OHMM                                               :          
CILD        .MMHO                                               :          
DT          .US/F                                               :          
GR          .GAPI                                               :          
GR_NORM     .GAPI                                               :GammaRay Normalized
ILD         .OHMM                                               :          
SP          .MV                                                 :          
SP_NORM     .MV                                                 :SP Normalized
VSH_GR      .V/V                                                :Volume of Shale from GR
VSH_SP      .V/V                                                :Volume of Shale from SP
~A        DEPTH           ASFL           CILD             DT             GR        GR_NORM            ILD             SP        SP_NORM         VSH_GR         VSH_SP
# ...
      2272.0000         0.8657       1278.965       160.1531        68.1664       66.82126         0.7311       -99.2366      -1.402245      0.7196013      0.9719551
      2272.5000          0.866       1279.742       159.5327        67.5193       66.01165         0.7342       -99.0684      -1.239494      0.7023755      0.9752101
      2273.0000         0.8636       1280.689       158.6316        71.3608       70.81277         0.7374       -98.9064      -1.082962      0.8045271      0.9783407
      2273.5000         0.8606       1282.293       157.6042        72.9602       72.81128         0.7405       -98.7646     -0.9466171      0.8470485      0.9810677
      2274.0000         0.8577       1283.895       156.6599        74.2946       74.47854         0.7426       -98.7915     -0.9789658      0.8825221      0.9804207
      2274.5000         0.8547       1285.496       155.9731        75.8605       76.43517         0.7436       -98.9247      -1.117622      0.9241524      0.9776475
      2275.0000         0.8532         1287.1       155.8586        75.0485       75.41943         0.7445       -99.0637      -1.262085       0.902541      0.9747583
      2275.5000         0.8517       1286.898       156.4385        74.2438       74.41281         0.7455       -99.2101       -1.41394      0.8811237      0.9717212
      2276.0000         0.8548       1285.699       157.1262        73.8209       73.88345         0.7464       -99.1737      -1.382996      0.8698605      0.9723401
      2276.5000         0.8626         1284.5       157.6987        73.4844       73.46207         0.7474       -98.9502      -1.164955      0.8608952      0.9767009
      2277.0000         0.8728       1281.443       157.9751         73.163       73.05959         0.7483       -98.7017     -0.9219131      0.8523316      0.9815617
      2277.5000         0.8737       1272.742        157.636        72.8416       72.65709         0.7493       -98.5013     -0.7269669      0.8437679      0.9854606
      2278.0000         0.8724       1264.039       156.8972        72.1521       71.79447         0.7502       -98.4907     -0.7218246      0.8254143      0.9855635
      2278.5000          0.871       1256.619       156.1077        74.7534       75.04536           0.75       -98.4801     -0.7166824       0.894582      0.9856663
      2279.0000         0.8691       1251.205       155.5449        76.3175       76.99973         0.7495       -98.5499     -0.7919388      0.9361646      0.9841612
      2279.5000         0.8668       1256.771       154.8621        78.3348       79.52061         0.7491       -98.6392     -0.8866959      0.9898003      0.9822661
      2280.0000         0.8645       1262.625       153.9617        76.3187       76.99975         0.7486       -98.7284     -0.9813538      0.9361649      0.9803729
      2280.5000         0.8622       1268.482       153.2158        74.0868       74.20913         0.7482        -98.817      -1.075409        0.87679      0.9784918
      2281.0000         0.8599       1274.336       153.0596        73.0336       72.89188         0.7477       -98.8945      -1.158363      0.8487635      0.9768327
      2281.5000           0.86       1277.555       153.4182        72.8872       72.70814         0.7473       -98.9722      -1.241524       0.844854      0.9751695
      2282.0000         0.8603       1277.762       154.0217        72.7726       72.56415         0.7486       -98.8818      -1.156578      0.8417904      0.9768685
      2282.5000         0.8617       1277.969       154.3091        72.7141       72.49028         0.7541       -98.7689      -1.049133      0.8402187      0.9790173
      2283.0000         0.8633       1278.176       154.1445        72.6696       72.43391         0.7597        -98.656     -0.9416885      0.8390195      0.9811662
      2283.5000         0.8684       1275.057       154.0164        73.3661       73.30379         0.7653       -98.3706     -0.6617508      0.8575274       0.986765
      2284.0000         0.8772        1263.66       153.7375        74.2286       74.38117         0.7709       -98.0538     -0.3504105      0.8804505      0.9929918
      2284.5000          0.886       1252.262       153.3354        75.3484       75.78017         0.7765       -97.7372    -0.03926086      0.9102165      0.9992148
      2285.0000         0.8914       1246.285        152.811        75.2651       75.67531         0.7821       -97.4204      0.2720795      0.9079853              1
      2285.5000         0.8935       1248.213       152.0996        73.7645       73.79882         0.7847       -97.6058     0.08122253        0.86806              1
      2286.0000         0.8891       1250.141       151.2583        72.8184       72.61544         0.7859       -97.8474     -0.1658325      0.8428817      0.9966834
      2286.5000         0.8846       1256.156       150.6904        73.3257       73.24883          0.787        -98.089     -0.4128876       0.856358      0.9917423
      2287.0000         0.8801       1264.539       151.0769        74.0122       74.10621         0.7881       -98.2754      -0.604744      0.8746002      0.9879051
      2287.5000          0.872       1272.922       151.5776        74.7639       75.04509         0.7893       -98.2642     -0.5990067      0.8945764      0.9880199
      2288.0000         0.8639       1281.307       152.1011        75.2661       75.67209         0.7904       -98.2529     -0.5931625      0.9079168      0.9881368
      2288.5000          0.861       1289.689       152.9583        75.5488       76.02472         0.7915       -98.2417     -0.5874176      0.9154196      0.9882516
      2289.0000         0.8596        1298.76       152.6904        75.8318       76.37773          0.792       -98.2305     -0.5816727      0.9229305      0.9883665
      2289.5000          0.859        1308.34       152.8218        75.5862       76.06998          0.784       -98.2362     -0.5928345      0.9163827      0.9881433
      2290.0000         0.8584       1317.922       153.9241        75.0394       75.38574         0.7759       -98.3009     -0.6629944      0.9018243      0.9867401
      2290.5000         0.8575       1325.402       155.1147        73.1837       73.06538         0.7679       -98.5326     -0.9001465      0.8524548      0.9819971
      2291.0000         0.8561       1332.535       156.2542        71.2828       70.68851         0.7599       -99.2853      -1.658302      0.8018831      0.9668339
      2291.5000         0.8546       1339.668        157.123        69.3992       68.33327         0.7518      -100.0463      -2.424759      0.7517716      0.9515048
      2292.0000         0.8506       1346.801       157.9277        69.0732       67.92502         0.7438      -100.4045      -2.788422      0.7430855      0.9442316
      2292.5000         0.8426       1355.691       158.2891         70.429       69.61903         0.7414      -100.3662      -2.755577      0.7791282      0.9448885
      2293.0000         0.8316       1364.672       158.2041        72.0376       71.62903         0.7409      -100.3279      -2.722733      0.8218942      0.9455454
      2293.5000         0.8178       1370.322       158.2693        72.1674       71.79053         0.7405      -100.2896       -2.68988      0.8253306      0.9462024
      2294.0000           0.81       1364.846       158.4038        71.2311       70.61942           0.74      -100.2513      -2.657043      0.8004133      0.9468591
      2294.5000         0.8072       1359.371       158.5032        67.2216        65.6068         0.7445      -100.2219      -2.633102      0.6937618      0.9473379
      2295.0000         0.8075       1353.895       158.4285        66.1053       64.21068         0.7493      -100.1936       -2.61026       0.664057      0.9477948
      2295.5000         0.8155       1344.271        158.124        65.6162       63.59856          0.754      -100.1653       -2.58741      0.6510333      0.9482518
      2296.0000         0.8254       1331.781       157.5703        65.2401       63.12769         0.7588       -100.153      -2.580574      0.6410147      0.9483885
