#------------------------------------------------------------------------------
# Created by    : vladimir.rabinovich
# Created on    : 09/19/2023 17:20:22
#------------------------------------------------------------------------------
~Version Information Section
VERS.           2.0     :   CWLS log ASCII Standard - VERSION 2.0
WRAP.           NO      :   One line per depth step
~Well Information Section
#MNEM       .UNIT                                         VALUE :DESCRIPTION
#------------------------------------------------------------------------------
STRT        .FT                                             538 :START DEPTH
STOP        .FT                                           11949 :STOP DEPTH
STEP        .FT                                             0.5 :STEP      
NULL        .                                           -999.25 :NULL      
COMP        .                                 CITIES SERVICE CO :COMPANY   
WELL        .                               OCS G03070 ST00BP00 :WELL      
FLD         .                                           WILDCAT :FIELD     
LOC         .                                                   :LOCATION  
CNTY        .                               MUSTANG ISLAND EAST :LOCATION  
STAT        .                                             TEXAS :STATE     
CTRY        .                                     UNITED STATES :COUNTRY   
SRVC        .                                                   :SERVICE COMPANY
DATE        .                             9/13/2023 11:20:11 AM :LOG DATE  
API         .                                    42712400020000 :API NUMBER
UWI         .                                    42712400020000 :UNIQUE WELL ID
XCOORD      .                                  546520.538281646 :SURFACE X 
YCOORD      .                                  9992103.69354039 :SURFACE Y 
LAT         .                                        27.4947268 :LATITUDE  
LON         .                                       -96.3742825 :LONGITUDE 
ELEV        .FT                                              65 :ELEVATION VALUE
ELEV_TYPE   .                                                KB :ELEVATION REFERENCE TYPE
~Curve Information Section
#MNEM       .UNIT                                      API CODE :CURVE DESCRIPTION
#------------------------------------------------------------------------------
DEPT        .FT                                                 :DEPTH     
ASFL        .OHMM                                               :          
CILD        .MMHO                                               :          
DT          .US/F                                               :          
GR          .GAPI                                               :          
GR_NORM     .GAPI                                               :GammaRay Normalized
ILD         .OHMM                                               :          
SFL         .OHMM                                               :          
SP          .MV                                                 :          
SP_NORM     .MV                                                 :SP Normalized
VSH_GR      .V/V                                                :Volume of Shale from GR
VSH_SP      .V/V                                                :Volume of Shale from SP
~A        DEPTH           ASFL           CILD             DT             GR        GR_NORM            ILD            SFL             SP        SP_NORM         VSH_GR         VSH_SP
# ...
     11923.0000        -999.25        -999.25       113.2627           67.2       70.97928         0.3512         0.3597       -43.1812      -4.584709      0.8080698      0.9083058
     11923.5000        -999.25        -999.25         113.29        65.4198       68.66132         0.3543         0.3741       -41.5557      -2.959209      0.7587516      0.9408158
     11924.0000        -999.25        -999.25       113.2977        63.9937       66.80441         0.3575         0.4493       -40.0514       -1.45491      0.7192428      0.9709018
     11924.5000        -999.25        -999.25       113.3055        62.7028       65.12357         0.3597         0.5017       -38.6188    -0.02231216      0.6834801      0.9995537
     11925.0000        -999.25        -999.25       113.3132        61.6602       63.76601         0.3547         0.5057       -37.9756      0.6208878      0.6545959              1
     11925.5000        -999.25        -999.25        113.321        62.0856       64.31992         0.3343         0.4654       -37.8714        0.72509      0.6663812              1
     11926.0000        -999.25        -999.25       113.3406        63.3618       65.98163         0.3145         0.3674       -38.6486    -0.05211258      0.7017367      0.9989578
     11926.5000        -999.25        -999.25       113.3883        64.4633       67.41588         0.2948         0.3269       -39.5318     -0.9353104      0.7322527      0.9812938
     11927.0000        -999.25        -999.25        113.436        64.9519       68.05206         0.2841         0.3324        -40.326      -1.729511      0.7457886      0.9654098
     11927.5000        -999.25        -999.25       113.4836        65.1936       68.36679         0.2793         0.3378        -40.862      -2.265511      0.7524849      0.9546898
     11928.0000        -999.25        -999.25       113.5314         65.448       68.69804         0.2767         0.3368       -40.8335      -2.237011      0.7595327      0.9552598
     11928.5000        -999.25        -999.25       113.5624        65.6711       68.98853         0.2759         0.3255       -40.4918      -1.895309      0.7657133      0.9620938
     11929.0000        -999.25        -999.25       113.5535        65.8181       69.17994         0.2755         0.3126       -40.6006      -2.004112      0.7697859      0.9599178
     11929.5000        -999.25        -999.25       113.5446        65.7308       69.06627         0.2747         0.3059       -40.1256       -1.52911      0.7673674      0.9694178
     11930.0000        -999.25        -999.25       113.5356        64.2644       67.15688         0.2739         0.3096        -39.663      -1.066509      0.7267422      0.9786698
     11930.5000        -999.25        -999.25       113.5269        63.7866       66.53475         0.2744         0.3211       -39.6335       -1.03701      0.7135054      0.9792598
     11931.0000        -999.25        -999.25       113.5026        64.4335       67.37708         0.2749         0.3411       -39.7668      -1.170311      0.7314273      0.9765938
     11931.5000        -999.25        -999.25       113.4624        65.5825       68.87316         0.2755         0.3473        -39.825      -1.228512      0.7632588      0.9754298
     11932.0000        -999.25        -999.25       113.4221         66.881       70.56392          0.276         0.3448       -39.8196       -1.22311      0.7992323      0.9755378
     11932.5000        -999.25        -999.25       113.3821        66.6654       70.28319         0.2752         0.3379       -39.9265      -1.330009      0.7932593      0.9733998
     11933.0000        -999.25        -999.25       113.3419        64.2938       67.19518         0.2743         0.3278       -39.9995      -1.403011      0.7275569      0.9719398
     11933.5000        -999.25        -999.25       113.2893        62.5212        64.8871         0.2732         0.3267       -39.7062      -1.109711      0.6784489      0.9778058
     11934.0000        -999.25        -999.25        113.224         63.228       65.80742         0.2721         0.3381       -36.1719       2.424587      0.6980302              1
     11934.5000        -999.25        -999.25       113.1584        64.8671       67.94167         0.2713         0.3453       -31.6987       6.897789      0.7434397              1
     11935.0000        -999.25        -999.25        113.093        66.4326       69.98007         0.2706         0.3345       -27.8539       10.74259        0.78681              1
     11935.5000        -999.25        -999.25       113.0281        66.8063       70.46666           0.27         0.3198        -24.217       14.37949       0.797163              1
     11936.0000        -999.25        -999.25       112.9668        65.8226        69.1858         0.2693         0.3062       -21.7725       16.82399      0.7699106              1
     11936.5000        -999.25        -999.25       112.9054        65.7289       69.06379         0.2686         0.3033       -20.5788       18.01769      0.7673147              1
     11937.0000        -999.25        -999.25       112.8441        66.1545       69.61797         0.2679         0.3188       -20.1538       18.44269      0.7791057              1
     11937.5000        -999.25        -999.25       112.7886        66.0865       69.52942         0.2672         0.3352       -20.0452       18.55129      0.7772217              1
     11938.0000        -999.25        -999.25       112.8069        64.8965       67.97993         0.2679         0.3308       -20.1557       18.44079      0.7442539              1
     11938.5000        -999.25        -999.25       112.8253        63.7968       66.54803         0.2693         0.3134       -20.8188       17.77769       0.713788              1
     11939.0000        -999.25        -999.25       112.8436        63.8638       66.63528         0.2729         0.3022       -21.9111       16.68539      0.7156442              1
     11939.5000        -999.25        -999.25       112.8728        64.3501       67.26848          0.279         0.3006       -23.0443       15.55219      0.7291166              1
     11940.0000        -999.25        -999.25       112.9269        65.0422       68.16965         0.2865         0.3081       -24.0438       14.55269      0.7482905              1
     11940.5000        -999.25        -999.25       112.9808        65.2517       68.44244         0.2913         0.3156       -25.0433       13.55319      0.7540944              1
     11941.0000        -999.25        -999.25       113.0348        64.3979       67.33072         0.2924         0.3168       -26.2853       12.31119      0.7304409              1
     11941.5000        -999.25        -999.25       113.0588         64.329       67.24101         0.2874         0.3141       -27.2026       11.39389      0.7285322              1
     11942.0000        -999.25        -999.25       113.0775        64.5315       67.50468         0.2817         0.3096       -27.4395       11.15699      0.7341422              1
     11942.5000        -999.25        -999.25       113.0962        64.1835       67.05156          0.276         0.3044       -27.9801       10.61639      0.7245013              1
     11943.0000        -999.25        -999.25       113.1024        62.4906       64.84726         0.2705         0.3081       -28.8659       9.730589      0.6776013              1
     11943.5000        -999.25        -999.25       113.0583        60.6089       62.39712         0.2652         0.3109       -29.8073       8.789188      0.6254707              1
     11944.0000        -999.25        -999.25       113.0142        59.7931       61.33488         0.2605         0.3059       -30.6646       7.931889      0.6028699              1
     11944.5000        -999.25        -999.25       112.9701        59.5729       61.04817         0.2562         0.3003       -31.0867       7.509789      0.5967695              1
     11945.0000        -999.25        -999.25       112.9352        59.7312       61.25429          0.252         0.3005       -31.1897        7.40679      0.6011552              1
