#------------------------------------------------------------------------------
# Created by    : vladimir.rabinovich
# Created on    : 09/19/2023 17:20:10
#------------------------------------------------------------------------------
~Version Information Section
VERS.           2.0     :   CWLS log ASCII Standard - VERSION 2.0
WRAP.           NO      :   One line per depth step
~Well Information Section
#MNEM       .UNIT                                         VALUE :DESCRIPTION
#------------------------------------------------------------------------------
STRT        .FT                                             613 :START DEPTH
STOP        .FT                                           12130 :STOP DEPTH
STEP        .FT                                             0.5 :STEP      
NULL        .                                           -999.25 :NULL      
COMP        .                                 CITIES SERVICE CO :COMPANY   
WELL        .                               OCS G03060 ST00BP00 :WELL      
FLD         .                                           WILDCAT :FIELD     
LOC         .                                                   :LOCATION  
CNTY        .                               MUSTANG ISLAND EAST :LOCATION  
STAT        .                                             TEXAS :STATE     
CTRY        .                                     UNITED STATES :COUNTRY   
SRVC        .                                                   :SERVICE COMPANY
DATE        .                             9/13/2023 11:12:08 AM :LOG DATE  
API         .                                    42712400440000 :API NUMBER
UWI         .                                    42712400440000 :UNIQUE WELL ID
XCOORD      .                                  632657.308411808 :SURFACE X 
YCOORD      .                                  10083439.8406154 :SURFACE Y 
LAT         .                                        27.7518805 :LATITUDE  
LON         .                                       -96.1160164 :LONGITUDE 
ELEV        .FT                                             103 :ELEVATION VALUE
ELEV_TYPE   .                                                KB :ELEVATION REFERENCE TYPE
~Curve Information Section
#MNEM       .UNIT                                      API CODE :CURVE DESCRIPTION
#------------------------------------------------------------------------------
DEPT        .FT                                                 :DEPTH     
ASFL        .OHMM                                               :          
CILD        .MMHO                                               :          
GR          .GAPI                                               :          
GR_NORM     .GAPI                                               :GammaRay Normalized
ILD         .OHMM                                               :          
SP          .MV                                                 :          
SP_NORM     .MV                                                 :SP Normalized
VSH_GR      .V/V                                                :Volume of Shale from GR
VSH_SP      .V/V                                                :Volume of Shale from SP
~A        DEPTH           ASFL           CILD             GR        GR_NORM            ILD             SP        SP_NORM         VSH_GR         VSH_SP
       613.0000          0.323       1604.686        58.5432       71.86701         0.3182      -147.1985      -16.89548      0.8269577      0.6620905
       613.5000          0.505       1620.266        59.6594       73.32426         0.4059      -154.1052      -23.80217      0.8579631      0.5239566
       614.0000         0.8387       1649.914         60.485       74.40214         0.4935      -159.8018      -29.49878      0.8808966      0.4100244
       614.5000         0.8579       1680.645          60.09       73.88644         0.5404      -187.1006      -56.79758      0.8699242              0
       615.0000         0.8651       1714.258        59.1684       72.68325         0.5754      -181.5554      -51.25238      0.8443245              0
       615.5000         0.8724       1747.869        58.2471       71.48043         0.6104      -176.0105      -45.70747      0.8187326     0.08585052
       616.0000         0.8796       1776.082        57.6206        70.6625         0.6454      -170.5989      -40.29588      0.8013297      0.1940823
       616.5000         0.8835       1802.043        56.9941       69.84457         0.6619      -165.8225      -35.51947      0.7839271      0.2896106
       617.0000         0.8871       1828.006        56.3677       69.02676         0.6647      -161.5056      -31.20258      0.7665269      0.3759485
       617.5000         0.8906       1431.006        55.7411       68.20871         0.6676      -159.8591      -29.55608      0.7491215      0.4088785
       618.0000         0.8867       1444.965        55.3831       67.74131         0.6705      -162.4065      -32.10347      0.7391768      0.3579306
       618.5000         0.8643       1458.922         55.094       67.36389         0.6733      -166.4534      -36.15038      0.7311466      0.2769925
       619.0000         0.8381       1472.883        54.8437        67.0371         0.6762      -167.8896      -37.58658      0.7241936      0.2482684
       619.5000           0.82       1486.842        54.6204       66.74557         0.6791      -158.0669      -27.76387      0.7179908      0.4447226
       620.0000         0.8095       1476.436        54.1876       66.18052         0.6819      -154.7358      -24.43277      0.7059685      0.5113446
       620.5000         0.7989       1462.141        53.7515       65.61118         0.6848       -158.749      -28.44597      0.6938548      0.4310806
       621.0000         0.7931       1449.621        53.3155       65.04195         0.6877      -162.7625      -32.45947      0.6817437      0.3508106
       621.5000         0.7892       1437.102        52.8795       64.47273         0.6905      -159.5049      -29.20187      0.6696326      0.4159625
       622.0000         0.7852       1424.891        52.4257       63.88027         0.6934      -155.3516      -25.04857       0.657027      0.4990286
       622.5000         0.7812       1420.707        51.9669       63.28128         0.6961      -150.6147      -20.31168      0.6442826      0.5937665
       623.0000         0.7772       1416.523        51.5081       62.68229         0.6984      -145.8784      -15.57538      0.6315381      0.6884924
       623.5000         0.7759        1412.34        51.0493       62.08331         0.7007      -147.8945      -17.59148      0.6187937      0.6481705
       624.0000         0.7749       1408.156         50.623       61.52675          0.703      -153.3167      -23.01367      0.6069521      0.5397266
       624.5000         0.7739       1403.973        50.3582       61.18103         0.7053      -147.3135      -17.01048      0.5995964      0.6597903
       625.0000         0.7728       1399.789        51.0203       62.04544         0.7076      -141.1184      -10.81537      0.6179882      0.7836926
       625.5000         0.7724       1397.406        51.7165       62.95437         0.7099      -134.8225       -4.51947       0.637327      0.9096106
       626.0000         0.7732       1396.012        52.4126       63.86317         0.7122      -153.7747      -23.47168      0.6566632      0.5305664
       626.5000          0.774       1394.619         53.181       64.86636         0.7145      -156.5884      -26.28537      0.6780075      0.4742926
       627.0000         0.7748       1393.225        54.0892       66.05206         0.7168      -155.1208      -24.81778      0.7032352      0.5036444
       627.5000         0.7744       1395.023        54.9974       67.23776         0.7191      -153.2339      -22.93088      0.7284631      0.5413824
       628.0000         0.7717       1406.193        54.7919       66.96947         0.7214      -150.6445      -20.34148      0.7227548      0.5931705
       628.5000          0.769       1417.363        53.5587       65.35947         0.7228      -147.1809      -16.87787      0.6884993      0.6624426
       629.0000         0.7668       1428.533        52.4378       63.89607         0.7209      -143.7173      -13.41428      0.6573632      0.7317145
       629.5000         0.7652       1439.703        52.2817       63.69227          0.719      -140.2539      -9.950882       0.653027      0.8009824
       630.0000         0.7636       1450.436        53.3105       65.03543         0.7171        -136.79      -6.486969      0.6816049      0.8702606
       630.5000         0.7621       1456.398        54.3393       66.37859         0.7152      -136.4202      -6.117172      0.7101827      0.8776566
       631.0000         0.7605       1462.363         55.368       67.72161         0.7132      -138.1621       -7.85907      0.7387577      0.8428186
       631.5000         0.7589       1468.326        56.3968       69.06476         0.7113      -137.5271      -7.224075      0.7673353      0.8555185
       632.0000         0.7602       1469.604         55.926        68.4501         0.7094      -133.2256      -2.922577      0.7542575      0.9415485
       632.5000         0.7623        1459.98        54.4517       66.52532         0.7075      -129.6948      0.6082306      0.7133047              1
       633.0000         0.7645       1450.359        52.8336        64.4128         0.7056      -126.7441       3.558922      0.6683576              1
       633.5000         0.7667       1440.734        51.3367       62.45852         0.7036      -129.0791       1.223923       0.626777              1
       634.0000         0.7682       1431.111        51.0186       62.04322         0.7017      -131.6475      -1.344482       0.617941      0.9731104
       634.5000         0.7687       1421.488        50.7823       61.73472         0.6998      -126.3927       3.910324       0.611377              1
       635.0000         0.7691       1418.086        51.3937       62.53294         0.6979      -123.6875       6.615524      0.6283603              1
       635.5000         0.7696       1417.373         52.005       63.33103          0.696      -127.2524       3.050621       0.645341              1
       636.0000         0.7666       1416.658        52.7107       64.25236          0.694      -135.5505      -5.247482      0.6649438      0.8950503
       636.5000         0.7635       1415.943        53.6707       65.50569         0.6921      -140.0024      -9.699371      0.6916105      0.8060126
       637.0000         0.7603        1415.23        54.6305       66.75877         0.6898      -144.4546      -14.15158      0.7182716      0.7169684
       637.5000         0.7572       1414.516        55.5905       68.01209         0.6869      -144.7144      -14.41138      0.7449381      0.7117724
       638.0000          0.754       1418.076        56.5618       69.28017         0.6839      -138.3821      -8.079071      0.7719186      0.8384186
       638.5000         0.7509       1425.707        57.5396       70.55676          0.681      -136.0261      -5.723068      0.7990799      0.8855386
       639.0000         0.7477       1433.336        58.5253       71.84364         0.6781      -133.6702      -3.367172      0.8264603      0.9326565
