#------------------------------------------------------------------------------
# Created by    : vladimir.rabinovich
# Created on    : 09/19/2023 17:20:45
#------------------------------------------------------------------------------
~Version Information Section
VERS.           2.0     :   CWLS log ASCII Standard - VERSION 2.0
WRAP.           NO      :   One line per depth step
~Well Information Section
#MNEM       .UNIT                                         VALUE :DESCRIPTION
#------------------------------------------------------------------------------
STRT        .FT                                             565 :START DEPTH
STOP        .FT                                           11656 :STOP DEPTH
STEP        .FT                                             0.5 :STEP      
NULL        .                                           -999.25 :NULL      
COMP        .                     MITCHELL ENERGY OFFSHORE CORP :COMPANY   
WELL        .                               OCS G02394 ST00BP00 :WELL      
FLD         .                            HIGH ISLAND BLOCK 0047 :FIELD     
LOC         .                                                   :LOCATION  
CNTY        .                                  HIGH ISLAND EAST :LOCATION  
STAT        .                                             TEXAS :STATE     
CTRY        .                                     UNITED STATES :COUNTRY   
SRVC        .                                                   :SERVICE COMPANY
DATE        .                             9/13/2023 11:11:59 AM :LOG DATE  
API         .                                    42710400050000 :API NUMBER
UWI         .                                    42710400050000 :UNIQUE WELL ID
XCOORD      .                                  1370895.90844183 :SURFACE X 
YCOORD      .                                  10676661.5178287 :SURFACE Y 
LAT         .                                        29.4165067 :LATITUDE  
LON         .                                        -93.846815 :LONGITUDE 
ELEV        .FT                                              96 :ELEVATION VALUE
ELEV_TYPE   .                                                KB :ELEVATION REFERENCE TYPE
~Curve Information Section
#MNEM       .UNIT                                      API CODE :CURVE DESCRIPTION
#------------------------------------------------------------------------------
DEPT        .FT                                                 :DEPTH     
ASN         .OHMM                                               :          
CILD        .MMHO                                               :          
GR          .GAPI                                               :          
GR_NORM     .GAPI                                               :GammaRay Normalized
ILD         .OHMM                                               :          
SP          .MV                                                 :          
SP_NORM     .MV                                                 :SP Normalized
VSH_GR      .V/V                                                :Volume of Shale from GR
VSH_SP      .V/V                                                :Volume of Shale from SP
~A        DEPTH            ASN           CILD             GR        GR_NORM            ILD             SP        SP_NORM         VSH_GR         VSH_SP
       565.0000         0.0506        -999.25        -999.25        -999.25         0.2815        -999.25        -999.25        -999.25        -999.25
       565.5000         0.1841        -999.25        -999.25        -999.25         0.3198        -999.25        -999.25        -999.25        -999.25
       566.0000         0.3442        -999.25        -999.25        -999.25         0.3583        -999.25        -999.25        -999.25        -999.25
       566.5000         0.5043        -999.25        -999.25        -999.25         0.4238        -999.25        -999.25        -999.25        -999.25
       567.0000         0.8147        -999.25        -999.25        -999.25         0.5223        -999.25        -999.25        -999.25        -999.25
       567.5000         0.8749        -999.25        -999.25        -999.25         0.6068        -999.25        -999.25        -999.25        -999.25
       568.0000         0.9464        -999.25        -999.25        -999.25         0.6626        -999.25        -999.25        -999.25        -999.25
       568.5000         1.0379        -999.25        -999.25        -999.25          0.747        -999.25        -999.25        -999.25        -999.25
       569.0000         1.0887        -999.25        -999.25        -999.25         0.9377        -999.25        -999.25        -999.25        -999.25
       569.5000         1.1197        -999.25        -999.25        -999.25         1.2339        -999.25        -999.25        -999.25        -999.25
       570.0000         1.1382       862.1826         94.022       86.21761         1.2408        -999.25        -999.25              1        -999.25
       570.5000         1.1511       814.1855         92.344        84.8752         1.2278        -999.25        -999.25              1        -999.25
       571.0000         1.1622       771.9707        90.8495        83.6796         1.2037        -999.25        -999.25              1        -999.25
       571.5000         1.1729       740.0303        89.3922       82.51376          1.184        -999.25        -999.25              1        -999.25
       572.0000         1.1829         751.71        88.1343       81.50744         1.1729        -999.25        -999.25              1        -999.25
       572.5000         1.1908       766.6934        87.0416       80.63329         1.1666        -999.25        -999.25              1        -999.25
       573.0000         1.1987       781.5527        86.1274       79.90192         1.1606        -999.25        -999.25      0.9979133        -999.25
       573.5000         1.2075       795.7627        85.1453       79.11624         1.1525        -999.25        -999.25      0.9811966        -999.25
       574.0000         1.2163       808.6631        84.3909       78.51272         1.1389        -999.25        -999.25      0.9683557        -999.25
       574.5000         1.2274       821.5635        83.7601       78.00808         1.1194        -999.25        -999.25      0.9576187        -999.25
       575.0000         1.2384       839.8184        83.0825         77.466         1.1015        -999.25        -999.25       0.946085        -999.25
       575.5000         1.2479       858.3828        81.9863       76.58904         1.0839        -999.25        -999.25      0.9274263        -999.25
       576.0000         1.2602       876.2852        80.7206       75.57648         1.0577        -999.25        -999.25      0.9058825        -999.25
       576.5000         1.2659       893.2402          78.75             74         1.0373        -999.25        -999.25      0.8723404        -999.25
       577.0000         1.2653       910.0869        77.0914       72.67312         1.0177        -999.25        -999.25      0.8441089        -999.25
       577.5000           1.26       927.9902        75.5325         71.426         0.9982        -999.25        -999.25      0.8175745        -999.25
       578.0000         1.2524       943.5811         73.731        69.9848         0.9862       -59.1631      -6.345584      0.7869107      0.8846257
       578.5000         1.2447       957.0049          72.27       68.81599         0.9784       -59.7036       -7.29631      0.7620424      0.8673398
       579.0000         1.2386       969.8916        71.2715        68.0172         0.9965       -60.4629      -8.631893      0.7450467      0.8430565
       579.5000         1.2336       965.9199        72.1052       68.68416         1.0573       -61.1511      -9.842423      0.7592374      0.8210468
       580.0000           1.24       945.3574        72.9159       69.33272         1.2178       -61.7996      -10.98311      0.7730365       0.800307
       580.5000         1.2761       920.4854        73.5806       69.86448         1.3339       -60.2178      -8.200772      0.7843506       0.850895
       581.0000         1.2986       892.6045        74.2479       70.39832         1.3394       -58.6567      -5.454837       0.795709      0.9008211
       581.5000         1.3335       858.9746        74.9246       70.93968         1.3212       -57.0037      -2.547253      0.8072273      0.9536863
       582.0000         1.3791       829.2715        74.0139       70.21112          1.303       -57.2523      -2.984534       0.791726      0.9457358
       582.5000         1.3982       801.3525        71.4977       68.19817         1.2812       -57.9648      -4.237806      0.7488971       0.922949
       583.0000         1.4118       781.2988        70.0313       67.02504         1.2591       -58.7869      -5.683855       0.723937      0.8966572
       583.5000         1.4271       764.9932        68.7633       66.01064         1.2374        -59.747       -7.37265       0.702354      0.8659518
       584.0000         1.4376       748.6855        68.1616       65.52928         1.2248       -60.7489      -9.134966      0.6921124      0.8339097
       584.5000         1.4484       754.1641        69.5354       66.62832         1.2173       -61.6249      -10.67583      0.7154961      0.8058941
       585.0000         1.4591       761.6631        70.4419       67.35352         1.2098       -62.3533      -11.95706       0.730926      0.7825989
       585.5000         1.4615       769.1602        71.3391       68.07128         1.2009       -62.6364      -12.45502      0.7461975       0.773545
       586.0000         1.4586       778.9277        72.2222       68.77776         1.1921        -62.163      -11.62233      0.7612289       0.788685
       586.5000         1.4509       793.9297        73.7256       69.98048         1.1848       -61.3306      -10.15816      0.7868188      0.8153062
       587.0000          1.443       808.9307        75.2584       71.20672         1.1779       -60.6996       -9.01971      0.8129089      0.8360053
       587.5000         1.4353       826.4434        76.6705        72.3364          1.171        -60.246      -8.110142      0.8369448      0.8525429
       588.0000         1.4276       845.1855        77.5952       73.07616         1.1617       -59.8563      -7.312978      0.8526842      0.8670368
       588.5000           1.42       859.4443        77.0382       72.63056          1.147       -59.7102        -6.9443      0.8432034        0.87374
       589.0000         1.4119       873.6494        75.9857       71.78856         1.1221       -59.6936      -6.803404      0.8252885      0.8763018
       589.5000         1.4031       886.9736        74.8157       70.85255         1.0913       -59.7043      -6.710532      0.8053735      0.8779903
       590.0000         1.3943       899.5508         73.475          69.78         1.0607        -59.715       -6.61766      0.7825531      0.8796789
       590.5000         1.3856       913.0547        72.2572       68.80576         1.0303       -59.7861      -6.631019      0.7618247       0.879436
       591.0000          1.377       927.0459        71.5236       68.21888         1.0012       -59.9095      -6.736385      0.7493379      0.8775203
