#------------------------------------------------------------------------------
# Created by    : vladimir.rabinovich
# Created on    : 09/19/2023 17:20:47
#------------------------------------------------------------------------------
~Version Information Section
VERS.           2.0     :   CWLS log ASCII Standard - VERSION 2.0
WRAP.           NO      :   One line per depth step
~Well Information Section
#MNEM       .UNIT                                         VALUE :DESCRIPTION
#------------------------------------------------------------------------------
STRT        .FT                                            1960 :START DEPTH
STOP        .FT                                           13420 :STOP DEPTH
STEP        .FT                                             0.5 :STEP      
NULL        .                                           -999.25 :NULL      
COMP        .                                 CALIFORNIA CO THE :COMPANY   
WELL        .                                     ST TR 00002-L :WELL      
FLD         .                                           WILDCAT :FIELD     
LOC         .                                                   :LOCATION  
CNTY        .                                       SABINE PASS :LOCATION  
STAT        .                                             TEXAS :STATE     
CTRY        .                                     UNITED STATES :COUNTRY   
SRVC        .                                                   :SERVICE COMPANY
DATE        .                             9/13/2023 11:12:08 AM :LOG DATE  
API         .                                    42715000310000 :API NUMBER
UWI         .                                    42715000310000 :UNIQUE WELL ID
XCOORD      .                                  1372392.72802961 :SURFACE X 
YCOORD      .                                   10750257.969662 :SURFACE Y 
LAT         .                                         29.618979 :LATITUDE  
LON         .                                       -93.8437903 :LONGITUDE 
ELEV        .FT                                              11 :ELEVATION VALUE
ELEV_TYPE   .                                                KB :ELEVATION REFERENCE TYPE
~Curve Information Section
#MNEM       .UNIT                                      API CODE :CURVE DESCRIPTION
#------------------------------------------------------------------------------
DEPT        .FT                                                 :DEPTH     
ASN         .OHMM                                               :          
IL          .OHMM                                               :          
SP          .MV                                                 :          
SP_NORM     .MV                                                 :SP Normalized
VSH_SP      .V/V                                                :Volume of Shale from SP
~A        DEPTH            ASN             IL             SP        SP_NORM         VSH_SP
# ...
      2708.0000         2.2628         1.2014       -92.9692      -22.29016      0.6570745
      2708.5000         2.2515         1.2048      -100.2242      -30.51087       0.530602
      2709.0000         2.2289         1.2082      -104.2286       -35.0498      0.4607724
      2709.5000         2.1969         1.2138      -107.4564      -38.70913      0.4044749
      2710.0000         2.1302         1.2436      -109.7549      -41.31589      0.3643709
      2710.5000         2.0652         1.2734      -111.2593      -43.02323      0.3381042
      2711.0000          2.021         1.3033      -112.3922      -44.30978      0.3183111
      2711.5000         2.0016         1.3331       -112.917      -44.90757      0.3091142
      2712.0000         2.0074         1.3586      -111.2374      -43.00857      0.3383297
      2712.5000          2.018         1.3803      -107.4324      -38.70226      0.4045807
      2713.0000         2.0312          1.402       -104.074      -34.90177      0.4630497
      2713.5000         2.0444         1.4237      -100.7145      -31.10003       0.521538
      2714.0000         2.0594         1.4365       -98.7177      -28.84175      0.5562807
      2714.5000         2.0894         1.4143       -97.1163      -27.03134      0.5841333
      2715.0000         2.0833         1.3922       -95.9973      -25.76728      0.6035803
      2715.5000         2.0577         1.3701       -95.3298      -25.01464      0.6151595
      2716.0000         2.0403         1.3303       -94.7504      -24.36176      0.6252038
      2716.5000         2.0229         1.2891       -95.1442      -24.81119      0.6182895
      2717.0000         2.0155         1.2479       -96.0221      -25.80891      0.6029398
      2717.5000         2.0108         1.2067       -97.0183      -26.94064      0.5855287
      2718.0000          2.003         1.1707       -97.9252      -27.97122      0.5696736
      2718.5000         1.9837         1.1414       -98.7836      -28.94685      0.5546638
      2719.0000         1.9216         1.1122       -99.6331      -29.91242      0.5398089
      2719.5000         1.7722         1.0829      -100.1145      -30.46106      0.5313684
      2720.0000         1.7124         1.0537      -100.5963      -31.01014      0.5229208
      2720.5000         1.6577         1.0281      -101.0778      -31.55889      0.5144786
      2721.0000         1.6163         1.0057      -101.1869      -31.68585      0.5125254
      2721.5000         1.5749         0.9834      -101.1946      -31.69797       0.512339
      2722.0000         1.5392         0.9611      -101.2023      -31.71007      0.5121529
      2722.5000         1.5166         0.9488        -101.21      -31.72217      0.5119666
      2723.0000         1.5553         0.9423      -101.2177      -31.73427      0.5117805
      2723.5000         1.6215         0.9436      -101.3419      -31.87834       0.509564
      2724.0000         1.6885         0.9817      -102.7667      -33.49551      0.4846845
      2724.5000         1.7295         1.0199      -107.0043      -38.29858      0.4107911
      2725.0000         1.7358         1.0581      -109.6208      -41.26552      0.3651459
      2725.5000          1.737         1.0955      -111.5883      -43.49738      0.3308096
      2726.0000         1.7471         1.1306      -112.0551      -44.02948      0.3226234
      2726.5000         1.7643         1.1658      -111.0757      -42.92355      0.3396378
      2727.0000         1.8312         1.2009      -108.4967      -40.00584      0.3845255
      2727.5000         1.8975          1.236      -105.1372      -36.20413      0.4430134
      2728.0000         1.9626         1.2711      -102.3038      -32.99827      0.4923343
      2728.5000         2.0222         1.3059      -100.2755      -30.70432      0.5276259
      2729.0000         2.0502         1.3315      -100.0347      -30.43496      0.5317699
      2729.5000         2.0514         1.3571      -100.2844      -30.72117      0.5273666
      2730.0000         2.0216         1.3827       -99.8636      -30.24794      0.5346471
      2730.5000         1.9614         1.4083         -98.83      -29.08062      0.5526058
      2731.0000         1.8962         1.4263       -97.1964      -27.23373      0.5810196
      2731.5000         1.8456         1.4254       -95.5625      -25.38647      0.6094388
      2732.0000         1.8247         1.4246        -93.929      -23.53969      0.6378509
      2732.5000         1.8166         1.4238       -92.3031      -21.70151      0.6661307
      2733.0000         1.8579         1.4129       -93.8314      -23.43591      0.6394476
      2733.5000         1.9227         1.3951       -95.3652      -25.17654      0.6126686
      2734.0000         1.9876         1.3673      -100.5946      -31.10296      0.5214928
      2734.5000         2.0468         1.2715      -106.3311      -37.60376      0.4214806
      2735.0000         2.1051         1.1701      -108.1023      -39.61328      0.3905649
      2735.5000         2.1662         1.0629      -109.8737      -41.62303      0.3596457
      2736.0000          2.276         0.9558      -112.4314      -44.52336      0.3150252
      2736.5000         2.3071         0.8996      -115.1646      -47.62249      0.2673464
      2737.0000         2.3381         0.8499      -117.2386      -49.97498      0.2311541
      2737.5000         2.2153         0.8011      -119.1722      -52.16844      0.1974086
      2738.0000         2.0287         0.7793      -121.0492      -54.29779      0.1646493
      2738.5000         1.8433         0.7575      -122.7234      -56.19744       0.135424
      2739.0000         1.7597         0.7448      -124.2043      -57.87816      0.1095668
      2739.5000         1.7138         0.7474      -124.9487      -58.72468     0.09654342
      2740.0000         1.6766         0.7499       -125.693      -59.57109     0.08352162
      2740.5000         1.6619         0.7525      -126.3746      -60.34649     0.07159248
      2741.0000         1.6472         0.7591      -126.7698      -60.79748     0.06465413
      2741.5000         1.6325         0.7776      -127.1649      -61.24839     0.05771713
      2742.0000         1.6099         0.7961      -127.5599      -61.69915     0.05078225
      2742.5000         1.5731         0.8146      -127.6986      -61.85964      0.0483132
      2743.0000         1.5363         0.8331      -127.8209      -62.00154     0.04613008
      2743.5000         1.5013         0.8516      -127.5361      -61.68236     0.05104065
      2744.0000         1.4667         0.8666      -126.8594      -60.91928     0.06278035
      2744.5000         1.4328         0.8781      -126.0247      -59.97724     0.07727326
      2745.0000         1.4023         0.8896      -124.7589      -58.54693     0.09927797
      2745.5000         1.3717         0.9011      -123.4937      -57.11729      0.1212725
      2746.0000         1.3574         0.9125      -122.3928      -55.87375      0.1404038
      2746.5000         1.3435         0.9187      -121.9435      -55.36824      0.1481809
      2747.0000         1.3344         0.9247      -121.4944      -54.86295      0.1559546
      2747.5000         1.3352         0.9306      -121.3928      -54.75126      0.1576729
      2748.0000         1.3359         0.9365      -121.4005      -54.76336      0.1574868
      2748.5000         1.3489         0.9801      -121.4082      -54.77547      0.1573004
      2749.0000         1.3991          1.031        -121.33      -54.69028      0.1586111
      2749.5000         1.4555         1.0868      -121.0631      -54.39137      0.1632098
      2750.0000         1.5254         1.1723      -120.7963      -54.09256      0.1678067
      2750.5000         1.5953         1.2578      -120.1287      -53.33978       0.179388
      2751.0000         1.6579         1.3432      -118.3519      -51.33069       0.210297
      2751.5000         1.7171         1.4287      -116.5752      -49.32172      0.2412044
