#------------------------------------------------------------------------------
# Created by    : vladimir.rabinovich
# Created on    : 09/19/2023 17:20:47
#------------------------------------------------------------------------------
~Version Information Section
VERS.           2.0     :   CWLS log ASCII Standard - VERSION 2.0
WRAP.           NO      :   One line per depth step
~Well Information Section
#MNEM       .UNIT                                         VALUE :DESCRIPTION
#------------------------------------------------------------------------------
STRT        .FT                                            1960 :START DEPTH
STOP        .FT                                           13420 :STOP DEPTH
STEP        .FT                                             0.5 :STEP      
NULL        .                                           -999.25 :NULL      
COMP        .                                 CALIFORNIA CO THE :COMPANY   
WELL        .                                     ST TR 00002-L :WELL      
FLD         .                                           WILDCAT :FIELD     
LOC         .                                                   :LOCATION  
CNTY        .                                       SABINE PASS :LOCATION  
STAT        .                                             TEXAS :STATE     
CTRY        .                                     UNITED STATES :COUNTRY   
SRVC        .                                                   :SERVICE COMPANY
DATE        .                             9/13/2023 11:12:08 AM :LOG DATE  
API         .                                    42715000310000 :API NUMBER
UWI         .                                    42715000310000 :UNIQUE WELL ID
XCOORD      .                                  1372392.72802961 :SURFACE X 
YCOORD      .                                   10750257.969662 :SURFACE Y 
LAT         .                                         29.618979 :LATITUDE  
LON         .                                       -93.8437903 :LONGITUDE 
ELEV        .FT                                              11 :ELEVATION VALUE
ELEV_TYPE   .                                                KB :ELEVATION REFERENCE TYPE
~Curve Information Section
#MNEM       .UNIT                                      API CODE :CURVE DESCRIPTION
#------------------------------------------------------------------------------
DEPT        .FT                                                 :DEPTH     
ASN         .OHMM                                               :          
IL          .OHMM                                               :          
SP          .MV                                                 :          
SP_NORM     .MV                                                 :SP Normalized
VSH_SP      .V/V                                                :Volume of Shale from SP
~A        DEPTH            ASN             IL             SP        SP_NORM         VSH_SP
# ...
     11068.0000         1.0486         1.4277       -42.2269     -0.8969373      0.9871866
     11068.5000         1.0504         1.4264       -42.1841     -0.8575255      0.9877496
     11069.0000         1.0521          1.425       -42.1594     -0.8354872      0.9880645
     11069.5000         1.0539         1.4237       -42.1371      -0.815752      0.9883464
     11070.0000         1.0596         1.4226       -42.1148     -0.7960168      0.9886283
     11070.5000         1.0664         1.4219       -42.0925     -0.7762817      0.9889103
     11071.0000         1.0732         1.4211       -42.0701     -0.7564513      0.9891936
     11071.5000         1.0799         1.4203       -42.0894     -0.7766554      0.9889049
     11072.0000         1.0788         1.4196       -42.1197     -0.8074134      0.9884655
     11072.5000         1.0713         1.4188         -42.15     -0.8381751      0.9880261
     11073.0000         1.0638          1.418       -42.1803     -0.8689368      0.9875866
     11073.5000         1.0563         1.4173       -42.2262     -0.9146729      0.9869332
     11074.0000         1.0561         1.4165       -42.3091     -0.9959314      0.9857724
     11074.5000         1.0568         1.4162       -42.3924      -1.077571      0.9846061
     11075.0000         1.0575          1.417       -42.4756      -1.159119      0.9834412
     11075.5000         1.0583         1.4178       -42.5586      -1.240472      0.9822789
     11076.0000          1.059         1.4185       -42.4922      -1.178396      0.9831658
     11076.5000          1.061         1.4193       -42.4233      -1.113928      0.9840868
     11077.0000         1.0633         1.4201       -42.3546      -1.049647       0.985005
     11077.5000         1.0656         1.4209       -42.2806     -0.9802833      0.9859959
     11078.0000          1.068         1.4216       -42.1954     -0.9001635      0.9871405
     11078.5000         1.0703         1.4224       -42.1105     -0.8203332       0.988281
     11079.0000         1.0726         1.4232       -42.0253     -0.7402136      0.9894255
     11079.5000         1.0731         1.4262       -41.9529     -0.6723804      0.9903946
     11080.0000         1.0705         1.4306       -42.0762     -0.7924207      0.9886797
     11080.5000         1.0679          1.435       -42.1993     -0.9122705      0.9869676
     11081.0000         1.0653         1.4394       -42.2756     -0.9871936      0.9858972
     11081.5000         1.0627         1.4438       -42.3202      -1.031685      0.9852616
     11082.0000         1.0614         1.4482       -42.3649      -1.076267      0.9846247
     11082.5000         1.0633         1.4526       -42.4095      -1.120758      0.9839892
     11083.0000         1.0652          1.457       -42.4364      -1.148257      0.9835963
     11083.5000         1.0671         1.4746       -42.4218      -1.135908      0.9837728
     11084.0000         1.0689         1.4932       -42.4072      -1.123567      0.9839491
     11084.5000          1.077         1.5117       -42.3925       -1.11113      0.9841267
     11085.0000         1.0927         1.5303       -42.3779      -1.098785      0.9843031
     11085.5000         1.1085         1.5489       -42.3633      -1.086444      0.9844794
     11086.0000         1.1242         1.5675       -42.3486      -1.074004      0.9846571
     11086.5000          1.142          1.586        -42.334      -1.061663      0.9848334
     11087.0000         1.1597         1.5816       -42.3194      -1.049318      0.9850097
     11087.5000         1.1775         1.5731       -42.3047      -1.036877      0.9851875
     11088.0000          1.194         1.5647       -42.2902      -1.024631      0.9853624
     11088.5000         1.2061         1.5563       -42.2755      -1.012195      0.9855401
     11089.0000         1.2007         1.5478       -42.2759      -1.014253      0.9855106
     11089.5000         1.1904         1.5394        -42.293       -1.03234      0.9852523
     11090.0000         1.1791         1.5309       -42.3102      -1.050526      0.9849925
     11090.5000         1.1678         1.5225       -42.3273      -1.068617      0.9847341
     11091.0000         1.1565          1.514       -42.3445      -1.086799      0.9844743
     11091.5000         1.1517         1.5087       -42.3779      -1.120535      0.9839923
     11092.0000         1.1496         1.5044       -42.4161      -1.158881      0.9834446
     11092.5000         1.1474         1.5002       -42.4542      -1.197131      0.9828981
     11093.0000         1.1453         1.4959       -42.4924      -1.235477      0.9823503
     11093.5000         1.1428         1.4917       -42.4874       -1.23235       0.982395
     11094.0000         1.1404         1.4874       -42.4349      -1.183622      0.9830911
     11094.5000          1.138         1.4831       -42.3824      -1.134897      0.9837872
     11095.0000         1.1377         1.4789       -42.3298      -1.086071      0.9844847
     11095.5000         1.1378         1.4746       -42.2643      -1.024866      0.9853591
     11096.0000          1.138         1.4704       -42.1486     -0.9154676      0.9869219
     11096.5000         1.1418         1.4661       -42.0327     -0.8058754      0.9884875
     11097.0000         1.1515          1.465       -41.9169     -0.6963819      0.9900517
     11097.5000         1.1612         1.4659       -41.8245     -0.6093518       0.991295
     11098.0000          1.168         1.4668       -41.7744     -0.5629272      0.9919582
     11098.5000         1.1595         1.4677       -41.7479     -0.5391565      0.9922978
     11099.0000         1.1511         1.4687       -41.9011      -0.687904      0.9901728
     11099.5000         1.1426         1.4696       -42.0546     -0.8369372      0.9880437
     11100.0000         1.1365         1.4705       -42.1793     -0.9583215      0.9863097
     11100.5000         1.1305         1.4714       -42.2094     -0.9888929       0.985873
     11101.0000         1.1246         1.4723       -42.2394      -1.019365      0.9854376
     11101.5000         1.1187         1.4733       -42.2696      -1.050032      0.9849995
     11102.0000         1.1127         1.4742       -42.2997      -1.080603      0.9845628
     11102.5000         1.1142         1.4751       -42.2545      -1.038881      0.9851589
     11103.0000         1.1165         1.4753        -42.197     -0.9853515      0.9859235
     11103.5000         1.1188         1.4752       -42.1397     -0.9320202      0.9866855
     11104.0000         1.1211         1.4752       -42.0823     -0.8785865      0.9874488
     11104.5000         1.1275         1.4751        -42.025     -0.8252552      0.9882106
     11105.0000         1.1344         1.4751       -41.9553     -0.7600145      0.9891427
     11105.5000         1.1414          1.475       -41.8839     -0.6931446      0.9900979
     11106.0000         1.1483         1.4749       -41.8126     -0.6263695      0.9910519
     11106.5000         1.1501         1.4749       -41.7412     -0.5594959      0.9920072
     11107.0000         1.1395         1.4748       -41.6699     -0.4927208      0.9929611
     11107.5000         1.1288         1.4747       -41.6236     -0.4499475      0.9935722
     11108.0000         1.1181         1.4747       -41.6335     -0.4611244      0.9934125
     11108.5000         1.1075         1.4746       -41.6434      -0.472301      0.9932528
     11109.0000         1.1056         1.4721       -41.6533     -0.4834816      0.9930931
     11109.5000         1.1081         1.4694       -41.6631      -0.494563      0.9929348
     11110.0000         1.1107         1.4666       -41.6967     -0.5284887      0.9924502
     11110.5000         1.1132         1.4639       -41.7534     -0.5845923      0.9916487
     11111.0000         1.1158         1.4611       -41.8102     -0.6407948      0.9908458
     11111.5000          1.118         1.4583        -41.867     -0.6969972      0.9900429
