#------------------------------------------------------------------------------
# Created by    : vladimir.rabinovich
# Created on    : 09/19/2023 17:20:40
#------------------------------------------------------------------------------
~Version Information Section
VERS.           2.0     :   CWLS log ASCII Standard - VERSION 2.0
WRAP.           NO      :   One line per depth step
~Well Information Section
#MNEM       .UNIT                                         VALUE :DESCRIPTION
#------------------------------------------------------------------------------
STRT        .FT                                             769 :START DEPTH
STOP        .FT                                           10573 :STOP DEPTH
STEP        .FT                                             0.5 :STEP      
NULL        .                                           -999.25 :NULL      
COMP        .                                        TEXACO INC :COMPANY   
WELL        .                               OCS G01846 ST00BP00 :WELL      
FLD         .                            HIGH ISLAND BLOCK 0129 :FIELD     
LOC         .                                                   :LOCATION  
CNTY        .                                  HIGH ISLAND EAST :LOCATION  
STAT        .                                             TEXAS :STATE     
CTRY        .                                     UNITED STATES :COUNTRY   
SRVC        .                                                   :SERVICE COMPANY
DATE        .                             9/13/2023 11:19:51 AM :LOG DATE  
API         .                                    42710300030000 :API NUMBER
UWI         .                                    42710300030000 :UNIQUE WELL ID
XCOORD      .                                   1386052.0565626 :SURFACE X 
YCOORD      .                                   10637380.600337 :SURFACE Y 
LAT         .                                        29.3087467 :LATITUDE  
LON         .                                       -93.7983562 :LONGITUDE 
ELEV        .FT                                              81 :ELEVATION VALUE
ELEV_TYPE   .                                                KB :ELEVATION REFERENCE TYPE
~Curve Information Section
#MNEM       .UNIT                                      API CODE :CURVE DESCRIPTION
#------------------------------------------------------------------------------
DEPT        .FT                                                 :DEPTH     
ASN         .OHMM                                               :          
CALI        .IN                                                 :          
DRHO        .G/C3                                               :          
GR          .GAPI                                               :          
GR_1        .GAPI                                               :          
GR_NORM     .GAPI                                               :GammaRay Normalized
ILD         .OHMM                                               :          
RHOB        .G/C3                                               :          
SP          .MV                                                 :          
SP_NORM     .MV                                                 :SP Normalized
VSH_GR      .V/V                                                :Volume of Shale from GR
VSH_SP      .V/V                                                :Volume of Shale from SP
~A        DEPTH            ASN           CALI           DRHO             GR           GR_1        GR_NORM            ILD           RHOB             SP        SP_NORM         VSH_GR         VSH_SP
# ...
      9891.5000         0.6902         9.0569        -0.0768        -999.25        -999.25        -999.25         0.7392        -999.25       -35.3625      -1.688152        -999.25      0.9758835
      9892.0000         0.6778         9.0195        -0.0812        -999.25        -999.25        -999.25         0.7372        -999.25        -35.424      -1.745014        -999.25      0.9750713
      9892.5000         0.7036         8.9988         -0.079        -999.25        -999.25        -999.25         0.7462        -999.25       -35.5731      -1.889477        -999.25      0.9730075
      9893.0000         0.7503         9.0122        -0.0855        -999.25        -999.25        -999.25         0.7698        -999.25       -35.7222      -2.033936        -999.25      0.9709437
      9893.5000         0.7801         9.0399        -0.0875        -999.25        -999.25        -999.25         0.7824        -999.25       -35.8904      -2.197498        -999.25      0.9686072
      9894.0000         0.7471         9.0753        -0.0881        -999.25        -999.25        -999.25         0.7853        -999.25       -36.0607      -2.363159        -999.25      0.9662406
      9894.5000         0.7186         9.1109        -0.0916        -999.25        -999.25        -999.25         0.7791        -999.25        -36.133       -2.43082        -999.25       0.965274
      9895.0000         0.7066         9.1117         -0.095        -999.25        -999.25        -999.25         0.7693        -999.25       -36.0863      -2.379478        -999.25      0.9660075
      9895.5000         0.7037         9.1049        -0.0962        -999.25        -999.25        -999.25         0.7584        -999.25       -35.9542      -2.242741        -999.25      0.9679608
      9896.0000         0.7163         9.0964        -0.0973        -999.25        -999.25        -999.25         0.7473        -999.25       -35.6911      -1.975002        -999.25      0.9717857
      9896.5000         0.7352         9.0797        -0.0939        -999.25        -999.25        -999.25         0.7367        -999.25       -35.4348      -1.714062        -999.25      0.9755134
      9897.0000         0.7631         9.0629        -0.0897        -999.25        -999.25        -999.25         0.7275        -999.25       -35.2004      -1.475025        -999.25      0.9789282
      9897.5000         0.7644         9.0611        -0.0848        -999.25        -999.25        -999.25         0.7184        -999.25       -35.0023      -1.272285        -999.25      0.9818245
      9898.0000         0.7359         9.0606        -0.0794        -999.25        -999.25        -999.25         0.7228        -999.25       -35.0364      -1.301743        -999.25      0.9814036
      9898.5000         0.7007         9.0656        -0.0768        -999.25        -999.25        -999.25         0.7305        -999.25       -35.1348      -1.395504        -999.25      0.9800642
      9899.0000         0.6823         9.0698         -0.084        -999.25        -999.25        -999.25         0.7473        -999.25       -35.3985      -1.654564        -999.25      0.9763634
      9899.5000          0.728         9.0403        -0.0954        -999.25        -999.25        -999.25         0.7715        -999.25       -35.7391      -1.990528        -999.25      0.9715639
      9900.0000         0.7855         9.0347        -0.1018        -999.25        -999.25        -999.25         0.7968        -999.25       -35.8406      -2.087387        -999.25      0.9701802
      9900.5000         0.8377         9.0686        -0.1021        -999.25        -999.25        -999.25         0.8236        -999.25       -35.8262      -2.068348        -999.25      0.9704522
      9901.0000         0.8695         9.1508        -0.0995        -999.25        -999.25        -999.25         0.8446        -999.25        -35.899      -2.136505        -999.25      0.9694785
      9901.5000         0.8816         9.1243        -0.1097        -999.25        -999.25        -999.25         0.8545        -999.25       -35.9719      -2.204769        -999.25      0.9685033
      9902.0000          0.838         9.0163        -0.1233        -999.25        -999.25        -999.25         0.8531        -999.25       -36.3731       -2.60133        -999.25      0.9628382
      9902.5000         0.8178         8.8908        -0.1356        -999.25        -999.25        -999.25         0.8365        -999.25       -36.7388      -2.962391        -999.25      0.9576801
      9903.0000         0.8087         8.9029        -0.1469        -999.25        -999.25        -999.25          0.804        -999.25       -36.6995      -2.918453        -999.25      0.9583078
      9903.5000         0.8019         8.9526        -0.1437        -999.25        -999.25        -999.25          0.755        -999.25       -36.4833      -2.697613        -999.25      0.9614627
      9904.0000         0.7674         9.0677        -0.1394        -999.25        -999.25        -999.25         0.7221        -999.25       -36.1754      -2.385075        -999.25      0.9659275
      9904.5000         0.7517         9.1883        -0.1443        -999.25        -999.25        -999.25         0.6959        -999.25        -35.879      -2.084034        -999.25      0.9702281
      9905.0000         0.7456         9.1649        -0.1425        -999.25        -999.25        -999.25         0.6925        -999.25         -35.66      -1.860394        -999.25      0.9734229
      9905.5000         0.7476         9.0713        -0.1365        -999.25        -999.25        -999.25         0.6978        -999.25       -35.5959      -1.791656        -999.25      0.9744049
      9906.0000         0.7496         8.9822        -0.1355        -999.25        -999.25        -999.25         0.7143        -999.25       -35.6431      -1.834217        -999.25      0.9737969
      9906.5000         0.7563         8.8931        -0.1373        -999.25        -999.25        -999.25         0.7416        -999.25       -35.9542      -2.140678        -999.25      0.9694189
      9907.0000         0.7672          8.827        -0.1396        -999.25        -999.25        -999.25         0.7688        -999.25       -36.2653       -2.44714        -999.25      0.9650409
      9907.5000         0.7684         8.7745        -0.1332        -999.25        -999.25        -999.25         0.7827        -999.25       -36.3141      -2.491295        -999.25      0.9644101
      9908.0000         0.7488         8.8553        -0.1259        -999.25        -999.25        -999.25         0.7919        -999.25       -36.3173      -2.489857        -999.25      0.9644306
      9908.5000         0.7293         8.9433        -0.1194        -999.25        -999.25        -999.25         0.7769        -999.25       -36.3546      -2.522518        -999.25       0.963964
      9909.0000         0.6988         9.0017        -0.1135        -999.25        -999.25        -999.25         0.7488        -999.25       -36.4575      -2.620781        -999.25      0.9625603
      9909.5000          0.684         9.0601         -0.109        -999.25        -999.25        -999.25         0.7243        -999.25       -36.5604       -2.71904        -999.25      0.9611565
      9910.0000         0.7128         9.1139        -0.1061        -999.25        -999.25        -999.25         0.7017        -999.25       -36.9423      -3.096302        -999.25      0.9557671
      9910.5000         0.7241         9.1633        -0.1039        -999.25        -999.25        -999.25         0.6905        -999.25        -37.312      -3.461365        -999.25      0.9505519
      9911.0000         0.7266          9.213        -0.1035        -999.25        -999.25        -999.25          0.688        -999.25        -37.588      -3.732723        -999.25      0.9466754
      9911.5000         0.7359         9.2669        -0.1039        -999.25        -999.25        -999.25         0.7014        -999.25       -37.8353      -3.975384        -999.25      0.9432088
