#------------------------------------------------------------------------------
# Created by    : vladimir.rabinovich
# Created on    : 09/19/2023 17:22:52
#------------------------------------------------------------------------------
~Version Information Section
VERS.           2.0     :   CWLS log ASCII Standard - VERSION 2.0
WRAP.           NO      :   One line per depth step
~Well Information Section
#MNEM       .UNIT                                         VALUE :DESCRIPTION
#------------------------------------------------------------------------------
STRT        .FT                                            2993 :START DEPTH
STOP        .FT                                           15023 :STOP DEPTH
STEP        .FT                                             0.5 :STEP      
NULL        .                                           -999.25 :NULL      
COMP        .                                        TEXACO INC :COMPANY   
WELL        .                                     ST TR 00018-L :WELL      
FLD         .                                           WILDCAT :FIELD     
LOC         .                                                   :LOCATION  
CNTY        .                                       SABINE PASS :LOCATION  
STAT        .                                             TEXAS :STATE     
CTRY        .                                     UNITED STATES :COUNTRY   
SRVC        .                                                   :SERVICE COMPANY
DATE        .                             9/13/2023 11:20:07 AM :LOG DATE  
API         .                                    42715000300000 :API NUMBER
UWI         .                                    42715000300000 :UNIQUE WELL ID
XCOORD      .                                  1367853.58567514 :SURFACE X 
YCOORD      .                                  10716828.2466652 :SURFACE Y 
LAT         .                                         29.526933 :LATITUDE  
LON         .                                       -93.8573019 :LONGITUDE 
ELEV        .FT                                              75 :ELEVATION VALUE
ELEV_TYPE   .                                                KB :ELEVATION REFERENCE TYPE
~Curve Information Section
#MNEM       .UNIT                                      API CODE :CURVE DESCRIPTION
#------------------------------------------------------------------------------
DEPT        .FT                                                 :DEPTH     
ILD         .OHMM                                               :          
SFLA        .OHMM                                               :          
SP          .MV                                                 :          
SP_NORM     .MV                                                 :SP Normalized
VSH_SP      .V/V                                                :Volume of Shale from SP
~A        DEPTH            ILD           SFLA             SP        SP_NORM         VSH_SP
# ...
     11749.0000           0.27         0.3256       -18.5259       1.920359              1
     11749.5000           0.27         0.3256       -18.5235       1.922134              1
     11750.0000         0.2701         0.3256       -18.3669       2.078112              1
     11750.5000         0.2701         0.3256       -18.3071       2.137287              1
     11751.0000         0.2701         0.3276       -18.2078       2.235964              1
     11751.5000         0.2702         0.3286       -18.2054        2.23774              1
     11752.0000         0.2702         0.3286       -18.3745       2.068016              1
     11752.5000         0.2703         0.3285       -18.5103       1.931593              1
     11753.0000         0.2703         0.3285        -18.508        1.93327              1
     11753.5000         0.2856         0.3285       -18.8146       1.626043              1
     11754.0000         0.2857         0.3285       -18.8382        1.60182              1
     11754.5000         0.3009         0.3285       -19.1196       1.319796              1
     11755.0000         0.3009         0.3284       -19.2948       1.143972              1
     11755.5000         0.3162         0.3312       -19.4242       1.013948              1
     11756.0000         0.3163         0.3349       -19.4032       1.034325              1
     11756.5000         0.3203         0.3387       -19.1106       1.326302              1
     11757.0000         0.3316         0.3444       -18.9384       1.497877              1
     11757.5000         0.3316         0.3521       -18.4875       1.948154              1
     11758.0000         0.3317         0.3597       -18.4729       1.962128              1
     11758.5000         0.3317         0.3687       -18.1307       2.303705              1
     11759.0000         0.3396         0.3814       -17.9359       2.497881              1
     11759.5000         0.3623         0.3956       -17.8603       2.572857              1
     11760.0000         0.3629         0.4039       -17.7013       2.731234              1
     11760.5000         0.4011         0.4325       -17.5471       2.884809              1
     11761.0000         0.4393         0.4495       -17.6231       2.808186              1
     11761.5000         0.4657         0.4507       -18.5074       1.923262              1
     11762.0000         0.4848         0.4537       -19.8518      0.5782375              1
     11762.5000         0.4997         0.4537       -21.0735     -0.6440868              1
     11763.0000         0.4998         0.4537       -21.7767       -1.34791      0.9952985
     11763.5000         0.4846         0.4567       -22.4799      -2.051735      0.9857874
     11764.0000         0.4541         0.4504       -23.1831      -2.755558      0.9762762
     11764.5000         0.4456         0.4434       -23.8862      -3.459282      0.9667665
     11765.0000         0.4156         0.4262       -24.4702      -4.043905      0.9588661
     11765.5000         0.3933         0.4091       -24.6345       -4.20883      0.9566374
     11766.0000         0.3927         0.3919       -24.3231      -3.898052      0.9608371
     11766.5000         0.3737         0.3747       -23.7156      -3.291176      0.9690382
     11767.0000         0.3629         0.3615       -22.8066      -2.382801      0.9813135
     11767.5000         0.3509         0.3515       -21.8976      -1.474426      0.9935888
     11768.0000         0.3325         0.3401       -20.9886     -0.5660496              1
     11768.5000         0.3281         0.3333       -20.0797       0.342226              1
     11769.0000          0.309         0.3294       -19.1707       1.250603              1
     11769.5000           0.29         0.3279        -18.539        1.88168              1
     11770.0000         0.2717         0.3279        -18.152       2.268055              1
     11770.5000         0.2626         0.3316       -17.8116       2.607832              1
     11771.0000         0.2413          0.334       -17.7484       2.670408              1
     11771.5000         0.2413         0.3362       -17.6525       2.765684              1
     11772.0000         0.2413           0.34       -17.8047       2.612858              1
     11772.5000          0.246         0.3437       -17.8026       2.614334              1
     11773.0000         0.2651         0.3475       -17.8004       2.615911              1
     11773.5000          0.272         0.3513       -17.7982       2.617487              1
     11774.0000         0.3025         0.3522       -17.7957       2.619364              1
     11774.5000          0.312         0.3522       -17.6228       2.791639              1
     11775.0000         0.3331         0.3495       -17.3743       3.039516              1
     11775.5000         0.3331         0.3251        -17.171       3.242193              1
     11776.0000         0.3636         0.3154       -16.8593       3.553268              1
     11776.5000         0.3685         0.3092       -16.6899       3.722044              1
     11777.0000         0.3876         0.3066       -16.4446       3.966721              1
     11777.5000         0.3942         0.3031       -16.0578       4.352896              1
     11778.0000         0.3943         0.3031        -15.923       4.487072              1
     11778.5000         0.3943          0.303       -15.7571       4.652349              1
     11779.0000         0.4031          0.303       -15.6098       4.799025              1
     11779.5000         0.4096          0.305       -15.6075       4.800701              1
     11780.0000         0.4249         0.3091       -15.6049       4.802677              1
     11780.5000          0.425         0.3099       -15.4485       4.958454              1
     11781.0000          0.425         0.3152       -15.4463       4.960031              1
     11781.5000          0.425         0.3152        -15.444       4.961704              1
     11782.0000         0.4251         0.3213       -15.4414       4.963681              1
     11782.5000         0.4251         0.3247       -15.6178       4.786657              1
     11783.0000         0.4252         0.3296       -17.3463       3.057533              1
     11783.5000         0.4252         0.3372       -18.6061        1.79711              1
     11784.0000           0.41         0.3422       -19.1808       1.221786              1
     11784.5000         0.4049         0.3457       -19.6037      0.7982616              1
     11785.0000         0.3948         0.3457       -19.6383      0.7630386              1
     11785.5000         0.3949         0.3456       -19.8284      0.5723152              1
     11786.0000         0.3949         0.3406       -19.9061      0.4939899              1
     11786.5000          0.395         0.3329       -20.0541      0.3453655              1
     11787.0000         0.3859         0.3262       -20.2112      0.1876411              1
     11787.5000         0.3798         0.3224       -20.2086      0.1896191              1
     11788.0000         0.3783          0.321       -20.2063      0.1912937              1
     11788.5000         0.3646         0.3149       -20.0494      0.3475704              1
     11789.0000         0.3647         0.3149       -19.7082      0.6881466              1
     11789.5000         0.3647         0.3149       -19.3783       1.017424              1
     11790.0000         0.3648         0.3148       -18.9041       1.490999              1
     11790.5000         0.3648         0.3149       -18.3403       2.054174              1
     11791.0000         0.3648         0.3187        -18.131        2.26285              1
     11791.5000         0.3649         0.3209        -17.808       2.585226              1
     11792.0000         0.3649          0.324       -17.7155       2.677103              1
     11792.5000          0.365         0.3239       -17.5734       2.818579              1
