#------------------------------------------------------------------------------
# Created by    : vladimir.rabinovich
# Created on    : 09/19/2023 17:20:47
#------------------------------------------------------------------------------
~Version Information Section
VERS.           2.0     :   CWLS log ASCII Standard - VERSION 2.0
WRAP.           NO      :   One line per depth step
~Well Information Section
#MNEM       .UNIT                                         VALUE :DESCRIPTION
#------------------------------------------------------------------------------
STRT        .FT                                            1960 :START DEPTH
STOP        .FT                                           13420 :STOP DEPTH
STEP        .FT                                             0.5 :STEP      
NULL        .                                           -999.25 :NULL      
COMP        .                                 CALIFORNIA CO THE :COMPANY   
WELL        .                                     ST TR 00002-L :WELL      
FLD         .                                           WILDCAT :FIELD     
LOC         .                                                   :LOCATION  
CNTY        .                                       SABINE PASS :LOCATION  
STAT        .                                             TEXAS :STATE     
CTRY        .                                     UNITED STATES :COUNTRY   
SRVC        .                                                   :SERVICE COMPANY
DATE        .                             9/13/2023 11:12:08 AM :LOG DATE  
API         .                                    42715000310000 :API NUMBER
UWI         .                                    42715000310000 :UNIQUE WELL ID
XCOORD      .                                  1372392.72802961 :SURFACE X 
YCOORD      .                                   10750257.969662 :SURFACE Y 
LAT         .                                         29.618979 :LATITUDE  
LON         .                                       -93.8437903 :LONGITUDE 
ELEV        .FT                                              11 :ELEVATION VALUE
ELEV_TYPE   .                                                KB :ELEVATION REFERENCE TYPE
~Curve Information Section
#MNEM       .UNIT                                      API CODE :CURVE DESCRIPTION
#------------------------------------------------------------------------------
DEPT        .FT                                                 :DEPTH     
ASN         .OHMM                                               :          
IL          .OHMM                                               :          
SP          .MV                                                 :          
SP_NORM     .MV                                                 :SP Normalized
VSH_SP      .V/V                                                :Volume of Shale from SP
~A        DEPTH            ASN             IL             SP        SP_NORM         VSH_SP
# ...
      3500.0000         1.8339         1.7538       -66.3682       4.049013              1
      3500.5000          1.845         1.7677       -66.0164       4.445592              1
      3501.0000         1.8579         1.7816       -65.6644       4.842396              1
      3501.5000          1.881         1.7956       -65.3181       5.232734              1
      3502.0000         1.9042         1.8095       -65.2489       5.309219              1
      3502.5000         1.9273         1.8288       -65.1798       5.385592              1
      3503.0000         1.9585         1.8491       -65.1106       5.462076              1
      3503.5000         1.9938         1.8694       -65.2228       5.333113              1
      3504.0000         2.0292         1.8897       -65.9761       4.478005              1
      3504.5000         2.0645         1.9101       -66.7292       3.623114              1
      3505.0000         2.0995         1.9304       -67.4832       2.767211              1
      3505.5000          2.131         1.9507       -68.2429       1.904854              1
      3506.0000         2.1624          1.971       -69.0033       1.041701              1
      3506.5000         2.1838         1.9914       -69.7615      0.1810455              1
      3507.0000         2.1987         2.0117       -70.5153     -0.6746323      0.9903624
      3507.5000         2.2047          2.032       -71.2686      -1.529749      0.9781464
      3508.0000         2.1953         2.0339       -71.9655      -2.320979      0.9668431
      3508.5000         2.1784         2.0351       -72.2699      -2.667636      0.9618909
      3509.0000         2.1562         2.0363       -72.5746      -3.014648      0.9569336
      3509.5000         2.1339         2.0375       -72.8418      -3.319179      0.9525831
      3510.0000          2.134         2.0387        -73.037       -3.54217      0.9493976
      3510.5000         2.1623         2.0399       -73.3083      -3.320799        0.95256
      3511.0000          2.193         2.0412       -74.2163      -4.209195      0.9398686
      3511.5000         2.2359         2.0424        -76.176      -6.124701      0.9125043
      3512.0000         2.2787         2.0436       -78.1293      -8.033957      0.8852292
      3512.5000         2.3215         2.0457       -79.7753      -9.643093      0.8622415
      3513.0000         2.3643         2.0534       -81.3214      -11.15467      0.8406475
      3513.5000         2.4073         2.0612       -81.4655      -11.29703      0.8386139
      3514.0000         2.4505         2.0689       -81.4952      -11.32766      0.8381763
      3514.5000         2.3002         2.0766       -80.0627      -9.930292      0.8581387
      3515.0000         2.1723         2.0844       -78.6271      -8.529894      0.8781444
      3515.5000         2.1193         2.0921       -77.0758      -7.016502      0.8997642
      3516.0000         2.0819         2.0981       -75.5247      -5.503304      0.9213814
      3516.5000         2.0423         2.0913       -73.9734      -3.989905      0.9430013
      3517.0000         2.0002         2.0844       -72.5409       -2.59254      0.9629637
      3517.5000         1.9573         2.0776       -71.3203      -1.402111      0.9799699
      3518.0000         1.9556         2.0707       -70.0991     -0.2111013      0.9969842
      3518.5000         1.9889         2.0639       -69.2522      0.6143635              1
      3519.0000         2.0241          2.057       -68.7615       1.091964              1
      3519.5000         2.0593         2.0502       -68.2708       1.569557              1
      3520.0000         2.0899         2.0434       -67.8827       1.946949              1
      3520.5000         2.1147         2.0224       -67.5396       2.280396              1
      3521.0000         2.1396         1.9956       -67.1967       2.613642              1
      3521.5000         2.1176         1.9689       -66.9009       2.900899              1
      3522.0000         2.0946         1.9421       -66.6567       3.137758              1
      3522.5000         2.0716         1.9154       -66.4125       3.374618              1
      3523.0000         2.0515         1.8886       -66.3887       3.396226              1
      3523.5000          2.035          1.854       -66.4705       3.314712              1
      3524.0000         2.0184         1.8187       -67.8416       1.974049              1
      3524.5000         2.0019         1.7835        -69.823     0.03735178              1
      3525.0000         1.9932         1.7482       -71.9832      -2.073967      0.9703719
      3525.5000         1.9852         1.6914       -73.5681      -3.623436      0.9482366
      3526.0000         1.9773         1.6173       -75.1281      -5.148585      0.9264488
      3526.5000         1.9743         1.5431       -76.5236      -6.513077       0.906956
      3527.0000         1.9732         1.4689       -77.8798      -7.839195      0.8880115
      3527.5000         1.9733         1.3975       -78.9614      -8.897139       0.872898
      3528.0000         1.9825         1.3301       -79.9948      -9.907998      0.8584571
      3528.5000         1.9916         1.2627       -81.2426      -11.12825      0.8410249
      3529.0000         2.0006         1.1953       -82.5901      -12.44587      0.8222018
      3529.5000         2.0083         1.1303       -83.8215      -13.65011      0.8049985
      3530.0000           2.01          1.072       -85.9604      -15.74062       0.775134
      3530.5000          1.977         1.0136       -89.5139      -19.21265      0.7255335
      3531.0000         1.8961         0.9552       -94.6425      -24.22296      0.6539578
      3531.5000         1.7919         0.8968      -103.7363      -33.10573       0.527061
      3532.0000         1.5931         0.8589      -107.2439      -36.53293       0.478101
      3532.5000         1.5144         0.8299      -109.9912      -39.21762      0.4397483
      3533.0000         1.4625         0.8009      -112.0469      -41.22687      0.4110447
      3533.5000          1.425         0.7751      -112.3724       -41.5464        0.40648
      3534.0000          1.405         0.7565      -112.0985      -41.28054      0.4102781
      3534.5000         1.4236         0.7379      -111.8245      -41.01457      0.4140776
      3535.0000         1.4423         0.7193      -111.5505       -40.7486      0.4178771
      3535.5000          1.461         0.7152      -111.2767      -40.48285      0.4216736
      3536.0000         1.4796         0.7246      -111.9799      -41.17123      0.4118396
      3536.5000         1.4983         0.7339      -113.0463      -42.21432      0.3969382
      3537.0000         1.4785         0.7433      -114.6002      -43.73351      0.3752356
      3537.5000         1.4365         0.7527      -116.3083      -45.40329      0.3513816
      3538.0000         1.3943         0.7621      -117.9238      -46.98265      0.3288193
      3538.5000         1.3763         0.7711      -119.2201      -48.25027      0.3107104
      3539.0000         1.4056         0.7801       -120.365      -49.37003      0.2947139
      3539.5000         1.4558          0.789      -119.2997      -48.33126      0.3095534
      3540.0000          1.506         0.7979      -118.2343      -47.29241      0.3243942
      3540.5000         1.5133         0.8068      -117.1694      -46.25404      0.3392279
      3541.0000         1.4797         0.8158      -116.9641      -46.05518      0.3420688
      3541.5000         1.4461         0.8247      -118.0055      -47.07386      0.3275163
      3542.0000         1.4127         0.8322      -119.7637      -48.79257      0.3029633
      3542.5000         1.3903         0.8199      -121.5229      -50.51226      0.2783963
      3543.0000         1.4247         0.8075      -122.9238      -51.88203      0.2588282
      3543.5000         1.4844         0.7952      -124.2791      -53.20727      0.2398962
