#------------------------------------------------------------------------------
# Created by    : vladimir.rabinovich
# Created on    : 09/19/2023 17:20:47
#------------------------------------------------------------------------------
~Version Information Section
VERS.           2.0     :   CWLS log ASCII Standard - VERSION 2.0
WRAP.           NO      :   One line per depth step
~Well Information Section
#MNEM       .UNIT                                         VALUE :DESCRIPTION
#------------------------------------------------------------------------------
STRT        .FT                                            1960 :START DEPTH
STOP        .FT                                           13420 :STOP DEPTH
STEP        .FT                                             0.5 :STEP      
NULL        .                                           -999.25 :NULL      
COMP        .                                 CALIFORNIA CO THE :COMPANY   
WELL        .                                     ST TR 00002-L :WELL      
FLD         .                                           WILDCAT :FIELD     
LOC         .                                                   :LOCATION  
CNTY        .                                       SABINE PASS :LOCATION  
STAT        .                                             TEXAS :STATE     
CTRY        .                                     UNITED STATES :COUNTRY   
SRVC        .                                                   :SERVICE COMPANY
DATE        .                             9/13/2023 11:12:08 AM :LOG DATE  
API         .                                    42715000310000 :API NUMBER
UWI         .                                    42715000310000 :UNIQUE WELL ID
XCOORD      .                                  1372392.72802961 :SURFACE X 
YCOORD      .                                   10750257.969662 :SURFACE Y 
LAT         .                                         29.618979 :LATITUDE  
LON         .                                       -93.8437903 :LONGITUDE 
ELEV        .FT                                              11 :ELEVATION VALUE
ELEV_TYPE   .                                                KB :ELEVATION REFERENCE TYPE
~Curve Information Section
#MNEM       .UNIT                                      API CODE :CURVE DESCRIPTION
#------------------------------------------------------------------------------
DEPT        .FT                                                 :DEPTH     
ASN         .OHMM                                               :          
IL          .OHMM                                               :          
SP          .MV                                                 :          
SP_NORM     .MV                                                 :SP Normalized
VSH_SP      .V/V                                                :Volume of Shale from SP
~A        DEPTH            ASN             IL             SP        SP_NORM         VSH_SP
# ...
      4996.0000         1.2994         0.9728        -93.171      -31.95072      0.5435612
      4996.5000          1.343         0.9935       -85.4308      -24.72874      0.6467323
      4997.0000         1.4077         1.0141        -81.302      -20.87739      0.7017515
      4997.5000         1.4725         1.0348        -79.719      -19.40214      0.7228267
      4998.0000         1.5377         1.0547       -78.3044      -18.08404      0.7416565
      4998.5000         1.6034         1.0737       -78.4994      -18.26825      0.7390251
      4999.0000         1.6585         1.0927       -78.5803      -18.34596      0.7379149
      4999.5000         1.6889         1.1118       -77.5286      -17.36658       0.751906
      5000.0000         1.7104         1.1308       -76.4073      -16.32224      0.7668252
      5000.5000         1.6874         1.1498       -75.2861      -15.27799       0.781743
      5001.0000         1.6643         1.1689       -74.1648      -14.23364      0.7966622
      5001.5000         1.6416         1.1879       -73.5845      -13.69424       0.804368
      5002.0000          1.627         1.2109       -73.5414      -13.65621      0.8049113
      5002.5000         1.6125         1.2355       -73.4983      -13.61819      0.8054544
      5003.0000         1.5983           1.26       -73.4553      -13.58026      0.8059963
      5003.5000         1.5861         1.2846       -73.4059      -13.53636      0.8066235
      5004.0000         1.5738         1.3092       -73.3531      -13.48928      0.8072959
      5004.5000         1.5615         1.3337       -73.3004       -13.4423      0.8079672
      5005.0000         1.5493         1.3583       -72.9143      -13.08414      0.8130836
      5005.5000         1.5404         1.3828       -72.0386      -12.26903      0.8247282
      5006.0000          1.532         1.4034       -70.0242      -10.39113      0.8515553
      5006.5000         1.5235          1.419       -67.8446      -8.359035      0.8805852
      5007.0000         1.5301         1.4346       -64.9546      -5.663905      0.9190871
      5007.5000         1.5451         1.4502       -62.0645      -2.968684      0.9575902
      5008.0000         1.5601         1.4658       -59.5829     -0.6547297      0.9906467
      5008.5000         1.5705         1.4814       -57.3925       1.387439              1
      5009.0000         1.5749          1.497          -55.2       3.431566              1
      5009.5000         1.5792         1.5126       -54.1287       4.429243              1
      5010.0000         1.5835         1.5282       -53.9232        4.61884              1
      5010.5000         1.5856         1.5438       -53.9786       4.564929              1
      5011.0000         1.5843          1.549       -54.2737       4.287297              1
      5011.5000          1.583         1.5538       -54.7806       3.811986              1
      5012.0000         1.5817         1.5586       -55.2869       3.337237              1
      5012.5000         1.5804         1.5634       -55.7938       2.861926              1
      5013.0000          1.579         1.5682        -56.419         2.2762              1
      5013.5000         1.5846          1.573       -57.1769       1.566622              1
      5014.0000         1.5928         1.5778       -57.9341      0.8576965              1
      5014.5000         1.6009         1.5997       -58.7018      0.1389725              1
      5015.0000          1.609         1.6237       -60.1218      -1.188563      0.9830205
      5015.5000         1.6307         1.6477       -61.5408      -2.515166      0.9640691
      5016.0000         1.6654         1.6717       -63.1966      -4.062787      0.9419602
      5016.5000         1.7001         1.6957       -64.9187      -5.672283      0.9189674
      5017.0000         1.7353         1.7197        -66.631      -7.272633      0.8961052
      5017.5000         1.7717         1.7476       -68.2684      -8.803082      0.8742417
      5018.0000         1.8081         1.7879       -69.9058      -10.33352      0.8523782
      5018.5000         1.8445         1.8282       -71.5431      -11.86387      0.8305161
      5019.0000         1.8848         1.8685       -72.7024      -12.94809      0.8150272
      5019.5000          1.926         1.9088       -73.6069       -13.7945      0.8029357
      5020.0000         1.9616         1.9491       -74.3551      -14.49502      0.7929283
      5020.5000         1.9979         1.9799       -74.5195      -14.65066      0.7907048
      5021.0000         2.0503         1.9738       -74.2898      -14.43849      0.7937359
      5021.5000         2.1026          1.937       -73.7861      -13.97057      0.8004205
      5022.0000         2.1534         1.7618       -73.2826      -13.50284      0.8071023
      5022.5000         2.2007         1.5868       -72.7789      -13.03492      0.8137868
      5023.0000         2.2384         1.4197       -75.8652      -15.91767      0.7726047
      5023.5000         2.2577          1.349        -82.558      -22.16649      0.6833359
      5024.0000         2.2751         1.2782       -94.0663      -32.90977      0.5298604
      5024.5000         2.2812         1.2075      -100.2158      -38.65151      0.4478356
      5025.0000         2.2762         1.1367      -107.8518      -45.78065      0.3459907
      5025.5000         2.2534         1.0778      -118.9949      -56.18309      0.1973845
      5026.0000         2.2175         1.0379      -124.0276      -60.88248      0.1302503
      5026.5000         2.1812          0.998      -126.9229      -63.58695     0.09161497
      5027.0000         2.1344         0.9582      -126.4757      -63.17178     0.09754606
      5027.5000         2.0876         0.9183      -126.0287      -62.75678      0.1034745
      5028.0000         2.0512         0.8857      -125.5815      -62.34159      0.1094058
      5028.5000         2.0242         0.8539      -125.1348      -61.92689      0.1153302
      5029.0000         2.0055         0.8221      -124.6876       -61.5117      0.1212614
      5029.5000         1.9965         0.7911      -125.6649      -62.42605      0.1081993
      5030.0000         1.9879         0.7753       -126.683      -63.37848      0.0945931
      5030.5000         1.9942         0.7596       -127.126      -63.79415     0.08865498
      5031.0000              2         0.7438      -127.5302       -64.1736      0.0832343
      5031.5000         2.0036         0.7281      -127.9341      -64.55278     0.07781743
      5032.0000         1.9517         0.7123      -128.3381      -64.93206     0.07239914
      5032.5000         1.8621         0.7111      -129.6165      -66.12744     0.05532227
      5033.0000         1.7316           0.71      -131.0171      -67.43687     0.03661608
      5033.5000          1.566          0.709      -132.4175       -68.7461     0.01791284
      5034.0000         1.4463          0.708      -133.3721      -69.63927     0.00515322
      5034.5000         1.3906         0.7069      -134.0493      -70.27354              0
      5035.0000         1.3517         0.7059      -134.7263      -70.90761              0
      5035.5000         1.3645         0.7049      -135.4038      -71.54213              0
      5036.0000         1.4007         0.7085      -135.7539      -71.87111              0
      5036.5000         1.4368         0.7169      -136.0896      -72.18663              0
      5037.0000         1.4729         0.7252      -136.4253      -72.50215              0
      5037.5000          1.509         0.7335       -136.761      -72.81768              0
      5038.0000         1.5439         0.7419      -137.1216      -73.15644              0
      5038.5000         1.5575         0.7502      -137.7424      -73.73806              0
      5039.0000         1.4965         0.7585      -138.3633      -74.31977              0
      5039.5000         1.4389         0.7667      -136.9417      -72.99515              0
