#------------------------------------------------------------------------------
# Created by    : vladimir.rabinovich
# Created on    : 09/19/2023 17:20:10
#------------------------------------------------------------------------------
~Version Information Section
VERS.           2.0     :   CWLS log ASCII Standard - VERSION 2.0
WRAP.           NO      :   One line per depth step
~Well Information Section
#MNEM       .UNIT                                         VALUE :DESCRIPTION
#------------------------------------------------------------------------------
STRT        .FT                                             613 :START DEPTH
STOP        .FT                                           12130 :STOP DEPTH
STEP        .FT                                             0.5 :STEP      
NULL        .                                           -999.25 :NULL      
COMP        .                                 CITIES SERVICE CO :COMPANY   
WELL        .                               OCS G03060 ST00BP00 :WELL      
FLD         .                                           WILDCAT :FIELD     
LOC         .                                                   :LOCATION  
CNTY        .                               MUSTANG ISLAND EAST :LOCATION  
STAT        .                                             TEXAS :STATE     
CTRY        .                                     UNITED STATES :COUNTRY   
SRVC        .                                                   :SERVICE COMPANY
DATE        .                             9/13/2023 11:12:08 AM :LOG DATE  
API         .                                    42712400440000 :API NUMBER
UWI         .                                    42712400440000 :UNIQUE WELL ID
XCOORD      .                                  632657.308411808 :SURFACE X 
YCOORD      .                                  10083439.8406154 :SURFACE Y 
LAT         .                                        27.7518805 :LATITUDE  
LON         .                                       -96.1160164 :LONGITUDE 
ELEV        .FT                                             103 :ELEVATION VALUE
ELEV_TYPE   .                                                KB :ELEVATION REFERENCE TYPE
~Curve Information Section
#MNEM       .UNIT                                      API CODE :CURVE DESCRIPTION
#------------------------------------------------------------------------------
DEPT        .FT                                                 :DEPTH     
ASFL        .OHMM                                               :          
CILD        .MMHO                                               :          
GR          .GAPI                                               :          
GR_NORM     .GAPI                                               :GammaRay Normalized
ILD         .OHMM                                               :          
SP          .MV                                                 :          
SP_NORM     .MV                                                 :SP Normalized
VSH_GR      .V/V                                                :Volume of Shale from GR
VSH_SP      .V/V                                                :Volume of Shale from SP
~A        DEPTH           ASFL           CILD             GR        GR_NORM            ILD             SP        SP_NORM         VSH_GR         VSH_SP
# ...
      2918.5000         0.6884       1024.195        41.1161       64.57508         0.9938      -121.2852      -3.911835      0.6718102      0.9217633
      2919.0000         0.6883       1029.043         40.986       64.40497         0.9924       -121.244      -3.871765      0.6681908      0.9225647
      2919.5000         0.6884       1030.295        40.8558       64.23473         0.9915      -121.8256      -4.454483      0.6645688      0.9109104
      2920.0000         0.6887       1031.033        41.0207       64.44975         0.9905      -122.4071      -5.037109      0.6691437      0.8992578
      2920.5000         0.6891        1031.77         41.238       64.73318         0.9896      -122.9886      -5.619743      0.6751741      0.8876051
      2921.0000         0.6894       1032.508        41.4175       64.96727         0.9886      -123.3004      -5.932663      0.6801547      0.8813468
      2921.5000         0.6897       1033.246         41.426       64.97811         0.9877      -123.1687      -5.802094      0.6803854      0.8839581
      2922.0000         0.6955       1033.982        40.9424       64.34649         0.9867      -123.0354      -5.669914      0.6669466      0.8866017
      2922.5000         0.6958       1034.721        39.8676       62.94302         0.9858       -122.902      -5.537643      0.6370854      0.8892471
      2923.0000         0.6955       1034.217        38.5154       61.17738         0.9848      -122.7687      -5.405472      0.5995187      0.8918906
      2923.5000         0.6961       1033.225        37.4239       59.75211         0.9825      -122.6354      -5.273293      0.5691939      0.8945342
      2924.0000         0.7024       1032.232        36.7546       58.87804         0.9784       -122.502      -5.141022      0.5505966      0.8971795
      2924.5000         0.7087       1014.065        36.3359       58.33115         0.9743      -122.3685      -5.008652      0.5389606      0.8998269
      2925.0000          0.715        989.499        36.9673       59.15522         0.9702      -122.2947      -4.935974      0.5564939      0.9012805
      2925.5000          0.722       975.1436        37.9128       60.38936         0.9686      -122.3113      -4.953705      0.5827523      0.9009259
      2926.0000         0.7343       965.9512        38.7518       61.48446         0.9695      -122.3279      -4.971436      0.6060523      0.9005713
      2926.5000         0.7466       956.7529        39.5912       62.58009         0.9705      -122.3445      -4.989151      0.6293635       0.900217
      2927.0000         0.7517       949.5879        40.6357       63.94347         0.9715      -122.3611      -5.006882      0.6583718      0.8998623
      2927.5000         0.7489       948.9941        41.6863       65.31483         0.9727      -122.3777      -5.024605      0.6875495      0.8995079
      2928.0000         0.7461       948.4014        42.6646        66.5918          0.974      -122.3944      -5.042435      0.7147191      0.8991513
      2928.5000         0.7433       961.9102         43.574       67.77881         0.9753       -122.411      -5.060165      0.7399747      0.8987967
      2929.0000         0.7405       977.9795        44.3893       68.84297         0.9766      -122.4292      -5.079483      0.7626164      0.8984103
      2929.5000         0.7377       994.0547        43.7475       68.00481         0.9779      -122.4495      -5.100914      0.7447831      0.8979817
      2930.0000         0.7335       1010.124        43.1053       67.16612         0.9792      -122.4696      -5.122139      0.7269388      0.8975572
      2930.5000         0.7289       1025.094        42.4631       66.32743         0.9749      -122.4899      -5.143562      0.7090943      0.8971288
      2931.0000         0.7244       1035.025        41.8212       65.48914         0.9704      -122.5101      -5.164894      0.6912582      0.8967021
      2931.5000         0.7198       1044.957        41.1791       64.65057         0.9659      -122.5304      -5.186325      0.6734164      0.8962735
      2932.0000         0.7158       1054.887        40.5928       63.88487         0.9614      -122.5505      -5.207542      0.6571249      0.8958492
      2932.5000         0.7138       1064.818        40.0449       63.16929         0.9569      -122.5708      -5.228973      0.6418998      0.8954206
      2933.0000         0.7229       1066.865        39.4969       62.45359         0.9524      -122.5911      -5.250397      0.6266721      0.8949921
      2933.5000          0.738       1064.947        40.2115       63.38628         0.9479      -122.5343      -5.194725      0.6465166      0.8961055
      2934.0000         0.7542       1063.029         41.871       65.55258         0.9434      -122.4692      -5.130753      0.6926081      0.8973849
      2934.5000         0.7677       1060.619        43.5304       67.71876         0.9389      -122.4042      -5.066872       0.738697      0.8986626
      2935.0000         0.7771       1057.662        45.0685       69.72658         0.9347      -121.7267      -4.390503      0.7814165        0.91219
      2935.5000         0.7865       1054.703        46.6005       71.72643         0.9336      -120.9928       -3.65773      0.8239665      0.9268454
      2936.0000         0.7947       1051.746        48.1965       73.80984         0.9324      -120.3086      -2.974655      0.8682946      0.9405069
      2936.5000          0.801       1052.578        49.2227       75.14934         0.9313       -119.678      -2.345184      0.8967944      0.9530963
      2937.0000         0.8072       1063.365         50.132       76.33622         0.9301      -119.0476      -1.715912      0.9220473      0.9656818
      2937.5000         0.7993       1074.152        50.9424       77.39399          0.929      -118.6238      -1.293236       0.944553      0.9741353
      2938.0000         0.7909       1084.934        51.5961       78.24718         0.9278      -118.4628      -1.133362      0.9627059      0.9773328
      2938.5000         0.7825       1095.721        52.2498       79.10036         0.9267      -118.7672      -1.438881      0.9808587      0.9712224
      2939.0000         0.7707       1106.508        51.9424       78.69876         0.9255      -119.0717      -1.744514      0.9723141      0.9651097
      2939.5000         0.7583        1099.57        51.5887       78.23672         0.9243      -119.3761      -2.050041      0.9624835      0.9589992
      2940.0000         0.7481       1087.869        51.2349       77.77457         0.9232      -119.6141      -2.289162      0.9526504      0.9542168
      2940.5000         0.7581       1076.164         50.881       77.31227          0.922      -119.8229      -2.499092      0.9428143      0.9500182
      2941.0000         0.7695       1064.465        50.5273       76.85023         0.9215      -120.0316      -2.708923      0.9329837      0.9458215
      2941.5000         0.7808       1052.758        50.1735       76.38806          0.921      -120.2405      -2.918945      0.9231502      0.9416211
      2942.0000         0.7922       1041.059        49.7996       75.89966         0.9205      -120.4492      -3.128777      0.9127587      0.9374245
      2942.5000         0.8035       1038.289        49.4222       75.40668           0.92       -120.658      -3.338699      0.9022699       0.933226
      2943.0000         0.8074       1039.088        49.0448        74.9137         0.9195      -120.8667      -3.548523      0.8917809      0.9290295
      2943.5000         0.8103        1043.25        48.6674       74.42072          0.919      -120.9467      -3.629654       0.881292      0.9274069
      2944.0000         0.8046       1050.422          48.29       73.92776         0.9185      -120.9895      -3.673576      0.8708035      0.9265285
      2944.5000         0.7949       1057.594        47.9127       73.43491          0.918      -121.0323      -3.717506      0.8603173      0.9256499
