#------------------------------------------------------------------------------
# Created by    : vladimir.rabinovich
# Created on    : 09/19/2023 17:22:52
#------------------------------------------------------------------------------
~Version Information Section
VERS.           2.0     :   CWLS log ASCII Standard - VERSION 2.0
WRAP.           NO      :   One line per depth step
~Well Information Section
#MNEM       .UNIT                                         VALUE :DESCRIPTION
#------------------------------------------------------------------------------
STRT        .FT                                            2993 :START DEPTH
STOP        .FT                                           15023 :STOP DEPTH
STEP        .FT                                             0.5 :STEP      
NULL        .                                           -999.25 :NULL      
COMP        .                                        TEXACO INC :COMPANY   
WELL        .                                     ST TR 00018-L :WELL      
FLD         .                                           WILDCAT :FIELD     
LOC         .                                                   :LOCATION  
CNTY        .                                       SABINE PASS :LOCATION  
STAT        .                                             TEXAS :STATE     
CTRY        .                                     UNITED STATES :COUNTRY   
SRVC        .                                                   :SERVICE COMPANY
DATE        .                             9/13/2023 11:20:07 AM :LOG DATE  
API         .                                    42715000300000 :API NUMBER
UWI         .                                    42715000300000 :UNIQUE WELL ID
XCOORD      .                                  1367853.58567514 :SURFACE X 
YCOORD      .                                  10716828.2466652 :SURFACE Y 
LAT         .                                         29.526933 :LATITUDE  
LON         .                                       -93.8573019 :LONGITUDE 
ELEV        .FT                                              75 :ELEVATION VALUE
ELEV_TYPE   .                                                KB :ELEVATION REFERENCE TYPE
~Curve Information Section
#MNEM       .UNIT                                      API CODE :CURVE DESCRIPTION
#------------------------------------------------------------------------------
DEPT        .FT                                                 :DEPTH     
ILD         .OHMM                                               :          
SFLA        .OHMM                                               :          
SP          .MV                                                 :          
SP_NORM     .MV                                                 :SP Normalized
VSH_SP      .V/V                                                :Volume of Shale from SP
~A        DEPTH            ILD           SFLA             SP        SP_NORM         VSH_SP
# ...
     12585.0000         0.3862          0.438       -19.1598      0.2432861              1
     12585.5000         0.3863         0.4386       -19.1607      0.2417622              1
     12586.0000         0.3863          0.441       -19.0722      0.3296375              1
     12586.5000         0.3864         0.4431       -19.0079      0.3933144              1
     12587.0000         0.3865         0.4441       -19.0088      0.3917885              1
     12587.5000         0.3865          0.441       -19.0624      0.3375645              1
     12588.0000         0.3866          0.441       -19.1652      0.2341423              1
     12588.5000         0.3867          0.441       -19.1662      0.2325172              1
     12589.0000         0.3867          0.441       -19.6061     -0.2080059              1
     12589.5000         0.3868          0.441       -21.1549      -1.757429      0.9897645
     12590.0000         0.3869          0.441       -22.3282      -2.931353      0.9739006
     12590.5000         0.3869          0.441         -22.57      -3.173777      0.9706246
     12591.0000          0.387          0.441       -22.5709      -3.175301      0.9706041
     12591.5000         0.3871          0.438       -22.5718      -3.176826      0.9705834
     12592.0000         0.3871          0.438       -22.5727       -3.17835      0.9705628
     12592.5000         0.4024          0.438       -22.4372      -3.043474      0.9723855
     12593.0000         0.4025         0.4355       -22.2653      -2.872198         0.9747
     12593.5000         0.4026         0.4319       -22.1451      -2.752621      0.9763159
     12594.0000         0.4026         0.4319       -21.9581      -2.566244      0.9788345
     12594.5000          0.418         0.4319        -21.959      -2.567768      0.9788139
     12595.0000          0.418         0.4319       -21.6273      -2.236692      0.9832879
     12595.5000         0.4181         0.4349       -21.4342      -2.044216       0.985889
     12596.0000         0.4181         0.4349       -21.2411       -1.85174        0.98849
     12596.5000         0.4182         0.4349       -20.8807      -1.491964      0.9933518
     12597.0000         0.4183         0.4372       -20.7269      -1.338789      0.9954218
     12597.5000         0.4183          0.438       -20.5968      -1.209312      0.9971715
     12598.0000         0.4184          0.438       -20.4197      -1.032837      0.9995562
     12598.5000         0.4185          0.438       -20.2762     -0.8899593              1
     12599.0000         0.4185         0.4402       -20.1122     -0.7265835              1
     12599.5000         0.4237         0.4441       -20.1132     -0.7282066              1
     12600.0000         0.4339         0.4447       -20.1141     -0.7297306              1
     12600.5000          0.434         0.4472       -19.9684     -0.5846539              1
     12601.0000         0.4493         0.4492       -19.8067     -0.4235802              1
     12601.5000         0.4494         0.4502       -19.8077     -0.4252033              1
     12602.0000         0.4494         0.4507       -19.8086     -0.4267273              1
     12602.5000         0.4495         0.4533       -19.8095     -0.4282513              1
     12603.0000         0.4495         0.4533       -19.8104     -0.4297752              1
     12603.5000         0.4496         0.4533       -19.8113     -0.4312992              1
     12604.0000         0.4497         0.4533       -19.8122     -0.4328232              1
     12604.5000         0.4497         0.4533       -19.8131     -0.4343472              1
     12605.0000         0.4498         0.4533       -19.8507     -0.4725704              1
     12605.5000         0.4499         0.4533       -20.0453     -0.6677952              1
     12606.0000         0.4499         0.4533       -20.1249     -0.7480202              1
     12606.5000           0.45         0.4533        -20.435      -1.058743      0.9992062
     12607.0000         0.4501         0.4533       -21.3299      -1.954268      0.9871045
     12607.5000         0.4501         0.4502       -22.1369       -2.76189      0.9761907
     12608.0000         0.4502         0.4502        -22.138      -2.763615      0.9761674
     12608.5000         0.4503         0.4502       -21.9789      -2.605139      0.9783089
     12609.0000         0.4503         0.4502       -21.5922      -2.219061      0.9835262
     12609.5000         0.4504         0.4479       -21.2055      -1.832985      0.9887434
     12610.0000         0.4505         0.4441       -20.8188      -1.446911      0.9939607
     12610.5000         0.4394         0.4403       -20.4321      -1.060835      0.9991779
     12611.0000         0.4353         0.4364       -20.1339      -0.763258              1
     12611.5000         0.4354         0.4326       -19.9674     -0.5973816              1
     12612.0000         0.4355         0.4288       -19.8266     -0.4572048              1
     12612.5000         0.4355         0.4257       -19.8196     -0.4508286              1
     12613.0000         0.4356         0.4257       -19.6268     -0.2586536              1
     12613.5000         0.4357         0.4257       -19.5202     -0.1526775              1
     12614.0000         0.4357         0.4257       -19.5211     -0.1541996              1
     12614.5000         0.4358         0.4257        -19.522     -0.1557236              1
     12615.0000         0.4359         0.4257       -19.5725     -0.2068501              1
     12615.5000         0.4359         0.4257       -19.6784     -0.3133736              1
     12616.0000          0.436         0.4257       -19.8339     -0.4694977              1
     12616.5000         0.4361         0.4266       -19.8605     -0.4967213              1
     12617.0000         0.4361         0.4319        -20.197     -0.8338451              1
     12617.5000         0.4362         0.4338       -20.4835      -1.120968      0.9983653
     12618.0000         0.4363          0.438       -21.1993      -1.837393      0.9886839
     12618.5000         0.4363         0.4383       -22.0021      -2.640816      0.9778268
     12619.0000         0.4364         0.4421       -21.1651       -1.80444      0.9891292
     12619.5000         0.4365         0.4441       -20.5791      -1.219065      0.9970397
     12620.0000         0.4365         0.4472       -20.1502     -0.7907887              1
     12620.5000         0.4366         0.4474       -19.9783     -0.6195126              1
     12621.0000         0.4367         0.4502       -19.8428     -0.4846363              1
     12621.5000         0.4367          0.452       -19.7471     -0.3895607              1
     12622.0000         0.4368         0.4533       -19.6901     -0.3331833              1
     12622.5000         0.4369         0.4565       -19.8455     -0.4892082              1
     12623.0000         0.4522         0.4594       -19.9669     -0.6112309              1
     12623.5000         0.4522          0.461       -20.1564     -0.8013554              1
     12624.0000         0.4523         0.4625       -20.4665       -1.11208      0.9984854
     12624.5000         0.4615         0.4625       -20.5142      -1.160404      0.9978324
     12625.0000         0.4677         0.4625       -20.7774      -1.424227      0.9942672
     12625.5000         0.4677         0.4625       -20.7783      -1.425751      0.9942466
     12626.0000         0.4729         0.4625       -21.0884      -1.736475      0.9900476
     12626.5000         0.4831         0.4655       -21.2697      -1.918398      0.9875892
     12627.0000         0.4832         0.4649       -21.3992      -2.048523      0.9858308
     12627.5000          0.468         0.4625       -21.7138      -2.363747       0.981571
     12628.0000         0.4681         0.4625       -21.7207      -2.371269      0.9814693
     12628.5000         0.4681         0.4625       -20.7943      -1.445494      0.9939798
