#------------------------------------------------------------------------------
# Created by    : vladimir.rabinovich
# Created on    : 09/19/2023 17:21:39
#------------------------------------------------------------------------------
~Version Information Section
VERS.           2.0     :   CWLS log ASCII Standard - VERSION 2.0
WRAP.           NO      :   One line per depth step
~Well Information Section
#MNEM       .UNIT                                         VALUE :DESCRIPTION
#------------------------------------------------------------------------------
STRT        .FT                                            3004 :START DEPTH
STOP        .FT                                           10487 :STOP DEPTH
STEP        .FT                                             0.5 :STEP      
NULL        .                                           -999.25 :NULL      
COMP        .                                    TENNECO OIL CO :COMPANY   
WELL        .                               OCS G04082 ST00BP00 :WELL      
FLD         .                            SABINE PASS BLOCK 0017 :FIELD     
LOC         .                                                   :LOCATION  
CNTY        .                                       SABINE PASS :LOCATION  
STAT        .                                             TEXAS :STATE     
CTRY        .                                     UNITED STATES :COUNTRY   
SRVC        .                                                   :SERVICE COMPANY
DATE        .                             9/13/2023 11:20:07 AM :LOG DATE  
API         .                                    42715400130000 :API NUMBER
UWI         .                                    42715400130000 :UNIQUE WELL ID
XCOORD      .                                  1369313.82013612 :SURFACE X 
YCOORD      .                                  10714127.2468036 :SURFACE Y 
LAT         .                                        29.5195329 :LATITUDE  
LON         .                                       -93.8526471 :LONGITUDE 
ELEV        .FT                                             111 :ELEVATION VALUE
ELEV_TYPE   .                                                KB :ELEVATION REFERENCE TYPE
~Curve Information Section
#MNEM       .UNIT                                      API CODE :CURVE DESCRIPTION
#------------------------------------------------------------------------------
DEPT        .FT                                                 :DEPTH     
CALI        .IN                                                 :          
DPHI        .%                                                  :          
DRHO        .G/C3                                               :          
GR          .GAPI                                               :          
GR_NORM     .GAPI                                               :GammaRay Normalized
ILD         .OHMM                                               :          
ILM         .OHMM                                               :          
NPHI        .%                                                  :          
SFL         .OHMM                                               :          
SP          .MV                                                 :          
SP_NORM     .MV                                                 :SP Normalized
VSH_GR      .V/V                                                :Volume of Shale from GR
VSH_SP      .V/V                                                :Volume of Shale from SP
~A        DEPTH           CALI           DPHI           DRHO             GR        GR_NORM            ILD            ILM           NPHI            SFL             SP        SP_NORM         VSH_GR         VSH_SP
# ...
      3517.0000        14.3663        27.6891         0.0048        63.2242       75.29266         0.6673         0.6146        46.1352         0.6082       -48.3757      -13.58261      0.8998439      0.7736232
      3517.5000        14.4625        27.1424         0.0153        62.8237       74.86791         0.6871         0.6264        44.3116         0.6171       -48.0176      -12.80434      0.8908066      0.7865944
      3518.0000        14.5206        26.4593         0.0244        62.1436       74.14571         0.6997         0.6344        43.2471         0.6274       -47.3931      -11.41863      0.8754407      0.8096894
      3518.5000          14.62        26.1118         0.0308        61.4952       73.45724         0.7058         0.6379        43.5442         0.6335       -46.5952      -9.637562      0.8607925      0.8393739
      3519.0000        14.5222        26.1089         0.0327        60.7151       72.62865           0.71         0.6346        44.4354         0.6342       -45.7422      -7.730844      0.8431628      0.8711526
      3519.5000         14.353        26.5395         0.0308        60.2468       72.13177         0.7108         0.6294        45.1412         0.6204       -45.2681      -6.688083      0.8325909      0.8885319
      3520.0000        14.3209        27.7963         0.0206        60.1761       72.05788         0.7116         0.6222        45.6827         0.6032       -45.0391      -6.204182      0.8310188       0.896597
      3520.5000         14.296        28.7643         0.0103        61.1725       73.11919         0.7122          0.617        45.6616         0.5915       -44.7206      -5.516215      0.8535998      0.9080631
      3521.0000        14.3063        28.5387         0.0121        62.3643       74.38838         0.7131          0.618        45.1588         0.6036       -44.8922      -5.945744      0.8806038      0.9009042
      3521.5000        14.3165        27.5764         0.0253        63.0175       75.08459         0.7186         0.6205        44.9147         0.6202       -44.9951      -6.218621      0.8954169      0.8963563
      3522.0000        14.3301        27.0766          0.034        62.3857       74.41377         0.7241         0.6178        46.0333         0.6177       -44.9019      -6.044372      0.8811441      0.8992605
      3522.5000        14.3664        27.2049         0.0346        61.1866       73.13944         0.7296         0.6156        49.0657         0.6049        -44.598      -5.389692      0.8540307      0.9101718
      3523.0000        14.4183        27.8494         0.0264        63.0111       75.08172         0.7355         0.6149        51.5294         0.5926       -44.3725      -4.913777      0.8953557      0.9181037
      3523.5000        14.4697        28.2772         0.0199        66.4095       78.69835          0.742         0.6177        50.7239         0.5948       -43.9068      -3.886037      0.9723053      0.9352327
      3524.0000        14.4804        28.9052         0.0212        68.4343       80.85371         0.7391         0.6215        48.5768         0.6137       -43.9804      -4.030825              1      0.9328196
      3524.5000        14.4804        29.6673         0.0244        68.1931       80.59842         0.7361         0.6248        48.1146         0.6126       -44.4363      -5.047319              1       0.915878
      3525.0000        14.4804        29.9524         0.0285        66.8145       79.13314         0.7315         0.6161        49.9351         0.6015       -44.7353      -5.706059      0.9815562       0.904899
      3525.5000        14.4447        30.2626         0.0262        66.9098       79.23583         0.7262         0.6045        51.1322         0.5897        -45.069      -6.443919      0.9837411      0.8926014
      3526.0000        14.1639        30.6116         0.0229        68.6973       81.13874         0.7208         0.5948        52.1882         0.5777       -45.2357      -6.800992              1      0.8866501
      3526.5000         13.919        30.5302         0.0258        70.8169       83.39495         0.7193         0.5957           51.6         0.5713       -45.4371      -7.237193              1      0.8793801
      3527.0000        13.7823        29.4828         0.0387        73.3469       86.08775         0.7186         0.6017         49.153         0.5722       -45.6384      -7.673159              1       0.872114
      3527.5000        13.6863        27.3802         0.0695        76.1783        89.1012         0.7175          0.601        46.5529         0.5827       -46.3462      -9.264022              1      0.8455997
      3528.0000        13.7451        25.7822          0.083        76.6337       89.58697         0.7154         0.5976        47.2941         0.6009       -46.5324      -9.665561              1      0.8389073
      3528.5000        13.8426        25.6574         0.0743        74.8951       87.73872         0.7132         0.5908         49.053          0.613       -46.5019      -9.572987              1      0.8404502
      3529.0000        13.8235        27.4872         0.0587        71.3861       84.00705         0.7081         0.5861        51.7177         0.6066       -46.2035      -8.869563              1      0.8521739
      3529.5000        13.8559        29.8927         0.0417        69.6288       82.13889         0.7015         0.5791        52.7823         0.5913       -45.7094      -7.719911              1      0.8713348
      3530.0000        13.9057        31.9393         0.0215        68.8972        81.3619         0.6949         0.5667        52.4363         0.5762       -45.9449      -8.233864              1      0.8627689
      3530.5000        13.9089        33.3285           0.02        68.5889       81.03523         0.6831         0.5541        51.4263         0.5614       -46.2868      -8.990423              1      0.8501596
      3531.0000        13.7207        33.4631         0.0187        68.0077       80.41825         0.6708         0.5437        49.2645         0.5491       -46.5127      -9.482474              1      0.8419588
      3531.5000        13.6691        33.0338         0.0193        68.1945       80.61829         0.6611         0.5348         48.194         0.5392       -46.8356      -10.19572              1      0.8300714
      3532.0000        13.6858           32.5         0.0172        70.0992       82.64587          0.658         0.5402        50.2466         0.5299       -47.2632      -11.14768              1      0.8142053
      3532.5000        13.7305        31.8362         0.0167        71.2303       83.85049         0.6604         0.5518        53.0503           0.53       -47.7762      -12.29437              1      0.7950939
      3533.0000        13.7807          30.32         0.0297        71.2843       83.90926         0.6679         0.5633        54.8529         0.5435       -48.1693      -13.16767              1      0.7805388
      3533.5000         13.858        28.5154         0.0483        69.1539       81.64418         0.6773         0.5746        55.3942           0.56       -48.4743      -13.84009              1      0.7693318
      3534.0000         13.959        27.1367         0.0538        66.1924       78.49496         0.6823         0.5862        53.1425          0.575       -48.9053      -14.79981      0.9679779      0.7533365
      3534.5000        14.0325        27.4186          0.055         65.684       77.95542         0.6853         0.5953        49.3825           0.59       -49.4449      -16.00715      0.9564983      0.7332141
      3535.0000        14.0189        28.5919         0.0376        66.2253       78.53259         0.6884         0.6002        48.9293         0.5987       -49.7059      -16.57925      0.9687786      0.7236792
      3535.5000        14.0858        28.9901         0.0351        66.7679       79.11114         0.6913         0.6007        50.0586         0.5976       -49.6624      -16.45703       0.981088      0.7257162
