#------------------------------------------------------------------------------
# Created by    : vladimir.rabinovich
# Created on    : 09/19/2023 17:21:48
#------------------------------------------------------------------------------
~Version Information Section
VERS.           2.0     :   CWLS log ASCII Standard - VERSION 2.0
WRAP.           NO      :   One line per depth step
~Well Information Section
#MNEM       .UNIT                                         VALUE :DESCRIPTION
#------------------------------------------------------------------------------
STRT        .FT                                            1142 :START DEPTH
STOP        .FT                                            9163 :STOP DEPTH
STEP        .FT                                             0.5 :STEP      
NULL        .                                           -999.25 :NULL      
COMP        .                                    ORYX ENERGY CO :COMPANY   
WELL        .                               OCS G06199 ST00BP00 :WELL      
FLD         .                            HIGH ISLAND BLOCK 0129 :FIELD     
LOC         .                                                   :LOCATION  
CNTY        .                                  HIGH ISLAND EAST :LOCATION  
STAT        .                                             TEXAS :STATE     
CTRY        .                                     UNITED STATES :COUNTRY   
SRVC        .                                                   :SERVICE COMPANY
DATE        .                             9/13/2023 11:20:11 AM :LOG DATE  
API         .                                    42710400360000 :API NUMBER
UWI         .                                    42710400360000 :UNIQUE WELL ID
XCOORD      .                                  1376484.19293712 :SURFACE X 
YCOORD      .                                  10620179.8267869 :SURFACE Y 
LAT         .                                        29.2612476 :LATITUDE  
LON         .                                        -93.828002 :LONGITUDE 
ELEV        .FT                                              93 :ELEVATION VALUE
ELEV_TYPE   .                                                KB :ELEVATION REFERENCE TYPE
~Curve Information Section
#MNEM       .UNIT                                      API CODE :CURVE DESCRIPTION
#------------------------------------------------------------------------------
DEPT        .FT                                                 :DEPTH     
CALI        .IN                                                 :          
DRHO        .G/C3                                               :          
DT          .US/F                                               :          
GR          .GAPI                                               :          
GR_1        .GAPI                                               :          
GR_NORM     .GAPI                                               :GammaRay Normalized
ILD         .OHMM                                               :          
ILM         .OHMM                                               :          
NPHI        .%                                                  :          
RFOC        .OHMM                                               :          
RHOB        .G/C3                                               :          
SP          .MV                                                 :          
SP_NORM     .MV                                                 :SP Normalized
VSH_GR      .V/V                                                :Volume of Shale from GR
VSH_SP      .V/V                                                :Volume of Shale from SP
~A        DEPTH           CALI           DRHO             DT             GR           GR_1        GR_NORM            ILD            ILM           NPHI           RFOC           RHOB             SP        SP_NORM         VSH_GR         VSH_SP
# ...
      3284.0000        -999.25        -999.25       144.6567        32.2198        -999.25        30.9703         0.4322         0.5805        -999.25         1.3846        -999.25      -148.3723      -66.72326              0     0.04681059
      3284.5000        -999.25        -999.25       146.3206        34.6102        -999.25       33.12166         0.4346         0.5843        -999.25         1.3771        -999.25      -147.8389      -66.19224    0.002588556      0.0543966
      3285.0000        -999.25        -999.25       147.6816        36.7627        -999.25       35.05891         0.4352         0.5804        -999.25         1.4049        -999.25      -146.7571      -65.11281     0.04380661     0.06981703
      3285.5000        -999.25        -999.25       148.3687        39.7134        -999.25       37.71454         0.4319         0.5692        -999.25         1.4068        -999.25      -145.4336      -63.79168      0.1003094      0.0886903
      3286.0000        -999.25        -999.25       148.5642         43.067        -999.25       40.73278         0.4278         0.5578        -999.25         1.3822        -999.25      -143.8562      -62.21666      0.1645273      0.1111906
      3286.5000        -999.25        -999.25       148.0493        46.0103        -999.25       43.38175         0.4232         0.5461        -999.25         1.3515        -999.25      -142.1233      -60.48615      0.2208883      0.1359122
      3287.0000        -999.25        -999.25       147.5347        46.8604        -999.25       44.14684         0.4179         0.5366        -999.25          1.325        -999.25      -140.5452      -58.91041      0.2371669      0.1584227
      3287.5000        -999.25        -999.25       147.0486        47.1351        -999.25       44.39407         0.4141         0.5306        -999.25         1.3272        -999.25      -139.0308      -57.39839      0.2424271       0.180023
      3288.0000        -999.25        -999.25       146.4026        47.1927        -999.25       44.44591         0.4114         0.5237        -999.25          1.351        -999.25         -139.8      -58.16997        0.24353      0.1690005
      3288.5000        -999.25        -999.25       145.3423        48.2084        -999.25       45.36004         0.4086         0.5169        -999.25         1.3828        -999.25      -140.9482      -59.32053      0.2629796      0.1525638
      3289.0000        -999.25        -999.25       143.9792        48.8571        -999.25       45.94387         0.4078         0.5139        -999.25         1.4178        -999.25      -142.0496      -60.42432      0.2754016      0.1367955
      3289.5000        -999.25        -999.25        142.439        47.7216        -999.25       44.92192         0.4087         0.5127        -999.25         1.3826        -999.25      -142.5669      -60.94398      0.2536579      0.1293717
      3290.0000        -999.25        -999.25       141.1555        45.1181        -999.25       42.57877         0.4096         0.5115        -999.25         1.3399        -999.25      -142.6538      -61.03326      0.2038036      0.1280963
      3290.5000        -999.25        -999.25       139.9404        42.7617        -999.25       40.45801         0.4103         0.5129        -999.25         1.2975        -999.25      -142.5002      -60.88203      0.1586811      0.1302567
      3291.0000        -999.25        -999.25       139.0586        41.7391        -999.25       39.53767         0.4099         0.5162        -999.25         1.2861        -999.25      -142.3286      -60.71281      0.1390994      0.1326742
      3291.5000        -999.25        -999.25       139.7656        42.7766        -999.25       40.47142         0.4094         0.5196        -999.25         1.2869        -999.25      -142.1252      -60.51179      0.1589664      0.1355459
      3292.0000        -999.25        -999.25       141.0481        44.4521        -999.25       41.97937          0.409         0.5225        -999.25         1.2939        -999.25      -141.9219      -60.31087      0.1910504      0.1384162
      3292.5000        -999.25        -999.25        142.344        46.4217        -999.25       43.75201         0.4083         0.5231        -999.25         1.3002        -999.25      -141.8335      -60.22483      0.2287662      0.1396453
      3293.0000        -999.25        -999.25       143.6484        48.3147        -999.25       45.45571         0.4076         0.5237        -999.25         1.2986        -999.25      -141.7798      -60.17351      0.2650151      0.1403785
      3293.5000        -999.25        -999.25       143.6357        49.5477        -999.25       46.56541         0.4069         0.5243        -999.25         1.2969        -999.25        -141.73      -60.12608      0.2886257       0.141056
      3294.0000        -999.25        -999.25       143.1279        48.7892        -999.25       45.88276          0.407         0.5247        -999.25         1.2967        -999.25      -141.6821      -60.08056      0.2741013      0.1417063
      3294.5000        -999.25        -999.25        142.439        48.3426        -999.25       45.48082         0.4072          0.525        -999.25         1.2993        -999.25      -141.6567      -60.05753      0.2655495      0.1420354
      3295.0000        -999.25        -999.25       142.2771        48.4291        -999.25       45.55867         0.4075         0.5253        -999.25         1.3019        -999.25       -141.688      -60.09122      0.2672057       0.141554
      3295.5000        -999.25        -999.25       143.4275         47.936        -999.25       45.11488         0.4076         0.5232        -999.25         1.3077        -999.25       -141.739      -60.14458      0.2577635      0.1407917
      3296.0000        -999.25        -999.25       145.0627        47.0043        -999.25       44.27635         0.4076         0.5205        -999.25         1.3163        -999.25       -141.853      -60.26096      0.2399224      0.1391292
      3296.5000        -999.25        -999.25       146.2241        45.7483        -999.25       43.14595         0.4077         0.5179        -999.25         1.3249        -999.25       -141.948      -60.35834      0.2158713       0.137738
      3297.0000        -999.25        -999.25       146.2839        45.9676        -999.25       43.34332         0.4077         0.5176        -999.25         1.3382        -999.25      -141.8923      -60.30502      0.2200707      0.1384998
      3297.5000        -999.25        -999.25       145.2534        47.3861        -999.25       44.61997         0.4082         0.5173        -999.25         1.3531        -999.25      -141.8069      -60.22198      0.2472335      0.1396859
      3298.0000        -999.25        -999.25       144.2236        48.2265        -999.25       45.37633         0.4087         0.5174        -999.25          1.368        -999.25      -141.3059      -59.72335      0.2633262      0.1468093
      3298.5000        -999.25        -999.25       143.2319        48.1584        -999.25       45.31504         0.4092         0.5219        -999.25          1.381        -999.25      -140.9666      -59.38644      0.2620222      0.1516223
      3299.0000        -999.25        -999.25        142.252        47.5529        -999.25       44.77009         0.4127         0.5264        -999.25         1.3885        -999.25      -141.0046       -59.4268      0.2504274      0.1510457
      3299.5000        -999.25        -999.25       141.4194        46.5731        -999.25       43.88827         0.4162         0.5317        -999.25         1.3735        -999.25      -140.9812      -59.40578      0.2316653      0.1513459
      3300.0000        -999.25        -999.25       141.2888        45.6512        -999.25       43.05856         0.4214         0.5444        -999.25          1.349        -999.25      -140.9241      -59.35107      0.2140119      0.1521276
      3300.5000        -999.25        -999.25       142.9006        44.9751        -999.25       42.45007         0.4277         0.5575        -999.25         1.3218        -999.25      -140.4395      -58.86884      0.2010654      0.1590166
