#------------------------------------------------------------------------------
# Created by    : vladimir.rabinovich
# Created on    : 09/19/2023 17:20:45
#------------------------------------------------------------------------------
~Version Information Section
VERS.           2.0     :   CWLS log ASCII Standard - VERSION 2.0
WRAP.           NO      :   One line per depth step
~Well Information Section
#MNEM       .UNIT                                         VALUE :DESCRIPTION
#------------------------------------------------------------------------------
STRT        .FT                                             565 :START DEPTH
STOP        .FT                                           11656 :STOP DEPTH
STEP        .FT                                             0.5 :STEP      
NULL        .                                           -999.25 :NULL      
COMP        .                     MITCHELL ENERGY OFFSHORE CORP :COMPANY   
WELL        .                               OCS G02394 ST00BP00 :WELL      
FLD         .                            HIGH ISLAND BLOCK 0047 :FIELD     
LOC         .                                                   :LOCATION  
CNTY        .                                  HIGH ISLAND EAST :LOCATION  
STAT        .                                             TEXAS :STATE     
CTRY        .                                     UNITED STATES :COUNTRY   
SRVC        .                                                   :SERVICE COMPANY
DATE        .                             9/13/2023 11:11:59 AM :LOG DATE  
API         .                                    42710400050000 :API NUMBER
UWI         .                                    42710400050000 :UNIQUE WELL ID
XCOORD      .                                  1370895.90844183 :SURFACE X 
YCOORD      .                                  10676661.5178287 :SURFACE Y 
LAT         .                                        29.4165067 :LATITUDE  
LON         .                                        -93.846815 :LONGITUDE 
ELEV        .FT                                              96 :ELEVATION VALUE
ELEV_TYPE   .                                                KB :ELEVATION REFERENCE TYPE
~Curve Information Section
#MNEM       .UNIT                                      API CODE :CURVE DESCRIPTION
#------------------------------------------------------------------------------
DEPT        .FT                                                 :DEPTH     
ASN         .OHMM                                               :          
CILD        .MMHO                                               :          
GR          .GAPI                                               :          
GR_NORM     .GAPI                                               :GammaRay Normalized
ILD         .OHMM                                               :          
SP          .MV                                                 :          
SP_NORM     .MV                                                 :SP Normalized
VSH_GR      .V/V                                                :Volume of Shale from GR
VSH_SP      .V/V                                                :Volume of Shale from SP
~A        DEPTH            ASN           CILD             GR        GR_NORM            ILD             SP        SP_NORM         VSH_GR         VSH_SP
# ...
      5732.5000         0.6054       2120.379        -999.25        -999.25         0.4647       -47.8516      -3.990597        -999.25      0.9274437
      5733.0000         0.6128       2101.906        -999.25        -999.25         0.4649       -46.9632      -3.102966        -999.25      0.9435824
      5733.5000         0.6202       2083.461        -999.25        -999.25         0.4664       -46.0815      -2.222042        -999.25      0.9595993
      5734.0000         0.6275       2064.988        -999.25        -999.25         0.4699       -45.0812      -1.222515        -999.25      0.9777725
      5734.5000          0.634       2046.518        -999.25        -999.25         0.4733       -44.0395      -0.181591        -999.25      0.9966983
      5735.0000         0.6357        2028.07        -999.25        -999.25         0.4767       -43.0571      0.8000412        -999.25              1
      5735.5000         0.6307       2041.539        -999.25        -999.25         0.4802        -43.649      0.2073669        -999.25              1
      5736.0000         0.6257       2074.188        -999.25        -999.25         0.4793       -44.2428     -0.3872108        -999.25      0.9929598
      5736.5000         0.6199       2101.906        -999.25        -999.25          0.476       -44.8359     -0.9810829        -999.25      0.9821621
      5737.0000         0.6136       2128.352        -999.25        -999.25         0.4726       -45.4297      -1.575653        -999.25      0.9713517
      5737.5000         0.6074        2154.82        -999.25        -999.25         0.4697       -45.8408       -1.98753        -999.25      0.9638631
      5738.0000         0.6011       2176.848        -999.25        -999.25         0.4676       -46.1337      -2.281204        -999.25      0.9585236
      5738.5000         0.5989       2191.223        -999.25        -999.25         0.4656       -46.4054      -2.553677        -999.25      0.9535695
      5739.0000         0.5967       2205.586        -999.25        -999.25         0.4636       -46.1842      -2.333248        -999.25      0.9575773
      5739.5000         0.5948        2202.52        -999.25        -999.25         0.4615       -45.9629       -2.11272        -999.25      0.9615869
      5740.0000          0.594       2193.816        -999.25        -999.25         0.4593       -45.7417      -1.892296        -999.25      0.9655946
      5740.5000         0.5933       2185.109        -999.25        -999.25         0.4572       -45.5203      -1.671673        -999.25      0.9696059
      5741.0000         0.5928       2176.406        -999.25        -999.25         0.4553       -45.2991      -1.451241        -999.25      0.9736138
      5741.5000         0.5936       2171.711        -999.25        -999.25         0.4545       -45.0778      -1.230717        -999.25      0.9776233
      5742.0000         0.5943       2169.906        -999.25        -999.25         0.4536       -44.8628      -1.016491        -999.25      0.9815183
      5742.5000          0.595       2168.102        -999.25        -999.25         0.4527       -44.7383     -0.8927612        -999.25       0.983768
      5743.0000         0.5933       2166.297        -999.25        -999.25         0.4513       -44.6138     -0.7690353        -999.25      0.9860175
      5743.5000         0.5912       2190.215        -999.25        -999.25         0.4493       -44.4894     -0.6454086        -999.25      0.9882653
      5744.0000          0.589       2214.355        -999.25        -999.25         0.4472        -44.365     -0.5217857        -999.25       0.990513
      5744.5000         0.5869       2238.516        -999.25        -999.25         0.4452        -44.295     -0.4525528        -999.25      0.9917718
      5745.0000         0.5847        2260.09        -999.25        -999.25         0.4475       -44.3572     -0.5155296        -999.25      0.9906268
      5745.5000         0.5828       2277.117        -999.25        -999.25         0.4502       -44.4193     -0.5784035        -999.25      0.9894836
      5746.0000          0.581       2294.141        -999.25        -999.25          0.453       -44.5199     -0.6797791        -999.25      0.9876404
      5746.5000         0.5763       2310.305        -999.25        -999.25         0.4587       -44.9001      -1.060749        -999.25      0.9807137
      5747.0000         0.5715       2321.195        -999.25        -999.25         0.4648       -45.2805      -1.441921        -999.25      0.9737833
      5747.5000         0.5672       2327.367        -999.25        -999.25         0.4822       -45.6608      -1.822998        -999.25      0.9668546
      5748.0000         0.5641       2303.008        -999.25        -999.25         0.5007       -45.7207      -1.883671        -999.25      0.9657515
      5748.5000         0.5643       2278.672        -999.25        -999.25         0.5192       -45.2567      -1.420441        -999.25      0.9741738
      5749.0000         0.5739        2254.34        -999.25        -999.25         0.5421       -44.7933     -0.9578171        -999.25      0.9825851
      5749.5000         0.5932       2190.633        -999.25        -999.25         0.5655       -44.3293     -0.4945908        -999.25      0.9910074
      5750.0000         0.6141       2086.625        -999.25        -999.25         0.5887       -43.8653    -0.03136444        -999.25      0.9994298
      5750.5000         0.6667       1927.865        -999.25        -999.25         0.6102       -43.1232      0.7099648        -999.25              1
      5751.0000         0.7042       1883.906        -999.25        -999.25           0.63       -43.3784      0.4539909        -999.25              1
      5751.5000         0.7394       1853.414        -999.25        -999.25         0.6475       -43.9647     -0.1330833        -999.25      0.9975803
      5752.0000         0.7692       1825.549        -999.25        -999.25         0.6629       -45.0355      -1.204659        -999.25      0.9780971
      5752.5000         0.7839       1799.645        -999.25        -999.25         0.6657       -46.6172      -2.787128        -999.25       0.949325
      5753.0000         0.7921        1780.75        -999.25        -999.25         0.6642       -53.2899      -9.460606        -999.25       0.827989
      5753.5000         0.7915       1789.402        -999.25        -999.25         0.6554       -59.1644      -15.33588        -999.25      0.7211659
      5754.0000         0.7322       1813.848        -999.25        -999.25         0.6333        -60.195      -16.36725        -999.25      0.7024137
      5754.5000         0.6989       1862.074        -999.25        -999.25         0.6112       -58.9445      -15.11752        -999.25      0.7251359
      5755.0000         0.6681        1917.17        -999.25        -999.25         0.5889        -57.694       -13.8678        -999.25      0.7478582
      5755.5000         0.6453       2008.814        -999.25        -999.25         0.5662       -56.4434      -12.61797        -999.25      0.7705823
      5756.0000         0.6288       2095.945        -999.25        -999.25         0.5434        -54.669      -10.84434        -999.25      0.8028302
      5756.5000         0.6182       2159.184        -999.25        -999.25         0.5254       -52.8427      -9.018818        -999.25      0.8360215
      5757.0000         0.6107       2195.906        -999.25        -999.25         0.5075       -51.0311      -7.207993        -999.25      0.8689456
      5757.5000         0.6085       2217.668        -999.25        -999.25         0.4976       -49.2381      -5.415764        -999.25      0.9015316
      5758.0000         0.6064       2232.555        -999.25        -999.25         0.4935       -47.8455      -4.023937        -999.25      0.9268375
      5758.5000         0.6022       2243.164        -999.25        -999.25         0.4895       -47.0101      -3.189312        -999.25      0.9420125
