#------------------------------------------------------------------------------
# Created by    : vladimir.rabinovich
# Created on    : 09/19/2023 17:20:47
#------------------------------------------------------------------------------
~Version Information Section
VERS.           2.0     :   CWLS log ASCII Standard - VERSION 2.0
WRAP.           NO      :   One line per depth step
~Well Information Section
#MNEM       .UNIT                                         VALUE :DESCRIPTION
#------------------------------------------------------------------------------
STRT        .FT                                            1960 :START DEPTH
STOP        .FT                                           13420 :STOP DEPTH
STEP        .FT                                             0.5 :STEP      
NULL        .                                           -999.25 :NULL      
COMP        .                                 CALIFORNIA CO THE :COMPANY   
WELL        .                                     ST TR 00002-L :WELL      
FLD         .                                           WILDCAT :FIELD     
LOC         .                                                   :LOCATION  
CNTY        .                                       SABINE PASS :LOCATION  
STAT        .                                             TEXAS :STATE     
CTRY        .                                     UNITED STATES :COUNTRY   
SRVC        .                                                   :SERVICE COMPANY
DATE        .                             9/13/2023 11:12:08 AM :LOG DATE  
API         .                                    42715000310000 :API NUMBER
UWI         .                                    42715000310000 :UNIQUE WELL ID
XCOORD      .                                  1372392.72802961 :SURFACE X 
YCOORD      .                                   10750257.969662 :SURFACE Y 
LAT         .                                         29.618979 :LATITUDE  
LON         .                                       -93.8437903 :LONGITUDE 
ELEV        .FT                                              11 :ELEVATION VALUE
ELEV_TYPE   .                                                KB :ELEVATION REFERENCE TYPE
~Curve Information Section
#MNEM       .UNIT                                      API CODE :CURVE DESCRIPTION
#------------------------------------------------------------------------------
DEPT        .FT                                                 :DEPTH     
ASN         .OHMM                                               :          
IL          .OHMM                                               :          
SP          .MV                                                 :          
SP_NORM     .MV                                                 :SP Normalized
VSH_SP      .V/V                                                :Volume of Shale from SP
~A        DEPTH            ASN             IL             SP        SP_NORM         VSH_SP
# ...
      8780.0000         1.1422          1.171      -121.7595      -66.37444     0.05179378
      8780.5000         1.1548         1.1666      -121.0964      -65.76367     0.06051897
      8781.0000         1.1689         1.1622      -120.4324      -65.15208     0.06925594
      8781.5000         1.1878         1.1593      -119.7747      -64.54635     0.07790931
      8782.0000         1.2072         1.1588      -119.1204       -63.9438     0.08651712
      8782.5000         1.2471         1.1583      -118.4659      -63.34107     0.09512755
      8783.0000         1.2871         1.1578      -117.8116      -62.73853      0.1037354
      8783.5000         1.3418         1.1429      -116.8621      -61.86045      0.1162792
      8784.0000         1.3766         1.1277      -115.9115      -60.98136      0.1288377
      8784.5000         1.3973         1.1125      -114.9619       -60.1032      0.1413829
      8785.0000         1.3627         1.0987      -114.3949      -59.58213      0.1488267
      8785.5000         1.3368         1.0909      -113.9332      -59.15935      0.1548665
      8786.0000         1.3132          1.083      -114.5658      -59.75792      0.1463155
      8786.5000         1.2896         1.0752      -116.8099      -61.86053      0.1162781
      8787.0000         1.2664         1.0674      -118.8241      -63.74858     0.08930604
      8787.5000         1.2443         1.0595      -120.8381      -65.63645      0.0623364
      8788.0000         1.2222         1.0517      -122.5245      -67.21856     0.03973487
      8788.5000         1.2012         1.0438      -124.0243       -68.6265     0.01962139
      8789.0000         1.1922         1.0406      -125.5219      -70.03239              0
      8789.5000         1.1832         1.0401      -126.5321      -70.98338              0
      8790.0000         1.3239         1.0397      -127.3026      -71.71065              0
      8790.5000         1.3743         1.0392      -126.2251      -70.71312              0
      8791.0000         1.3276         1.0387      -124.2999      -68.92439     0.01536582
      8791.5000         1.2954         1.0382      -121.9841      -66.77112     0.04612688
      8792.0000         1.2656         1.0387      -119.4708       -64.4335      0.0795214
      8792.5000         1.2358          1.055      -116.9619      -62.09999      0.1128573
      8793.0000         1.2068         1.0712      -113.8323      -59.18716      0.1544691
      8793.5000         1.1846         1.0875      -110.3292      -55.92574      0.2010609
      8794.0000          1.212         1.1038      -106.8307      -52.66861      0.2475913
      8794.5000         1.2572         1.1213       -97.5198      -43.98656      0.3716206
      8795.0000         1.2791         1.1557       -90.9827       -37.8934      0.4586657
      8795.5000         1.2916         1.1901       -86.3815      -33.60708      0.5198988
      8796.0000         1.2958         1.2245       -87.7097      -34.85487      0.5020733
      8796.5000         1.2967         1.2588       -99.5513      -45.91516      0.3440692
      8797.0000         1.2976         1.2932       -110.173      -55.83688      0.2023304
      8797.5000         1.3001         1.3459      -110.4335      -56.08815      0.1987408
      8798.0000         1.3026         1.4011      -107.3602      -53.22786       0.239602
      8798.5000         1.3052         1.4563       -94.4987      -41.23193      0.4109724
      8799.0000         1.3078         1.5115       -80.1395      -27.83814      0.6023122
      8799.5000         1.3357         1.5667       -68.6279      -17.10212      0.7556841
      8800.0000         1.3728         1.6219       -65.1293      -13.84489      0.8022158
      8800.5000         1.4099         1.6757        -61.635      -10.59167      0.8486904
      8801.0000         1.4944         1.7292       -59.2823      -8.403952      0.8799435
      8801.5000         1.5892         1.7825       -58.0365      -7.249337      0.8964381
      8802.0000         1.6679          1.836       -56.7907      -6.094726      0.9129325
      8802.5000         1.7165         1.8869       -55.5471      -4.942166      0.9293976
      8803.0000         1.7735         1.9274       -55.1556      -4.584899      0.9345015
      8803.5000         1.8474         1.9679       -55.3187      -4.745255      0.9322106
      8804.0000         1.9137         2.0084       -55.4818      -4.905615      0.9299198
      8804.5000         1.9454         2.0489       -55.6692      -5.088658      0.9273049
      8805.0000           1.98         2.0894        -55.979      -5.385935      0.9230581
      8805.5000         2.0342         2.1182       -56.2883      -5.682747      0.9188179
      8806.0000          2.105          2.142       -56.5981      -5.980025       0.914571
      8806.5000         2.1818         2.1658        -56.908      -6.277402      0.9103228
      8807.0000         2.2647         2.1896       -57.2178       -6.57468       0.906076
      8807.5000         2.3322          2.213       -57.4378      -6.788146      0.9030265
      8808.0000         2.3595         2.2183       -57.4587      -6.815782      0.9026317
      8808.5000         2.3136         2.2235       -57.4797      -6.843514      0.9022355
      8809.0000         2.2654         2.2169       -57.5007      -6.871253      0.9018393
      8809.5000         2.2172         2.1907       -57.5217      -6.898985      0.9014431
      8810.0000         2.1327         2.1646       -57.5427      -6.926717      0.9010469
      8810.5000         2.0572         2.1384       -57.5637      -6.954448      0.9006507
      8811.0000         2.0197         2.1152       -57.5577       -6.95698      0.9006146
      8811.5000         2.0012         2.1126       -57.4553       -6.86954      0.9018637
      8812.0000         2.0164         2.1101       -57.3528      -6.782005      0.9031142
      8812.5000         2.0428         2.1075       -57.2506       -6.69475      0.9043607
      8813.0000         2.0794          2.105       -57.1482      -6.607311      0.9056098
      8813.5000          2.116         2.1025       -57.0458      -6.519868       0.906859
      8814.0000          2.153          2.118       -56.9434      -6.432432      0.9081081
      8814.5000         2.2026         2.1437       -56.8955      -6.395856      0.9086306
      8815.0000         2.2523         2.1693       -56.8969      -6.405295      0.9084958
      8815.5000          2.302         2.1866       -56.8983      -6.414733       0.908361
      8816.0000          2.333         2.1907       -56.8997      -6.424172      0.9082261
      8816.5000         2.3309         2.1947       -56.9011      -6.433614      0.9080912
      8817.0000         2.3259         2.1987       -56.9025      -6.443053      0.9079564
      8817.5000         2.3187         2.1754       -56.9038      -6.452399      0.9078228
      8818.0000         2.3105         2.1503       -56.9052      -6.461837       0.907688
      8818.5000         2.3022         2.1251       -56.8607      -6.428434      0.9081652
      8819.0000         2.2362         2.0999       -56.6516       -6.24141       0.910837
      8819.5000         2.1123         2.0747       -56.4427      -6.054568      0.9135062
      8820.0000         2.0031         2.0495       -56.2335      -5.867449      0.9161793
      8820.5000         1.9436         2.0263       -56.0246      -5.680607      0.9188485
      8821.0000         1.9236         2.0035       -55.8154      -5.493484      0.9215217
      8821.5000         1.9037         1.9806       -55.1358      -4.867326      0.9304668
      8822.0000         1.8838         1.9577       -54.4261      -4.213074      0.9398133
      8822.5000         1.8715         1.9606       -53.7153      -3.557792      0.9491744
      8823.0000         1.8678         1.9809       -53.0056      -2.903536      0.9585209
      8823.5000         1.8711         2.0011       -52.4202      -2.365299        0.96621
