#------------------------------------------------------------------------------
# Created by    : vladimir.rabinovich
# Created on    : 09/19/2023 17:20:40
#------------------------------------------------------------------------------
~Version Information Section
VERS.           2.0     :   CWLS log ASCII Standard - VERSION 2.0
WRAP.           NO      :   One line per depth step
~Well Information Section
#MNEM       .UNIT                                         VALUE :DESCRIPTION
#------------------------------------------------------------------------------
STRT        .FT                                             769 :START DEPTH
STOP        .FT                                           10573 :STOP DEPTH
STEP        .FT                                             0.5 :STEP      
NULL        .                                           -999.25 :NULL      
COMP        .                                        TEXACO INC :COMPANY   
WELL        .                               OCS G01846 ST00BP00 :WELL      
FLD         .                            HIGH ISLAND BLOCK 0129 :FIELD     
LOC         .                                                   :LOCATION  
CNTY        .                                  HIGH ISLAND EAST :LOCATION  
STAT        .                                             TEXAS :STATE     
CTRY        .                                     UNITED STATES :COUNTRY   
SRVC        .                                                   :SERVICE COMPANY
DATE        .                             9/13/2023 11:19:51 AM :LOG DATE  
API         .                                    42710300030000 :API NUMBER
UWI         .                                    42710300030000 :UNIQUE WELL ID
XCOORD      .                                   1386052.0565626 :SURFACE X 
YCOORD      .                                   10637380.600337 :SURFACE Y 
LAT         .                                        29.3087467 :LATITUDE  
LON         .                                       -93.7983562 :LONGITUDE 
ELEV        .FT                                              81 :ELEVATION VALUE
ELEV_TYPE   .                                                KB :ELEVATION REFERENCE TYPE
~Curve Information Section
#MNEM       .UNIT                                      API CODE :CURVE DESCRIPTION
#------------------------------------------------------------------------------
DEPT        .FT                                                 :DEPTH     
ASN         .OHMM                                               :          
CALI        .IN                                                 :          
DRHO        .G/C3                                               :          
GR          .GAPI                                               :          
GR_1        .GAPI                                               :          
GR_NORM     .GAPI                                               :GammaRay Normalized
ILD         .OHMM                                               :          
RHOB        .G/C3                                               :          
SP          .MV                                                 :          
SP_NORM     .MV                                                 :SP Normalized
VSH_GR      .V/V                                                :Volume of Shale from GR
VSH_SP      .V/V                                                :Volume of Shale from SP
~A        DEPTH            ASN           CALI           DRHO             GR           GR_1        GR_NORM            ILD           RHOB             SP        SP_NORM         VSH_GR         VSH_SP
# ...
      7226.5000         1.3686        -999.25        -0.0596        -999.25        -999.25        -999.25         1.2218        -999.25       -29.5055      -12.97228        -999.25      0.8146818
      7227.0000         1.3559        -999.25        -0.0698        -999.25        -999.25        -999.25         1.2259        -999.25       -27.7949      -11.26502        -999.25      0.8390711
      7227.5000         1.3541        -999.25          -0.08        -999.25        -999.25        -999.25         1.2378        -999.25       -26.3028      -9.776268        -999.25       0.860339
      7228.0000         1.3624        -999.25        -0.0901        -999.25        -999.25        -999.25         1.2548        -999.25       -25.3512      -8.828016        -999.25      0.8738855
      7228.5000          1.379        -999.25        -0.0993        -999.25        -999.25        -999.25         1.2887        -999.25       -25.2092      -8.689362        -999.25      0.8758662
      7229.0000         1.4058        -999.25        -0.1026        -999.25        -999.25        -999.25         1.3219        -999.25       -25.7856       -9.26911        -999.25      0.8675842
      7229.5000          1.447        -999.25        -0.1033        -999.25        -999.25        -999.25         1.3531        -999.25       -27.4123      -10.89915        -999.25      0.8442978
      7230.0000         1.4919        -999.25        -0.1124        -999.25        -999.25        -999.25         1.3737        -999.25       -29.4883       -12.9785        -999.25      0.8145928
      7230.5000         1.5309        -999.25         -0.122        -999.25        -999.25        -999.25         1.3832        -999.25       -31.8752      -15.36875        -999.25      0.7804465
      7231.0000         1.5558        -999.25        -0.1156        -999.25        -999.25        -999.25          1.376        -999.25       -34.5262      -18.02309        -999.25      0.7425272
      7231.5000         1.5449        -999.25        -0.1088        -999.25        -999.25        -999.25         1.3545        -999.25        -36.301      -19.80124        -999.25      0.7171252
      7232.0000         1.4984        -999.25        -0.1032        -999.25        -999.25        -999.25         1.3123        -999.25       -37.3982      -20.90179        -999.25       0.701403
      7232.5000         1.4501        -999.25        -0.1059        -999.25        -999.25        -999.25         1.2691        -999.25       -36.8577      -20.36463        -999.25      0.7090766
      7233.0000         1.4152        -999.25        -0.1064        -999.25        -999.25        -999.25         1.2246        -999.25       -36.0209      -19.53118        -999.25      0.7209831
      7233.5000         1.3968        -999.25        -0.1061        -999.25        -999.25        -999.25         1.1968        -999.25        -35.231      -18.74463        -999.25      0.7322196
      7234.0000         1.4241        -999.25        -0.1172        -999.25        -999.25        -999.25         1.1746        -999.25       -34.7324      -18.24937        -999.25      0.7392947
      7234.5000         1.4726        -999.25        -0.1231        -999.25        -999.25        -999.25          1.174        -999.25       -35.4815      -19.00182        -999.25      0.7285454
      7235.0000          1.524        -999.25        -0.1234        -999.25        -999.25        -999.25         1.1738        -999.25       -37.3575      -20.88116        -999.25      0.7016976
      7235.5000         1.5767        -999.25        -0.1209        -999.25        -999.25        -999.25         1.1893        -999.25       -39.5001      -23.02711        -999.25      0.6710413
      7236.0000         1.6438        -999.25         -0.116        -999.25        -999.25        -999.25         1.2041        -999.25       -42.1388      -25.66916        -999.25      0.6332977
      7236.5000         1.7174        -999.25         -0.111        -999.25        -999.25        -999.25         1.2096        -999.25       -46.7448      -30.27851        -999.25      0.5674499
      7237.0000         1.7675        -999.25        -0.1065        -999.25        -999.25        -999.25         1.2127        -999.25       -51.1731      -34.71015        -999.25      0.5041407
      7237.5000         1.7832        -999.25         -0.103        -999.25        -999.25        -999.25          1.202        -999.25        -55.009       -38.5494        -999.25      0.4492943
      7238.0000         1.7535        -999.25        -0.1014        -999.25        -999.25        -999.25         1.1852        -999.25       -57.5416      -41.08534        -999.25      0.4130665
      7238.5000         1.7027        -999.25        -0.1077        -999.25        -999.25        -999.25         1.1442        -999.25       -58.2315      -41.77859        -999.25       0.403163
      7239.0000         1.6493        -999.25        -0.1087        -999.25        -999.25        -999.25         1.0932        -999.25       -56.5222      -40.07264        -999.25      0.4275337
      7239.5000         1.5814        -999.25        -0.1064        -999.25        -999.25        -999.25         1.0439        -999.25       -54.3524      -37.90619        -999.25       0.458483
      7240.0000         1.5135        -999.25        -0.0969        -999.25        -999.25        -999.25         0.9897        -999.25        -51.963      -35.52013        -999.25      0.4925695
      7240.5000         1.4562        -999.25        -0.0875        -999.25        -999.25        -999.25         0.9924        -999.25       -49.2527      -32.81318        -999.25      0.5312403
      7241.0000         1.4365        -999.25        -0.0905        -999.25        -999.25        -999.25         1.0021        -999.25       -45.9598      -29.52363        -999.25      0.5782339
      7241.5000         1.4427        -999.25        -0.0918        -999.25        -999.25        -999.25         1.0173        -999.25       -43.1385      -26.70567        -999.25      0.6184904
      7242.0000         1.4523        -999.25        -0.0925        -999.25        -999.25        -999.25           1.04        -999.25       -43.9061      -27.47662        -999.25      0.6074769
      7242.5000         1.4497        -999.25         -0.089        -999.25        -999.25        -999.25         1.0529        -999.25       -46.2684      -29.84226        -999.25       0.573682
      7243.0000         1.4324        -999.25        -0.0856        -999.25        -999.25        -999.25         1.0506        -999.25       -48.1814      -31.75861        -999.25      0.5463055
      7243.5000         1.4188        -999.25        -0.0858        -999.25        -999.25        -999.25          1.048        -999.25       -48.3351      -31.91566        -999.25      0.5440621
      7244.0000         1.4109        -999.25        -0.0842        -999.25        -999.25        -999.25          1.036        -999.25       -48.1194       -31.7033        -999.25      0.5470957
      7244.5000         1.3995        -999.25        -0.0757        -999.25        -999.25        -999.25         1.0241        -999.25       -48.7701      -32.35735        -999.25      0.5377522
      7245.0000         1.3829        -999.25        -0.0646        -999.25        -999.25        -999.25         1.0115        -999.25       -50.1821       -33.7727        -999.25      0.5175329
      7245.5000         1.3673        -999.25        -0.0557        -999.25        -999.25        -999.25         0.9985        -999.25       -49.8686      -33.46254        -999.25      0.5219637
      7246.0000         1.3818        -999.25        -0.0504        -999.25        -999.25        -999.25         0.9814        -999.25       -48.5492      -32.14649        -999.25      0.5407645
      7246.5000         1.4107        -999.25        -0.0487        -999.25        -999.25        -999.25         0.9625        -999.25        -48.601      -32.20164        -999.25      0.5399766
