#------------------------------------------------------------------------------
# Created by    : vladimir.rabinovich
# Created on    : 09/19/2023 17:21:28
#------------------------------------------------------------------------------
~Version Information Section
VERS.           2.0     :   CWLS log ASCII Standard - VERSION 2.0
WRAP.           NO      :   One line per depth step
~Well Information Section
#MNEM       .UNIT                                         VALUE :DESCRIPTION
#------------------------------------------------------------------------------
STRT        .FT                                             999 :START DEPTH
STOP        .FT                                           14605 :STOP DEPTH
STEP        .FT                                             0.5 :STEP      
NULL        .                                           -999.25 :NULL      
COMP        .                                      GETTY OIL CO :COMPANY   
WELL        .                               OCS G03116 ST00BP00 :WELL      
FLD         .                                           WILDCAT :FIELD     
LOC         .                                                   :LOCATION  
CNTY        .                                  HIGH ISLAND EAST :LOCATION  
STAT        .                                             TEXAS :STATE     
CTRY        .                                     UNITED STATES :COUNTRY   
SRVC        .                                                   :SERVICE COMPANY
DATE        .                             9/13/2023 11:19:51 AM :LOG DATE  
API         .                                    42710400090000 :API NUMBER
UWI         .                                    42710400090000 :UNIQUE WELL ID
XCOORD      .                                  1371379.55461592 :SURFACE X 
YCOORD      .                                  10664640.0845049 :SURFACE Y 
LAT         .                                        29.3834483 :LATITUDE  
LON         .                                       -93.8450221 :LONGITUDE 
ELEV        .FT                                              80 :ELEVATION VALUE
ELEV_TYPE   .                                                KB :ELEVATION REFERENCE TYPE
~Curve Information Section
#MNEM       .UNIT                                      API CODE :CURVE DESCRIPTION
#------------------------------------------------------------------------------
DEPT        .FT                                                 :DEPTH     
CALI        .IN                                                 :          
DRHO        .G/C3                                               :          
GR          .GAPI                                               :          
GR_NORM     .GAPI                                               :GammaRay Normalized
NPHI        .%                                                  :          
RHOB        .G/C3                                               :          
VSH_GR      .V/V                                                :Volume of Shale from GR
~A        DEPTH           CALI           DRHO             GR        GR_NORM           NPHI           RHOB         VSH_GR
# ...
      7330.5000        12.3108        -0.0608        61.3122       73.18491        33.4253         2.3233       0.854998
      7331.0000        12.2742        -0.0582          60.08       71.33137        33.3278         2.3106       0.815561
      7331.5000        12.1033        -0.0728         59.406       70.31735        33.4651         2.2793      0.7939862
      7332.0000        11.8871        -0.0828        60.3608       71.75306        32.7942         2.2819      0.8245332
      7332.5000        11.7428        -0.0851        58.8848       69.53284        32.0782         2.3014      0.7772944
      7333.0000        11.6696        -0.0769        57.8406       67.96205         32.818         2.3142      0.7438734
      7333.5000        11.6575        -0.0683        56.8855       66.52528        33.3449          2.317      0.7133037
      7334.0000        11.6803        -0.0683        55.7089       64.75536        33.4893         2.3086       0.675646
      7334.5000        11.6821        -0.0744        54.7136       63.25811        32.4124         2.2915      0.6437896
      7335.0000        11.6723        -0.0822        55.3798       64.25977        31.8001         2.2734      0.6651014
      7335.5000        11.6587          -0.09        55.9996       65.19162        32.4183         2.2681      0.6849281
      7336.0000         11.651        -0.0958        55.8602       64.98167        33.2876         2.2817       0.680461
      7336.5000        11.6434        -0.1009        56.2158       65.51617        34.2492         2.2787      0.6918335
      7337.0000        11.6358        -0.1068        57.5029       67.45165        34.9733         2.2656      0.7330139
      7337.5000        11.6291        -0.1098        58.9553       69.63576        35.5389         2.2732      0.7794842
      7338.0000         11.623        -0.0986        60.2915       71.64508        36.0499         2.2725      0.8222358
      7338.5000        11.6383        -0.0877         61.181       72.98258        36.4499         2.2635      0.8506932
      7339.0000        11.6634        -0.0772        61.9655       74.16215        37.4256         2.2605      0.8757904
      7339.5000        11.7061        -0.0666          62.73       75.31166        38.1379         2.2963      0.9002481
      7340.0000        11.7995         -0.057        63.9066       77.08095        37.6675         2.3195      0.9378925
      7340.5000        11.9007         -0.066        65.5645       79.57412        37.8982         2.2933      0.9909387
      7341.0000        12.0035        -0.0799        66.5344       81.03254         38.856          2.275              1
      7341.5000        12.0517        -0.0805        67.0538       81.81339        39.7104         2.2663              1
      7342.0000        12.0724        -0.0893          67.09       81.86753        40.2913         2.2656              1
      7342.5000        12.0645        -0.1035        66.1533       80.45842        40.1019         2.2942              1
      7343.0000         12.051        -0.1082        64.9694       78.67752         39.118         2.2923      0.9718621
      7343.5000        12.0375        -0.0992        63.7124       76.78667        38.0687          2.311      0.9316314
      7344.0000        12.0294        -0.1032        62.8367       75.46932        37.6956         2.3217      0.9036026
      7344.5000        12.0285        -0.0997        63.4934       76.45669        37.8297         2.3287      0.9246104
      7345.0000        12.0517         -0.084         64.978       78.68921        37.7211         2.3331      0.9721108
      7345.5000        12.1269        -0.0868        65.6226       79.65838        38.1951         2.3181      0.9927315
      7346.0000        12.2664        -0.0975        65.2144       79.04413        38.0887         2.3055      0.9796623
      7346.5000        12.3608        -0.1005        64.4188       77.84724        37.8539         2.3234      0.9541965
      7347.0000        12.3516        -0.0878         63.838        76.9734        37.7951         2.3393      0.9356043
      7347.5000        12.2997        -0.0814        63.4767        76.4297         36.598         2.3374      0.9240362
      7348.0000        12.2468        -0.0918         63.333       76.21326        34.8699          2.341      0.9194311
      7348.5000        12.2273        -0.0856        63.3124       76.18197        34.2507         2.3271      0.9187653
      7349.0000        12.3324        -0.0907        62.7684       75.36348        35.3209         2.3132      0.9013506
      7349.5000        12.5101        -0.1033        61.8133       73.92669        36.4774         2.2937      0.8707806
      7350.0000        12.6686         -0.115        61.1452       72.92157        38.3157         2.2716      0.8493951
      7350.5000        12.6824        -0.1118         61.749       73.82936        39.3253         2.2583      0.8687098
      7351.0000        12.6473        -0.0942        63.5157       76.48617        39.8384         2.2623      0.9252376
      7351.5000        12.7355         -0.071        65.0807       78.83962         40.995         2.2884      0.9753111
      7352.0000        13.0221        -0.0485        66.0878       80.35398        42.2014         2.2764              1
      7352.5000        13.2846        -0.0346        66.9613       81.66743        42.5508          2.252              1
      7353.0000        13.3895        -0.0329        67.3151       82.19921        41.7824         2.2366              1
      7353.5000        13.3916        -0.0386        67.6655        82.7259        41.3901         2.2211              1
      7354.0000        13.3743        -0.0433        67.3491       82.24973        42.2848         2.2334              1
      7354.5000        13.3618        -0.0391        66.9489       81.64751        42.7979         2.2343              1
      7355.0000        13.3505         -0.034        66.2053       80.52883        42.8664         2.2279              1
      7355.5000         13.342          -0.04        65.7126       79.78749        42.1649         2.2299      0.9954785
      7356.0000        13.3418        -0.0445        65.3699       79.27177        41.2257         2.2335      0.9845057
      7356.5000        13.3415        -0.0482        65.1724       78.97441        41.1498         2.2257       0.978179
      7357.0000        13.3645        -0.0518        65.0643       78.81152         41.424         2.2167      0.9747131
      7357.5000        13.4047        -0.0511        64.6675       78.21442        41.4868         2.2132      0.9620088
      7358.0000        13.4637        -0.0434        64.2635       77.60648        41.8479          2.227       0.949074
      7358.5000          13.56        -0.0412        63.9218       77.09225        41.9373         2.2186      0.9381331
      7359.0000        13.5723        -0.0458        63.5884       76.59051        42.1221         2.2038      0.9274576
      7359.5000        13.5379        -0.0458        63.4836       76.43259        42.1471         2.1947      0.9240978
      7360.0000        13.4889        -0.0398        63.5363       76.51153        41.3076         2.1863      0.9257772
      7360.5000        13.4337        -0.0405        64.0476       77.28021        40.6973         2.1793      0.9421322
      7361.0000         13.365        -0.0474        64.8159       78.43542        40.8253         2.1747      0.9667112
      7361.5000        13.2482        -0.0518        65.1958       79.00648        42.2692         2.1837      0.9788612
      7362.0000        13.0921        -0.0498        64.9583       78.64896        43.8961         2.1851      0.9712544
      7362.5000        12.9945        -0.0394        61.8801       74.01904        43.6787         2.1921      0.8727456
      7363.0000        13.0029         -0.042        58.9949       69.67939        42.5922         2.1997      0.7804126
      7363.5000          12.98        -0.0525        57.4236       67.31583        40.7643         2.2088      0.7301241
