#------------------------------------------------------------------------------
# Created by    : vladimir.rabinovich
# Created on    : 09/19/2023 17:21:48
#------------------------------------------------------------------------------
~Version Information Section
VERS.           2.0     :   CWLS log ASCII Standard - VERSION 2.0
WRAP.           NO      :   One line per depth step
~Well Information Section
#MNEM       .UNIT                                         VALUE :DESCRIPTION
#------------------------------------------------------------------------------
STRT        .FT                                            1142 :START DEPTH
STOP        .FT                                            9163 :STOP DEPTH
STEP        .FT                                             0.5 :STEP      
NULL        .                                           -999.25 :NULL      
COMP        .                                    ORYX ENERGY CO :COMPANY   
WELL        .                               OCS G06199 ST00BP00 :WELL      
FLD         .                            HIGH ISLAND BLOCK 0129 :FIELD     
LOC         .                                                   :LOCATION  
CNTY        .                                  HIGH ISLAND EAST :LOCATION  
STAT        .                                             TEXAS :STATE     
CTRY        .                                     UNITED STATES :COUNTRY   
SRVC        .                                                   :SERVICE COMPANY
DATE        .                             9/13/2023 11:20:11 AM :LOG DATE  
API         .                                    42710400360000 :API NUMBER
UWI         .                                    42710400360000 :UNIQUE WELL ID
XCOORD      .                                  1376484.19293712 :SURFACE X 
YCOORD      .                                  10620179.8267869 :SURFACE Y 
LAT         .                                        29.2612476 :LATITUDE  
LON         .                                        -93.828002 :LONGITUDE 
ELEV        .FT                                              93 :ELEVATION VALUE
ELEV_TYPE   .                                                KB :ELEVATION REFERENCE TYPE
~Curve Information Section
#MNEM       .UNIT                                      API CODE :CURVE DESCRIPTION
#------------------------------------------------------------------------------
DEPT        .FT                                                 :DEPTH     
CALI        .IN                                                 :          
DRHO        .G/C3                                               :          
DT          .US/F                                               :          
GR          .GAPI                                               :          
GR_1        .GAPI                                               :          
GR_NORM     .GAPI                                               :GammaRay Normalized
ILD         .OHMM                                               :          
ILM         .OHMM                                               :          
NPHI        .%                                                  :          
RFOC        .OHMM                                               :          
RHOB        .G/C3                                               :          
SP          .MV                                                 :          
SP_NORM     .MV                                                 :SP Normalized
VSH_GR      .V/V                                                :Volume of Shale from GR
VSH_SP      .V/V                                                :Volume of Shale from SP
~A        DEPTH           CALI           DRHO             DT             GR           GR_1        GR_NORM            ILD            ILM           NPHI           RFOC           RHOB             SP        SP_NORM         VSH_GR         VSH_SP
# ...
      2740.0000        -999.25        -999.25       153.4661        38.2139        -999.25       36.36499         0.3298         0.3701        -999.25         1.3286        -999.25      -153.0776      -68.84463     0.07159562     0.01650532
      2740.5000        -999.25        -999.25        153.387        38.7762        -999.25       36.87106         0.3311         0.3696        -999.25         1.3429        -999.25      -153.3953       -69.1647     0.08236296     0.01193292
      2741.0000        -999.25        -999.25       153.1604        38.7734        -999.25       36.86854         0.3325         0.3698        -999.25         1.3575        -999.25      -153.5818      -69.35358      0.0823094    0.009234619
      2741.5000        -999.25        -999.25       152.9321        37.8732        -999.25       36.05836         0.3334         0.3699        -999.25         1.3767        -999.25      -153.5803      -69.35445     0.06507151    0.009222086
      2742.0000        -999.25        -999.25       153.2671        36.6805        -999.25       34.98493          0.333         0.3708        -999.25          1.392        -999.25      -153.0728      -68.84933      0.0422326     0.01643818
      2742.5000        -999.25        -999.25       153.6965         35.647        -999.25       34.05478         0.3326         0.3717        -999.25         1.3766        -999.25      -152.6616      -68.44051     0.02244211     0.02227849
      2743.0000        -999.25        -999.25       153.8398        35.1903        -999.25       33.64375         0.3315         0.3717        -999.25         1.3592        -999.25       -152.603      -68.38427     0.01369687     0.02308186
      2743.5000        -999.25        -999.25       153.9524        36.5804        -999.25       34.89484         0.3303         0.3707        -999.25          1.346        -999.25      -152.7502      -68.53385     0.04031575     0.02094498
      2744.0000        -999.25        -999.25       153.5027           38.5        -999.25       36.62248          0.329         0.3698        -999.25         1.3447        -999.25      -152.9553      -68.74133     0.07707409     0.01798096
      2744.5000        -999.25        -999.25       152.9519        40.5511        -999.25       38.46847         0.3274         0.3682        -999.25         1.3519        -999.25      -153.3406      -69.12901      0.1163505     0.01244278
      2745.0000        -999.25        -999.25       152.6279        40.5858        -999.25        38.4997         0.3256         0.3652        -999.25         1.3606        -999.25       -153.824      -69.61478      0.1170149    0.005503191
      2745.5000        -999.25        -999.25       152.4495        39.3483        -999.25       37.38595         0.3238         0.3617        -999.25         1.3694        -999.25      -154.2043      -69.99745     0.09331813  0.00003640311
      2746.0000        -999.25        -999.25       152.6294        38.2337        -999.25       36.38281         0.3226         0.3596        -999.25         1.3663        -999.25       -154.427      -70.22253     0.07197473              0
      2746.5000        -999.25        -999.25       153.1238        37.7606        -999.25       35.95702         0.3215         0.3589        -999.25         1.3522        -999.25      -154.3232      -70.12109      0.0629154              0
      2747.0000        -999.25        -999.25       153.7825        37.7444        -999.25       35.94244         0.3203         0.3568        -999.25         1.3166        -999.25      -153.7644      -69.56468     0.06260511    0.006218828
      2747.5000        -999.25        -999.25       154.3813        37.3595        -999.25       35.59603          0.319         0.3548        -999.25         1.2906        -999.25      -153.1252      -68.92785     0.05523471     0.01531645
      2748.0000        -999.25        -999.25       154.5923        36.5322        -999.25       34.85146         0.3178         0.3544        -999.25         1.2715        -999.25      -152.4214      -68.22643     0.03939284     0.02533678
      2748.5000        -999.25        -999.25       153.7844        35.6268        -999.25        34.0366         0.3168         0.3541        -999.25         1.2705        -999.25      -152.1121       -67.9195     0.02205536      0.0297214
      2749.0000        -999.25        -999.25       152.0667        34.8178        -999.25        33.3085          0.316         0.3541        -999.25          1.273        -999.25      -152.1379      -67.94767    0.006563877       0.029319
      2749.5000        -999.25        -999.25       150.3945        34.0307        -999.25       32.60011         0.3165          0.356        -999.25         1.2779        -999.25       -152.531      -68.34315              0     0.02366921
      2750.0000        -999.25        -999.25       149.5835        35.3664        -999.25       33.80224         0.3179         0.3578        -999.25         1.2827        -999.25      -152.9224      -68.73692     0.01706898     0.01804406
      2750.5000        -999.25        -999.25       150.7383        37.7178        -999.25        35.9185         0.3195         0.3602        -999.25         1.2837        -999.25       -153.292      -69.10891     0.06209581     0.01272986
      2751.0000        -999.25        -999.25       151.7891        39.1512        -999.25       37.20856         0.3221         0.3637        -999.25         1.2846        -999.25      -153.0439      -68.86317     0.08954385     0.01624037
      2751.5000        -999.25        -999.25       152.4487        40.1898        -999.25        38.1433         0.3248         0.3674        -999.25         1.2742        -999.25      -152.8071      -68.62875       0.109432     0.01958934
      2752.0000        -999.25        -999.25       152.1274        40.0038        -999.25        37.9759         0.3267         0.3702        -999.25         1.2582        -999.25      -152.6462      -68.47021      0.1058703     0.02185407
      2752.5000        -999.25        -999.25        151.335        39.1608        -999.25        37.2172         0.3276         0.3723        -999.25         1.2399        -999.25      -152.4712      -68.29761     0.08972768     0.02431989
      2753.0000        -999.25        -999.25       149.8811        38.4506        -999.25       36.57802         0.3268         0.3729        -999.25         1.2212        -999.25      -152.2629      -68.09167     0.07612813      0.0272619
      2753.5000        -999.25        -999.25       148.1558        38.2217        -999.25       36.37201         0.3241           0.37        -999.25         1.2061        -999.25       -152.075      -67.90614     0.07174488     0.02991224
      2754.0000        -999.25        -999.25       145.5603        38.6064        -999.25       36.71824         0.3212          0.366        -999.25         1.1911        -999.25      -151.9309      -67.76442     0.07911155     0.03193687
      2754.5000        -999.25        -999.25       143.6768          38.54        -999.25       36.65848         0.3172         0.3615        -999.25         1.1826        -999.25      -152.0637       -67.8996     0.07784004     0.03000565
      2755.0000        -999.25        -999.25       142.2205        37.9984        -999.25       36.17104         0.3134         0.3578        -999.25         1.1759        -999.25      -152.3025      -68.14078     0.06746901     0.02656032
      2755.5000        -999.25        -999.25       141.5442        37.7577        -999.25       35.95441         0.3106          0.355        -999.25           1.18        -999.25      -152.3037      -68.14434     0.06285988     0.02650942
      2756.0000        -999.25        -999.25       141.3413        37.9051        -999.25       36.08707         0.3093         0.3528        -999.25         1.1841        -999.25      -152.2986      -68.14162     0.06568243     0.02654822
      2756.5000        -999.25        -999.25       141.4275        38.0546        -999.25       36.22162         0.3079         0.3528        -999.25         1.2004        -999.25      -152.2065       -68.0519     0.06854516     0.02783007
