#------------------------------------------------------------------------------
# Created by    : vladimir.rabinovich
# Created on    : 09/19/2023 17:21:28
#------------------------------------------------------------------------------
~Version Information Section
VERS.           2.0     :   CWLS log ASCII Standard - VERSION 2.0
WRAP.           NO      :   One line per depth step
~Well Information Section
#MNEM       .UNIT                                         VALUE :DESCRIPTION
#------------------------------------------------------------------------------
STRT        .FT                                             999 :START DEPTH
STOP        .FT                                           14605 :STOP DEPTH
STEP        .FT                                             0.5 :STEP      
NULL        .                                           -999.25 :NULL      
COMP        .                                      GETTY OIL CO :COMPANY   
WELL        .                               OCS G03116 ST00BP00 :WELL      
FLD         .                                           WILDCAT :FIELD     
LOC         .                                                   :LOCATION  
CNTY        .                                  HIGH ISLAND EAST :LOCATION  
STAT        .                                             TEXAS :STATE     
CTRY        .                                     UNITED STATES :COUNTRY   
SRVC        .                                                   :SERVICE COMPANY
DATE        .                             9/13/2023 11:19:51 AM :LOG DATE  
API         .                                    42710400090000 :API NUMBER
UWI         .                                    42710400090000 :UNIQUE WELL ID
XCOORD      .                                  1371379.55461592 :SURFACE X 
YCOORD      .                                  10664640.0845049 :SURFACE Y 
LAT         .                                        29.3834483 :LATITUDE  
LON         .                                       -93.8450221 :LONGITUDE 
ELEV        .FT                                              80 :ELEVATION VALUE
ELEV_TYPE   .                                                KB :ELEVATION REFERENCE TYPE
~Curve Information Section
#MNEM       .UNIT                                      API CODE :CURVE DESCRIPTION
#------------------------------------------------------------------------------
DEPT        .FT                                                 :DEPTH     
CALI        .IN                                                 :          
DRHO        .G/C3                                               :          
GR          .GAPI                                               :          
GR_NORM     .GAPI                                               :GammaRay Normalized
NPHI        .%                                                  :          
RHOB        .G/C3                                               :          
VSH_GR      .V/V                                                :Volume of Shale from GR
~A        DEPTH           CALI           DRHO             GR        GR_NORM           NPHI           RHOB         VSH_GR
# ...
     10044.0000        12.4455        -0.0359        43.2368       53.96026        26.6819         2.2647      0.4459629
     10044.5000        12.7433        -0.0249        46.4666       58.81787        22.7111         2.2186      0.5493164
     10045.0000        13.3461        -0.0154        50.0829       64.25679        22.9781         2.1795      0.6650381
     10045.5000        13.9297        -0.0194        56.0968        73.3017        24.3907         2.1906      0.8574829
     10046.0000        14.3736        -0.0187        62.2197       82.51054        31.5269         2.2174              1
     10046.5000        14.6342        -0.0147        65.4991       87.44276        34.9309         2.2363              1
     10047.0000        14.2497         -0.011        67.8868       91.03387        37.3384          2.226              1
     10047.5000         13.824        -0.0143        69.2788       93.12744        40.2547         2.2139              1
     10048.0000        13.8279        -0.0168        69.9352       94.11466        41.3004         2.2211              1
     10048.5000        13.6117        -0.0191        70.2443       94.57954        41.6602         2.2121              1
     10049.0000        13.4082        -0.0203         70.373        94.7731        41.7889         2.2031              1
     10049.5000        13.5713        -0.0182        70.1724       94.47141        42.0797         2.2101              1
     10050.0000        13.7174        -0.0108        69.4027       93.31378        42.5101         2.2161              1
     10050.5000        13.8035        -0.0024        68.9318       92.60555        42.9494          2.213              1
     10051.0000        13.8698        -0.0082         69.965       94.15946        43.1212         2.2245              1
     10051.5000        13.8286        -0.0071        71.2325       96.06578        43.0928         2.2331              1
     10052.0000        13.4814         0.0011         71.243       96.08157        42.8017         2.2312              1
     10052.5000         13.197        -0.0069        71.2133       96.03691        42.1357         2.2346              1
     10053.0000        13.1147        -0.0147        71.7124       96.78756         41.093         2.2416              1
     10053.5000        13.2322        -0.0104        72.1118       97.38825        39.7326         2.2647              1
     10054.0000        13.4516        -0.0025        73.1156       98.89797        38.9636         2.2805              1
     10054.5000        13.3006        -0.0037        73.9403       100.1383         39.743          2.275              1
     10055.0000         12.982        -0.0098        74.4506       100.9058        40.4993         2.2521              1
     10055.5000        12.8168        -0.0163        74.9584       101.6695        40.9655         2.2346              1
     10056.0000        12.7053        -0.0229        75.8352       102.9883        41.0921         2.2229              1
     10056.5000        12.6688        -0.0278        77.2594       105.1302        40.7633         2.2149              1
     10057.0000        12.6802        -0.0219        77.6136        105.663        39.8109         2.2273              1
     10057.5000        12.7066          -0.01        76.5139        104.009        39.8527         2.2543              1
     10058.0000        12.4787        -0.0037        76.0555       103.3196        40.5396         2.2535              1
     10058.5000        12.2608        -0.0057        76.0773       103.3524        41.8478         2.2392              1
     10059.0000        12.1119        -0.0136        76.4204       103.8684        42.6734         2.2312              1
     10059.5000         12.072        -0.0222        76.9027       104.5938        42.9434         2.2362              1
     10060.0000        12.0318        -0.0228        77.3158       105.2151        43.1168         2.2369              1
     10060.5000        11.9982        -0.0205        77.3547       105.2736        43.3137         2.2573              1
     10061.0000        12.0003        -0.0169        76.6909       104.2752        43.5412         2.2665              1
     10061.5000        12.1473        -0.0126        76.2012       103.5387        43.6859         2.2628              1
     10062.0000        12.4386        -0.0096         76.069       103.3399        43.4804         2.2583              1
     10062.5000        12.6301        -0.0088        76.2352       103.5898        42.7994         2.2647              1
     10063.0000        12.7028        -0.0181        76.6582        104.226        42.0999         2.2565              1
     10063.5000        12.7078        -0.0268        76.7584       104.3767        41.4793         2.2399              1
     10064.0000        12.5079        -0.0303        76.2266       103.5769        40.8693         2.2319              1
     10064.5000        12.3361        -0.0222        76.4656       103.9364        40.7809         2.2383              1
     10065.0000        12.4287        -0.0166         76.439       103.8964        41.4689         2.2319              1
     10065.5000        12.4919        -0.0148        75.9485       103.1587        42.9591          2.229              1
     10066.0000        12.6112         -0.008        74.9608       101.6732        43.9705         2.2449              1
     10066.5000        12.7618        -0.0007        74.0134       100.2483        44.5403          2.255              1
     10067.0000         12.732         0.0029        73.6958       99.77058        45.0183         2.2646              1
     10067.5000        12.7446        -0.0106        73.9823       100.2015        45.3659         2.2542              1
     10068.0000        12.7861        -0.0212        73.9764       100.1926        45.0571         2.2507              1
     10068.5000        12.9113        -0.0154        73.5936       99.61688        43.9302         2.2643              1
     10069.0000        12.8468        -0.0096        73.1713       98.98176        42.8338         2.2568              1
     10069.5000        12.7195        -0.0133        72.7867        98.4033        42.2555         2.2512              1
     10070.0000        12.5956        -0.0169        72.5146       97.99407        42.1099         2.2851              1
     10070.5000        12.4772        -0.0157        72.5366       98.02716        41.7598          2.323              1
     10071.0000        12.3304        -0.0081        73.0735       98.83466        41.4653         2.3395              1
     10071.5000        12.2064        -0.0039        74.4209       100.8611        41.9261         2.3272              1
     10072.0000        12.2511        -0.0063        74.7627       101.3752         41.878          2.291              1
     10072.5000        12.3238        -0.0103        71.4585       96.40571        41.0348         2.2823              1
     10073.0000        12.3719        -0.0105        68.3723       91.76405         40.204         2.2955              1
     10073.5000        12.3286        -0.0095        64.9393       86.60082        38.6124         2.3257              1
     10074.0000        12.2944        -0.0072        60.7435       80.29033        36.1749         2.3648              1
     10074.5000        12.4401        -0.0049        56.0968        73.3017        33.7375         2.4023      0.8574829
     10075.0000        12.6761         -0.003        54.0509       70.22466        31.3031         2.4092      0.7920141
     10075.5000        12.6963        -0.0133          52.94       68.55387        28.8658         2.4028      0.7564653
     10076.0000        12.6355        -0.0291        52.4867        67.8721        27.1801         2.3937      0.7419596
     10076.5000        12.5937        -0.0266        52.4446       67.80878        26.2136         2.3954      0.7406124
     10077.0000         12.504        -0.0214        54.0856       70.27685        24.8233         2.4105      0.7931244
