#------------------------------------------------------------------------------
# Created by    : vladimir.rabinovich
# Created on    : 09/19/2023 17:20:47
#------------------------------------------------------------------------------
~Version Information Section
VERS.           2.0     :   CWLS log ASCII Standard - VERSION 2.0
WRAP.           NO      :   One line per depth step
~Well Information Section
#MNEM       .UNIT                                         VALUE :DESCRIPTION
#------------------------------------------------------------------------------
STRT        .FT                                            1960 :START DEPTH
STOP        .FT                                           13420 :STOP DEPTH
STEP        .FT                                             0.5 :STEP      
NULL        .                                           -999.25 :NULL      
COMP        .                                 CALIFORNIA CO THE :COMPANY   
WELL        .                                     ST TR 00002-L :WELL      
FLD         .                                           WILDCAT :FIELD     
LOC         .                                                   :LOCATION  
CNTY        .                                       SABINE PASS :LOCATION  
STAT        .                                             TEXAS :STATE     
CTRY        .                                     UNITED STATES :COUNTRY   
SRVC        .                                                   :SERVICE COMPANY
DATE        .                             9/13/2023 11:12:08 AM :LOG DATE  
API         .                                    42715000310000 :API NUMBER
UWI         .                                    42715000310000 :UNIQUE WELL ID
XCOORD      .                                  1372392.72802961 :SURFACE X 
YCOORD      .                                   10750257.969662 :SURFACE Y 
LAT         .                                         29.618979 :LATITUDE  
LON         .                                       -93.8437903 :LONGITUDE 
ELEV        .FT                                              11 :ELEVATION VALUE
ELEV_TYPE   .                                                KB :ELEVATION REFERENCE TYPE
~Curve Information Section
#MNEM       .UNIT                                      API CODE :CURVE DESCRIPTION
#------------------------------------------------------------------------------
DEPT        .FT                                                 :DEPTH     
ASN         .OHMM                                               :          
IL          .OHMM                                               :          
SP          .MV                                                 :          
SP_NORM     .MV                                                 :SP Normalized
VSH_SP      .V/V                                                :Volume of Shale from SP
~A        DEPTH            ASN             IL             SP        SP_NORM         VSH_SP
# ...
     11816.0000         1.4757         1.0892       -41.0896      -1.219598      0.9825771
     11816.5000         1.4946         1.1039       -41.0581       -1.18936      0.9830092
     11817.0000         1.5134         1.1186       -41.0584      -1.189646       0.983005
     11817.5000         1.5323         1.1333       -41.0588       -1.19003      0.9829996
     11818.0000         1.5391          1.148       -41.0591       -1.19032      0.9829955
     11818.5000          1.544         1.1627       -41.0595      -1.190704        0.98299
     11819.0000         1.5489         1.1774       -41.0628      -1.193872      0.9829447
     11819.5000         1.5582         1.1921       -41.0687      -1.199534      0.9828638
     11820.0000         1.5722         1.2066       -41.0746      -1.205199      0.9827829
     11820.5000          1.588         1.2137       -41.0804      -1.210765      0.9827033
     11821.0000         1.6215         1.2207       -41.0864      -1.216526      0.9826211
     11821.5000          1.655         1.2277       -41.0923      -1.222191      0.9825401
     11822.0000         1.6885         1.2347       -41.1055      -1.234862      0.9823591
     11822.5000         1.7224         1.2417       -41.1555      -1.282861      0.9816734
     11823.0000         1.7563         1.2511       -41.2056       -1.33096      0.9809863
     11823.5000         1.7717         1.2674       -41.2556      -1.378959      0.9803006
     11824.0000         1.7417         1.2837       -41.3055      -1.426863      0.9796162
     11824.5000         1.7186            1.3       -41.3479      -1.467567      0.9790348
     11825.0000         1.6955         1.3395       -41.3587      -1.477934      0.9788867
     11825.5000         1.6724         1.3822       -41.3694      -1.488207      0.9787399
     11826.0000         1.6711         1.4249       -41.3802      -1.498574      0.9785918
     11826.5000          1.671         1.4908       -41.3372      -1.457295      0.9791815
     11827.0000         1.6798         1.6116       -41.2821        -1.4044      0.9799371
     11827.5000         1.7043         1.7408       -41.2271      -1.351599      0.9806914
     11828.0000         1.8311         1.9499       -41.2467      -1.370415      0.9804226
     11828.5000         2.2849          2.159       -41.3093       -1.43051      0.9795641
     11829.0000         2.5425         2.4336       -41.3716       -1.49032      0.9787097
     11829.5000         2.9351         2.8667       -41.4342      -1.550415      0.9778512
     11830.0000         3.5341         3.1553       -41.4555      -1.570864      0.9775591
     11830.5000         3.6279         2.3873       -41.4558       -1.57115       0.977555
     11831.0000         3.2871          2.092       -41.4562      -1.571534      0.9775495
     11831.5000         2.9924         1.7889       -41.4565      -1.571824      0.9775454
     11832.0000         2.2037         1.5477       -41.3916       -1.50952      0.9784354
     11832.5000         1.6747          1.427        -41.297      -1.418704      0.9797328
     11833.0000         1.5767         1.3185       -41.2025      -1.327982      0.9810289
     11833.5000         1.5326         1.2297       -41.1079      -1.237165      0.9823262
     11834.0000         1.5141         1.2059       -41.0134      -1.146448      0.9836222
     11834.5000         1.4957         1.1974       -40.9338      -1.070031      0.9847139
     11835.0000         1.4772         1.1888       -40.9697      -1.104495      0.9842215
     11835.5000          1.464         1.1869       -41.0055      -1.138864      0.9837305
     11836.0000         1.4555         1.1936       -41.0415      -1.173423      0.9832368
     11836.5000         1.4469         1.2004       -41.0784      -1.208846      0.9827307
     11837.0000         1.4384         1.2072       -41.1152      -1.244175      0.9822261
     11837.5000         1.4339          1.214       -41.1521      -1.279598        0.98172
     11838.0000         1.4325         1.2207        -41.189      -1.315022       0.981214
     11838.5000          1.431         1.2275       -41.2259      -1.350446      0.9807079
     11839.0000         1.4296         1.2343       -41.2628      -1.385869      0.9802018
     11839.5000         1.4282         1.2391       -41.2717      -1.394417      0.9800798
     11840.0000         1.4268         1.2421       -41.2345      -1.358704      0.9805899
     11840.5000         1.4277          1.245       -41.1972      -1.322896      0.9811015
     11841.0000         1.4319         1.2479         -41.16      -1.287183      0.9816117
     11841.5000         1.4361         1.2508       -41.1227      -1.251375      0.9821232
     11842.0000         1.4403         1.2538       -41.0854      -1.215566      0.9826348
     11842.5000         1.4445         1.2567       -41.0481      -1.179758      0.9831463
     11843.0000         1.4487         1.2596       -41.0038       -1.13723      0.9837539
     11843.5000         1.4529         1.2625       -40.9579      -1.093168      0.9843833
     11844.0000         1.4562         1.2574        -40.912      -1.049102      0.9850128
     11844.5000         1.4594         1.2497       -40.8661      -1.005039      0.9856423
     11845.0000         1.4625         1.2419       -40.8403     -0.9802723      0.9859961
     11845.5000         1.4657         1.2341        -40.878      -1.016461      0.9854791
     11846.0000         1.4625         1.2263       -40.9158      -1.052749      0.9849607
     11846.5000         1.4525         1.2185       -40.9534      -1.088846       0.984445
     11847.0000         1.4425         1.2108       -41.0108       -1.14395      0.9836578
     11847.5000         1.4322          1.203       -41.0907      -1.220653      0.9825621
     11848.0000         1.4198         1.1952       -41.1705      -1.297264      0.9814677
     11848.5000         1.4074         1.1848       -41.2506      -1.374158      0.9803692
     11849.0000         1.3949         1.1707       -41.3305      -1.450864      0.9792734
     11849.5000         1.3825         1.1566       -41.4103      -1.527472       0.978179
     11850.0000         1.3736         1.1425       -41.3622      -1.481296      0.9788386
     11850.5000         1.3709         1.1284       -41.2599      -1.383086      0.9802417
     11851.0000         1.3683         1.1143       -41.1578       -1.28507      0.9816419
     11851.5000         1.3657         1.1001       -41.0555      -1.186863      0.9830448
     11852.0000         1.3631          1.086       -41.0323       -1.16459       0.983363
     11852.5000         1.3676         1.0719       -41.0157      -1.148656      0.9835906
     11853.0000         1.3723         1.0578       -40.9992      -1.132814      0.9838169
     11853.5000         1.3769         1.0478       -40.9827      -1.116975      0.9840432
     11854.0000         1.3886         1.0475       -40.9845      -1.118704      0.9840185
     11854.5000         1.4002         1.0472       -40.9926      -1.126478      0.9839075
     11855.0000          1.406         1.0469       -41.0007      -1.134257      0.9837964
     11855.5000         1.4081         1.0467       -41.0087      -1.141936      0.9836866
     11856.0000         1.4101         1.0464       -41.0082      -1.141456      0.9836935
     11856.5000         1.4122         1.0461       -40.9669      -1.101807      0.9842599
     11857.0000         1.4145         1.0458       -40.9255      -1.062062      0.9848277
     11857.5000         1.4169         1.0455       -40.8842      -1.022416      0.9853941
     11858.0000         1.4194         1.0453       -40.9814      -1.115726      0.9840611
     11858.5000         1.4219         1.0439       -41.1148       -1.24379      0.9822316
     11859.0000         1.4243         1.0405       -41.2484      -1.372048      0.9803993
     11859.5000         1.4265         1.0372       -41.3145      -1.435502      0.9794928
