#------------------------------------------------------------------------------
# Created by    : vladimir.rabinovich
# Created on    : 09/19/2023 17:20:21
#------------------------------------------------------------------------------
~Version Information Section
VERS.           2.0     :   CWLS log ASCII Standard - VERSION 2.0
WRAP.           NO      :   One line per depth step
~Well Information Section
#MNEM       .UNIT                                         VALUE :DESCRIPTION
#------------------------------------------------------------------------------
STRT        .FT                                            1439 :START DEPTH
STOP        .FT                                           13833 :STOP DEPTH
STEP        .FT                                             0.5 :STEP      
NULL        .                                           -999.25 :NULL      
COMP        .                                        EXXON CORP :COMPANY   
WELL        .                               OCS G04992 ST00BP00 :WELL      
FLD         .                                           WILDCAT :FIELD     
LOC         .                                                   :LOCATION  
CNTY        .                               MUSTANG ISLAND EAST :LOCATION  
STAT        .                                             TEXAS :STATE     
CTRY        .                                     UNITED STATES :COUNTRY   
SRVC        .                                                   :SERVICE COMPANY
DATE        .                             9/13/2023 11:20:08 AM :LOG DATE  
API         .                                    42712400640000 :API NUMBER
UWI         .                                    42712400640000 :UNIQUE WELL ID
XCOORD      .                                  530427.861923906 :SURFACE X 
YCOORD      .                                  9963308.63528926 :SURFACE Y 
LAT         .                                        27.4144168 :LATITUDE  
LON         .                                       -96.4214066 :LONGITUDE 
ELEV        .FT                                              73 :ELEVATION VALUE
ELEV_TYPE   .                                                KB :ELEVATION REFERENCE TYPE
~Curve Information Section
#MNEM       .UNIT                                      API CODE :CURVE DESCRIPTION
#------------------------------------------------------------------------------
DEPT        .FT                                                 :DEPTH     
ASFL        .OHMM                                               :          
CILD        .MMHO                                               :          
DT          .US/F                                               :          
GR          .GAPI                                               :          
GR_NORM     .GAPI                                               :GammaRay Normalized
ILD         .OHMM                                               :          
SP          .MV                                                 :          
SP_NORM     .MV                                                 :SP Normalized
VSH_GR      .V/V                                                :Volume of Shale from GR
VSH_SP      .V/V                                                :Volume of Shale from SP
~A        DEPTH           ASFL           CILD             DT             GR        GR_NORM            ILD             SP        SP_NORM         VSH_GR         VSH_SP
      1439.0000         0.9666       1632.746       206.0061        49.1107       80.86621         0.6232       -104.519       1.810112              1              1
      1439.5000         0.9727       1702.336       206.7397        49.5101       81.36547         0.6366      -105.5045      0.8246078              1              1
      1440.0000          0.978       1809.414       207.4353        49.4438       81.28259           0.65      -106.1279        0.20121              1              1
      1440.5000         0.9707       1769.068       205.4875        47.9498       79.41509         0.6635      -106.6472     -0.3180923      0.9875551      0.9936382
      1441.0000         0.9626       1517.951        197.865        45.7993       76.72697         0.6775      -107.0178     -0.6886902      0.9303612      0.9862262
      1441.5000         0.9478       1454.854        194.345        44.0541       74.54546         0.6927      -107.3567      -1.027588      0.8839459      0.9794483
      1442.0000         0.9241       1420.109       186.3306        43.4332       73.76934         0.7078       -107.656      -1.326889      0.8674328      0.9734622
      1442.5000          0.907         1385.6        184.696        42.8124       72.99333          0.723      -107.8354      -1.506294      0.8509219      0.9698741
      1443.0000         0.8934       1362.773       179.3933        42.1917       72.21747          0.737      -107.8065      -1.477394      0.8344142      0.9704521
      1443.5000         0.8831       1339.668       165.9377        42.9819       73.20522         0.7497       -107.764      -1.434891      0.8554301      0.9713022
      1444.0000         0.8761       1316.176       145.1516        44.7225       75.38097         0.7625      -107.7214      -1.392288      0.9017227      0.9721543
      1444.5000         0.8691       1292.039       153.5459        45.9801       76.95296         0.7753      -107.7418      -1.412689      0.9351695      0.9717462
      1445.0000         0.8641       1267.541       164.8311         46.808       77.98784         0.7881      -107.8101      -1.480988      0.9571881      0.9703802
      1445.5000         0.8603       1242.789       169.3381        47.6514       79.04209          0.794      -107.8783      -1.549194       0.979619      0.9690161
      1446.0000          0.859       1222.777       171.2412        48.2001       79.72797         0.7955      -107.9465      -1.617393       0.994212      0.9676521
      1446.5000          0.859       1210.559       172.0103        47.6562       79.04809         0.7971      -108.0857      -1.756592      0.9797466      0.9648682
      1447.0000          0.861       1206.781       172.3254         47.155       78.42159         0.7986      -108.2382      -1.909088      0.9664169      0.9618182
      1447.5000         0.8641       1204.744       172.2759        46.6895       77.83972         0.7985      -108.1741      -1.844994      0.9540367      0.9631001
      1448.0000         0.8696       1203.602       172.4954         46.563       77.68159         0.7961      -108.0167      -1.687592      0.9506721      0.9662482
      1448.5000         0.8765       1203.748       173.2253        46.6184       77.75084         0.7936      -107.8284       -1.49929      0.9521455      0.9700142
      1449.0000         0.8834       1207.506       175.5466        46.8018       77.98009         0.7911      -107.6082      -1.279091      0.9570231      0.9744182
      1449.5000         0.8868       1229.844        177.874        47.0494       78.28958         0.7841      -107.3881       -1.05899      0.9636081      0.9788202
      1450.0000          0.852       1267.535       180.0901        47.2969       78.59897         0.7743      -107.0768     -0.7476883      0.9701908      0.9850462
      1450.5000         0.8296       1286.662       179.8101        48.3959       79.97272         0.7644      -107.0652     -0.7360916      0.9994195      0.9852782
      1451.0000         0.8202       1304.369       181.1433        49.6411       81.52922         0.7546      -107.9912      -1.662094              1      0.9667581
      1451.5000         0.8136       1321.824        182.374        48.7832       80.45684         0.7447      -108.1743      -1.845192              1      0.9630961
      1452.0000         0.8095        1337.16       184.0872        47.0708       78.31635         0.7349      -108.4084      -2.079292      0.9641775      0.9584141
      1452.5000         0.8053       1350.564       193.1086        45.9344       76.89584         0.7256      -108.6749      -2.345787      0.9339539      0.9530842
      1453.0000         0.8169       1358.863       208.1672        45.1456       75.90984         0.7179      -109.7828       -3.45369      0.9129754      0.9309262
      1453.5000         0.8285       1364.941       233.8765        45.3987       76.22621         0.7101      -111.4236       -5.09449      0.9197066      0.8981102
      1454.0000         0.8401       1370.508       242.7278        47.2058       78.48509         0.7023      -112.9626      -6.633492      0.9677679      0.8673302
      1454.5000         0.8762       1365.805       247.9309        48.0807       79.57871         0.7019       -115.031      -8.701889      0.9910364      0.8259622
      1455.0000         0.9046       1348.342        252.657        48.5541       80.17046         0.7082      -115.8204      -9.491287              1      0.8101742
      1455.5000         0.9216       1302.143       254.0667        47.6213       79.00446         0.7145      -116.4766      -10.14749      0.9788182      0.7970502
      1456.0000         0.9384       1269.436       246.3071        46.6971       77.84921         0.7207      -117.1761      -10.84699      0.9542386      0.7830601
      1456.5000         0.9552       1251.604       238.0491        45.9626       76.93109          0.727      -117.3071      -10.97799      0.9347041      0.7804402
      1457.0000         0.9655       1236.309       240.4829        45.2952       76.09684         0.7328      -117.1699      -10.84079       0.916954      0.7831842
      1457.5000          0.974       1228.609       241.9541        44.8972       75.59935         0.7384      -116.9966      -10.66749      0.9063691      0.7866502
      1458.0000         0.9802       1233.633       225.9702        44.8242       75.50809          0.744      -116.8234      -10.49429      0.9044274      0.7901142
      1458.5000         0.9757       1243.326       174.1707        45.0936       75.84484         0.7496      -116.7119      -10.38279      0.9115924      0.7923442
      1459.0000         0.9713       1260.006       173.9004        45.3629       76.18147         0.7553      -116.6005      -10.27139      0.9187548      0.7945721
      1459.5000         0.9669       1272.646       179.7234        45.6323       76.51821         0.7609      -116.3667      -10.03759      0.9259194      0.7992482
      1460.0000         0.9555       1274.834       180.3906        45.5753       76.44696         0.7629      -116.0524      -9.723289      0.9244034      0.8055342
      1460.5000         0.9425       1277.023       177.4773        45.0927       75.84372         0.7631      -115.7328      -9.403694      0.9115685      0.8119261
      1461.0000         0.9248       1274.896       177.4998        44.6101       75.24046         0.7632      -115.4039      -9.074791      0.8987333      0.8185042
      1461.5000         0.9218       1272.279       180.7744        44.1135       74.61971         0.7633      -115.4756      -9.146492      0.8855258      0.8170702
      1462.0000         0.9282        1269.66       201.7974        43.2397       73.52747         0.7635      -115.5735      -9.244392      0.8622865      0.8151122
      1462.5000          0.939       1267.635       232.4153        42.3657       72.43496         0.7636       -115.809      -9.479889      0.8390417      0.8104022
      1463.0000         0.9484       1266.227       235.0635        41.5081       71.36296         0.7638       -116.255      -9.925888      0.8162332      0.8014823
