#------------------------------------------------------------------------------
# Created by    : vladimir.rabinovich
# Created on    : 09/19/2023 17:21:39
#------------------------------------------------------------------------------
~Version Information Section
VERS.           2.0     :   CWLS log ASCII Standard - VERSION 2.0
WRAP.           NO      :   One line per depth step
~Well Information Section
#MNEM       .UNIT                                         VALUE :DESCRIPTION
#------------------------------------------------------------------------------
STRT        .FT                                            3004 :START DEPTH
STOP        .FT                                           10487 :STOP DEPTH
STEP        .FT                                             0.5 :STEP      
NULL        .                                           -999.25 :NULL      
COMP        .                                    TENNECO OIL CO :COMPANY   
WELL        .                               OCS G04082 ST00BP00 :WELL      
FLD         .                            SABINE PASS BLOCK 0017 :FIELD     
LOC         .                                                   :LOCATION  
CNTY        .                                       SABINE PASS :LOCATION  
STAT        .                                             TEXAS :STATE     
CTRY        .                                     UNITED STATES :COUNTRY   
SRVC        .                                                   :SERVICE COMPANY
DATE        .                             9/13/2023 11:20:07 AM :LOG DATE  
API         .                                    42715400130000 :API NUMBER
UWI         .                                    42715400130000 :UNIQUE WELL ID
XCOORD      .                                  1369313.82013612 :SURFACE X 
YCOORD      .                                  10714127.2468036 :SURFACE Y 
LAT         .                                        29.5195329 :LATITUDE  
LON         .                                       -93.8526471 :LONGITUDE 
ELEV        .FT                                             111 :ELEVATION VALUE
ELEV_TYPE   .                                                KB :ELEVATION REFERENCE TYPE
~Curve Information Section
#MNEM       .UNIT                                      API CODE :CURVE DESCRIPTION
#------------------------------------------------------------------------------
DEPT        .FT                                                 :DEPTH     
CALI        .IN                                                 :          
DPHI        .%                                                  :          
DRHO        .G/C3                                               :          
GR          .GAPI                                               :          
GR_NORM     .GAPI                                               :GammaRay Normalized
ILD         .OHMM                                               :          
ILM         .OHMM                                               :          
NPHI        .%                                                  :          
SFL         .OHMM                                               :          
SP          .MV                                                 :          
SP_NORM     .MV                                                 :SP Normalized
VSH_GR      .V/V                                                :Volume of Shale from GR
VSH_SP      .V/V                                                :Volume of Shale from SP
~A        DEPTH           CALI           DPHI           DRHO             GR        GR_NORM            ILD            ILM           NPHI            SFL             SP        SP_NORM         VSH_GR         VSH_SP
# ...
      5493.0000        15.9535        30.1567         0.0276        39.8401       49.72144         0.3483          0.349        46.3527         0.4074       -76.0587      -44.42234      0.3557752      0.3653951
      5493.5000        15.7723         32.647         0.0179        32.0917       41.47822         0.2977         0.2874        47.9692         0.3698        -78.848      -49.09501      0.1803876      0.2986427
      5494.0000        16.0809        33.6705         0.0044        28.6699       37.83775         0.2466         0.2664         47.809         0.3252       -80.6299      -52.08007      0.1029308      0.2559989
      5494.5000        16.4646        33.1294        -0.0001        27.7227       36.82985          0.219         0.2463         45.839         0.2708       -81.8135      -54.06286     0.08148615      0.2276735
      5495.0000        16.6078         31.347        -0.0031        29.1091        38.3045         0.2042         0.2273         44.811          0.211       -82.2549       -54.8023      0.1128616        0.21711
      5495.5000        16.8785        28.0247        -0.0078        29.2376       38.44096         0.2042         0.2267        45.0555         0.1914        -82.049      -54.45738      0.1157651      0.2220374
      5496.0000        17.1099        21.7647        -0.0088        27.7874       36.89795         0.2082         0.2303        41.7823         0.2394       -81.9607      -54.30945     0.08293501      0.2241507
      5496.5000        16.9019        14.0194         0.0103        25.4802       34.44323         0.2164         0.2359        32.7235         0.4009       -81.9607      -54.30945     0.03070701      0.2241507
      5497.0000        16.2461         13.627         0.0286        24.5841       33.48969         0.2381         0.2451         23.256         0.7203       -81.9607      -54.30945     0.01041883      0.2241507
      5497.5000        15.9322        17.2897          0.039        26.8218       35.86998         0.2675         0.2734        19.3676         0.9476       -81.7303      -53.92348     0.06106332      0.2296645
      5498.0000         16.343        20.5309         0.0353             30       39.25079         0.3062         0.3094        22.2353         0.8392       -81.2532      -53.12423      0.1329956      0.2410824
      5498.5000        17.6912        23.3647         0.0227        33.6622        43.1465         0.3629          0.343        26.6027         0.3743       -80.7843      -52.33873       0.215883      0.2523039
      5499.0000        18.4785        23.8117         0.0129        36.6964       46.37413         0.4165         0.3811        29.7337         0.3754       -80.5293      -51.91154       0.284556      0.2584065
      5499.5000        18.4235        24.1188         0.0035        37.0148       46.71261         0.4757         0.4208        32.4567          0.418       -80.4901      -51.84588      0.2917577      0.2593446
      5500.0000        17.4142        24.4278        -0.0002        35.7033       45.31715         0.5263         0.4583        33.8356         0.4712       -80.9202      -52.56639      0.2620671      0.2490516
      5500.5000        16.4755        24.7366        -0.0015        34.6078       44.15147         0.5472         0.4732        34.7502         0.5275       -81.4351      -53.42895      0.2372654      0.2367293
      5501.0000        16.1176        25.0454         0.0004        35.1374       44.71464         0.5465         0.4564        35.5781         0.5338        -81.634      -53.76216      0.2492476      0.2319691
      5501.5000        16.3078        25.2415         0.0042        35.7941       45.41301         0.5226         0.4291        35.6152          0.505        -82.017      -54.40376      0.2641067      0.2228034
      5502.0000        16.5002        26.0792         0.0074        35.3536       44.94415         0.4678         0.3962        34.8817         0.4651       -82.9243      -55.92369      0.2541308      0.2010902
      5502.5000        16.9685        27.3033         0.0128        33.6964       43.18093         0.4194         0.3528        32.1824         0.4154        -84.359      -58.32712      0.2166155      0.1667555
      5503.0000        17.7175        29.5798         0.0182         29.802        39.0377         0.3611         0.3197        29.6436         0.3646       -85.9996      -61.07548      0.1284617      0.1274932
      5503.5000        17.9019        31.9687         0.0296        28.1482        37.2781         0.3111         0.2885        31.1577         0.3065       -87.0098      -62.76778      0.0910233      0.1033174
      5504.0000        17.6234        33.5358         0.0228        26.8905       35.93987         0.2706          0.253        36.2941         0.2678       -87.3726      -63.37553      0.0625504     0.09463523
      5504.5000        17.2049         34.332         0.0066        26.1386       35.13973          0.235         0.2298         40.376         0.2609       -87.8529      -64.18014     0.04552622     0.08314089
      5505.0000        17.2803        33.6578        -0.0021         26.099       35.09735         0.2147         0.2144        42.2603         0.2632        -88.627      -65.47693     0.04462449      0.0646153
      5505.5000        17.3882        32.4004        -0.0091         25.396       34.34924         0.2016         0.2062        41.2473         0.2673       -89.3822      -66.74205     0.02870722     0.04654214
      5506.0000        17.5098        31.4557         -0.011        24.8316       33.74857         0.1913         0.2025        40.0589         0.2753       -89.8038      -67.44832     0.01592701     0.03645259
      5506.5000        17.6137        30.8385        -0.0118        25.1684       34.10662         0.1854          0.201        39.7647          0.284       -90.0098      -67.79342      0.0235452     0.03152259
      5507.0000        17.6862        30.9394        -0.0141        26.0789       35.07499         0.1869         0.2001        39.1055         0.2937        -90.196      -68.10534     0.04414871     0.02706658
      5507.5000        17.5637        31.1801        -0.0163        27.2277       36.29687         0.1964            0.2        38.1999         0.2974        -90.196      -68.10534      0.0701462     0.02706658
      5508.0000         17.312        30.8811        -0.0135        27.1287       36.19131         0.2097         0.2061        37.8705         0.2821       -89.9788      -67.74148     0.06790023      0.0322646
      5508.5000         17.049        30.2573        -0.0071        28.9734       38.15351          0.224         0.2112        37.9352         0.2705       -89.4459      -66.84876      0.1096493     0.04501768
      5509.0000        17.1147        29.0973        -0.0042        31.7455       41.10231         0.2397         0.2196        37.0588          0.264       -88.7452      -65.67494      0.1723896     0.06178654
      5509.5000         17.295        27.3861         0.0015        34.7794       44.32961         0.2492         0.2299        35.1354         0.2857       -87.8036      -64.09755      0.2410556     0.08432072
      5510.0000        17.6628        26.1631         0.0109        34.5479        44.0831          0.253         0.2421        33.0063         0.3326       -86.6666      -62.19284      0.2358105      0.1115308
      5510.5000        17.8279        26.8036         0.0208        34.1961        43.7086         0.2549          0.249        32.1978         0.3674       -85.6863      -60.55063      0.2278425       0.134991
      5511.0000        17.1355        29.3342         0.0171        33.9411       43.43708         0.2585          0.239        35.4131         0.3712       -85.2941       -59.8936      0.2220655      0.1443771
      5511.5000        16.2992        31.7018              0        34.7254       44.27118         0.2629         0.2308        39.1253         0.3232        -85.196      -59.72927      0.2398124      0.1467248
