#------------------------------------------------------------------------------
# Created by    : vladimir.rabinovich
# Created on    : 09/19/2023 17:21:48
#------------------------------------------------------------------------------
~Version Information Section
VERS.           2.0     :   CWLS log ASCII Standard - VERSION 2.0
WRAP.           NO      :   One line per depth step
~Well Information Section
#MNEM       .UNIT                                         VALUE :DESCRIPTION
#------------------------------------------------------------------------------
STRT        .FT                                            1142 :START DEPTH
STOP        .FT                                            9163 :STOP DEPTH
STEP        .FT                                             0.5 :STEP      
NULL        .                                           -999.25 :NULL      
COMP        .                                    ORYX ENERGY CO :COMPANY   
WELL        .                               OCS G06199 ST00BP00 :WELL      
FLD         .                            HIGH ISLAND BLOCK 0129 :FIELD     
LOC         .                                                   :LOCATION  
CNTY        .                                  HIGH ISLAND EAST :LOCATION  
STAT        .                                             TEXAS :STATE     
CTRY        .                                     UNITED STATES :COUNTRY   
SRVC        .                                                   :SERVICE COMPANY
DATE        .                             9/13/2023 11:20:11 AM :LOG DATE  
API         .                                    42710400360000 :API NUMBER
UWI         .                                    42710400360000 :UNIQUE WELL ID
XCOORD      .                                  1376484.19293712 :SURFACE X 
YCOORD      .                                  10620179.8267869 :SURFACE Y 
LAT         .                                        29.2612476 :LATITUDE  
LON         .                                        -93.828002 :LONGITUDE 
ELEV        .FT                                              93 :ELEVATION VALUE
ELEV_TYPE   .                                                KB :ELEVATION REFERENCE TYPE
~Curve Information Section
#MNEM       .UNIT                                      API CODE :CURVE DESCRIPTION
#------------------------------------------------------------------------------
DEPT        .FT                                                 :DEPTH     
CALI        .IN                                                 :          
DRHO        .G/C3                                               :          
DT          .US/F                                               :          
GR          .GAPI                                               :          
GR_1        .GAPI                                               :          
GR_NORM     .GAPI                                               :GammaRay Normalized
ILD         .OHMM                                               :          
ILM         .OHMM                                               :          
NPHI        .%                                                  :          
RFOC        .OHMM                                               :          
RHOB        .G/C3                                               :          
SP          .MV                                                 :          
SP_NORM     .MV                                                 :SP Normalized
VSH_GR      .V/V                                                :Volume of Shale from GR
VSH_SP      .V/V                                                :Volume of Shale from SP
~A        DEPTH           CALI           DRHO             DT             GR           GR_1        GR_NORM            ILD            ILM           NPHI           RFOC           RHOB             SP        SP_NORM         VSH_GR         VSH_SP
# ...
      4338.0000        13.0988         0.0098        119.588         81.198        90.1385       73.57546         1.3026         1.1567        39.9523         1.1809         2.2245        -66.325      -7.065739      0.8633077      0.8990609
      4338.5000        13.0066         0.0028       118.8123         84.311        89.8733        76.8868         1.2709         1.1335        43.1984         1.1701         2.2291       -66.6569       -7.39764      0.9337616      0.8943194
      4339.0000        12.8999         0.0211       118.1619         88.587        89.0332       81.43536           1.24         1.1096        42.7819         1.1508         2.2293       -66.7067      -7.447445              1      0.8936079
      4339.5000        12.7994         0.0483       117.5115        89.0685        89.3505       81.94723         1.2026         1.0688        41.2187         1.1228         2.2241       -66.7025      -7.443241              1       0.893668
      4340.0000        12.6989          0.077       117.7469        89.3503        91.7023       82.24664         1.1558         1.0286        39.2709         1.0903          2.216       -66.6221      -7.362843              1      0.8948165
      4340.5000        12.6172         0.0826       118.7766        90.4082        93.9987        83.3717         1.1108         0.9836        38.2169         1.0604         2.2054       -66.2565      -6.997242              1      0.9000394
      4341.0000        12.5735         0.0645       119.9938        92.9843        96.2789       86.11185          1.064         0.9434        38.4249          1.033          2.195       -65.8909      -6.631641              1      0.9052623
      4341.5000        12.5662         0.0472       121.5331        95.1643        98.7517       88.43063         1.0181         0.9078        38.6405         1.0113         2.1867       -65.5255      -6.266239              1      0.9104823
      4342.0000        12.5781         0.0424       123.2198        97.0499       100.9592       90.43622         0.9816         0.8893         39.363         0.9942         2.1863       -65.1836      -5.924343              1      0.9153665
      4342.5000        12.5906         0.0435       124.6042        98.7412        97.6886       92.23511         0.9507         0.8743        42.6958         0.9798         2.1891       -64.8492      -5.589939              1      0.9201437
      4343.0000        12.6146         0.0418       126.4854        99.0295        94.5906       92.54144         0.9435         0.8806        46.9105         0.9781         2.1883        -64.515      -5.255741              1       0.924918
      4343.5000        12.6404         0.0328       128.2029        96.4115        92.9196       89.75596         0.9476         0.8966        48.4381           0.98         2.1808       -64.5804       -5.32114              1      0.9239837
      4344.0000        12.6626         0.0256       129.8994        91.2249        95.0802       84.23792         0.9554         0.9148        49.6317         0.9932         2.1741       -64.8152      -5.555943              1      0.9206294
      4344.5000        12.6789         0.0436       129.9885        86.4391        97.2939       79.14628          0.994         0.9388        48.5005          1.009          2.172       -65.1144      -5.855145      0.9818357      0.9163551
      4345.0000         12.695         0.0738       129.2319        90.2474        97.1089       83.19728         1.0467         0.9635        46.4266          1.036         2.1759       -65.4886      -6.229343              1      0.9110094
      4345.5000          12.71         0.0812       127.7947         90.897        93.4609       83.88798         1.0701         0.9909        44.5649         1.0566         2.1787       -65.8628      -6.603542              1      0.9056637
      4346.0000        12.7249         0.0727       126.0697        89.1313        89.7635       82.00921         1.0743         1.0255        42.7032         1.0625         2.1814        -65.464      -6.204739              1      0.9113609
      4346.5000        12.7238          0.062       123.8629        87.6337        86.7322       80.41564         1.0603         1.0301         41.474         1.0668          2.187       -65.0272      -5.767941              1      0.9176009
      4347.0000        12.7174         0.0466       121.3585        86.4626        86.5398       79.16942          1.039         1.0047        40.6315         1.1007         2.1932       -64.5903      -5.331043      0.9823281      0.9238423
      4347.5000         12.704         0.0311       118.7766        84.9866        89.7142       77.59883         1.0128         0.9644        41.1162          1.143         2.1963       -64.0376      -4.778339      0.9489113       0.931738
      4348.0000        12.6809          0.013       118.4723        83.5526         92.938       76.07292         0.9804         0.9293        43.0507         1.1148         2.1982       -63.4761      -4.216843      0.9164451      0.9397594
      4348.5000        12.6749         0.0274       120.2372        86.9637        94.7065       79.70139         0.9412         0.8986        44.2479         1.0441         2.1945       -62.9143      -3.655041      0.9936467      0.9477851
      4349.0000        12.6805         0.0407       123.1682        90.4725        93.1008       83.43378         0.9162         0.8696        42.7523         0.9863          2.189       -62.6296      -3.370342              1      0.9518523
      4349.5000        12.6984         0.0336       125.8115        93.1934        90.3605       86.32798         0.8975         0.8427        40.3398          0.944         2.1869       -62.5969      -3.337643              1      0.9523194
      4350.0000        12.7162         0.0272       128.4548        92.5809        86.6927       85.67602         0.9026         0.8416        37.5919         0.9092         2.1849       -62.7756      -3.516342              1      0.9497665
      4350.5000        12.7266         0.0368       130.7009        89.7426        83.0226       82.65618         0.9189         0.8532        35.8253         0.8983         2.1754       -63.3732      -4.113941              1      0.9412294
      4351.0000        12.7367         0.0476       132.5969        89.0079        78.2942       81.87421         0.9497          0.886        34.7029         0.9371         2.1738       -64.4403      -5.181042              1      0.9259851
      4351.5000        12.7423         0.0555       134.3352        88.9601        71.9712       81.82299          0.986         0.9281        33.7498          1.007         2.1885       -65.5083      -6.249043              1       0.910728
      4352.0000        12.7408         0.0429       134.1177        88.6538        74.5056       81.49677         1.0291         0.9809        33.1623         1.0826         2.2047       -66.6099      -7.350643              1      0.8949908
      4352.5000        12.6976         0.0297       131.8027        85.9664        80.7361       78.63746         1.0721         1.0253        33.6596         1.1678          2.219       -67.7113      -8.452045      0.9710098      0.8792565
      4353.0000        12.6254         0.0399       129.6536        83.2723        85.9552       75.77103          1.115         1.0669        34.3124         1.2059         2.2248         -67.84      -8.580738      0.9100218       0.877418
      4353.5000        12.5382         0.0535       127.8795        82.3845        89.2493       74.82618         1.1461         1.0984        35.3101         1.1327         2.2207       -67.3494      -8.090145      0.8899187      0.8844265
      4354.0000        12.4705         0.0611       126.5566         82.285        87.9753       74.71996         1.1717         1.1039        36.8941         1.0415         2.2153       -66.2034      -6.944141      0.8876588       0.900798
      4354.5000        12.4194          0.051       125.7052        85.7462        86.4794       78.40172          1.183         1.0963        40.0793         1.0083         2.2114       -65.0574      -5.798145       0.965994      0.9171693
