#------------------------------------------------------------------------------
# Created by    : vladimir.rabinovich
# Created on    : 09/19/2023 17:22:52
#------------------------------------------------------------------------------
~Version Information Section
VERS.           2.0     :   CWLS log ASCII Standard - VERSION 2.0
WRAP.           NO      :   One line per depth step
~Well Information Section
#MNEM       .UNIT                                         VALUE :DESCRIPTION
#------------------------------------------------------------------------------
STRT        .FT                                            2993 :START DEPTH
STOP        .FT                                           15023 :STOP DEPTH
STEP        .FT                                             0.5 :STEP      
NULL        .                                           -999.25 :NULL      
COMP        .                                        TEXACO INC :COMPANY   
WELL        .                                     ST TR 00018-L :WELL      
FLD         .                                           WILDCAT :FIELD     
LOC         .                                                   :LOCATION  
CNTY        .                                       SABINE PASS :LOCATION  
STAT        .                                             TEXAS :STATE     
CTRY        .                                     UNITED STATES :COUNTRY   
SRVC        .                                                   :SERVICE COMPANY
DATE        .                             9/13/2023 11:20:07 AM :LOG DATE  
API         .                                    42715000300000 :API NUMBER
UWI         .                                    42715000300000 :UNIQUE WELL ID
XCOORD      .                                  1367853.58567514 :SURFACE X 
YCOORD      .                                  10716828.2466652 :SURFACE Y 
LAT         .                                         29.526933 :LATITUDE  
LON         .                                       -93.8573019 :LONGITUDE 
ELEV        .FT                                              75 :ELEVATION VALUE
ELEV_TYPE   .                                                KB :ELEVATION REFERENCE TYPE
~Curve Information Section
#MNEM       .UNIT                                      API CODE :CURVE DESCRIPTION
#------------------------------------------------------------------------------
DEPT        .FT                                                 :DEPTH     
ILD         .OHMM                                               :          
SFLA        .OHMM                                               :          
SP          .MV                                                 :          
SP_NORM     .MV                                                 :SP Normalized
VSH_SP      .V/V                                                :Volume of Shale from SP
~A        DEPTH            ILD           SFLA             SP        SP_NORM         VSH_SP
# ...
      7789.0000         0.9319         0.8943       -15.5586      -7.073751      0.9179223
      7789.5000         0.9389         0.8957        -19.229      -10.74415      0.8683223
      7790.0000         0.9624         0.9073       -22.8994      -14.41455      0.8187222
      7790.5000         0.9928          0.919       -26.5698      -18.08495      0.7691223
      7791.0000         0.9928         0.9311       -26.4882      -18.00335       0.770225
      7791.5000          0.997         0.9515       -18.3005      -9.815652      0.8808696
      7792.0000         1.0162           0.95        -9.2812     -0.7963514              1
      7792.5000         1.0231         0.9456         -8.562     -0.0771513              1
      7793.0000         1.0394         0.9803        -7.7615      0.7233491              1
      7793.5000         1.0536         0.9875        -6.9611       1.523749              1
      7794.0000         1.0535         0.9781        -6.1606       2.324249              1
      7794.5000         1.0535         0.9678        -5.3602       3.124649              1
      7795.0000         1.0687         0.9556        -4.6656       3.819249              1
      7795.5000         1.0744         0.9588        -4.2761       4.208749              1
      7796.0000         1.0838         0.9705        -3.8866       4.598249              1
      7796.5000         1.0838         0.9801        -3.5106       4.974249              1
      7797.0000         1.1015         0.9978        -3.5048       4.980049              1
      7797.5000         1.1142         1.0172         -3.499       4.985849              1
      7798.0000         1.1142         1.0366        -3.8012       4.683649              1
      7798.5000         1.0996         1.0384        -3.7965       4.688349              1
      7799.0000         1.0803         1.0308        -4.1765       4.308349              1
      7799.5000         1.0611         1.0245         -4.781       3.703849              1
      7800.0000         1.0418          1.026        -7.8391      0.6457491              1
      7800.5000         1.0225         1.0354       -12.3736      -3.888751      0.9609628
      7801.0000         1.0144         1.0441        -16.908      -8.401901      0.8999743
      7801.5000          0.992         1.0523       -21.4424      -12.91335      0.8390087
      7802.0000         0.9919         1.0413       -25.9768       -17.4248      0.7780432
      7802.5000         0.9598         1.0005       -27.7062      -19.13126       0.754983
      7803.0000         0.9213         0.9532         -27.91      -19.31211      0.7525391
      7803.5000         0.8432         0.9059       -28.4492      -19.82836      0.7455627
      7804.0000          0.718         0.8586       -29.3062      -20.66241      0.7342917
      7804.5000         0.5929         0.8114            -34      -25.33327      0.6711721
      7805.0000         0.4872         0.7641       -40.1521      -31.46242      0.5883457
      7805.5000          0.439         0.7168       -46.3043      -37.59167       0.505518
      7806.0000         0.3819         0.6696       -52.4564      -43.72083      0.4226916
      7806.5000         0.3642         0.6223       -58.6085      -49.84998      0.3398652
      7807.0000         0.3576          0.575       -64.7606      -55.97912      0.2570389
      7807.5000         0.3665         0.5278       -70.9127      -62.10828      0.1742125
      7808.0000         0.3817         0.4805       -76.6382      -67.81083     0.09715096
      7808.5000         0.3848         0.4332       -74.2061      -65.35578      0.1303273
      7809.0000          0.404         0.4056       -71.9316      -63.05833      0.1613739
      7809.5000         0.4121         0.4214       -69.6572      -60.76099      0.1924191
      7810.0000          0.412         0.4473       -67.3828      -58.46363      0.2234644
      7810.5000          0.412          0.469       -65.1083      -56.16619      0.2545109
      7811.0000          0.412         0.4767       -62.8339      -53.86884      0.2855562
      7811.5000         0.3814         0.4778       -60.5595       -51.5715      0.3166014
      7812.0000         0.3814         0.4773        -58.285      -49.27405       0.347648
      7812.5000         0.3814         0.4734       -55.5641       -46.5302      0.3847271
      7813.0000         0.3813         0.4673       -59.5419      -50.48505      0.3312831
      7813.5000         0.3813         0.4594       -64.4911       -55.4113      0.2647122
      7814.0000         0.3812         0.4556       -69.2373      -60.13455      0.2008844
      7814.5000         0.3812         0.4533       -68.4248       -59.2991      0.2121743
      7815.0000         0.3812         0.4581       -65.6888      -56.54015      0.2494574
      7815.5000         0.3945         0.4661       -63.4923      -54.32071      0.2794499
      7816.0000         0.4116         0.4803       -62.3148      -53.12026      0.2956721
      7816.5000         0.4023         0.4945       -61.1374      -51.91992       0.311893
      7817.0000         0.4118         0.5088       -59.9599      -50.71947      0.3281153
      7817.5000         0.4252          0.523       -59.5064      -50.24302      0.3345538
      7818.0000         0.4461         0.5429       -64.6615      -55.37517      0.2652004
      7818.5000         0.4842         0.5757       -73.5475      -64.23822      0.1454295
      7819.0000         0.5037         0.6084       -74.9234      -65.59118      0.1271462
      7819.5000         0.5299         0.6412       -75.3984      -66.04323      0.1210375
      7820.0000         0.5665          0.674       -75.3961      -66.01798      0.1213786
      7820.5000         0.5856         0.7068       -75.0808      -65.67973      0.1259495
      7821.0000         0.6137         0.7395       -74.8829      -65.45888      0.1289341
      7821.5000         0.6263         0.7688       -74.5976      -65.15063      0.1330995
      7822.0000         0.6594         0.7812       -74.2039      -64.73399      0.1387298
      7822.5000         0.6924         0.7841       -73.7714      -64.27854      0.1448846
      7823.0000         0.7203         0.7806       -72.8878      -63.37199      0.1571352
      7823.5000         0.7487         0.7579       -72.0041      -62.46534      0.1693873
      7824.0000         0.7812         0.7174       -71.0532       -61.4915      0.1825473
      7824.5000         0.8099         0.7106        -66.182      -56.59735      0.2486845
      7825.0000         0.8268         0.7148       -60.9092       -51.3016      0.3202487
      7825.5000         0.8527         0.7252       -55.6364      -46.00585      0.3918128
      7826.0000         0.8712          0.733       -50.3636      -40.71011      0.4633769
      7826.5000         0.8713         0.7446       -45.0907      -35.41425      0.5349425
      7827.0000         0.8796         0.7575       -39.8179      -30.11851      0.6065066
      7827.5000          0.902         0.7771       -34.5451      -24.82276      0.6780708
      7828.0000         0.9025         0.7049       -29.2723      -19.52701      0.7496349
      7828.5000         0.9216         0.6677       -26.5304      -16.76217      0.7869978
      7829.0000         0.9328         0.6607       -31.6245      -21.83332      0.7184687
      7829.5000          0.933         0.6569       -30.2157      -20.40157      0.7378166
      7830.0000         0.9174         0.6554       -25.5602      -15.72312      0.8010389
      7830.5000         0.8552         0.6522       -20.9048      -11.04477      0.8642598
      7831.0000         0.7929         0.6493       -18.0299      -8.146926      0.9034199
      7831.5000         0.7306         0.6475       -17.5466      -7.640678      0.9102611
      7832.0000         0.6683         0.6436       -13.1587       -3.22983      0.9698672
      7832.5000         0.6061         0.6397         -9.985    -0.03318214              1
