#------------------------------------------------------------------------------
# Created by    : vladimir.rabinovich
# Created on    : 09/19/2023 17:20:40
#------------------------------------------------------------------------------
~Version Information Section
VERS.           2.0     :   CWLS log ASCII Standard - VERSION 2.0
WRAP.           NO      :   One line per depth step
~Well Information Section
#MNEM       .UNIT                                         VALUE :DESCRIPTION
#------------------------------------------------------------------------------
STRT        .FT                                             769 :START DEPTH
STOP        .FT                                           10573 :STOP DEPTH
STEP        .FT                                             0.5 :STEP      
NULL        .                                           -999.25 :NULL      
COMP        .                                        TEXACO INC :COMPANY   
WELL        .                               OCS G01846 ST00BP00 :WELL      
FLD         .                            HIGH ISLAND BLOCK 0129 :FIELD     
LOC         .                                                   :LOCATION  
CNTY        .                                  HIGH ISLAND EAST :LOCATION  
STAT        .                                             TEXAS :STATE     
CTRY        .                                     UNITED STATES :COUNTRY   
SRVC        .                                                   :SERVICE COMPANY
DATE        .                             9/13/2023 11:19:51 AM :LOG DATE  
API         .                                    42710300030000 :API NUMBER
UWI         .                                    42710300030000 :UNIQUE WELL ID
XCOORD      .                                   1386052.0565626 :SURFACE X 
YCOORD      .                                   10637380.600337 :SURFACE Y 
LAT         .                                        29.3087467 :LATITUDE  
LON         .                                       -93.7983562 :LONGITUDE 
ELEV        .FT                                              81 :ELEVATION VALUE
ELEV_TYPE   .                                                KB :ELEVATION REFERENCE TYPE
~Curve Information Section
#MNEM       .UNIT                                      API CODE :CURVE DESCRIPTION
#------------------------------------------------------------------------------
DEPT        .FT                                                 :DEPTH     
ASN         .OHMM                                               :          
CALI        .IN                                                 :          
DRHO        .G/C3                                               :          
GR          .GAPI                                               :          
GR_1        .GAPI                                               :          
GR_NORM     .GAPI                                               :GammaRay Normalized
ILD         .OHMM                                               :          
RHOB        .G/C3                                               :          
SP          .MV                                                 :          
SP_NORM     .MV                                                 :SP Normalized
VSH_GR      .V/V                                                :Volume of Shale from GR
VSH_SP      .V/V                                                :Volume of Shale from SP
~A        DEPTH            ASN           CALI           DRHO             GR           GR_1        GR_NORM            ILD           RHOB             SP        SP_NORM         VSH_GR         VSH_SP
       769.0000         1.0743        -999.25        -999.25        68.1531        -999.25       67.39691         0.9134        -999.25       -28.7604      -2.834476      0.7318492      0.8956904
       769.5000         1.0734        -999.25        -999.25         67.327        -999.25       66.51809         0.9106        -999.25        -28.697      -2.771076      0.7131509      0.9036155
       770.0000         1.0731        -999.25        -999.25        66.7513        -999.25       65.90563         0.9087        -999.25       -28.6834      -2.757475      0.7001199      0.9053156
       770.5000         1.0731        -999.25        -999.25        66.4493        -999.25       65.58437         0.9118        -999.25       -28.7751      -2.849176      0.6932844      0.8938529
       771.0000         1.0731        -999.25        -999.25        66.6041        -999.25       65.74905         0.9164        -999.25       -28.9789      -3.052977      0.6967882      0.8683779
       771.5000         1.0732        -999.25        -999.25        67.2108        -999.25       66.39447         0.9172        -999.25       -29.2286      -3.302675      0.7105206      0.8371656
       772.0000         1.0747        -999.25        -999.25         68.153        -999.25        67.3968         0.9104        -999.25       -29.4108      -3.484877      0.7318469      0.8143904
       772.5000         1.0786        -999.25        -999.25        69.2704        -999.25       68.58553         0.9036        -999.25       -29.5139      -3.587976       0.757139      0.8015029
       773.0000         1.0847        -999.25        -999.25        70.7394        -999.25        70.1483         0.9012        -999.25       -29.4933      -3.567375      0.7903894      0.8040781
       773.5000         1.0892        -999.25        -999.25        72.8192        -999.25       72.36085         0.8993        -999.25       -29.0445      -3.118576      0.8374649       0.860178
       774.0000         1.0803        -999.25        -999.25        74.4221        -999.25       74.06606         0.8979        -999.25       -28.8521      -2.926176       0.873746       0.884228
       774.5000         1.0706        -999.25        -999.25        75.7986        -999.25       75.53043         0.8995        -999.25       -29.0031      -3.077175      0.9049027      0.8653531
       775.0000         1.0713        -999.25        -999.25        77.3513        -999.25       77.18224         0.9011        -999.25        -28.709      -2.783075      0.9400476      0.9021156
       775.5000         1.0762        -999.25        -999.25          78.59        -999.25       78.49999         0.9009        -999.25         -28.49      -2.564075      0.9680849      0.9294906
       776.0000         1.0806        -999.25        -999.25        79.6824        -999.25       79.66213         0.9004        -999.25       -28.3528      -2.426876      0.9928113      0.9466405
       776.5000         1.0815        -999.25        -999.25        79.6334        -999.25          79.61         0.9004        -999.25       -28.2892      -2.363276      0.9917021      0.9545906
       777.0000         1.0813        -999.25        -999.25        79.7013        -999.25       79.68224         0.9023        -999.25       -28.3502      -2.424276       0.993239      0.9469655
       777.5000         1.0795        -999.25        -999.25        79.9467        -999.25        79.9433         0.9042        -999.25       -28.5299      -2.603975      0.9987936      0.9245031
       778.0000         1.0788        -999.25        -999.25        80.4595        -999.25       80.48883         0.9062        -999.25       -28.7436      -2.817677              1      0.8977904
       778.5000         1.0784        -999.25        -999.25        81.3021        -999.25       81.38522         0.9096        -999.25       -29.0182      -3.092276              1      0.8634655
       779.0000         1.0773        -999.25        -999.25        82.1169        -999.25       82.25202          0.913        -999.25       -29.3179      -3.391975              1      0.8260031
       779.5000         1.0761        -999.25        -999.25        82.6387        -999.25       82.80713         0.9161        -999.25       -29.4543      -3.528376              1       0.808953
       780.0000          1.077        -999.25        -999.25        82.5769        -999.25       82.74138         0.9158        -999.25       -29.4378      -3.511875              1      0.8110156
       780.5000         1.0781        -999.25        -999.25        81.6383        -999.25       81.74287         0.9155        -999.25       -29.4146      -3.488676              1      0.8139155
       781.0000         1.0792        -999.25        -999.25        80.4178        -999.25       80.44447         0.9167        -999.25       -29.3868      -3.460876              1      0.8173904
       781.5000         1.0802        -999.25        -999.25        78.4146        -999.25        78.3134         0.9186        -999.25       -29.1824      -3.256475      0.9641149      0.8429406
       782.0000         1.0812        -999.25        -999.25        75.7606        -999.25          75.49          0.923        -999.25       -28.8615      -2.935575      0.9040425      0.8830531
       782.5000         1.0819        -999.25        -999.25        73.2423        -999.25       72.81096         0.9292        -999.25       -28.4914      -2.565475      0.8470417      0.9293156
       783.0000         1.0824        -999.25        -999.25        71.6865        -999.25       71.15585         0.9326        -999.25       -28.3583      -2.432375      0.8118266      0.9459531
       783.5000         1.0822        -999.25        -999.25        70.6141        -999.25         70.015         0.9344        -999.25       -28.4262      -2.500277      0.7875532      0.9374654
       784.0000         1.0809        -999.25        -999.25        70.1296        -999.25       69.49957         0.9374        -999.25       -28.6946      -2.768675      0.7765867      0.9039156
       784.5000         1.0804        -999.25        -999.25        70.4806        -999.25       69.87298         0.9418        -999.25       -28.8941      -2.968176      0.7845315       0.878978
       785.0000         1.0805        -999.25        -999.25        71.8657        -999.25       71.34649         0.9483        -999.25        -29.064      -3.138075      0.8158827      0.8577406
       785.5000         1.0827        -999.25        -999.25        73.2526        -999.25       72.82191         0.9561        -999.25       -29.1271      -3.201176      0.8472748       0.849853
       786.0000          1.087        -999.25        -999.25        73.9982        -999.25        73.6151         0.9797        -999.25       -29.2615      -3.335575      0.8641512      0.8330531
       786.5000         1.0946        -999.25        -999.25        74.3553        -999.25         73.995         1.0163        -999.25       -29.3912      -3.465275      0.8722341      0.8168406
       787.0000         1.1062        -999.25        -999.25        74.6167        -999.25       74.27309         1.0607        -999.25       -29.3705      -3.444576      0.8781508       0.819428
       787.5000         1.1219        -999.25        -999.25        74.7542        -999.25       74.41936          1.094        -999.25       -29.2976      -3.371675      0.8812631      0.8285406
       788.0000         1.1326        -999.25        -999.25        74.2262        -999.25       73.85766         1.1129        -999.25       -29.2226      -3.296677      0.8693119      0.8379154
       788.5000         1.1303        -999.25        -999.25        72.6842        -999.25       72.21723         1.1119        -999.25       -29.1379      -3.211975      0.8344092      0.8485031
       789.0000         1.1196        -999.25        -999.25        70.5641        -999.25       69.96181         1.0834        -999.25       -28.9983      -3.072376      0.7864214       0.865953
