#------------------------------------------------------------------------------
# Created by    : vladimir.rabinovich
# Created on    : 09/19/2023 17:21:39
#------------------------------------------------------------------------------
~Version Information Section
VERS.           2.0     :   CWLS log ASCII Standard - VERSION 2.0
WRAP.           NO      :   One line per depth step
~Well Information Section
#MNEM       .UNIT                                         VALUE :DESCRIPTION
#------------------------------------------------------------------------------
STRT        .FT                                            3004 :START DEPTH
STOP        .FT                                           10487 :STOP DEPTH
STEP        .FT                                             0.5 :STEP      
NULL        .                                           -999.25 :NULL      
COMP        .                                    TENNECO OIL CO :COMPANY   
WELL        .                               OCS G04082 ST00BP00 :WELL      
FLD         .                            SABINE PASS BLOCK 0017 :FIELD     
LOC         .                                                   :LOCATION  
CNTY        .                                       SABINE PASS :LOCATION  
STAT        .                                             TEXAS :STATE     
CTRY        .                                     UNITED STATES :COUNTRY   
SRVC        .                                                   :SERVICE COMPANY
DATE        .                             9/13/2023 11:20:07 AM :LOG DATE  
API         .                                    42715400130000 :API NUMBER
UWI         .                                    42715400130000 :UNIQUE WELL ID
XCOORD      .                                  1369313.82013612 :SURFACE X 
YCOORD      .                                  10714127.2468036 :SURFACE Y 
LAT         .                                        29.5195329 :LATITUDE  
LON         .                                       -93.8526471 :LONGITUDE 
ELEV        .FT                                             111 :ELEVATION VALUE
ELEV_TYPE   .                                                KB :ELEVATION REFERENCE TYPE
~Curve Information Section
#MNEM       .UNIT                                      API CODE :CURVE DESCRIPTION
#------------------------------------------------------------------------------
DEPT        .FT                                                 :DEPTH     
CALI        .IN                                                 :          
DPHI        .%                                                  :          
DRHO        .G/C3                                               :          
GR          .GAPI                                               :          
GR_NORM     .GAPI                                               :GammaRay Normalized
ILD         .OHMM                                               :          
ILM         .OHMM                                               :          
NPHI        .%                                                  :          
SFL         .OHMM                                               :          
SP          .MV                                                 :          
SP_NORM     .MV                                                 :SP Normalized
VSH_GR      .V/V                                                :Volume of Shale from GR
VSH_SP      .V/V                                                :Volume of Shale from SP
~A        DEPTH           CALI           DPHI           DRHO             GR        GR_NORM            ILD            ILM           NPHI            SFL             SP        SP_NORM         VSH_GR         VSH_SP
# ...
      4999.0000        17.0967        24.2554         0.0323        56.4879       68.41382          0.471         0.4276         46.821         0.4571       -63.0882      -22.74979      0.7534855      0.6500032
      4999.5000        16.9578        24.9356         0.0216        56.1765       68.10219         0.4912         0.4485         46.778         0.4739       -62.7892      -22.05787      0.7468551      0.6606482
      5000.0000         16.847           25.2         0.0043        58.3333       70.25876         0.5121         0.4724        41.6811         0.5081            -62      -20.24821      0.7927396       0.688489
      5000.5000        16.7524        24.7069        -0.0101        63.6136       75.25408         0.5299         0.4971        36.7142         0.5535       -60.6323      -17.11949       0.899023      0.7366232
      5001.0000        16.4686        23.7542        -0.0039        66.6257       78.45819         0.5435         0.4982        34.0087         0.6174       -59.2255       -13.9016      0.9671956      0.7861292
      5001.5000         16.272        22.7098          0.012        69.2888       81.29103         0.5479          0.496        33.8326         0.6085       -57.8922      -10.85132              1      0.8330566
      5002.0000        16.5941        22.4178         0.0189        68.3689       80.31216         0.5483         0.4942        37.6035         0.5601       -56.5098      -7.689076              1      0.8817065
      5002.5000         17.047        22.6051         0.0279        67.0388       78.89693         0.5462         0.4928        42.5605         0.5041       -55.4363       -5.23117      0.9765304      0.9195204
      5003.0000        17.0128        22.7395         0.0328        65.2427       76.98592         0.5441         0.4915        44.6215          0.488       -54.8305      -3.839702      0.9358707      0.9409277
      5003.5000        17.0094        22.2328         0.0401        64.6698       76.37621         0.5344         0.4913        44.6144         0.4873       -54.5129      -3.105357      0.9228982      0.9522253
      5004.0000        17.7586        22.1205         0.0448        66.7378       78.57597         0.5248         0.4856        44.3762         0.4913       -54.5049      -3.076957      0.9697016      0.9526622
      5004.5000        19.4801        22.5927         0.0348        69.1844        81.1785         0.5116         0.4785        46.1539         0.4885       -54.4731      -2.994282              1      0.9539341
      5005.0000        19.3776        23.6179         0.0278        69.2523       81.25048         0.4956         0.4765        49.4643         0.4825       -53.8481      -1.559028              1       0.976015
      5005.5000        17.8946         24.701         0.0201        66.1892       77.99162         0.4818         0.4756        52.5508         0.4724       -53.2251     -0.1283403      0.9572684      0.9980255
      5006.0000        16.4264           25.2         0.0123        61.6029       73.11233         0.4693         0.4754        52.5057         0.4673        -53.296     -0.2798349      0.8534538      0.9956949
      5006.5000        15.9901        24.4723          0.003        55.3104       66.41794         0.4739         0.4762        47.9874         0.4754       -53.8911      -1.626595      0.7110199      0.9749755
      5007.0000         16.189        22.6585         0.0045        53.9901       65.01312         0.4804         0.4835        42.9225         0.5057       -54.5544      -3.128859      0.6811303      0.9518637
      5007.5000        17.0029        20.5098         0.0134        53.9362       64.95553         0.4897         0.4931        38.5585         0.5347       -54.8118      -3.705604      0.6799049      0.9429907
      5008.0000        17.5286        20.2977         0.0191        55.4318       66.54635         0.4992         0.4979        37.8835         0.5585        -54.522      -3.034659      0.7137521      0.9533129
      5008.5000        16.8392        21.5246          0.017        57.9802       69.25717         0.5088         0.4961        39.5098         0.5756       -53.6632      -1.066308      0.7714292      0.9835953
      5009.0000        15.7287         23.236         0.0155         62.092       73.63118         0.5185         0.4942        41.2908          0.587       -52.8655      0.7627355      0.8644932              1
      5009.5000        15.6411        24.3147         0.0169        65.8738       77.65412         0.5263         0.4923        41.6683         0.5959       -52.4124       1.806036      0.9500877              1
      5010.0000        15.7029        24.8317         0.0171        66.8478       78.69005         0.5295         0.4909        41.4023         0.5781       -51.9168       2.946234      0.9721287              1
      5010.5000         15.799        25.3752         0.0165        66.5566       78.38002         0.5282         0.4901        40.8904         0.5441       -51.0848       4.818716      0.9655324              1
      5011.0000        15.9505         25.794         0.0077         65.468       77.22169          0.519         0.4869        40.4258         0.5176       -50.2432       6.682594       0.940887              1
      5011.5000        16.0872        25.9515         0.0042        63.5645       75.19644           0.51          0.483        39.9241         0.5083       -49.4691       8.392543      0.8977966              1
      5012.0000         16.139        25.5921         0.0034         63.125       74.72864         0.5043          0.479         41.508         0.5167       -49.7134       7.780389      0.8878434              1
      5012.5000        16.2524        24.5643         0.0057        63.4514       75.07563         0.4992         0.4751         45.279         0.5297       -50.1732       6.676871      0.8952262              1
      5013.0000        16.3206        23.3744         0.0161        64.3203       75.99975         0.4962         0.4716        48.8507         0.5166       -50.0891       6.813527      0.9148883              1
      5013.5000        16.4019         22.419         0.0263        66.2476       78.04982         0.4961         0.4686        49.2622         0.4968       -49.7822       7.458194      0.9585068              1
      5014.0000        16.3647        22.6863         0.0252        68.8348       80.80192         0.4964         0.4651        47.9838         0.4935       -49.6534       7.696765              1              1
      5014.5000        16.2701        24.1718         0.0178        71.4109        83.5422         0.4971         0.4645         46.144          0.499       -49.7006       7.534041              1              1
      5015.0000        16.2647        25.7227         0.0063        71.3674       83.49568         0.4986         0.4687        45.6053         0.5027       -50.1581        6.43576              1              1
      5015.5000        16.2495        26.7238         -0.006        67.2039       79.06618         0.5009         0.4742        44.5112         0.5026       -50.6663       5.221871      0.9801316              1
      5016.0000        16.2019         27.101        -0.0081        64.3107       75.98807         0.5032         0.4789        42.3087         0.5081       -51.4696       3.335126      0.9146397              1
      5016.5000         16.176        27.3445        -0.0021        60.4362       71.86601         0.4964         0.4815        41.9465         0.5318       -52.4066       1.143512      0.8269364              1
      5017.0000        16.3431        27.6891          0.004        57.3039       68.53353         0.4884         0.4747         44.103         0.5638       -53.4539      -1.299599      0.7560326      0.9800062
      5017.5000        16.6127        27.9059         0.0078        56.8676       68.06914         0.4796         0.4629        46.9099         0.5578       -54.5325      -3.814086      0.7461519      0.9413217
