#------------------------------------------------------------------------------
# Created by    : vladimir.rabinovich
# Created on    : 09/19/2023 17:20:45
#------------------------------------------------------------------------------
~Version Information Section
VERS.           2.0     :   CWLS log ASCII Standard - VERSION 2.0
WRAP.           NO      :   One line per depth step
~Well Information Section
#MNEM       .UNIT                                         VALUE :DESCRIPTION
#------------------------------------------------------------------------------
STRT        .FT                                             565 :START DEPTH
STOP        .FT                                           11656 :STOP DEPTH
STEP        .FT                                             0.5 :STEP      
NULL        .                                           -999.25 :NULL      
COMP        .                     MITCHELL ENERGY OFFSHORE CORP :COMPANY   
WELL        .                               OCS G02394 ST00BP00 :WELL      
FLD         .                            HIGH ISLAND BLOCK 0047 :FIELD     
LOC         .                                                   :LOCATION  
CNTY        .                                  HIGH ISLAND EAST :LOCATION  
STAT        .                                             TEXAS :STATE     
CTRY        .                                     UNITED STATES :COUNTRY   
SRVC        .                                                   :SERVICE COMPANY
DATE        .                             9/13/2023 11:11:59 AM :LOG DATE  
API         .                                    42710400050000 :API NUMBER
UWI         .                                    42710400050000 :UNIQUE WELL ID
XCOORD      .                                  1370895.90844183 :SURFACE X 
YCOORD      .                                  10676661.5178287 :SURFACE Y 
LAT         .                                        29.4165067 :LATITUDE  
LON         .                                        -93.846815 :LONGITUDE 
ELEV        .FT                                              96 :ELEVATION VALUE
ELEV_TYPE   .                                                KB :ELEVATION REFERENCE TYPE
~Curve Information Section
#MNEM       .UNIT                                      API CODE :CURVE DESCRIPTION
#------------------------------------------------------------------------------
DEPT        .FT                                                 :DEPTH     
ASN         .OHMM                                               :          
CILD        .MMHO                                               :          
GR          .GAPI                                               :          
GR_NORM     .GAPI                                               :GammaRay Normalized
ILD         .OHMM                                               :          
SP          .MV                                                 :          
SP_NORM     .MV                                                 :SP Normalized
VSH_GR      .V/V                                                :Volume of Shale from GR
VSH_SP      .V/V                                                :Volume of Shale from SP
~A        DEPTH            ASN           CILD             GR        GR_NORM            ILD             SP        SP_NORM         VSH_GR         VSH_SP
# ...
     10900.0000         1.1168       994.3184        -999.25        -999.25         1.0905       -47.7512      -7.010464        -999.25      0.8998505
     10900.5000         1.1579       974.9941        -999.25        -999.25         1.1139       -49.3494      -8.608662        -999.25      0.8770191
     10901.0000         1.2235       955.6699        -999.25        -999.25         1.1374       -49.7191      -8.978363        -999.25      0.8717377
     10901.5000         1.2704       928.2168        -999.25        -999.25         1.1557       -49.8561       -9.11536        -999.25      0.8697805
     10902.0000         1.3048       898.5732        -999.25        -999.25         1.1708       -49.9823      -9.241562        -999.25      0.8679777
     10902.5000         1.3276       892.1963        -999.25        -999.25         1.1859       -50.0851       -9.34436        -999.25      0.8665091
     10903.0000         1.3347       890.8887        -999.25        -999.25         1.1976       -50.1879      -9.447163        -999.25      0.8650405
     10903.5000         1.3265       895.3115        -999.25        -999.25            1.2       -51.3171      -10.57636        -999.25      0.8489091
     10904.0000         1.3183       899.7354        -999.25        -999.25         1.2024       -52.7355      -11.99476        -999.25      0.8286462
     10904.5000         1.3102       904.1582        -999.25        -999.25         1.2039       -54.4987      -13.75796        -999.25      0.8034577
     10905.0000         1.3152        908.582        -999.25        -999.25         1.1992       -56.3629      -15.62216        -999.25      0.7768263
     10905.5000         1.3212       913.0049        -999.25        -999.25         1.1946       -57.5548      -16.81406        -999.25      0.7597991
     10906.0000         1.3272       918.9678        -999.25        -999.25           1.19       -57.9618      -17.22106        -999.25      0.7539848
     10906.5000         1.3373       930.3096        -999.25        -999.25         1.1853       -57.1005      -16.35976        -999.25      0.7662891
     10907.0000         1.3476       941.6514        -999.25        -999.25         1.1673       -56.3309      -15.59016        -999.25      0.7772834
     10907.5000         1.3579       952.9678        -999.25        -999.25          1.147       -57.9956      -17.25486        -999.25       0.753502
     10908.0000         1.3681       971.5381        -999.25        -999.25         1.1207       -58.7726      -18.03186        -999.25       0.742402
     10908.5000         1.3698       1003.323        -999.25        -999.25         1.0624       -59.5569      -18.81616        -999.25      0.7311977
     10909.0000         1.3708       1035.107        -999.25        -999.25         1.0048        -60.968      -20.22726        -999.25      0.7110391
     10909.5000         1.3633       1070.301        -999.25        -999.25         0.9541       -63.1314      -22.39066        -999.25      0.6801334
     10910.0000         1.3534       1108.365        -999.25        -999.25         0.9035       -63.9428      -23.20206        -999.25       0.668542
     10910.5000         1.3248        1146.43        -999.25        -999.25         0.8672       -64.5664      -23.82566        -999.25      0.6596334
     10911.0000         1.2838       1189.752        -999.25        -999.25         0.8401       -64.8229      -24.08216        -999.25      0.6559691
     10911.5000         1.2348       1236.578        -999.25        -999.25          0.813       -64.9768      -24.23606        -999.25      0.6537706
     10912.0000         1.1531       1294.307        -999.25        -999.25         0.7872       -70.2249      -29.48416        -999.25      0.5787977
     10912.5000         1.1224       1358.754        -999.25        -999.25         0.7689       -72.2443      -31.50356        -999.25      0.5499491
     10913.0000          1.095       1394.578        -999.25        -999.25         0.7507       -74.2981      -33.55737        -999.25      0.5206091
     10913.5000         1.0697       1430.355        -999.25        -999.25         0.7324       -76.5045      -35.76376        -999.25      0.4890891
     10914.0000         1.0469       1480.053        -999.25        -999.25         0.7165       -78.8193      -38.07856        -999.25      0.4560206
     10914.5000         1.0394       1512.861        -999.25        -999.25         0.7064       -79.0632      -38.32246        -999.25      0.4525362
     10915.0000         1.0318       1527.779        -999.25        -999.25         0.6962       -77.9648      -37.22406        -999.25      0.4682277
     10915.5000         1.0267       1542.699        -999.25        -999.25         0.6926       -76.9158      -36.17506        -999.25      0.4832134
     10916.0000         1.0228       1556.479        -999.25        -999.25         0.6937       -76.0828      -35.34206        -999.25      0.4951134
     10916.5000          1.019       1555.676        -999.25        -999.25         0.6949        -76.334      -35.59326        -999.25      0.4915248
     10917.0000         1.0151       1554.875        -999.25        -999.25         0.7111       -76.4773      -35.73656        -999.25      0.4894776
     10917.5000         1.0197        1554.07        -999.25        -999.25         0.7459       -76.4648      -35.72406        -999.25      0.4896563
     10918.0000         1.0299        1537.49        -999.25        -999.25         0.7806       -76.4523      -35.71156        -999.25      0.4898348
     10918.5000           1.04       1505.512        -999.25        -999.25         0.8154       -76.2256      -35.48486        -999.25      0.4930734
     10919.0000         1.0553       1473.482        -999.25        -999.25         0.8587        -75.522      -34.78127        -999.25      0.5031248
     10919.5000         1.2387       1281.943        -999.25        -999.25         0.9034       -73.5444      -32.80367        -999.25      0.5313762
     10920.0000         1.2811       1205.035        -999.25        -999.25          0.948       -70.3923      -29.65157        -999.25      0.5764062
     10920.5000         1.3322       1124.234        -999.25        -999.25         0.9846       -64.1127      -23.37196        -999.25      0.6661148
     10921.0000         1.3694         1055.6        -999.25        -999.25         1.0119       -62.5084      -21.76766        -999.25      0.6890334
     10921.5000         1.3962       1034.865        -999.25        -999.25         1.0392       -61.6994      -20.95866        -999.25      0.7005905
     10922.0000         1.4227       1014.129        -999.25        -999.25         1.0665       -60.6675      -19.92676        -999.25       0.715332
     10922.5000         1.5008       993.3936        -999.25        -999.25         1.0889       -61.9063      -21.16556        -999.25      0.6976348
     10923.0000          1.603       975.4561        -999.25        -999.25         1.1109       -62.9775      -22.23676        -999.25       0.682332
     10923.5000         1.6698       956.3994        -999.25        -999.25         1.1329       -63.4633      -22.72256        -999.25       0.675392
     10924.0000         1.6455       955.1104        -999.25        -999.25         1.1338       -63.2863      -22.54556        -999.25      0.6779205
     10924.5000         1.6159       969.5664        -999.25        -999.25         1.1167       -64.2112      -23.47046        -999.25      0.6647077
     10925.0000         1.5783       1005.854        -999.25        -999.25         1.0996       -66.4276      -25.68686        -999.25      0.6330449
     10925.5000         1.5382       1043.627        -999.25        -999.25         1.0826       -68.6439      -27.90316        -999.25      0.6013834
     10926.0000         1.4801       1081.496        -999.25        -999.25         1.0671       -67.4225      -26.68176        -999.25      0.6188319
