#------------------------------------------------------------------------------
# Created by    : vladimir.rabinovich
# Created on    : 09/19/2023 17:21:48
#------------------------------------------------------------------------------
~Version Information Section
VERS.           2.0     :   CWLS log ASCII Standard - VERSION 2.0
WRAP.           NO      :   One line per depth step
~Well Information Section
#MNEM       .UNIT                                         VALUE :DESCRIPTION
#------------------------------------------------------------------------------
STRT        .FT                                            1142 :START DEPTH
STOP        .FT                                            9163 :STOP DEPTH
STEP        .FT                                             0.5 :STEP      
NULL        .                                           -999.25 :NULL      
COMP        .                                    ORYX ENERGY CO :COMPANY   
WELL        .                               OCS G06199 ST00BP00 :WELL      
FLD         .                            HIGH ISLAND BLOCK 0129 :FIELD     
LOC         .                                                   :LOCATION  
CNTY        .                                  HIGH ISLAND EAST :LOCATION  
STAT        .                                             TEXAS :STATE     
CTRY        .                                     UNITED STATES :COUNTRY   
SRVC        .                                                   :SERVICE COMPANY
DATE        .                             9/13/2023 11:20:11 AM :LOG DATE  
API         .                                    42710400360000 :API NUMBER
UWI         .                                    42710400360000 :UNIQUE WELL ID
XCOORD      .                                  1376484.19293712 :SURFACE X 
YCOORD      .                                  10620179.8267869 :SURFACE Y 
LAT         .                                        29.2612476 :LATITUDE  
LON         .                                        -93.828002 :LONGITUDE 
ELEV        .FT                                              93 :ELEVATION VALUE
ELEV_TYPE   .                                                KB :ELEVATION REFERENCE TYPE
~Curve Information Section
#MNEM       .UNIT                                      API CODE :CURVE DESCRIPTION
#------------------------------------------------------------------------------
DEPT        .FT                                                 :DEPTH     
CALI        .IN                                                 :          
DRHO        .G/C3                                               :          
DT          .US/F                                               :          
GR          .GAPI                                               :          
GR_1        .GAPI                                               :          
GR_NORM     .GAPI                                               :GammaRay Normalized
ILD         .OHMM                                               :          
ILM         .OHMM                                               :          
NPHI        .%                                                  :          
RFOC        .OHMM                                               :          
RHOB        .G/C3                                               :          
SP          .MV                                                 :          
SP_NORM     .MV                                                 :SP Normalized
VSH_GR      .V/V                                                :Volume of Shale from GR
VSH_SP      .V/V                                                :Volume of Shale from SP
~A        DEPTH           CALI           DRHO             DT             GR           GR_1        GR_NORM            ILD            ILM           NPHI           RFOC           RHOB             SP        SP_NORM         VSH_GR         VSH_SP
# ...
      5953.0000        14.0385         0.0139       118.4956        82.1007        94.7814        73.3355         1.0472         1.0589        37.7365          0.983         2.2819       -64.1886      -2.352432      0.8582022      0.9663938
      5953.5000        14.0284         0.0314       113.6584        83.3444        92.8495       74.65823         1.0718         1.0818        36.1787         1.0222         2.2786       -64.0276      -2.192223      0.8863452      0.9686825
      5954.0000        14.0114         0.0416       109.5721        84.6499        90.7126       76.04668         1.0988         1.1023        34.6681         1.0472         2.2861       -63.9635      -2.128902      0.9158869      0.9695871
      5954.5000        13.9943          0.038       107.5242        82.6427        89.4589       73.91099         1.1265         1.1128        33.2195         1.0657         2.2933       -64.0432      -2.209385      0.8704466      0.9684374
      5955.0000        13.9628         0.0353       108.3414        80.1998        89.1094       71.31178         1.1514         1.1234        32.0755         1.0595         2.2925        -64.504      -2.670971      0.8151443      0.9618433
      5955.5000        13.9312         0.0367        110.675        79.8782        88.8651       70.96928         1.1706         1.1305        31.2892         1.0503         2.2902       -65.0061      -3.173862      0.8078571      0.9546591
      5956.0000        13.9004         0.0412       113.0652         81.566        88.6693       72.76445         1.1901         1.1259        30.5848         1.0483         2.2882       -65.5161      -3.684643      0.8460521      0.9473622
      5956.5000        13.8689         0.0511       115.5811        83.7638        88.6194       75.10217          1.202         1.1213        31.6632         1.0529          2.287       -65.8435      -4.012829      0.8957908      0.9426739
      5957.0000        13.8366         0.0511       116.8623        85.9158        88.5695       77.39115         1.1992         1.1126        33.7417         1.0504         2.2891       -65.9767      -4.146816      0.9444926      0.9407598
      5957.5000        13.8005         0.0475       116.0186        87.6644        89.2834       79.25099         1.1963         1.1028        35.1379         1.0631         2.2948       -65.7167        -3.8876      0.9840637      0.9444628
      5958.0000        13.7811         0.0474       114.9939        90.7705        91.2759       82.55498         1.1746         1.0902        34.6349         1.0696         2.2964       -65.4563      -3.627987              1      0.9481716
      5958.5000        13.7521         0.0522       113.8923        92.9324        93.9142       84.85451         1.1484         1.0778        34.2066         1.0529         2.2959       -65.0164      -3.188877              1      0.9544446
      5959.0000        13.6857         0.0511       112.7305        91.8619        97.0146        83.7153         1.1129         1.0576        34.4078         1.0391         2.3053       -64.5602      -2.733463              1      0.9609506
      5959.5000         13.588         0.0544       112.1704        90.9413        99.2207       82.73557         1.0857         1.0378        34.9676         1.0362         2.3147       -64.1608      -2.334843              1      0.9666451
      5960.0000        13.4981         0.0639       113.4111        90.2532       100.3076       82.00317         1.0551         1.0149         36.015         1.0364         2.3213       -64.1292      -2.304035              1      0.9670852
      5960.5000        13.4549         0.0712       114.8265        91.0391        99.0651       82.83887         1.0227         0.9901         37.322         1.0293         2.3177       -64.1346      -2.310215              1      0.9669969
      5961.0000        13.4325         0.0607       116.4291        92.9287        97.8113       84.84872         0.9914         0.9658        38.5146         1.0123         2.3076       -63.7347      -1.911102              1      0.9726985
      5961.5000        13.4206         0.0502       118.0488        97.4827        96.5551       89.69302          0.961          0.943        39.3872         0.9959         2.2975       -63.4658       -1.64299              1      0.9765287
      5962.0000        13.4115         0.0451       119.3744        101.507        96.4336       93.97382         0.9399         0.9208        39.7103         0.9802         2.2867        -63.244       -1.42197              1      0.9796861
      5962.5000        13.4042          0.053       120.6581       102.2568        96.9491        94.7711         0.9246         0.9023        39.1759         0.9575         2.2798       -63.0674      -1.246159              1      0.9821978
      5963.0000        13.3969         0.0649       121.8962       100.0938        97.5604       92.46968         0.9103         0.8844        39.1826         0.9251         2.2746       -62.9664      -1.145943              1      0.9836294
      5963.5000        13.3808         0.0641       122.8428        97.2375          97.53       89.43069         0.9003         0.8785        39.3716         0.9172         2.2669       -62.9095      -1.089828              1       0.984431
      5964.0000         13.371         0.0627       122.5504         95.916        96.6725       88.02446         0.8904         0.8756        38.9225         0.9331         2.2604       -62.8533      -1.034412              1      0.9852227
      5964.5000         13.367         0.0629       122.0803         97.698        96.3192       89.91983         0.8862         0.8738        37.5728         0.9482         2.2623       -62.8056     -0.9874992              1      0.9858929
      5965.0000         13.363         0.0597       121.5745        99.4576        97.8755       91.79137         0.8835         0.8736        37.0476         0.9609         2.2653        -62.758     -0.9406853              1      0.9865617
      5965.5000         13.359         0.0474        121.771        98.5209        98.8303       90.79452          0.882         0.8733        36.8525         0.9709         2.2574       -62.7158     -0.8992729              1      0.9871532
      5966.0000         13.355         0.0377       122.2329        96.9307         96.187       89.10245          0.885          0.875        36.9714         0.9729         2.2493       -62.7036     -0.8878593              1      0.9873163
      5966.5000         13.351          0.032       122.8065        97.6014        94.3926       89.81558         0.8881         0.8782        37.5042          0.975          2.244       -62.6913     -0.8763428              1      0.9874808
      5967.0000         13.347         0.0316       122.4252       100.7446        95.5051       93.15903         0.8906         0.8804         38.275          0.965         2.2454       -62.5743      -0.760128              1       0.989141
      5967.5000         13.343         0.0324       122.0747       101.0491        101.019       93.48261         0.8914         0.8789        39.5112         0.9551         2.2482       -62.5422     -0.7288132              1      0.9895884
      5968.0000         13.339         0.0331        121.951        99.3042       105.8611       91.62595         0.8923         0.8774        40.1322         0.9423         2.2529       -62.5101     -0.6975021              1      0.9900357
      5968.5000         13.335         0.0353       122.2483        97.9735        104.947       90.20995         0.8931         0.8725        38.3162          0.929         2.2582       -62.4779     -0.6660881              1      0.9904845
      5969.0000         13.331         0.0435       122.7271         99.251       102.6941       91.56861         0.8941          0.866        36.7629         0.9348         2.2595       -62.4458     -0.6347733              1      0.9909318
      5969.5000         13.327          0.051       123.1301        99.8289       101.0178       92.18303         0.8951         0.8591        36.6537         0.9432         2.2577       -62.4136     -0.6033554              1      0.9913806
