#------------------------------------------------------------------------------
# Created by    : vladimir.rabinovich
# Created on    : 09/19/2023 17:20:40
#------------------------------------------------------------------------------
~Version Information Section
VERS.           2.0     :   CWLS log ASCII Standard - VERSION 2.0
WRAP.           NO      :   One line per depth step
~Well Information Section
#MNEM       .UNIT                                         VALUE :DESCRIPTION
#------------------------------------------------------------------------------
STRT        .FT                                             769 :START DEPTH
STOP        .FT                                           10573 :STOP DEPTH
STEP        .FT                                             0.5 :STEP      
NULL        .                                           -999.25 :NULL      
COMP        .                                        TEXACO INC :COMPANY   
WELL        .                               OCS G01846 ST00BP00 :WELL      
FLD         .                            HIGH ISLAND BLOCK 0129 :FIELD     
LOC         .                                                   :LOCATION  
CNTY        .                                  HIGH ISLAND EAST :LOCATION  
STAT        .                                             TEXAS :STATE     
CTRY        .                                     UNITED STATES :COUNTRY   
SRVC        .                                                   :SERVICE COMPANY
DATE        .                             9/13/2023 11:19:51 AM :LOG DATE  
API         .                                    42710300030000 :API NUMBER
UWI         .                                    42710300030000 :UNIQUE WELL ID
XCOORD      .                                   1386052.0565626 :SURFACE X 
YCOORD      .                                   10637380.600337 :SURFACE Y 
LAT         .                                        29.3087467 :LATITUDE  
LON         .                                       -93.7983562 :LONGITUDE 
ELEV        .FT                                              81 :ELEVATION VALUE
ELEV_TYPE   .                                                KB :ELEVATION REFERENCE TYPE
~Curve Information Section
#MNEM       .UNIT                                      API CODE :CURVE DESCRIPTION
#------------------------------------------------------------------------------
DEPT        .FT                                                 :DEPTH     
ASN         .OHMM                                               :          
CALI        .IN                                                 :          
DRHO        .G/C3                                               :          
GR          .GAPI                                               :          
GR_1        .GAPI                                               :          
GR_NORM     .GAPI                                               :GammaRay Normalized
ILD         .OHMM                                               :          
RHOB        .G/C3                                               :          
SP          .MV                                                 :          
SP_NORM     .MV                                                 :SP Normalized
VSH_GR      .V/V                                                :Volume of Shale from GR
VSH_SP      .V/V                                                :Volume of Shale from SP
~A        DEPTH            ASN           CALI           DRHO             GR           GR_1        GR_NORM            ILD           RHOB             SP        SP_NORM         VSH_GR         VSH_SP
# ...
      7964.5000          1.687        -999.25        -0.0626        -999.25        -999.25        -999.25         1.1848        -999.25       -40.3154      -18.55366        -999.25      0.7349477
      7965.0000         1.7253        -999.25        -0.0478        -999.25        -999.25        -999.25         1.1591        -999.25       -45.5006      -23.73986        -999.25      0.6608591
      7965.5000         1.7246        -999.25        -0.0394        -999.25        -999.25        -999.25         1.1344        -999.25       -49.7592      -27.99947        -999.25      0.6000076
      7966.0000         1.6588        -999.25        -0.0334        -999.25        -999.25        -999.25         1.1167        -999.25         -51.61      -29.85127        -999.25      0.5735532
      7966.5000         1.5606        -999.25        -0.0274        -999.25        -999.25        -999.25         1.1098        -999.25        -49.291      -27.53328        -999.25      0.6066675
      7967.0000          1.457        -999.25        -0.0192        -999.25        -999.25        -999.25         1.1258        -999.25       -45.3577      -23.60098        -999.25      0.6628431
      7967.5000          1.372        -999.25        -0.0097        -999.25        -999.25        -999.25         1.1429        -999.25       -40.8527      -19.09699        -999.25      0.7271859
      7968.0000         1.3278        -999.25        -0.0006        -999.25        -999.25        -999.25         1.1615        -999.25       -34.4106      -12.65589        -999.25      0.8192015
      7968.5000         1.3251        -999.25         0.0024        -999.25        -999.25        -999.25         1.1799        -999.25       -31.0442      -9.290499        -999.25      0.8672786
      7969.0000         1.3411        -999.25        -0.0023        -999.25        -999.25        -999.25         1.1968        -999.25       -28.5675        -6.8148        -999.25      0.9026457
      7969.5000         1.3573        -999.25        -0.0112        -999.25        -999.25        -999.25         1.2135        -999.25       -27.2231      -5.471407        -999.25       0.921837
      7970.0000         1.3657        -999.25        -0.0139        -999.25        -999.25        -999.25         1.2207        -999.25       -26.4086      -4.657911        -999.25      0.9334584
      7970.5000         1.3461        -999.25        -0.0153        -999.25        -999.25        -999.25         1.2205        -999.25       -25.9693      -4.219614        -999.25      0.9397198
      7971.0000         1.3114        -999.25        -0.0161        -999.25        -999.25        -999.25         1.2192        -999.25       -25.5313      -3.782619        -999.25      0.9459626
      7971.5000         1.2844        -999.25        -0.0194        -999.25        -999.25        -999.25         1.2157        -999.25        -25.169      -3.421326        -999.25      0.9511239
      7972.0000         1.2663        -999.25        -0.0251        -999.25        -999.25        -999.25         1.2122        -999.25       -24.8104       -3.06373        -999.25      0.9562324
      7972.5000         1.2567        -999.25        -0.0267        -999.25        -999.25        -999.25         1.2015        -999.25       -24.4984      -2.752733        -999.25      0.9606752
      7973.0000         1.2522        -999.25        -0.0292        -999.25        -999.25        -999.25         1.1895        -999.25       -24.2008      -2.456139        -999.25      0.9649123
      7973.5000         1.2476        -999.25        -0.0329        -999.25        -999.25        -999.25         1.1647        -999.25        -23.906      -2.162344        -999.25      0.9691094
      7974.0000         1.2384        -999.25        -0.0331        -999.25        -999.25        -999.25         1.1342        -999.25       -23.6247      -1.882048        -999.25      0.9731136
      7974.5000         1.2262        -999.25        -0.0348        -999.25        -999.25        -999.25         1.1022        -999.25       -23.3438      -1.602152        -999.25      0.9771121
      7975.0000         1.2144        -999.25        -0.0305        -999.25        -999.25        -999.25         1.0709        -999.25       -23.2167      -1.476057        -999.25      0.9789135
      7975.5000         1.2026        -999.25        -0.0257        -999.25        -999.25        -999.25         1.0441        -999.25       -23.0983      -1.358664        -999.25      0.9805905
      7976.0000         1.1914        -999.25        -0.0356        -999.25        -999.25        -999.25         1.0288        -999.25       -23.0375      -1.298866        -999.25      0.9814448
      7976.5000         1.1808        -999.25        -0.0415        -999.25        -999.25        -999.25         1.0135        -999.25       -23.0023      -1.264671        -999.25      0.9819333
      7977.0000         1.1726        -999.25        -0.0469        -999.25        -999.25        -999.25          1.004        -999.25       -23.0075      -1.270876        -999.25      0.9818446
      7977.5000         1.1656        -999.25        -0.0416        -999.25        -999.25        -999.25         0.9973        -999.25       -23.0318      -1.296181        -999.25      0.9814832
      7978.0000         1.1634        -999.25         -0.031        -999.25        -999.25        -999.25          0.994        -999.25       -23.0236      -1.288984        -999.25      0.9815859
      7978.5000         1.1666        -999.25        -0.0243        -999.25        -999.25        -999.25         1.0031        -999.25       -22.9926      -1.258989        -999.25      0.9820144
      7979.0000         1.1765        -999.25        -0.0409        -999.25        -999.25        -999.25         1.0121        -999.25       -22.7578      -1.025194        -999.25      0.9853544
      7979.5000         1.2035        -999.25        -0.0562        -999.25        -999.25        -999.25         1.0354        -999.25       -22.5821     -0.8504982        -999.25        0.98785
      7980.0000           1.24        -999.25        -0.0683        -999.25        -999.25        -999.25         1.0654        -999.25       -22.5444     -0.8138027        -999.25      0.9883742
      7980.5000         1.2824        -999.25        -0.0722        -999.25        -999.25        -999.25         1.1037        -999.25       -22.8968      -1.167208        -999.25      0.9833256
      7981.0000         1.3283        -999.25        -0.0649        -999.25        -999.25        -999.25         1.1514        -999.25       -23.8308      -2.102213        -999.25      0.9699684
      7981.5000         1.3786        -999.25        -0.0583        -999.25        -999.25        -999.25         1.2024        -999.25       -25.1419      -3.414316        -999.25       0.951224
      7982.0000         1.4158        -999.25        -0.0549        -999.25        -999.25        -999.25         1.2558        -999.25       -26.9434      -5.216822        -999.25       0.925474
      7982.5000         1.4476        -999.25        -0.0523        -999.25        -999.25        -999.25         1.3026        -999.25       -29.5261      -7.800528        -999.25      0.8885639
      7983.0000         1.4724        -999.25        -0.0529        -999.25        -999.25        -999.25         1.3316        -999.25       -32.3799      -10.65533        -999.25      0.8477809
      7983.5000         1.4894        -999.25        -0.0508        -999.25        -999.25        -999.25         1.3314        -999.25       -35.9534      -14.22984        -999.25      0.7967166
      7984.0000         1.4722        -999.25         -0.041        -999.25        -999.25        -999.25         1.3143        -999.25       -39.0068      -17.28424        -999.25      0.7530823
      7984.5000         1.4245        -999.25        -0.0312        -999.25        -999.25        -999.25         1.2877        -999.25       -41.1411      -19.41955        -999.25      0.7225779
