#------------------------------------------------------------------------------
# Created by    : vladimir.rabinovich
# Created on    : 09/19/2023 17:20:10
#------------------------------------------------------------------------------
~Version Information Section
VERS.           2.0     :   CWLS log ASCII Standard - VERSION 2.0
WRAP.           NO      :   One line per depth step
~Well Information Section
#MNEM       .UNIT                                         VALUE :DESCRIPTION
#------------------------------------------------------------------------------
STRT        .FT                                             613 :START DEPTH
STOP        .FT                                           12130 :STOP DEPTH
STEP        .FT                                             0.5 :STEP      
NULL        .                                           -999.25 :NULL      
COMP        .                                 CITIES SERVICE CO :COMPANY   
WELL        .                               OCS G03060 ST00BP00 :WELL      
FLD         .                                           WILDCAT :FIELD     
LOC         .                                                   :LOCATION  
CNTY        .                               MUSTANG ISLAND EAST :LOCATION  
STAT        .                                             TEXAS :STATE     
CTRY        .                                     UNITED STATES :COUNTRY   
SRVC        .                                                   :SERVICE COMPANY
DATE        .                             9/13/2023 11:12:08 AM :LOG DATE  
API         .                                    42712400440000 :API NUMBER
UWI         .                                    42712400440000 :UNIQUE WELL ID
XCOORD      .                                  632657.308411808 :SURFACE X 
YCOORD      .                                  10083439.8406154 :SURFACE Y 
LAT         .                                        27.7518805 :LATITUDE  
LON         .                                       -96.1160164 :LONGITUDE 
ELEV        .FT                                             103 :ELEVATION VALUE
ELEV_TYPE   .                                                KB :ELEVATION REFERENCE TYPE
~Curve Information Section
#MNEM       .UNIT                                      API CODE :CURVE DESCRIPTION
#------------------------------------------------------------------------------
DEPT        .FT                                                 :DEPTH     
ASFL        .OHMM                                               :          
CILD        .MMHO                                               :          
GR          .GAPI                                               :          
GR_NORM     .GAPI                                               :GammaRay Normalized
ILD         .OHMM                                               :          
SP          .MV                                                 :          
SP_NORM     .MV                                                 :SP Normalized
VSH_GR      .V/V                                                :Volume of Shale from GR
VSH_SP      .V/V                                                :Volume of Shale from SP
~A        DEPTH           ASFL           CILD             GR        GR_NORM            ILD             SP        SP_NORM         VSH_GR         VSH_SP
# ...
      1381.5000         0.7592       1237.832        46.0469       71.81147         0.7938      -125.5344      -4.698524       0.825776      0.9060295
      1382.0000         0.7591       1243.381        47.4681       73.66666         0.7912      -125.5592      -4.724442      0.8652481      0.9055111
      1382.5000         0.7589       1248.932        48.0215        74.3889         0.7885      -125.5841      -4.750473      0.8806149      0.9049906
      1383.0000         0.7587       1254.482        48.1274       74.52689         0.7859      -125.6089      -4.776405      0.8835509      0.9044719
      1383.5000         0.7585       1259.158        48.4327       74.92522         0.7833      -125.6337      -4.802322      0.8920261      0.9039536
      1384.0000         0.7584       1263.244         48.738       75.32354         0.7806      -125.6586      -4.828354      0.9005008      0.9034329
      1384.5000         0.7582       1267.332        49.1338       75.84003          0.778      -125.6833      -4.854179      0.9114899      0.9029164
      1385.0000         0.7571       1271.418        49.8917       76.82925         0.7754      -125.7083      -4.880302      0.9325371      0.9023939
      1385.5000         0.7561        1275.34        50.5256       77.65659         0.7734      -125.6879      -4.861031      0.9501401      0.9027794
      1386.0000          0.755       1278.773        50.1129       77.11752         0.7716      -125.6644      -4.838654      0.9386707      0.9032269
      1386.5000          0.754       1282.207        49.7001       76.57832         0.7697       -125.641      -4.816383      0.9271982      0.9036723
      1387.0000         0.7529       1285.643        49.2873       76.03912         0.7679      -125.6176      -4.794113       0.915726      0.9041178
      1387.5000         0.7518       1289.076        48.6722       75.23582         0.7661      -125.5936      -4.771233      0.8986346      0.9045753
      1388.0000         0.7508        1292.51        48.0086       74.36919         0.7643      -125.5691      -4.747864      0.8801956      0.9050427
      1388.5000         0.7498       1294.984        47.3448        73.5023         0.7625      -125.5444      -4.724297      0.8617511      0.9055141
      1389.0000          0.751       1290.648         46.681       72.63542         0.7607      -125.5198      -4.700813      0.8433068      0.9059837
      1389.5000         0.7522       1286.313        49.2348       75.96929         0.7589      -125.4952      -4.677345      0.9142402      0.9064531
      1390.0000         0.7534       1281.977        50.3954       77.48425         0.7571      -125.4706       -4.65387      0.9464735      0.9069226
      1390.5000         0.7536       1281.357        50.4258       77.52368         0.7553      -125.4459      -4.630295      0.9473124      0.9073941
      1391.0000         0.7537       1284.289        50.0462       77.02784         0.7535      -125.4214      -4.606926      0.9367626      0.9078615
      1391.5000         0.7538       1287.221        49.6666       76.53199         0.7517      -125.3967      -4.583344      0.9262125      0.9083331
      1392.0000         0.7539        1291.76        49.2869         76.036         0.7499       -125.375      -4.562775      0.9156597      0.9087445
      1392.5000          0.754       1296.863        48.9073       75.54016         0.7481      -125.3553      -4.544205      0.9051098      0.9091159
      1393.0000         0.7527       1301.965        48.5276       75.04418         0.7462      -125.3358      -4.525826      0.8945571      0.9094835
      1393.5000         0.7511       1307.068         48.148       74.54832         0.7444      -125.3162      -4.507355      0.8840069      0.9098529
      1394.0000         0.7494        1312.17        47.6224       73.86187         0.7426      -125.3673      -4.559586      0.8694015      0.9088083
      1394.5000         0.7478       1317.273        46.8177       72.81103         0.7413        -125.42      -4.613403      0.8470432       0.907732
      1395.0000         0.7462       1320.318        46.0078        71.7534         0.7407      -125.4727      -4.667236      0.8245405      0.9066553
      1395.5000         0.7445       1320.678        45.1827       70.67593         0.7402      -125.5569      -4.752563      0.8016155      0.9049487
      1396.0000         0.7429       1321.037         44.364       69.60681         0.7396      -125.6488      -4.845589      0.7788683      0.9030882
      1396.5000         0.7412       1321.396        43.5741       68.57529          0.739      -125.7407      -4.938614       0.756921      0.9012277
      1397.0000         0.7396       1321.756         44.274       69.48878         0.7385      -125.8326      -5.031639      0.7763571      0.8993672
      1397.5000         0.7382       1322.002          45.74       71.40247         0.7379      -125.9246      -5.124763      0.8170739      0.8975047
      1398.0000         0.7376       1320.596        46.5818       72.50122         0.7374      -126.0378      -5.239098      0.8404515      0.8952181
      1398.5000          0.737       1319.189        47.1318       73.21902         0.7368      -126.1772      -5.379616      0.8557239      0.8924077
      1399.0000         0.7364       1317.783        47.6819       73.93695         0.7363      -126.3165      -5.520042       0.870999      0.8895991
      1399.5000         0.7358       1316.377        47.7133       73.97768         0.7357      -126.4559      -5.660576      0.8718655      0.8867885
      1400.0000         0.7352       1314.969        47.3759       73.53693         0.7351      -126.5952      -5.800995      0.8624878      0.8839801
      1400.5000         0.7346       1311.436        47.0383       73.09591         0.7346      -126.7345      -5.941422      0.8531045      0.8811716
      1401.0000          0.734       1306.268        46.7007       72.65489          0.734      -126.8739      -6.081955      0.8437211      0.8783609
      1401.5000         0.7334       1297.074         46.522       72.42134         0.7335      -126.9025      -6.111671      0.8387519      0.8777665
      1402.0000         0.7345       1265.762        46.4261       72.29588         0.7356      -126.8921      -6.102402      0.8360825       0.877952
      1402.5000          0.737       1239.908        46.3303       72.17054         0.7442      -126.8818      -6.093231      0.8334157      0.8781354
      1403.0000         0.7398       1232.146        46.2343       72.04494         0.7528      -126.7003      -5.912857      0.8307435      0.8817428
      1403.5000          0.743       1224.389        46.1384       71.91949         0.7613       -126.458      -5.671684      0.8280742      0.8865663
      1404.0000         0.7463       1228.834        46.0687       71.82823         0.7714      -126.2157      -5.430504      0.8261326      0.8913899
      1404.5000         0.7495       1236.215        46.2692       72.08973         0.7822      -126.0658      -5.281738      0.8316964      0.8943653
      1405.0000         0.7527       1243.594        46.4697       72.35123         0.7929      -126.0112      -5.228264      0.8372603      0.8954347
      1405.5000         0.7548       1250.418        46.6702       72.61274         0.8023      -125.9565      -5.174683      0.8428242      0.8965064
      1406.0000          0.756       1251.859        46.8707       72.87425         0.8002       -125.902      -5.121315      0.8483884      0.8975737
      1406.5000         0.7573       1253.301        47.0712       73.13575         0.7981      -125.8474      -5.067841      0.8539521      0.8986432
      1407.0000         0.7585       1254.742        47.2921        73.4239          0.796      -125.7927      -5.014267      0.8600829      0.8997146
      1407.5000         0.7592       1256.182        47.5853       73.80642         0.7939      -125.7487      -4.971397      0.8682217      0.9005721
