#------------------------------------------------------------------------------
# Created by    : vladimir.rabinovich
# Created on    : 09/19/2023 17:19:33
#------------------------------------------------------------------------------
~Version Information Section
VERS.           2.0     :   CWLS log ASCII Standard - VERSION 2.0
WRAP.           NO      :   One line per depth step
~Well Information Section
#MNEM       .UNIT                                         VALUE :DESCRIPTION
#------------------------------------------------------------------------------
STRT        .FT                                          3947.5 :START DEPTH
STOP        .FT                                           10890 :STOP DEPTH
STEP        .FT                                             0.5 :STEP      
NULL        .                                           -999.25 :NULL      
COMP        .                          PALM ENERGY OFFSHORE LLC :COMPANY   
WELL        .                               OCS G21349 ST00BP00 :WELL      
FLD         .                            HIGH ISLAND BLOCK 0074 :FIELD     
LOC         .                                                   :LOCATION  
CNTY        .                                  HIGH ISLAND EAST :LOCATION  
STAT        .                                             TEXAS :STATE     
CTRY        .                                     UNITED STATES :COUNTRY   
SRVC        .                                                   :SERVICE COMPANY
DATE        .                             9/13/2023 11:20:11 AM :LOG DATE  
API         .                                    42710401490000 :API NUMBER
UWI         .                                    42710401490000 :UNIQUE WELL ID
XCOORD      .                                  1378068.78051204 :SURFACE X 
YCOORD      .                                  10648064.4011202 :SURFACE Y 
LAT         .                                        29.3379836 :LATITUDE  
LON         .                                       -93.8236467 :LONGITUDE 
ELEV        .FT                                             104 :ELEVATION VALUE
ELEV_TYPE   .                                                KB :ELEVATION REFERENCE TYPE
~Curve Information Section
#MNEM       .UNIT                                      API CODE :CURVE DESCRIPTION
#------------------------------------------------------------------------------
DEPT        .FT                                                 :DEPTH     
AHFCO90     .MMHO                                               :          
AHT10       .OHMM                                               :          
AHT20       .OHMM                                               :          
AHT30       .OHMM                                               :          
AHT60       .OHMM                                               :          
AHT90       .OHMM                                               :          
DCAL        .IN                                                 :          
DPHZ        .V/V                                                :          
DTLF        .US/F                                               :          
DTLN        .US/F                                               :          
GR          .GAPI                                               :          
GR_NORM     .GAPI                                               :GammaRay Normalized
HDRA        .G/CC                                               :          
NPOR        .V/V                                                :          
RWA         .OHMM                                               :          
SP          .MV                                                 :          
SPHI        .V/V                                                :          
TENS        .LB/F                                               :          
VSH_GR      .V/V                                                :Volume of Shale from GR
~A        DEPTH        AHFCO90          AHT10          AHT20          AHT30          AHT60          AHT90           DCAL           DPHZ           DTLF           DTLN             GR        GR_NORM           HDRA           NPOR            RWA             SP           SPHI           TENS         VSH_GR
# ...
      5338.0000        823.859         1.0775          1.149         1.1444         1.1804         1.2138         1.4008         0.2355       119.4734       119.5088         79.444       71.07461         0.0064         0.3645         0.0831        -154.75         0.3321           3152      0.8100981
      5338.5000       857.0449         1.0808         1.1257         1.1149         1.1414         1.1668         1.6227         0.2352        121.642       121.3004         82.725       74.17844          0.007         0.4143         0.0797      -153.8125         0.3365           3056      0.8761371
      5339.0000       889.9965         1.0717         1.1023         1.0877         1.1071         1.1236         1.7115         0.2374       122.1024       122.1677        89.0967       80.20608         0.0068         0.4266         0.0781      -153.8125         0.3385           3173              1
      5339.5000       909.2562         1.0714         1.0915         1.0791         1.0916         1.0998         1.7336          0.239       121.9395        121.722        82.2031       73.68473         0.0073         0.4167         0.0775      -153.8125         0.3375           3183      0.8656326
      5340.0000       923.0201         1.0903         1.0971         1.0785         1.0822         1.0834         1.4452         0.2439        120.526       120.3695        78.6244       70.29927         0.0059         0.4095         0.0796      -153.3125         0.3342           3077      0.7936015
      5340.5000       933.8813         1.1094         1.1029         1.0803         1.0782         1.0708         1.4452         0.2452       119.5329       119.6687        70.2871       62.41219         0.0045         0.4018         0.0795      -154.5625         0.3325           3164      0.6257914
      5341.0000       953.0164         1.1239         1.1044         1.0788          1.067         1.0493          1.423         0.2493       119.5856       119.5858        72.5301       64.53407         0.0008         0.3462         0.0805           -155         0.3323           3154      0.6709375
      5341.5000       967.6794         1.1323         1.1038         1.0732          1.056         1.0334         1.4785         0.2433       119.3802       119.4208        67.9941       60.24302        -0.0005         0.3566         0.0755           -156         0.3319           3095      0.5796386
      5342.0000       986.8746         1.1306         1.0921         1.0581         1.0379         1.0133         1.4896         0.2358        119.845       119.9734        70.3708       62.49136         0.0001         0.3585         0.0695           -156         0.3333           3203      0.6274758
      5342.5000       1009.795         1.1177         1.0765         1.0422         1.0187         0.9903         1.5007         0.2361       120.7553       120.9933        77.3824       69.12434         -0.001         0.3536         0.0682       -155.375         0.3357           3179      0.7686031
      5343.0000       1020.929         1.1117         1.0669         1.0319          1.008         0.9795         1.4674         0.2452       120.3516       120.8264        82.9319       74.37417        -0.0041         0.3713         0.0727      -155.3125         0.3353           3164      0.8803015
      5343.5000       1015.744         1.1238          1.078         1.0405         1.0152         0.9845          1.423          0.257       121.2052       121.5729        78.3254       70.01643        -0.0077         0.3983         0.0803       -153.875         0.3371           3202      0.7875835
      5344.0000       1013.274         1.1339         1.0807         1.0433         1.0161         0.9869          1.423         0.2642       121.9004       121.7751        73.0869        65.0608        -0.0099         0.3543          0.085      -153.6875         0.3376           3107      0.6821446
      5344.5000       1010.101         1.1462         1.0823         1.0488          1.023           0.99         1.3787         0.2747       120.0392       120.6516        72.4703        64.4775        -0.0131         0.3573         0.0922      -153.6875         0.3349           3064      0.6697341
      5345.0000       1003.815         1.1438         1.0774          1.049         1.0258         0.9962         1.4008         0.2775        120.147       120.3157        78.1936       69.89174        -0.0133         0.3622         0.0947      -154.0625         0.3341           3165      0.7849306
      5345.5000       1014.096         1.1206         1.0511         1.0261         1.0108         0.9861         1.3787         0.2705       120.0501       120.4318        78.8102       70.47504        -0.0102         0.3599         0.0891      -155.3125         0.3344           3061      0.7973413
      5346.0000       1025.115         1.0935         1.0255          1.002         0.9966         0.9755         1.4452          0.248       119.6012       119.3416        80.2489       71.83605        -0.0027         0.3712         0.0741       -154.625         0.3317           3147       0.826299
      5346.5000       1016.467         1.0906         1.0226         1.0029          0.997         0.9838         1.7115         0.2403       119.7209       120.5378        86.1112       77.38178         -0.001         0.3651         0.0701      -154.3125         0.3346           3157      0.9442933
      5347.0000       1001.803         1.0985         1.0326         1.0152         1.0056         0.9982          1.778         0.2433       121.2321       121.0974        88.3722       79.52069        -0.0013         0.3894         0.0729        -153.25          0.336           3024      0.9898019
      5347.5000       1001.502          1.107         1.0445         1.0253         1.0128         0.9985         1.4452         0.2516       121.9127       122.0615         85.372        76.6825        -0.0033         0.4148          0.078      -152.5625         0.3383           3099      0.9294149
      5348.0000       993.6407         1.1195         1.0595         1.0374          1.018         1.0064         1.4563         0.2568       122.4424       122.2773        83.7369        75.1357        -0.0061         0.3743          0.082         -151.5         0.3388           3125      0.8965042
      5348.5000       982.3182         1.1337         1.0775         1.0526         1.0255          1.018         1.2899         0.2534       121.6337       121.7505         81.476       72.99689        -0.0085         0.3681         0.0807         -151.5         0.3375           3040      0.8509976
      5349.0000       980.7767         1.1423         1.0904         1.0623         1.0316         1.0196         1.3565         0.2509       120.6355       120.3787        84.3631       75.72809        -0.0108         0.3476         0.0792      -152.4375         0.3343           3154      0.9091083
      5349.5000         1000.2         1.1252         1.0787         1.0497         1.0209         0.9998         1.4008         0.2466       120.3598       120.2465        80.4579       72.03377        -0.0104         0.3758          0.075         -153.5         0.3339           3163      0.8305057
      5350.0000       1019.576         1.0969         1.0577         1.0313         1.0093         0.9808         1.4452         0.2533       120.3922        120.483        77.6789       69.40483         -0.013         0.3824         0.0777       -154.625         0.3345           3074      0.7745709
      5350.5000       1032.098         1.0826         1.0476         1.0257         1.0036         0.9689         1.4452         0.2628       119.9456       120.2266         78.203       69.90063        -0.0131         0.3735         0.0826      -154.9375         0.3339           3175      0.7851199
      5351.0000       1039.177         1.0705         1.0386         1.0206         1.0008         0.9623         1.5451         0.2666        120.434       120.4517        75.7366       67.56742        -0.0104         0.3511         0.0844      -153.6875         0.3344           3132       0.735477
