#------------------------------------------------------------------------------
# Created by    : vladimir.rabinovich
# Created on    : 09/19/2023 17:19:33
#------------------------------------------------------------------------------
~Version Information Section
VERS.           2.0     :   CWLS log ASCII Standard - VERSION 2.0
WRAP.           NO      :   One line per depth step
~Well Information Section
#MNEM       .UNIT                                         VALUE :DESCRIPTION
#------------------------------------------------------------------------------
STRT        .FT                                          3947.5 :START DEPTH
STOP        .FT                                           10890 :STOP DEPTH
STEP        .FT                                             0.5 :STEP      
NULL        .                                           -999.25 :NULL      
COMP        .                          PALM ENERGY OFFSHORE LLC :COMPANY   
WELL        .                               OCS G21349 ST00BP00 :WELL      
FLD         .                            HIGH ISLAND BLOCK 0074 :FIELD     
LOC         .                                                   :LOCATION  
CNTY        .                                  HIGH ISLAND EAST :LOCATION  
STAT        .                                             TEXAS :STATE     
CTRY        .                                     UNITED STATES :COUNTRY   
SRVC        .                                                   :SERVICE COMPANY
DATE        .                             9/13/2023 11:20:11 AM :LOG DATE  
API         .                                    42710401490000 :API NUMBER
UWI         .                                    42710401490000 :UNIQUE WELL ID
XCOORD      .                                  1378068.78051204 :SURFACE X 
YCOORD      .                                  10648064.4011202 :SURFACE Y 
LAT         .                                        29.3379836 :LATITUDE  
LON         .                                       -93.8236467 :LONGITUDE 
ELEV        .FT                                             104 :ELEVATION VALUE
ELEV_TYPE   .                                                KB :ELEVATION REFERENCE TYPE
~Curve Information Section
#MNEM       .UNIT                                      API CODE :CURVE DESCRIPTION
#------------------------------------------------------------------------------
DEPT        .FT                                                 :DEPTH     
AHFCO90     .MMHO                                               :          
AHT10       .OHMM                                               :          
AHT20       .OHMM                                               :          
AHT30       .OHMM                                               :          
AHT60       .OHMM                                               :          
AHT90       .OHMM                                               :          
DCAL        .IN                                                 :          
DPHZ        .V/V                                                :          
DTLF        .US/F                                               :          
DTLN        .US/F                                               :          
GR          .GAPI                                               :          
GR_NORM     .GAPI                                               :GammaRay Normalized
HDRA        .G/CC                                               :          
NPOR        .V/V                                                :          
RWA         .OHMM                                               :          
SP          .MV                                                 :          
SPHI        .V/V                                                :          
TENS        .LB/F                                               :          
VSH_GR      .V/V                                                :Volume of Shale from GR
~A        DEPTH        AHFCO90          AHT10          AHT20          AHT30          AHT60          AHT90           DCAL           DPHZ           DTLF           DTLN             GR        GR_NORM           HDRA           NPOR            RWA             SP           SPHI           TENS         VSH_GR
# ...
      7646.5000       1058.313         0.8052         0.8846          0.927         0.9568         0.9449         0.6354         0.2273        114.766       115.0082        97.3241       87.98918         0.0027         0.4592         0.0602      -125.9375         0.3207           4045              1
      7647.0000       1073.192         0.7873         0.8647         0.9046         0.9383         0.9318           0.58          0.226       115.7766       115.9394         94.285        85.1142         0.0029         0.4345         0.0588      -126.0625         0.3231           4196              1
      7647.5000       1093.972         0.7724         0.8486         0.8865         0.9197         0.9141         0.5134         0.2226       115.8352       115.9063        99.3728       89.92726         0.0013         0.4192         0.0559      -126.3125          0.323           4142              1
      7648.0000       1101.807         0.7641         0.8443          0.882         0.9133         0.9076         0.4912         0.2171       115.8238       116.0488        97.7285       88.37175         -0.001         0.4419         0.0528        -126.25         0.3234           4109              1
      7648.5000        1104.85         0.7647         0.8453         0.8808          0.911         0.9051         0.4025         0.2194        115.461       115.5903        99.5845       90.12753         -0.004         0.4436         0.0538      -126.3125         0.3222           4207              1
      7649.0000       1109.139         0.7656         0.8455         0.8794         0.9086         0.9016         0.3581         0.2231       114.7782       114.8258        99.1734       89.73862        -0.0035         0.4012         0.0554      -127.1875         0.3202           4165              1
      7649.5000       1116.071         0.7631         0.8438         0.8767         0.9043          0.896         0.3581         0.2228       115.1842       115.3093        98.7624       89.34982        -0.0005         0.4037         0.0549      -127.5625         0.3215           4093              1
      7650.0000       1120.699          0.762         0.8419         0.8742         0.9009         0.8923         0.3359          0.217       115.5617       115.6412        99.5873       90.13018         0.0055         0.4038         0.0519           -127         0.3223           4241              1
      7650.5000       1124.101         0.7625         0.8407         0.8733         0.8988         0.8896         0.3359         0.2117       115.7303       115.9301        97.7374       88.38017         0.0087          0.443         0.0492        -127.25         0.3231           4117              1
      7651.0000       1128.286         0.7592         0.8393         0.8708         0.8951         0.8863         0.3359         0.2145       116.8213       116.7866        96.7097       87.40797         0.0069         0.4344         0.0504        -126.75         0.3253           4213              1
      7651.5000       1128.923          0.757           0.84         0.8695         0.8945         0.8858         0.2915         0.2157       116.7615       116.8876        98.9782       89.55397         0.0044         0.4142         0.0509      -127.0625         0.3256           4225              1
      7652.0000       1128.923          0.759         0.8392         0.8683         0.8949         0.8858         0.3026         0.2161       115.6425       115.8401         95.484       86.24845         0.0004         0.4314         0.0511      -127.5625         0.3229           4083              1
      7652.5000        1113.09         0.7697         0.8499         0.8799          0.906         0.8984         0.3692         0.2108       114.6428       114.7243        96.3062       87.02625         0.0001         0.3759         0.0493      -126.1875         0.3199           4171              1
      7653.0000       1108.647         0.7733         0.8531         0.8841         0.9111          0.902         0.4136         0.2115       114.7425        114.822        92.8004       83.70976        -0.0001         0.3893         0.0498      -124.9375         0.3202           4184              1
      7653.5000       1135.332         0.7619         0.8332         0.8643         0.8893         0.8808         0.5023         0.2128       115.0397       114.9496        95.4724       86.23748         0.0031         0.4075         0.0492       -124.875         0.3205           4051              1
      7654.0000       1156.337         0.7481         0.8203          0.849         0.8726         0.8648         0.4468         0.2178       116.2879       116.2516        96.5001       87.20969         0.0053         0.4225         0.0507      -124.9375         0.3239           4180              1
      7654.5000       1161.575         0.7426         0.8149         0.8452         0.8682         0.8609         0.4358         0.2248       117.3333       117.4787        108.461        98.5247         0.0044         0.4242         0.0537       -125.875         0.3271           4202              1
      7655.0000       1163.738         0.7413         0.8138         0.8413         0.8653         0.8593          0.469         0.2292       117.5246       117.6895       113.2218       103.0284         0.0035         0.4674         0.0557       -125.375         0.3276           4078              1
      7655.5000       1168.907         0.7425         0.8166         0.8436         0.8628         0.8555         0.4358         0.2287       117.0526       117.0049       110.8325       100.7681         0.0036         0.4494         0.0553       -125.875         0.3259           4194              1
      7656.0000       1155.535         0.7491         0.8276         0.8544         0.8757         0.8654         0.4912         0.2259       116.3222       116.3704       101.5524       91.98917         0.0038         0.4439         0.0545      -127.4375         0.3242           4162              1
      7656.5000       1147.447         0.7579         0.8346         0.8625          0.883         0.8715         0.5134          0.222       115.4923        115.696        98.0833       88.70739         0.0027         0.4525          0.053      -126.6875         0.3225           4091              1
      7657.0000       1137.527         0.7659         0.8433          0.872         0.8939         0.8791          0.469         0.2181       115.1192        115.206       101.0425        91.5068         0.0015         0.4536         0.0516        -127.25         0.3212           4242              1
      7657.5000       1138.693         0.7675         0.8445         0.8742          0.896         0.8782         0.4025          0.217        115.276       115.3404        99.4043       89.95705         0.0001         0.4112         0.0511           -127         0.3216           4150              1
      7658.0000       1140.771         0.7661         0.8413         0.8703          0.894         0.8766         0.3914         0.2203       115.4559       115.4713        94.4609        85.2806         0.0009         0.4445         0.0525      -127.5625         0.3219           4092              1
      7658.5000       1142.335         0.7622         0.8339         0.8633          0.887         0.8754         0.3803         0.2265       116.3728        116.287        96.0048       86.74113         0.0016          0.462         0.0555      -127.3125          0.324           4208              1
      7659.0000       1150.748         0.7527         0.8232         0.8553         0.8793          0.869         0.3914         0.2271       116.4253        116.501        94.9621       85.75474         0.0046         0.4411         0.0553      -127.6875         0.3246           4143              1
      7659.5000       1160.631         0.7458         0.8157         0.8455         0.8699         0.8616         0.4247         0.2287       116.6913       116.8176         97.824        88.4621         0.0051         0.4268         0.0556      -127.0625         0.3254           4096              1
