#------------------------------------------------------------------------------
# Created by    : vladimir.rabinovich
# Created on    : 09/19/2023 17:20:45
#------------------------------------------------------------------------------
~Version Information Section
VERS.           2.0     :   CWLS log ASCII Standard - VERSION 2.0
WRAP.           NO      :   One line per depth step
~Well Information Section
#MNEM       .UNIT                                         VALUE :DESCRIPTION
#------------------------------------------------------------------------------
STRT        .FT                                             565 :START DEPTH
STOP        .FT                                           11656 :STOP DEPTH
STEP        .FT                                             0.5 :STEP      
NULL        .                                           -999.25 :NULL      
COMP        .                     MITCHELL ENERGY OFFSHORE CORP :COMPANY   
WELL        .                               OCS G02394 ST00BP00 :WELL      
FLD         .                            HIGH ISLAND BLOCK 0047 :FIELD     
LOC         .                                                   :LOCATION  
CNTY        .                                  HIGH ISLAND EAST :LOCATION  
STAT        .                                             TEXAS :STATE     
CTRY        .                                     UNITED STATES :COUNTRY   
SRVC        .                                                   :SERVICE COMPANY
DATE        .                             9/13/2023 11:11:59 AM :LOG DATE  
API         .                                    42710400050000 :API NUMBER
UWI         .                                    42710400050000 :UNIQUE WELL ID
XCOORD      .                                  1370895.90844183 :SURFACE X 
YCOORD      .                                  10676661.5178287 :SURFACE Y 
LAT         .                                        29.4165067 :LATITUDE  
LON         .                                        -93.846815 :LONGITUDE 
ELEV        .FT                                              96 :ELEVATION VALUE
ELEV_TYPE   .                                                KB :ELEVATION REFERENCE TYPE
~Curve Information Section
#MNEM       .UNIT                                      API CODE :CURVE DESCRIPTION
#------------------------------------------------------------------------------
DEPT        .FT                                                 :DEPTH     
ASN         .OHMM                                               :          
CILD        .MMHO                                               :          
GR          .GAPI                                               :          
GR_NORM     .GAPI                                               :GammaRay Normalized
ILD         .OHMM                                               :          
SP          .MV                                                 :          
SP_NORM     .MV                                                 :SP Normalized
VSH_GR      .V/V                                                :Volume of Shale from GR
VSH_SP      .V/V                                                :Volume of Shale from SP
~A        DEPTH            ASN           CILD             GR        GR_NORM            ILD             SP        SP_NORM         VSH_GR         VSH_SP
# ...
      7958.5000         0.3754       4455.125        -999.25        -999.25         0.2003      -109.9026      -69.16187        -999.25     0.01197335
      7959.0000         0.3686       4212.125        -999.25        -999.25         0.2093      -107.9103      -67.16956        -999.25     0.04043481
      7959.5000         0.3657       4109.625        -999.25        -999.25         0.2269       -102.991      -62.25026        -999.25      0.1107106
      7960.0000         0.3729       4007.125        -999.25        -999.25         0.2445      -100.0295      -59.28876        -999.25      0.1530176
      7960.5000         0.3823       3904.625        -999.25        -999.25         0.2621       -98.0939      -57.35316        -999.25      0.1806691
      7961.0000         0.3917       3318.895        -999.25        -999.25         0.2746       -93.9592      -53.21846        -999.25      0.2397363
      7961.5000         0.4038       3264.703        -999.25        -999.25         0.2825       -95.5236      -54.78286        -999.25      0.2173877
      7962.0000         0.4162       3229.129        -999.25        -999.25         0.2806       -96.3114      -55.57066        -999.25      0.2061334
      7962.5000         0.4304       3250.395        -999.25        -999.25         0.2706       -96.1827      -55.44196        -999.25       0.207972
      7963.0000         0.4725       3309.586        -999.25        -999.25         0.2541       -94.6184      -53.87766        -999.25      0.2303191
      7963.5000         0.5192        3418.27        -999.25        -999.25         0.2374       -93.0737      -52.33296        -999.25      0.2523862
      7964.0000         0.5304       3562.719        -999.25        -999.25         0.2253        -98.844      -58.10326        -999.25      0.1699534
      7964.5000         0.5094       3679.734        -999.25        -999.25         0.2161      -100.9642      -60.22346        -999.25      0.1396648
      7965.0000         0.4756       4662.102        -999.25        -999.25         0.2084      -104.0487      -63.30796        -999.25     0.09560057
      7965.5000         0.4267       4710.469        -999.25        -999.25         0.2215      -106.4886      -65.74786        -999.25      0.0607448
      7966.0000         0.4023       4650.539        -999.25        -999.25         0.2358      -107.8414      -67.10066        -999.25     0.04141911
      7966.5000         0.3845       4579.883        -999.25        -999.25         0.2532      -109.0209      -68.28016        -999.25     0.02456916
      7967.0000         0.3711       4506.086        -999.25        -999.25         0.2705      -109.8337      -69.09296        -999.25     0.01295765
      7967.5000         0.3713       4430.531        -999.25        -999.25         0.2878      -110.0532      -69.31246        -999.25    0.009821974
      7968.0000         0.3838       4349.977        -999.25        -999.25         0.3108      -108.6285      -67.88776        -999.25      0.0301748
      7968.5000         0.3982       4226.789        -999.25        -999.25         0.3344      -105.0867      -64.34596        -999.25     0.08077196
      7969.0000         0.4124        3589.18        -999.25        -999.25          0.358      -101.3971      -60.65636        -999.25      0.1334805
      7969.5000         0.4248       3068.016        -999.25        -999.25         0.3788       -98.0963      -57.35556        -999.25      0.1806349
      7970.0000         0.4371       2752.258        -999.25        -999.25         0.3995       -94.2986      -53.55786        -999.25      0.2348877
      7970.5000         0.4553       2611.922        -999.25        -999.25         0.4202       -91.9963      -51.25556        -999.25      0.2677777
      7971.0000         0.4749       2511.176        -999.25        -999.25         0.4419         -89.34      -48.59926        -999.25      0.3057249
      7971.5000         0.5119       2418.957        -999.25        -999.25         0.4691       -85.0553      -44.31456        -999.25      0.3669349
      7972.0000         0.5526       2288.324        -999.25        -999.25         0.4963       -82.3792      -41.63847        -999.25      0.4051648
      7972.5000         0.5927       1963.553        -999.25        -999.25         0.5236        -77.027      -36.28626        -999.25      0.4816248
      7973.0000         0.6306       1888.975        -999.25        -999.25         0.5492       -67.4736      -26.73286        -999.25       0.618102
      7973.5000         0.6602       1796.951        -999.25        -999.25         0.5737       -56.2675      -15.52676        -999.25      0.7781891
      7974.0000         0.6797        1587.23        -999.25        -999.25         0.5824       -47.6686       -6.92786        -999.25      0.9010305
      7974.5000         0.6904       1560.967        -999.25        -999.25         0.5815       -43.7529      -3.012161        -999.25      0.9569691
      7975.0000         0.6914       1673.275        -999.25        -999.25         0.5745       -42.8526      -2.111862        -999.25      0.9698305
      7975.5000         0.6916       1737.465        -999.25        -999.25         0.5675       -42.0422       -1.30146        -999.25      0.9814077
      7976.0000         0.6918       1793.619        -999.25        -999.25         0.5604       -41.3092     -0.5684624        -999.25      0.9918791
      7976.5000         0.6919       1834.486        -999.25        -999.25         0.5521       -40.5768      0.1639366        -999.25              1
      7977.0000          0.695       1876.037        -999.25        -999.25         0.5432        -40.048      0.6927376        -999.25              1
      7977.5000          0.699       1894.107        -999.25        -999.25         0.5343       -39.5192       1.221539        -999.25              1
      7978.0000          0.703       1868.051        -999.25        -999.25          0.527       -39.1422       1.598537        -999.25              1
      7978.5000         0.7257       1825.322        -999.25        -999.25         0.5296        -39.101       1.639736        -999.25              1
      7979.0000         0.7485       1781.957        -999.25        -999.25         0.5323       -39.5548        1.18594        -999.25              1
      7979.5000          0.785       1755.008        -999.25        -999.25         0.5349       -40.4471      0.2936363        -999.25              1
      7980.0000         0.8262       1771.227        -999.25        -999.25         0.5376       -41.4666     -0.7258606        -999.25      0.9896306
      7980.5000         0.8784       1751.725        -999.25        -999.25         0.5463       -42.7333      -1.992561        -999.25      0.9715348
      7981.0000          0.924       1714.533        -999.25        -999.25         0.5565       -44.1365      -3.395763        -999.25      0.9514891
      7981.5000         0.9437       1664.701        -999.25        -999.25         0.5667       -52.6027      -11.86196        -999.25      0.8305434
      7982.0000         0.9379       1619.521        -999.25        -999.25         0.5769        -54.809      -14.06826        -999.25      0.7990249
      7982.5000         0.9179       1583.557        -999.25        -999.25         0.5871       -56.6463      -15.90556        -999.25      0.7727777
      7983.0000         0.8987        1547.59        -999.25        -999.25         0.5998       -58.6239      -17.88316        -999.25      0.7445262
      7983.5000         0.8831       1523.752        -999.25        -999.25         0.6129       -60.1956      -19.45486        -999.25      0.7220734
      7984.0000         0.8728       1509.885        -999.25        -999.25          0.626       -60.6857      -19.94496        -999.25       0.715072
      7984.5000         0.8584       1496.018        -999.25        -999.25         0.6355       -60.3051      -19.56436        -999.25      0.7205091
