#------------------------------------------------------------------------------
# Created by    : vladimir.rabinovich
# Created on    : 09/19/2023 17:21:48
#------------------------------------------------------------------------------
~Version Information Section
VERS.           2.0     :   CWLS log ASCII Standard - VERSION 2.0
WRAP.           NO      :   One line per depth step
~Well Information Section
#MNEM       .UNIT                                         VALUE :DESCRIPTION
#------------------------------------------------------------------------------
STRT        .FT                                            1142 :START DEPTH
STOP        .FT                                            9163 :STOP DEPTH
STEP        .FT                                             0.5 :STEP      
NULL        .                                           -999.25 :NULL      
COMP        .                                    ORYX ENERGY CO :COMPANY   
WELL        .                               OCS G06199 ST00BP00 :WELL      
FLD         .                            HIGH ISLAND BLOCK 0129 :FIELD     
LOC         .                                                   :LOCATION  
CNTY        .                                  HIGH ISLAND EAST :LOCATION  
STAT        .                                             TEXAS :STATE     
CTRY        .                                     UNITED STATES :COUNTRY   
SRVC        .                                                   :SERVICE COMPANY
DATE        .                             9/13/2023 11:20:11 AM :LOG DATE  
API         .                                    42710400360000 :API NUMBER
UWI         .                                    42710400360000 :UNIQUE WELL ID
XCOORD      .                                  1376484.19293712 :SURFACE X 
YCOORD      .                                  10620179.8267869 :SURFACE Y 
LAT         .                                        29.2612476 :LATITUDE  
LON         .                                        -93.828002 :LONGITUDE 
ELEV        .FT                                              93 :ELEVATION VALUE
ELEV_TYPE   .                                                KB :ELEVATION REFERENCE TYPE
~Curve Information Section
#MNEM       .UNIT                                      API CODE :CURVE DESCRIPTION
#------------------------------------------------------------------------------
DEPT        .FT                                                 :DEPTH     
CALI        .IN                                                 :          
DRHO        .G/C3                                               :          
DT          .US/F                                               :          
GR          .GAPI                                               :          
GR_1        .GAPI                                               :          
GR_NORM     .GAPI                                               :GammaRay Normalized
ILD         .OHMM                                               :          
ILM         .OHMM                                               :          
NPHI        .%                                                  :          
RFOC        .OHMM                                               :          
RHOB        .G/C3                                               :          
SP          .MV                                                 :          
SP_NORM     .MV                                                 :SP Normalized
VSH_GR      .V/V                                                :Volume of Shale from GR
VSH_SP      .V/V                                                :Volume of Shale from SP
~A        DEPTH           CALI           DRHO             DT             GR           GR_1        GR_NORM            ILD            ILM           NPHI           RFOC           RHOB             SP        SP_NORM         VSH_GR         VSH_SP
# ...
      5409.0000        12.6516         0.0578       123.5222        85.2155        99.9044       77.05343         0.9612         0.9067        39.1091         1.0077         2.2593        -65.183      -2.492111       0.937307      0.9643984
      5409.5000        12.6544         0.0559       124.8083        85.5889         99.595       77.45029         0.9137         0.8869        37.5329         1.0041         2.2599       -64.6743        -1.9842      0.9457508      0.9716543
      5410.0000        12.6573         0.0634       126.0835        85.8361         98.708       77.71289         0.8813          0.868        36.1581         1.0199         2.2615       -64.3351      -1.645782      0.9513381      0.9764888
      5410.5000        12.6603         0.0739       127.3168        84.9481        97.3691       76.76784         0.8602         0.8496          37.08         1.0236         2.2613       -64.0455      -1.356972      0.9312306      0.9806147
      5411.0000        12.6632         0.0867       128.3979        83.5609         96.229       75.29173         0.8396         0.8396        38.5125          1.016         2.2595       -63.9282      -1.240456      0.8998241      0.9822792
      5411.5000        12.6661          0.092       129.0344        82.3326        94.6207       73.98466         0.8227         0.8315        39.5208         1.0075         2.2576        -64.047      -1.360039       0.872014      0.9805709
      5412.0000         12.669         0.0896       128.8718        81.4868        92.7581        73.0845         0.8073          0.824        40.0791         0.9964         2.2563       -64.4159      -1.729729      0.8528616      0.9752896
      5412.5000        12.6712         0.0835       128.6216        82.1848        93.0101       73.82668         0.7935         0.8198        38.5139         0.9922         2.2542       -64.6361      -1.950714      0.8686526      0.9721327
      5413.0000        12.6775         0.0768        128.478        85.0533        95.5521       76.87791         0.7907         0.8156        37.5477         0.9942         2.2513       -64.1597      -1.475098      0.9335725      0.9789272
      5413.5000        12.6879         0.0698        128.468         88.152        97.7335       80.17403         0.7878         0.8122        37.9792         0.9947         2.2491       -63.6829     -0.9990845              1      0.9857274
      5414.0000        12.6981         0.0622       128.8628        89.2595       100.0927       81.35184          0.785         0.8112        39.0818         0.9951         2.2488       -63.3978     -0.7147713              1       0.989789
      5414.5000        12.7061         0.0548       129.4153        88.4081       103.9441       80.44572         0.7893         0.8102        39.5975         0.9969         2.2478       -63.1126     -0.4303551              1      0.9938521
      5415.0000        12.7142         0.0475       129.9934        87.4905       105.1039       79.46918         0.7941         0.8092        39.0406         0.9991         2.2461       -63.2057     -0.5242424      0.9887059      0.9925108
      5415.5000        12.7223         0.0498       129.6326        88.0011       102.9337         80.012          0.799         0.8158        37.1523         1.0014         2.2444       -63.3224     -0.6417236              1      0.9908325
      5416.0000        12.7262         0.0604       129.1433        87.8624        99.0774       79.86407         0.8124         0.8227        34.7213         1.0015         2.2471       -63.4458     -0.7659111       0.997108      0.9890584
      5416.5000        12.7295         0.0712       127.9999         86.842        95.6534       78.77818         0.8293         0.8323         33.991         1.0006         2.2537       -63.5957     -0.9165955      0.9740037      0.9869058
      5417.0000        12.7329         0.0735       127.0214        86.6991        93.1854       78.62578         0.8485         0.8531        34.2476         1.0037          2.262       -63.7457      -1.067383      0.9707612      0.9847517
      5417.5000        12.7261         0.0685       126.2231        88.4514        90.8657       80.48956         0.8849         0.8745         34.354         1.0183         2.2669       -63.9574      -1.279869              1      0.9817162
      5418.0000        12.7175         0.0618       125.3597        90.0886        91.0968       82.23089         0.9228         0.9069        34.2403         1.0243         2.2718       -64.3407      -1.663952              1      0.9762293
      5418.5000        12.7114         0.0543       124.1843        89.5894        92.0565       81.69946         0.9663         0.9515        33.8457         1.0194         2.2782        -64.724      -2.048038              1      0.9707423
      5419.0000        12.7108         0.0489       122.9166        88.4849        89.5095       80.52409          1.012         1.0079         32.864         1.0332         2.2788       -65.1073      -2.432125              1      0.9652554
      5419.5000        12.7102         0.0466       121.4298        87.5153         85.757       79.49222         1.0698         1.0776        32.3344         1.0833         2.2843         -65.48      -2.805614      0.9891961      0.9599198
      5420.0000        12.7095         0.0471       118.7885        86.6906        81.9921       78.61451         1.1305         1.1533        33.4334         1.1597         2.2909       -65.8517      -3.178097      0.9705215      0.9545986
      5420.5000        12.7088         0.0484       115.0789         83.598        79.9788       75.32414          1.191         1.1626        34.7921         1.2276         2.2972       -66.1841       -3.51128      0.9005136      0.9498389
      5421.0000        12.7081         0.0458       111.8036        79.9177         82.202       71.40855         1.2434          1.158        35.8173         1.2863         2.2972       -66.3109      -3.638866      0.8172033      0.9480162
      5421.5000        12.7084         0.0414       110.7212        78.3646        84.6157       69.75594         1.2869         1.1546        35.5031         1.2422         2.2944       -66.4376      -3.766354      0.7820414      0.9461949
      5422.0000        12.7092         0.0488       109.8621          79.08        86.0658       70.51664         1.3188         1.1529        29.1067         1.1913         2.2911       -66.0693      -3.398838      0.7982264      0.9514452
      5422.5000        12.7099         0.0474       110.0436        78.3041        85.8969       69.69085         1.3263         1.1554        28.0482         1.1457          2.287       -65.4391      -2.769428      0.7806564      0.9604368
      5423.0000        12.7079         0.0413       110.8843        76.0048         86.839       67.24441         1.3006          1.148        28.3683         1.1449          2.283       -64.8906      -2.221714      0.7286044      0.9682612
      5423.5000         12.706         0.0399       111.2538        73.3961        88.5361       64.46883         1.2574         1.1315        29.1628         1.1503         2.2822       -64.4548      -1.786697      0.6695495      0.9744757
      5424.0000        12.7042         0.0495       110.9119        73.9456        90.4803       65.05302         1.2065         1.0956        30.8828         1.1612         2.2818       -64.0718       -1.40448      0.6819792       0.979936
      5424.5000        12.7036         0.0597       110.8058         77.001        93.2151       68.30309         1.1549         1.0503        32.6147         1.1581         2.2781       -63.9908      -1.324265      0.7511294       0.981082
      5425.0000         12.703          0.054       111.1575          77.97        97.5803       69.33356          1.107         1.0036         37.347         1.1299         2.2727       -63.9574      -1.291653      0.7730545      0.9815478
      5425.5000        12.7021         0.0496       112.3636        79.3856       101.3156       70.83914         1.0613         0.9643        37.9928         1.0957         2.2675       -64.1906      -1.525635      0.8050881      0.9782052
