#------------------------------------------------------------------------------
# Created by    : vladimir.rabinovich
# Created on    : 09/19/2023 17:20:10
#------------------------------------------------------------------------------
~Version Information Section
VERS.           2.0     :   CWLS log ASCII Standard - VERSION 2.0
WRAP.           NO      :   One line per depth step
~Well Information Section
#MNEM       .UNIT                                         VALUE :DESCRIPTION
#------------------------------------------------------------------------------
STRT        .FT                                             613 :START DEPTH
STOP        .FT                                           12130 :STOP DEPTH
STEP        .FT                                             0.5 :STEP      
NULL        .                                           -999.25 :NULL      
COMP        .                                 CITIES SERVICE CO :COMPANY   
WELL        .                               OCS G03060 ST00BP00 :WELL      
FLD         .                                           WILDCAT :FIELD     
LOC         .                                                   :LOCATION  
CNTY        .                               MUSTANG ISLAND EAST :LOCATION  
STAT        .                                             TEXAS :STATE     
CTRY        .                                     UNITED STATES :COUNTRY   
SRVC        .                                                   :SERVICE COMPANY
DATE        .                             9/13/2023 11:12:08 AM :LOG DATE  
API         .                                    42712400440000 :API NUMBER
UWI         .                                    42712400440000 :UNIQUE WELL ID
XCOORD      .                                  632657.308411808 :SURFACE X 
YCOORD      .                                  10083439.8406154 :SURFACE Y 
LAT         .                                        27.7518805 :LATITUDE  
LON         .                                       -96.1160164 :LONGITUDE 
ELEV        .FT                                             103 :ELEVATION VALUE
ELEV_TYPE   .                                                KB :ELEVATION REFERENCE TYPE
~Curve Information Section
#MNEM       .UNIT                                      API CODE :CURVE DESCRIPTION
#------------------------------------------------------------------------------
DEPT        .FT                                                 :DEPTH     
ASFL        .OHMM                                               :          
CILD        .MMHO                                               :          
GR          .GAPI                                               :          
GR_NORM     .GAPI                                               :GammaRay Normalized
ILD         .OHMM                                               :          
SP          .MV                                                 :          
SP_NORM     .MV                                                 :SP Normalized
VSH_GR      .V/V                                                :Volume of Shale from GR
VSH_SP      .V/V                                                :Volume of Shale from SP
~A        DEPTH           ASFL           CILD             GR        GR_NORM            ILD             SP        SP_NORM         VSH_GR         VSH_SP
# ...
     11345.5000         1.3027       1190.813        60.7379       68.79796         0.8251       -62.5884      -11.82933      0.7616587      0.7634133
     11346.0000         1.2899       1168.359        58.8719       66.36179         0.8535       -61.2748      -10.52365      0.7098252      0.7895271
     11346.5000         1.2772       1146.252        56.4885       63.25013         0.8596       -60.1627      -9.419468      0.6436198      0.8116106
     11347.0000         1.2644       1142.078        54.1001       60.13195         0.8544        -59.435      -8.699684      0.5772755      0.8260063
     11347.5000         1.2516       1177.748        49.8059       54.52563          0.807       -58.6824      -7.954998      0.4579921      0.8409001
     11348.0000         1.1979       1210.834        51.3534       56.54598         0.7595       -57.7171      -6.997616      0.5009783      0.8600477
     11348.5000         1.1207       1243.871        53.1596       58.90407         0.7121       -56.7468      -6.035233      0.5511504      0.8792953
     11349.0000         1.0493       1276.957        55.0007       61.30774         0.6994       -56.4159       -5.71225      0.6022922       0.885755
     11349.5000          1.001        1298.07        56.4835       63.24361         0.7152       -56.9209      -6.225166       0.643481      0.8754967
     11350.0000         0.9528       1202.885        57.9638       65.17622         0.7942       -58.3615      -7.673683      0.6846005      0.8465263
     11350.5000         1.6925       1102.535        52.3685       57.87125         0.8908       -61.1828       -10.5029      0.5291755       0.789942
     11351.0000         1.9609       991.6514        46.8552       50.67333         0.9875        -64.009      -13.33702      0.3760283      0.7332596
     11351.5000         1.9815       855.7305        41.3022       43.42358         1.0969       -71.3335      -20.66944      0.2217782      0.5866113
     11352.0000         1.9596       780.0205        37.0031       37.81087         1.9756       -77.2622      -26.60605      0.1023589      0.4678789
     11352.5000         1.9251       729.4473        34.0076       33.90007         2.2068       -78.3693      -27.72107     0.01915043      0.4455786
     11353.0000         1.8781       710.5693        32.7885       32.30847         2.3649       -78.2748      -27.63449              0      0.4473103
     11353.5000         1.8221       697.0811        32.2089       31.55177         2.4853       -77.3468      -26.71441              0      0.4657119
     11354.0000         1.7662       787.9687        34.5848       34.65364         2.3731       -76.4163      -25.79182     0.03518376      0.4841637
     11354.5000         1.7104       911.9668        37.7097       38.73337         2.0939       -73.2043      -22.58773      0.1219866      0.5482453
     11355.0000         1.6538        987.876        42.3372       44.77483         1.8236       -69.5919      -18.98326      0.2505282      0.6203349
     11355.5000         1.5937       1032.389        47.5966       51.64126         1.5256       -66.8403      -16.23957      0.3966226      0.6752086
     11356.0000         1.5336       1075.707        50.7712       55.78588         1.1786       -65.5515      -14.95869       0.484806      0.7008263
     11356.5000         1.4736       1104.123        53.1149       58.84571         1.0987       -64.2603       -13.6754      0.5499088      0.7264919
     11357.0000         1.2884       1132.416        55.1301       61.47667         1.0442       -64.0836      -13.50662      0.6058866      0.7298676
     11357.5000         1.1977        1138.08        56.6104       63.40929         0.9899       -65.8899      -15.32084      0.6470061      0.6935833
     11358.0000         1.1585       1124.988        54.6226        60.8141          0.961       -67.6962      -17.13505      0.5917893       0.657299
     11358.5000         1.1986       1096.473         51.438       56.65643         0.9462       -68.7809      -18.22767      0.5033282      0.6354466
     11359.0000         1.3243       1048.584        48.2535       52.49889         0.9402       -69.8357      -19.29039      0.4148699      0.6141922
     11359.5000         1.8104       1000.594        46.2482       49.88086         0.9614       -70.8906      -20.35321      0.3591671      0.5929359
     11360.0000          1.791       952.7031        45.4122       48.78941         0.9827       -71.9456      -21.41612       0.335945      0.5716776
     11360.5000         1.7497       922.1514        44.5775       47.69966         1.0039       -73.0004      -22.47884      0.3127587      0.5504233
     11361.0000         1.7083       948.5303        43.7416       46.60835         1.0251       -73.9482      -23.43455      0.2895393      0.5313089
     11361.5000         1.6669       973.4199        43.1855       45.88233         1.0293        -74.793      -24.28727      0.2740921      0.5142545
     11362.0000         1.6255       997.5635        42.8491       45.44314         1.0272       -75.6102      -25.11239      0.2647476      0.4977522
     11362.5000         1.5844       1021.757        43.1855       45.88233         1.0212       -74.4285       -23.9386      0.2740921       0.521228
     11363.0000         1.5439       1042.025        44.8674       48.07815          1.015       -73.2467      -22.76472      0.3208117      0.5447056
     11363.5000         1.5035       1019.124        46.5517       50.27709         1.0087       -71.4828      -21.00874      0.3675977      0.5798252
     11364.0000         1.4631       996.1729        48.7311       53.12242         1.0025       -69.5272      -19.06105      0.4281365      0.6187789
     11364.5000          1.443       973.2207        51.0748       56.18225         0.9963       -67.6003      -17.14208      0.4932393      0.6571584
     11365.0000         1.4667       950.2197        50.3309       55.21104          1.015       -67.0865      -16.63619      0.4725754      0.6672761
     11365.5000         1.5682       927.2676        48.7162       53.10297         1.0344       -66.5715      -16.12911      0.4277227      0.6774178
     11366.0000          1.881       902.8262        47.1389       51.04371         1.0539       -66.0566      -15.62213      0.3839088      0.6875575
     11366.5000         1.7678       885.8857        45.5715       48.99738         1.0734       -66.0842      -15.65764      0.3403699      0.6868472
     11367.0000         1.5116       978.3379        46.8652       50.68638         1.0896       -65.5416      -15.12296       0.376306      0.6975408
     11367.5000         1.3835       1070.242        49.7462       54.44769         1.0523       -64.1234      -13.71267      0.4563337      0.7257465
     11368.0000         1.3101       1137.607        52.6223       58.20259          1.015       -61.5261      -11.12329      0.5362254      0.7775342
     11368.5000         1.2598       1204.973        54.4857       60.63536         0.9539        -60.098       -9.70311      0.5879865      0.8059378
     11369.0000         1.2095       1264.289        55.9163        62.5031         0.8786       -59.4773      -9.090324      0.6277255      0.8181935
     11369.5000         1.1375       1322.016        57.3468        64.3707         0.8033       -59.0237      -8.644642      0.6674616      0.8271072
     11370.0000         1.0744       1337.465        58.4838       65.85511         0.7582       -59.0209      -8.649761      0.6990449      0.8270048
     11370.5000         1.0218       1306.068        59.5013       67.18352         0.7776       -58.3665      -8.003277      0.7273089      0.8399345
     11371.0000         0.9774       1274.672        60.4244       68.38866         0.7971       -55.7591      -5.403793      0.7529503      0.8919241
     11371.5000         0.9967       1243.225        61.0601       69.21861         0.8165       -53.9404       -3.59301      0.7706086      0.9281398
