#------------------------------------------------------------------------------
# Created by    : vladimir.rabinovich
# Created on    : 09/19/2023 17:21:38
#------------------------------------------------------------------------------
~Version Information Section
VERS.           2.0     :   CWLS log ASCII Standard - VERSION 2.0
WRAP.           NO      :   One line per depth step
~Well Information Section
#MNEM       .UNIT                                         VALUE :DESCRIPTION
#------------------------------------------------------------------------------
STRT        .FT                                            1242 :START DEPTH
STOP        .FT                                            7802 :STOP DEPTH
STEP        .FT                                             0.5 :STEP      
NULL        .                                           -999.25 :NULL      
COMP        .                                    CITIES SERVICE :COMPANY   
WELL        .                               OCS G03070 ST00BP00 :WELL      
FLD         .                                           WILDCAT :FIELD     
LOC         .                                                   :LOCATION  
CNTY        .                               MUSTANG ISLAND EAST :LOCATION  
STAT        .                                             TEXAS :STATE     
CTRY        .                                     UNITED STATES :COUNTRY   
SRVC        .                                                   :SERVICE COMPANY
DATE        .                             9/13/2023 11:20:08 AM :LOG DATE  
API         .                                    42712400230000 :API NUMBER
UWI         .                                    42712400230000 :UNIQUE WELL ID
XCOORD      .                                  541821.370048326 :SURFACE X 
YCOORD      .                                   9995115.4612029 :SURFACE Y 
LAT         .                                         27.502648 :LATITUDE  
LON         .                                       -96.3890109 :LONGITUDE 
ELEV        .FT                                              64 :ELEVATION VALUE
ELEV_TYPE   .                                                KB :ELEVATION REFERENCE TYPE
~Curve Information Section
#MNEM       .UNIT                                      API CODE :CURVE DESCRIPTION
#------------------------------------------------------------------------------
DEPT        .FT                                                 :DEPTH     
CALI        .IN                                                 :          
CILD        .MMHO                                               :          
DRHO        .G/C3                                               :          
DT          .US/F                                               :          
GR          .GAPI                                               :          
GR_1        .GAPI                                               :          
GR_NORM     .GAPI                                               :GammaRay Normalized
ILD         .OHMM                                               :          
NPHI        .%                                                  :          
RHOB        .G/C3                                               :          
SFL         .OHMM                                               :          
SP          .MV                                                 :          
SP_NORM     .MV                                                 :SP Normalized
VSH_GR      .V/V                                                :Volume of Shale from GR
VSH_SP      .V/V                                                :Volume of Shale from SP
~A        DEPTH           CALI           CILD           DRHO             DT             GR           GR_1        GR_NORM            ILD           NPHI           RHOB            SFL             SP        SP_NORM         VSH_GR         VSH_SP
# ...
      6478.0000        12.2715       1468.986         0.0122       117.2416        40.4023        46.4092       59.52312         0.6234        32.7504         2.3927         0.7965       -69.9752      -22.02198      0.5643218      0.4494505
      6478.5000        12.2561       1492.311         0.0068       119.8511        38.6929        43.5297       55.92375         0.6018        33.1994         2.4222         0.8141       -70.4504      -22.49718      0.4877394      0.4375704
      6479.0000        12.2377       1511.766         0.0003       122.6927        37.6777        39.0627          50.34         0.5766        33.1259         2.4088         0.8884       -70.9282      -22.97498      0.3689362      0.4256254
      6479.5000        12.2207       1551.254        -0.0057       125.4659        37.1859        38.2272       49.29562         0.5536        33.0417         2.3917          1.314       -71.3232      -23.36998      0.3467154      0.4157505
      6480.0000        12.1841       1609.762        -0.0016       132.0386        38.5157        37.4335        48.3035         0.5361        33.0609         2.3861         2.2813       -70.1993      -22.24609      0.3256063      0.4438478
      6480.5000        12.1616       1666.141         0.0044       135.2197        41.4658        37.3679        48.2215         0.5227        33.4164         2.3564         2.1852       -67.7256      -19.77238      0.3238618      0.5056904
      6481.0000        12.1586       1724.357         0.0033        138.626        44.5721        39.1819         50.489         0.5116        34.2174          2.305         1.9812       -65.4393      -17.48608      0.3721064      0.5628479
      6481.5000        12.1652       1796.318         0.0015       141.5334        46.5654        40.6884       52.37213         0.4981        35.8396          2.272         1.6762       -63.8779      -15.92468      0.4121729      0.6018829
      6482.0000        12.1714       1832.854        -0.0009       143.4492        47.4126        42.1937       54.25375          0.475        37.3208         2.2704         1.3849       -64.2445      -16.29128      0.4522074      0.5927179
      6482.5000        12.1771       1864.213        -0.0031        144.198        47.6262         43.718       56.15913          0.452        38.4426         2.2693         1.3153       -65.6307      -17.67748      0.4927474      0.5580629
      6483.0000        12.1783       1914.543         -0.005       144.0813        47.4126        45.2448       58.06763         0.4328        39.7358         2.2547         1.2474       -67.1157      -19.16248      0.5333537      0.5209379
      6483.5000        12.1801       1971.113         -0.008       143.4211        46.8195        46.8145       60.02975         0.4125        42.1091         2.2431         1.0955       -69.7426      -21.78938      0.5751011      0.4552654
      6484.0000        12.1814       2019.459        -0.0218       142.7754        45.9431        49.7463        63.6945          0.392         44.251         2.2125         0.8983        -72.241      -24.28778      0.6530744      0.3928055
      6484.5000        12.1782        2201.32        -0.0257       142.0747        44.5399        50.5795         64.736         0.3707        43.1025         2.1908         0.6883       -73.4952      -25.54198       0.675234      0.3614504
      6485.0000        12.1723       2281.844        -0.0232       141.4155         42.269        49.9609       63.96275         0.3508        42.0524         2.1929          0.681       -74.4037      -26.45049      0.6587819      0.3387379
      6485.5000         12.164       2334.934        -0.0269        140.877        40.6415        48.8692       62.59813         0.3279        40.7121         2.1903         0.6662       -75.4875      -27.53429      0.6297475      0.3116428
      6486.0000        12.1537       2453.738        -0.0379       140.3228        39.9288        47.6845       61.11725         0.3025        40.4689         2.1773         0.6259       -76.8231      -28.86988      0.5982394       0.278253
      6486.5000        12.1432       2597.949        -0.0402       139.3723        39.4138        46.0231        59.0405         0.2904        41.0835         2.1661          0.572       -77.9391      -29.98589      0.5540533      0.2503529
      6487.0000         12.138       2828.883        -0.0341       137.4604        38.9607        43.8301       56.29925         0.2859        41.7585         2.1727         0.5296       -78.1205      -30.16728      0.4957288      0.2458179
      6487.5000         12.142       3189.121        -0.0317        135.551        38.6537        41.1937       53.00375         0.2815        42.5655         2.1692         0.4993       -77.8955      -29.94228      0.4256117      0.2514429
      6488.0000        12.1503       3313.977        -0.0345       134.5244        39.4577        39.8297       51.29875         0.2798        43.5201         2.1646         0.4636       -76.8158      -28.86259      0.3893352      0.2784353
      6488.5000        12.1584       3353.004        -0.0255        134.552        42.7103        39.0681       50.34675         0.2865        43.6368         2.1857         0.4234       -74.1667      -26.21349      0.3690798      0.3446628
      6489.0000        12.1703       3322.734         -0.008       135.0723        44.0751        38.1855        49.2435         0.3045        43.7075         2.2208         0.3967       -70.0833      -22.13008      0.3456064       0.446748
      6489.5000        12.1831       3258.035              0       135.0569        45.0134        40.0257       51.54375         0.3216        43.7325         2.2514         0.3978        -66.691      -18.73779      0.3945479      0.5315554
      6490.0000         12.198       3126.211           0.03       135.1157        46.1117        42.0781       54.10925         0.3477        43.2338         2.2901         0.4693       -64.1753      -16.22208      0.4491329      0.5944479
      6490.5000        12.2092       2746.422         0.0323       135.8711        47.9314        43.9159        56.4065         0.3902        40.9127         2.3148         0.5157       -61.6917      -13.73848      0.4980107      0.6565379
      6491.0000        12.2271       2589.238         0.0206       137.3357        49.8726        45.8681       58.84675         0.4358        40.4719         2.2877         0.5348       -58.6427      -10.68948      0.5499308      0.7327629
      6491.5000        12.2628       2454.898         0.0126       138.4458         52.188        47.9705       61.47475         0.4896        40.4265         2.2689         0.5449       -54.8111      -6.857883      0.6058458      0.8285529
      6492.0000         12.315       2388.215         0.0255       137.5398        54.5308        50.6712       64.85062         0.5365        41.3468         2.3045         0.5529       -51.4387      -3.485485      0.6776729      0.9128629
      6492.5000         12.381       2309.816         0.0271       135.9675        55.7056        53.0382       67.80937         0.5796        43.3546         2.3071         0.5613       -48.9476     -0.9943848       0.740625      0.9751404
      6493.0000         12.455       2195.898         0.0143       134.8491         55.616        54.6138       69.77888         0.6131          44.97         2.2868         0.5759       -49.3673      -1.414082      0.7825295      0.9646479
      6493.5000        12.5253       2053.914          0.026       134.2297        54.6982        55.8295       71.29851         0.6431         45.441         2.2935         0.6053       -50.6844      -2.731182      0.8148619      0.9317204
      6494.0000        12.6092       1873.215         0.0398       133.4985        53.7896        57.0809       72.86275         0.6727        44.0363         2.2965         0.6391       -51.8251      -3.871883      0.8481436      0.9032029
      6494.5000        12.7002       1630.377         0.0415       132.6965        52.7669        56.6703        72.3495         0.7059        43.7402         2.3012         0.6537       -52.6268      -4.673584      0.8372235      0.8831604
