#------------------------------------------------------------------------------
# Created by    : vladimir.rabinovich
# Created on    : 09/19/2023 17:20:47
#------------------------------------------------------------------------------
~Version Information Section
VERS.           2.0     :   CWLS log ASCII Standard - VERSION 2.0
WRAP.           NO      :   One line per depth step
~Well Information Section
#MNEM       .UNIT                                         VALUE :DESCRIPTION
#------------------------------------------------------------------------------
STRT        .FT                                            1960 :START DEPTH
STOP        .FT                                           13420 :STOP DEPTH
STEP        .FT                                             0.5 :STEP      
NULL        .                                           -999.25 :NULL      
COMP        .                                 CALIFORNIA CO THE :COMPANY   
WELL        .                                     ST TR 00002-L :WELL      
FLD         .                                           WILDCAT :FIELD     
LOC         .                                                   :LOCATION  
CNTY        .                                       SABINE PASS :LOCATION  
STAT        .                                             TEXAS :STATE     
CTRY        .                                     UNITED STATES :COUNTRY   
SRVC        .                                                   :SERVICE COMPANY
DATE        .                             9/13/2023 11:12:08 AM :LOG DATE  
API         .                                    42715000310000 :API NUMBER
UWI         .                                    42715000310000 :UNIQUE WELL ID
XCOORD      .                                  1372392.72802961 :SURFACE X 
YCOORD      .                                   10750257.969662 :SURFACE Y 
LAT         .                                         29.618979 :LATITUDE  
LON         .                                       -93.8437903 :LONGITUDE 
ELEV        .FT                                              11 :ELEVATION VALUE
ELEV_TYPE   .                                                KB :ELEVATION REFERENCE TYPE
~Curve Information Section
#MNEM       .UNIT                                      API CODE :CURVE DESCRIPTION
#------------------------------------------------------------------------------
DEPT        .FT                                                 :DEPTH     
ASN         .OHMM                                               :          
IL          .OHMM                                               :          
SP          .MV                                                 :          
SP_NORM     .MV                                                 :SP Normalized
VSH_SP      .V/V                                                :Volume of Shale from SP
~A        DEPTH            ASN             IL             SP        SP_NORM         VSH_SP
      1960.0000        -999.25        -999.25       -24.2996       2.396101              1
      1960.5000        -999.25        -999.25       -24.5304       2.134688              1
      1961.0000        -999.25        -999.25       -24.7611       1.873386              1
      1961.5000        -999.25        -999.25       -24.9918       1.612086              1
      1962.0000        -999.25        -999.25       -25.2225       1.350786              1
      1962.5000        -999.25        -999.25       -25.4532       1.089486              1
      1963.0000        -999.25        -999.25       -25.7305      0.7754038              1
      1963.5000        -999.25        -999.25       -26.0313      0.4347045              1
      1964.0000        -999.25        -999.25        -26.261      0.1745364              1
      1964.5000        -999.25        -999.25       -26.4536    -0.04361087      0.9993291
      1965.0000        -999.25        -999.25       -26.6744     -0.2936988      0.9954816
      1965.5000        -999.25        -999.25       -27.0106     -0.6744919      0.9896232
      1966.0000        -999.25        -999.25       -27.3466      -1.055061      0.9837683
      1966.5000        -999.25        -999.25       -27.8381      -1.611755      0.9752038
      1967.0000        -999.25        -999.25       -28.3294      -2.168221      0.9666427
      1967.5000        -999.25        -999.25       -28.8023      -2.703848      0.9584023
      1968.0000        -999.25        -999.25       -29.1855      -3.137877       0.951725
      1968.5000        -999.25        -999.25       -29.5215      -2.845755      0.9562191
      1969.0000        -999.25        -999.25       -29.6794      -1.895547      0.9708378
      1969.5000        -999.25        -999.25       -29.8117     -0.9163447      0.9859024
      1970.0000        -999.25        -999.25       -29.9441      0.0627472              1
      1970.5000        -999.25        -999.25        -30.087       1.029944              1
      1971.0000        -999.25        -999.25       -30.3879       1.818185              1
      1971.5000        -999.25        -999.25       -30.6864       2.609145              1
      1972.0000        -999.25        -999.25       -30.9433       3.447221              1
      1972.5000        -999.25        -999.25       -31.2651       4.211788              1
      1973.0000        -999.25        -999.25        -31.761       4.779164              1
      1973.5000        -999.25        -999.25       -32.8242        4.70399              1
      1974.0000        -999.25        -999.25       -34.4294       4.014922              1
      1974.5000        -999.25        -999.25       -35.2061       4.264252              1
      1975.0000        -999.25        -999.25       -35.9828       4.513582              1
      1975.5000        -999.25        -999.25       -36.9588       4.537173              1
      1976.0000        -999.25        -999.25       -38.0582       4.420998              1
      1976.5000        -999.25        -999.25       -39.1579       4.304482              1
      1977.0000        -999.25        -999.25       -40.2571       4.188536              1
      1977.5000        -999.25        -999.25       -40.9145       4.572987              1
      1978.0000        -999.25        -999.25       -41.4103       5.140475              1
      1978.5000        -999.25        -999.25       -42.3445       5.211411              1
      1979.0000        -999.25        -999.25       -43.2955       5.263321              1
      1979.5000        -999.25        -999.25       -44.2827       5.274235              1
      1980.0000        -999.25        -999.25       -45.2699       5.285141              1
      1980.5000        -999.25        -999.25       -46.7612       4.725084              1
      1981.0000        -999.25        -999.25       -48.2994       4.111905              1
      1981.5000        -999.25        -999.25       -49.5576       3.815869              1
      1982.0000        -999.25        -999.25       -50.8152       3.520506              1
      1982.5000        -999.25        -999.25       -52.4884       2.754422              1
      1983.0000        -999.25        -999.25       -54.0772       2.083929              1
      1983.5000        -999.25        -999.25       -55.5282       1.569521              1
      1984.0000        -999.25        -999.25       -56.8545       1.196347              1
      1984.5000        -999.25        -999.25       -59.1421     -0.2656359      0.9959133
      1985.0000        -999.25        -999.25        -60.793      -1.006461       0.984516
      1985.5000        -999.25        -999.25       -62.1541      -1.419048      0.9781685
      1986.0000        -999.25        -999.25       -64.0049      -2.386291      0.9632878
      1986.5000        -999.25        -999.25       -66.4155      -3.987586      0.9386525
      1987.0000        -999.25        -999.25        -68.213      -4.894459      0.9247006
      1987.5000        -999.25        -999.25       -69.5562      -5.286769      0.9186651
      1988.0000        -999.25        -999.25       -70.7734      -5.536375       0.914825
      1988.5000        -999.25        -999.25       -72.5654      -6.437015       0.900969
      1989.0000        -999.25        -999.25       -75.2523      -8.351261      0.8715191
      1989.5000        -999.25        -999.25       -78.2404      -10.60666      0.8368206
      1990.0000        -999.25        -999.25       -80.8003      -12.37706      0.8095836
      1990.5000        -999.25        -999.25       -83.4224      -14.21791      0.7812629
      1991.0000        -999.25        -999.25       -86.7241      -16.82851      0.7410999
      1991.5000        -999.25        -999.25       -92.2307      -21.93646       0.662516
      1992.0000        -999.25        -999.25       -94.4769      -23.35155      0.6407453
      1992.5000        -999.25        -999.25       -94.9487      -22.75688      0.6498942
      1993.0000        -999.25        -999.25       -95.2666      -22.42055      0.6550685
      1993.5000        -999.25        -999.25       -95.4594      -22.63891       0.651709
      1994.0000        -999.25        -999.25       -95.6519      -22.85695      0.6483545
      1994.5000        -999.25        -999.25       -96.1539      -23.42554      0.6396071
      1995.0000        -999.25        -999.25       -96.8685      -24.23493       0.627155
      1995.5000          3.538        -999.25        -97.968      -25.48027      0.6079959
      1996.0000         3.5997        -999.25       -99.4019      -27.10436      0.5830098
      1996.5000         3.6534        -999.25      -102.3049      -30.39243      0.5324242
      1997.0000         3.6899        -999.25      -104.7668      -33.18088      0.4895249
      1997.5000         3.7239        -999.25      -106.6649      -35.33075        0.45645
      1998.0000         3.6001        -999.25      -108.0675      -36.91938      0.4320095
      1998.5000         3.5418         1.5579      -109.0179      -37.99585      0.4154484
      1999.0000         3.5475         1.5453      -110.0033      -39.11197      0.3982775
      1999.5000          3.589         1.5345      -111.3295      -40.61407      0.3751681
      2000.0000         3.6304         1.5289      -112.3387      -41.75714      0.3575824
      2000.5000         3.6718         1.5233      -112.8336      -42.31768      0.3489588
      2001.0000          3.703         1.5191      -112.8202      -42.30251      0.3491922
      2001.5000         3.6142         1.5187      -112.7759      -42.25233      0.3499642
      2002.0000         3.5651         1.5183      -112.7136      -42.18177      0.3510498
      2002.5000         3.5172         1.5179      -112.5043      -41.94471      0.3546968
      2003.0000         3.4677          1.518      -112.2949      -41.70752      0.3583458
      2003.5000         3.4407          1.527      -112.0854      -41.47024      0.3619963
