#------------------------------------------------------------------------------
# Created by    : vladimir.rabinovich
# Created on    : 09/19/2023 17:20:10
#------------------------------------------------------------------------------
~Version Information Section
VERS.           2.0     :   CWLS log ASCII Standard - VERSION 2.0
WRAP.           NO      :   One line per depth step
~Well Information Section
#MNEM       .UNIT                                         VALUE :DESCRIPTION
#------------------------------------------------------------------------------
STRT        .FT                                             613 :START DEPTH
STOP        .FT                                           12130 :STOP DEPTH
STEP        .FT                                             0.5 :STEP      
NULL        .                                           -999.25 :NULL      
COMP        .                                 CITIES SERVICE CO :COMPANY   
WELL        .                               OCS G03060 ST00BP00 :WELL      
FLD         .                                           WILDCAT :FIELD     
LOC         .                                                   :LOCATION  
CNTY        .                               MUSTANG ISLAND EAST :LOCATION  
STAT        .                                             TEXAS :STATE     
CTRY        .                                     UNITED STATES :COUNTRY   
SRVC        .                                                   :SERVICE COMPANY
DATE        .                             9/13/2023 11:12:08 AM :LOG DATE  
API         .                                    42712400440000 :API NUMBER
UWI         .                                    42712400440000 :UNIQUE WELL ID
XCOORD      .                                  632657.308411808 :SURFACE X 
YCOORD      .                                  10083439.8406154 :SURFACE Y 
LAT         .                                        27.7518805 :LATITUDE  
LON         .                                       -96.1160164 :LONGITUDE 
ELEV        .FT                                             103 :ELEVATION VALUE
ELEV_TYPE   .                                                KB :ELEVATION REFERENCE TYPE
~Curve Information Section
#MNEM       .UNIT                                      API CODE :CURVE DESCRIPTION
#------------------------------------------------------------------------------
DEPT        .FT                                                 :DEPTH     
ASFL        .OHMM                                               :          
CILD        .MMHO                                               :          
GR          .GAPI                                               :          
GR_NORM     .GAPI                                               :GammaRay Normalized
ILD         .OHMM                                               :          
SP          .MV                                                 :          
SP_NORM     .MV                                                 :SP Normalized
VSH_GR      .V/V                                                :Volume of Shale from GR
VSH_SP      .V/V                                                :Volume of Shale from SP
~A        DEPTH           ASFL           CILD             GR        GR_NORM            ILD             SP        SP_NORM         VSH_GR         VSH_SP
# ...
     12114.0000         1.3278       2132.969        56.6676       63.48396          0.443       -57.3165      -14.89226      0.6485948      0.7021548
     12114.5000         1.2979        2170.43        51.8709        57.2216         0.4406       -60.5259      -18.10166      0.5153533      0.6379668
     12115.0000          1.254       2207.984        48.2485       52.49236         0.4381       -67.0144      -24.59016       0.414731      0.5081969
     12115.5000         1.1971       2258.758        45.2829       48.62061         0.4347         -74.63      -32.20576      0.3323533      0.3558849
     12116.0000         1.1404       2319.066        41.5808        43.7873         0.4312       -75.5306      -33.10636      0.2295171      0.3378728
     12116.5000         1.0843       2379.379        34.1917       34.14043         0.4277       -76.2708      -33.84656      0.0242644      0.3230689
     12117.0000         1.0281        2440.68        32.9702       32.54568         0.4241       -76.4114      -33.98716              0      0.3202568
     12117.5000         0.9788       2511.027        33.0273       32.62024         0.4206       -75.7732      -33.34896              0      0.3330208
     12118.0000         0.9251       2579.285        40.2324       42.02689         0.4171       -75.1338      -32.70956      0.1920616      0.3458089
     12118.5000         0.8405       2588.227        42.7203       45.27498         0.4136       -74.1249      -31.70066      0.2611699      0.3659868
     12119.0000         0.7419        2432.93        45.2231       48.54253           0.41        -72.545      -30.12076      0.3306921      0.3975848
     12119.5000         0.7485       2394.379        48.6963       53.07698         0.4065       -70.6119      -28.18766      0.4271699      0.4362468
     12120.0000         1.0831       2365.664         50.515        55.4514         0.4068       -68.4301      -26.00586      0.4776893      0.4798828
     12120.5000         1.1041       2344.203        52.1819       57.62763         0.4098       -66.3097      -23.88546      0.5239921      0.5222908
     12121.0000         1.1252       2344.402        53.2044       58.96256         0.4128       -66.4795      -24.05526      0.5523949      0.5188948
     12121.5000         1.1354       2358.414        53.4905       59.33608         0.4157       -67.4175      -24.99326      0.5603422      0.5001347
     12122.0000          1.138       2412.266        52.5725       58.13758         0.4171       -68.6937      -26.26946      0.5348421      0.4746107
     12122.5000         1.1406       2486.188        51.6544       56.93895         0.4018       -69.9701      -27.54586      0.5093393      0.4490828
     12123.0000         1.1432       2619.324        50.7364       55.74045         0.3866       -71.9156      -29.49136      0.4838393      0.4101727
     12123.5000         1.1458       2715.105        49.3033       53.86945         0.3713       -73.9408      -31.51656      0.4440309      0.3696687
     12124.0000         1.1472       2769.652        46.8652       50.68638         0.3605       -76.2197      -33.79546       0.376306      0.3240907
     12124.5000         1.1485       2824.199         44.427       47.50317         0.3536       -78.9316      -36.50736      0.3085782      0.2698528
     12125.0000         1.1498       2885.305        36.1074       36.64148         0.3466       -80.7627      -38.33846     0.07747821      0.2332307
     12125.5000         1.1512       2812.277        35.6359       36.02591         0.3397       -82.1534      -39.72916     0.06438097      0.2054169
     12126.0000         1.1525       2676.156        36.1783       36.73404         0.3328       -81.1981      -38.77386     0.07944756      0.2245229
     12126.5000         1.1528       2594.484        36.7207       37.44217         0.3368       -80.2427      -37.81846     0.09451432      0.2436308
     12127.0000         1.1528        2519.57         36.911       37.69062         0.3477       -79.5909      -37.16666     0.09980044      0.2566669
     12127.5000         1.1529       2465.918        37.0668       37.89402         0.3585        -79.459      -37.03476      0.1041282      0.2593048
     12128.0000          1.153       2429.055        36.9838       37.78566         0.3694       -80.3248      -37.90056      0.1018226      0.2419888
     12128.5000          1.153       2392.293         36.595       37.27807         0.3802       -81.1907      -38.76646     0.09102274      0.2246709
     12129.0000         1.1527       2363.977        35.5999        35.9789         0.3855       -81.6099      -39.18566     0.06338095      0.2162868
     12129.5000         1.1525       2355.035        34.6072       34.68288         0.3802       -81.7728      -39.34856     0.03580605      0.2130289
     12130.0000         1.1522       2397.859        34.0176       33.91313         0.3749       -81.3529      -38.92866     0.01942825      0.2214268
