#------------------------------------------------------------------------------
# Created by    : vladimir.rabinovich
# Created on    : 09/19/2023 17:20:22
#------------------------------------------------------------------------------
~Version Information Section
VERS.           2.0     :   CWLS log ASCII Standard - VERSION 2.0
WRAP.           NO      :   One line per depth step
~Well Information Section
#MNEM       .UNIT                                         VALUE :DESCRIPTION
#------------------------------------------------------------------------------
STRT        .FT                                             538 :START DEPTH
STOP        .FT                                           11949 :STOP DEPTH
STEP        .FT                                             0.5 :STEP      
NULL        .                                           -999.25 :NULL      
COMP        .                                 CITIES SERVICE CO :COMPANY   
WELL        .                               OCS G03070 ST00BP00 :WELL      
FLD         .                                           WILDCAT :FIELD     
LOC         .                                                   :LOCATION  
CNTY        .                               MUSTANG ISLAND EAST :LOCATION  
STAT        .                                             TEXAS :STATE     
CTRY        .                                     UNITED STATES :COUNTRY   
SRVC        .                                                   :SERVICE COMPANY
DATE        .                             9/13/2023 11:20:11 AM :LOG DATE  
API         .                                    42712400020000 :API NUMBER
UWI         .                                    42712400020000 :UNIQUE WELL ID
XCOORD      .                                  546520.538281646 :SURFACE X 
YCOORD      .                                  9992103.69354039 :SURFACE Y 
LAT         .                                        27.4947268 :LATITUDE  
LON         .                                       -96.3742825 :LONGITUDE 
ELEV        .FT                                              65 :ELEVATION VALUE
ELEV_TYPE   .                                                KB :ELEVATION REFERENCE TYPE
~Curve Information Section
#MNEM       .UNIT                                      API CODE :CURVE DESCRIPTION
#------------------------------------------------------------------------------
DEPT        .FT                                                 :DEPTH     
ASFL        .OHMM                                               :          
CILD        .MMHO                                               :          
DT          .US/F                                               :          
GR          .GAPI                                               :          
GR_NORM     .GAPI                                               :GammaRay Normalized
ILD         .OHMM                                               :          
SFL         .OHMM                                               :          
SP          .MV                                                 :          
SP_NORM     .MV                                                 :SP Normalized
VSH_GR      .V/V                                                :Volume of Shale from GR
VSH_SP      .V/V                                                :Volume of Shale from SP
~A        DEPTH           ASFL           CILD             DT             GR        GR_NORM            ILD            SFL             SP        SP_NORM         VSH_GR         VSH_SP
# ...
      5083.0000         0.9016       1415.404       118.1594        56.4872       59.68266         0.7048         1.0066      -148.2429      -33.48973      0.5677162      0.3302054
      5083.5000         0.9068       1415.916       120.0386        58.6733       62.52892         0.6898         0.8213      -143.0491      -28.30074      0.6282748      0.4339853
      5084.0000         0.9327        1397.08       121.8555        61.0533       65.62764         0.6891         0.7293      -136.6511      -21.90754      0.6942051      0.5618492
      5084.5000         0.9586        1378.23       123.1051        63.6068       68.95228         0.6884         0.6851      -132.9077      -18.16895      0.7649421      0.6366209
      5085.0000         0.9846       1359.395       122.1102        61.4026         66.082         0.6926         0.7925      -137.2581      -22.52417      0.7038724      0.5495166
      5085.5000         1.0052       1340.547       119.8285         58.218       61.93516         0.6971          0.952      -144.6777      -29.94859      0.6156417      0.4010283
      5086.0000         1.0155       1320.889       117.1913        55.5369       58.44392         0.7033          1.036      -149.8086      -35.08428      0.5413599      0.2983144
      5086.5000         1.0249       1299.502       116.4507        53.8049       56.18847         0.7101         1.0593      -154.0193       -39.2998      0.4933717      0.2140039
      5087.0000         1.0333       1278.088       116.9801        53.2864       55.51311         0.7187         1.0463      -156.0681      -41.35341      0.4790023      0.1729318
      5087.5000         1.0417       1256.701       117.1274        53.6495       55.98567         0.7288         0.9993      -153.5569      -38.84702      0.4890569      0.2230595
      5088.0000         1.0501       1236.035       117.1733        55.1069       57.88309         0.7405         0.9381      -148.4885      -33.78342      0.5294275      0.3243315
      5088.5000         1.0599       1261.057       116.2294         57.199       60.60696         0.7538         0.9058       -144.762      -30.06174      0.5873821      0.3987653
      5089.0000         1.0748       1326.965       114.6984        59.0708       63.04397         0.7639         0.9821      -141.4568      -26.76136      0.6392334      0.4647728
      5089.5000         1.0897       1440.205         112.67         58.707       62.57005         0.7694          1.093      -140.2163      -25.52566      0.6291499      0.4894868
      5090.0000         1.0784       1579.936       111.2539        53.9398       56.36252         0.7683         1.1871      -147.2502      -32.56438      0.4970749      0.3487125
      5090.5000         1.0128       1671.564       112.2699        50.7046       52.14979         0.7529         1.1188      -152.4343      -37.75328      0.4074424      0.2449344
      5091.0000         0.9958       1717.527       114.0632        47.5513        48.0437         0.7113         1.1126      -157.1462      -42.46999      0.3200788      0.1506001
      5091.5000         0.9802       1758.709       115.7683        45.1255       44.88488         0.6643         1.0638      -160.4897      -45.81831      0.2528698     0.08363388
      5092.0000         0.9647       1796.008       117.3616        43.6525       42.96669         0.6239         0.9768      -160.5427      -45.87611      0.2120572     0.08247772
      5092.5000         0.9549           1761       118.4415        43.0578       42.19211         0.5866            0.9      -157.2571      -42.59533      0.1955768      0.1480934
      5093.0000         0.9473       1659.215       119.1959        43.0867       42.22951         0.5591         0.8346      -153.1619      -38.50494      0.1963726      0.2299013
      5093.5000         0.9426       1526.951       119.7794        43.5833        42.8759         0.5364         0.8162      -149.8423      -35.19016      0.2101255      0.2961969
      5094.0000         0.9502       1404.898       120.0883        44.5233       44.09962         0.5259         0.8524      -150.5049      -35.85756      0.2361622      0.2828488
      5094.5000         0.9578       1325.271       119.5918        46.0145       46.04107         0.5317         0.9008      -152.1074      -37.46488      0.2774695      0.2507024
      5095.0000         0.9652        1234.74       119.3763        48.1295       48.79474         0.5601         0.9489      -150.4614      -35.82368      0.3360583      0.2835263
      5095.5000          0.972       1125.484       119.1058        50.9696       52.49255         0.5934         0.9834      -147.5081       -32.8752      0.4147352       0.342496
      5096.0000         0.9788       1086.766       118.3428        54.6384       57.26941         0.6303         0.9293      -144.1165      -29.48841      0.5163704      0.4102318
      5096.5000         0.9856       1051.459       118.2837        58.8732       62.78324         0.6803         0.8763      -139.8599      -25.23661      0.6336859      0.4952678
      5097.0000         0.9924       1016.129       119.1425        62.1614       67.06452         0.7367         0.8846      -135.7429      -21.12444       0.724777      0.5775113
      5097.5000         0.9992       988.5039       119.1923        64.3005       69.84958         0.8114         0.9047      -133.9424      -19.32874      0.7840336      0.6134253
      5098.0000          1.006       972.5684       118.1421        64.9124        70.6461          0.894         0.9307      -131.8743      -17.26545      0.8009807       0.654691
      5098.5000         1.0129       956.6201       116.6047        65.2806        71.1253         0.9717         0.9491      -130.1367      -15.53267      0.8111765      0.6893466
      5099.0000           1.02       940.6729        114.973         65.296       71.14512          1.024          0.964      -129.5459      -14.94667      0.8115982      0.7010666
      5099.5000         1.0272       924.7256       115.2775        65.0148       70.77875         1.0469         0.9684      -128.6619      -14.06748      0.8038031      0.7186503
      5100.0000         1.0343       913.4707       117.1466         65.953       72.00014         1.0619         0.9684      -127.7544      -13.16479      0.8297902      0.7367041
      5100.5000         1.0414       918.6621       118.6826        67.2899       73.74065         1.0722         0.9756      -126.8794      -12.29461      0.8668224      0.7541078
      5101.0000         1.0485       929.7178       118.2583        68.1337       74.83912         1.0805          0.983      -126.0321      -11.45211       0.890194      0.7709578
      5101.5000         1.0561       940.7598       117.3354        68.4547       75.25686         1.0833         0.9887       -125.351      -10.77583      0.8990821      0.7844835
      5102.0000         1.0637       951.8154       116.0094        68.7224        75.6052         1.0816         0.9963        -125.16      -10.58965      0.9064937      0.7882071
      5102.5000         1.0699       962.8574       114.5405         68.969       75.92607         1.0745         1.0108      -125.1143      -10.54875      0.9133207      0.7890249
      5103.0000         1.0672       977.2119       114.5032        69.3295       76.39524         1.0661         1.0217      -124.2705      -9.709763       0.923303      0.8058047
      5103.5000         1.0389       993.5205       115.6354         69.829        77.0454         1.0555         1.0288      -123.5593      -9.003372      0.9371362      0.8199326
      5104.0000         1.0145       1009.816       116.7986        69.5526       76.68527         1.0388         1.0281       -122.918      -8.366882      0.9294739      0.8326623
      5104.5000         0.9902       1026.113       117.3033        68.6294       75.48296         1.0224         1.0224      -122.6195      -8.073196      0.9038928      0.8385361
      5105.0000         0.9722       1042.408        115.941        67.5857       74.12375         1.0063         1.0178      -122.5511      -8.009605      0.8749734      0.8398079
