#------------------------------------------------------------------------------
# Created by    : vladimir.rabinovich
# Created on    : 09/19/2023 17:20:21
#------------------------------------------------------------------------------
~Version Information Section
VERS.           2.0     :   CWLS log ASCII Standard - VERSION 2.0
WRAP.           NO      :   One line per depth step
~Well Information Section
#MNEM       .UNIT                                         VALUE :DESCRIPTION
#------------------------------------------------------------------------------
STRT        .FT                                            1439 :START DEPTH
STOP        .FT                                           13833 :STOP DEPTH
STEP        .FT                                             0.5 :STEP      
NULL        .                                           -999.25 :NULL      
COMP        .                                        EXXON CORP :COMPANY   
WELL        .                               OCS G04992 ST00BP00 :WELL      
FLD         .                                           WILDCAT :FIELD     
LOC         .                                                   :LOCATION  
CNTY        .                               MUSTANG ISLAND EAST :LOCATION  
STAT        .                                             TEXAS :STATE     
CTRY        .                                     UNITED STATES :COUNTRY   
SRVC        .                                                   :SERVICE COMPANY
DATE        .                             9/13/2023 11:20:08 AM :LOG DATE  
API         .                                    42712400640000 :API NUMBER
UWI         .                                    42712400640000 :UNIQUE WELL ID
XCOORD      .                                  530427.861923906 :SURFACE X 
YCOORD      .                                  9963308.63528926 :SURFACE Y 
LAT         .                                        27.4144168 :LATITUDE  
LON         .                                       -96.4214066 :LONGITUDE 
ELEV        .FT                                              73 :ELEVATION VALUE
ELEV_TYPE   .                                                KB :ELEVATION REFERENCE TYPE
~Curve Information Section
#MNEM       .UNIT                                      API CODE :CURVE DESCRIPTION
#------------------------------------------------------------------------------
DEPT        .FT                                                 :DEPTH     
ASFL        .OHMM                                               :          
CILD        .MMHO                                               :          
DT          .US/F                                               :          
GR          .GAPI                                               :          
GR_NORM     .GAPI                                               :GammaRay Normalized
ILD         .OHMM                                               :          
SP          .MV                                                 :          
SP_NORM     .MV                                                 :SP Normalized
VSH_GR      .V/V                                                :Volume of Shale from GR
VSH_SP      .V/V                                                :Volume of Shale from SP
~A        DEPTH           ASFL           CILD             DT             GR        GR_NORM            ILD             SP        SP_NORM         VSH_GR         VSH_SP
# ...
     12170.0000         1.0114       1485.961       106.5664        67.0861       74.50305         0.6385       -45.9894      -4.110703      0.8830436      0.9177859
     12170.5000         1.0143       1478.826       107.5702        67.5453       75.07309         0.6371       -45.9041      -4.027691      0.8951721      0.9194462
     12171.0000         1.0172       1554.385        108.119        69.0969       77.00861         0.6356       -45.8187      -3.944576      0.9363533      0.9211085
     12171.5000         1.0201        1690.23       108.5925        70.0885       78.24414         0.6342       -45.7335      -3.861668      0.9626413      0.9227666
     12172.0000         1.0231       1746.799       109.0956        71.0801       79.47967         0.6328       -45.6481      -3.778553      0.9889291      0.9244289
     12172.5000         1.0261       1713.842       109.2888        72.0717       80.71519         0.6314        -45.563       -3.69574              1      0.9260852
     12173.0000         1.0292       1662.801       107.8125        73.0658       81.95385         0.6303       -45.4993      -3.634327              1      0.9273134
     12173.5000         1.0322       1628.486       105.9409        73.8694       82.95437         0.6309        -45.437      -3.574314              1      0.9285137
     12174.0000          1.035        1619.67       105.0027        74.5519       83.80353         0.6315       -45.3747      -3.514301              1       0.929714
     12174.5000         1.0022       1610.854       104.9916        75.2332       84.65118         0.6321       -45.3522      -3.494087              1      0.9301183
     12175.0000         0.9786       1592.717       105.3364        72.7529       81.54682         0.6327       -45.3619      -3.506077              1      0.9298785
     12175.5000         0.9564       1569.508       105.3972        71.9929       80.59285         0.6334       -45.3717      -3.518162              1      0.9296368
     12176.0000         0.9374       1543.936       105.1986        71.6428       80.15125          0.634       -45.3959      -3.544651              1       0.929107
     12176.5000         0.9193       1504.648       104.8655        71.3955       79.83817         0.6346       -45.4468      -3.597839      0.9965567      0.9280432
     12177.0000         0.9005       1465.463       103.2388         71.851       80.40356         0.6352       -45.4977      -3.651024              1      0.9269795
     12177.5000         0.9353       1434.014       100.3857        72.3064       80.96883         0.6391       -45.5762      -3.731812              1      0.9253638
     12178.0000         0.9658       1409.748        98.5388        72.7631       81.53574          0.658       -45.6943        -3.8522              1       0.922956
     12178.5000         0.9963       1385.482        97.3732        73.2185       82.10101         0.6769       -45.7319      -3.892086              1      0.9221583
     12179.0000         1.0268       1361.996        97.2537        73.8202       82.84917         0.6958       -45.7471      -3.909576              1      0.9218085
     12179.5000         1.0535       1350.467        99.1792        74.6403       83.87032         0.7147       -45.6226      -3.787361              1      0.9242527
     12180.0000         1.0665       1338.912       101.1075        75.4602       84.89122         0.7348       -45.4983      -3.665348              1       0.926693
     12180.5000         1.0467       1327.383       103.0261        75.1802       84.53725         0.7879       -45.3737      -3.543034              1      0.9291393
     12181.0000         0.9708       1316.029       104.2523        73.6108       82.57153         0.7936       -45.2653      -3.436924              1      0.9312615
     12181.5000         0.9492         1410.1       105.7357        72.3088       80.94006         0.7759       -45.2441      -3.418007              1      0.9316399
     12182.0000          0.937       1474.004       106.8149         71.007       79.30884         0.7581       -45.2229      -3.399097      0.9852944       0.932018
     12182.5000         0.9269       1531.576       107.2485        69.8009       77.79724         0.7404        -45.363      -3.541485      0.9531328      0.9291703
     12183.0000         0.9158       1585.834       107.7062         68.827       76.57589         0.7226       -45.5109      -3.691669      0.9271466      0.9261666
     12183.5000         0.8981        1639.59       109.5975         67.853        75.3544         0.7048       -45.5842      -3.767262      0.9011574      0.9246548
     12184.0000           0.88       1671.943       110.8905        66.8817       74.13631         0.6954       -45.5948      -3.780144      0.8752407      0.9243971
     12184.5000         0.8568       1704.297       111.3164        65.8069       72.78884         0.6876       -45.6055      -3.793133      0.8465711      0.9241374
     12185.0000         0.8337       1728.965       111.2474        66.3442        73.4565         0.6799       -45.5358      -3.725723      0.8607765      0.9254856
     12185.5000         0.8105        1739.93       111.0117        70.4922       78.63753         0.6721       -45.3977      -3.589909      0.9710112      0.9282019
     12186.0000            0.8       1723.588       110.2947        71.0511       79.33217         0.6643       -45.2599      -3.454395      0.9857908      0.9309121
     12186.5000          0.822       1701.936       108.4009        70.3169       78.41045         0.6565       -45.1218      -3.318581      0.9661798      0.9336284
     12187.0000         0.8469       1678.273       105.9237        69.5814        77.4871         0.6487       -45.1854      -3.384468       0.946534      0.9323106
     12187.5000         0.8767       1650.895       103.9706        68.8459       76.56376         0.6409       -45.3176      -3.518955      0.9268885      0.9296209
     12188.0000         0.9065       1623.463       103.9038        69.3846       77.23315         0.6331       -45.5579      -3.761543      0.9411309      0.9247692
     12188.5000         0.9333       1598.645       105.6566        70.6638       78.82819         0.6253       -45.7982      -4.004131      0.9750678      0.9199173
     12189.0000         0.9554       1579.906       107.3477         71.943       80.42321         0.6205        -46.101      -4.309219              1      0.9138156
     12189.5000         0.9385       1561.117       108.7965        72.7642       81.44573         0.6258       -46.4606      -4.671108              1      0.9065778
     12190.0000         0.9095       1550.266       109.7032        72.8208       81.51252         0.6311       -46.5621      -4.774891              1      0.9045022
     12190.5000         0.8862       1540.168       109.8766        72.8776       81.57954         0.6365       -46.0663       -4.28138              1      0.9143724
     12191.0000         0.8636       1559.912       109.9034        73.1327       81.89444         0.6418       -45.6336      -3.850967              1      0.9229807
     12191.5000         0.8532       1579.656       109.7069        73.7117       82.61422         0.6471       -45.3245      -3.544155              1      0.9291169
     12192.0000         0.8517       1598.344       109.4739        73.5881       82.45574         0.6525       -45.0161      -3.238045              1      0.9352391
     12192.5000         0.8521       1616.682       109.0913        72.4805       81.06728         0.6578       -44.8474      -3.071629              1      0.9385674
     12193.0000         0.8512       1635.018       108.7933        72.6697        81.2998         0.6577       -44.6846      -2.911118              1      0.9417776
     12193.5000         0.8497       1653.557       108.5227        73.8228        82.7372         0.6512       -44.5215      -2.750301              1       0.944994
     12194.0000         0.8444       1636.174       108.0028        75.2407       84.50561         0.6447        -44.368      -2.599091              1      0.9480182
