#------------------------------------------------------------------------------
# Created by    : vladimir.rabinovich
# Created on    : 09/19/2023 17:20:45
#------------------------------------------------------------------------------
~Version Information Section
VERS.           2.0     :   CWLS log ASCII Standard - VERSION 2.0
WRAP.           NO      :   One line per depth step
~Well Information Section
#MNEM       .UNIT                                         VALUE :DESCRIPTION
#------------------------------------------------------------------------------
STRT        .FT                                             565 :START DEPTH
STOP        .FT                                           11656 :STOP DEPTH
STEP        .FT                                             0.5 :STEP      
NULL        .                                           -999.25 :NULL      
COMP        .                     MITCHELL ENERGY OFFSHORE CORP :COMPANY   
WELL        .                               OCS G02394 ST00BP00 :WELL      
FLD         .                            HIGH ISLAND BLOCK 0047 :FIELD     
LOC         .                                                   :LOCATION  
CNTY        .                                  HIGH ISLAND EAST :LOCATION  
STAT        .                                             TEXAS :STATE     
CTRY        .                                     UNITED STATES :COUNTRY   
SRVC        .                                                   :SERVICE COMPANY
DATE        .                             9/13/2023 11:11:59 AM :LOG DATE  
API         .                                    42710400050000 :API NUMBER
UWI         .                                    42710400050000 :UNIQUE WELL ID
XCOORD      .                                  1370895.90844183 :SURFACE X 
YCOORD      .                                  10676661.5178287 :SURFACE Y 
LAT         .                                        29.4165067 :LATITUDE  
LON         .                                        -93.846815 :LONGITUDE 
ELEV        .FT                                              96 :ELEVATION VALUE
ELEV_TYPE   .                                                KB :ELEVATION REFERENCE TYPE
~Curve Information Section
#MNEM       .UNIT                                      API CODE :CURVE DESCRIPTION
#------------------------------------------------------------------------------
DEPT        .FT                                                 :DEPTH     
ASN         .OHMM                                               :          
CILD        .MMHO                                               :          
GR          .GAPI                                               :          
GR_NORM     .GAPI                                               :GammaRay Normalized
ILD         .OHMM                                               :          
SP          .MV                                                 :          
SP_NORM     .MV                                                 :SP Normalized
VSH_GR      .V/V                                                :Volume of Shale from GR
VSH_SP      .V/V                                                :Volume of Shale from SP
~A        DEPTH            ASN           CILD             GR        GR_NORM            ILD             SP        SP_NORM         VSH_GR         VSH_SP
# ...
      4990.5000         0.6015       2088.176        -999.25        -999.25         0.4769       -54.3303      -5.182289        -999.25      0.9057766
      4991.0000         0.5986       2048.758        -999.25        -999.25         0.4849       -53.3911      -4.249538        -999.25      0.9227357
      4991.5000         0.5975       2009.363        -999.25        -999.25         0.4929       -52.4105      -3.275383        -999.25      0.9404476
      4992.0000          0.597       1968.596        -999.25        -999.25         0.4998       -51.6092       -2.48053        -999.25      0.9548994
      4992.5000            0.6        1927.68        -999.25        -999.25         0.5017        -50.901      -1.778778        -999.25      0.9676586
      4993.0000         0.6029       1889.438        -999.25        -999.25         0.5037       -50.4459      -1.330124        -999.25       0.975816
      4993.5000         0.6042       1861.719        -999.25        -999.25         0.5057       -50.1586      -1.049271        -999.25      0.9809223
      4994.0000          0.605       1834.025        -999.25        -999.25         0.5062       -49.8722     -0.7693176        -999.25      0.9860124
      4994.5000         0.6055       1815.455        -999.25        -999.25         0.5049       -49.6993     -0.6028633        -999.25      0.9890388
      4995.0000         0.5989       1798.311        -999.25        -999.25         0.5037       -49.5266     -0.4366112        -999.25      0.9920616
      4995.5000         0.5924       1788.051        -999.25        -999.25         0.5025       -49.3538     -0.2702599        -999.25      0.9950862
      4996.0000         0.5853       1782.512        -999.25        -999.25            0.5       -49.1722    -0.09510422        -999.25      0.9982708
      4996.5000         0.5752       1783.689        -999.25        -999.25         0.4975        -48.989     0.08164978        -999.25              1
      4997.0000         0.5651       1787.531        -999.25        -999.25         0.4951       -48.8062      0.2580032        -999.25              1
      4997.5000         0.5546       1791.371        -999.25        -999.25         0.4885       -48.6307      0.4270554        -999.25              1
      4998.0000         0.5432       1800.088        -999.25        -999.25         0.4798       -48.5386      0.5127068        -999.25              1
      4998.5000         0.5318       1817.088        -999.25        -999.25          0.471       -48.6669      0.3779602        -999.25              1
      4999.0000         0.5236       1838.047        -999.25        -999.25         0.4562       -49.4064     -0.3679848        -999.25      0.9933094
      4999.5000         0.5162       2112.191        -999.25        -999.25         0.4309       -50.3827      -1.350735        -999.25      0.9754412
      5000.0000         0.5088       2622.801        -999.25        -999.25         0.3888       -52.4073      -3.381779        -999.25      0.9385131
      5000.5000         0.5036       2994.281        -999.25        -999.25          0.315       -57.1433      -8.124226        -999.25      0.8522868
      5001.0000         0.4992        3336.32        -999.25        -999.25          0.264       -67.2635      -18.25087        -999.25      0.6681661
      5001.5000         0.4949       3530.402        -999.25        -999.25         0.2252       -69.5736      -20.56742        -999.25       0.626047
      5002.0000         0.4908       3636.613        -999.25        -999.25         0.1986       -72.8064      -23.80666        -999.25      0.5671517
      5002.5000         0.4818       3717.121        -999.25        -999.25         0.1792       -73.6938      -24.70051        -999.25      0.5508998
      5003.0000         0.4703       3860.766        -999.25        -999.25         0.1699       -98.8992      -49.91236        -999.25     0.09250259
      5003.5000         0.4578       5371.297        -999.25        -999.25         0.1638       -101.939      -52.95861        -999.25     0.03711624
      5004.0000         0.4454       5447.484        -999.25        -999.25         0.1685      -106.7366      -57.76265        -999.25              0
      5004.5000         0.4386       5484.523        -999.25        -999.25         0.1732      -109.3018       -60.3343        -999.25              0
      5005.0000         0.4327       5468.086        -999.25        -999.25         0.1784      -111.2037      -62.24264        -999.25              0
      5005.5000         0.4267       5430.164        -999.25        -999.25         0.1898      -112.7964      -63.84179        -999.25              0
      5006.0000         0.4208       5303.984        -999.25        -999.25         0.2012      -113.1431      -64.19493        -999.25              0
      5006.5000         0.4162       5175.055        -999.25        -999.25         0.2126      -112.8605      -63.91878        -999.25              0
      5007.0000         0.4116        5033.57        -999.25        -999.25         0.2233      -112.5518      -63.61654        -999.25              0
      5007.5000          0.407       4843.711        -999.25        -999.25         0.2337       -111.743      -62.81417        -999.25              0
      5008.0000         0.4076        4308.57        -999.25        -999.25         0.2415      -110.9338      -62.01143        -999.25              0
      5008.5000         0.4087         3844.5        -999.25        -999.25         0.2359      -110.1251      -61.20917        -999.25              0
      5009.0000         0.4203       3479.184        -999.25        -999.25         0.2303      -108.7667      -59.85722        -999.25              0
      5009.5000         0.4326       3435.617        -999.25        -999.25         0.2245      -107.3763      -58.47326        -999.25              0
      5010.0000         0.4502       3642.453        -999.25        -999.25         0.2182      -105.9501      -57.05352        -999.25              0
      5010.5000         0.4683       3769.125        -999.25        -999.25         0.2118      -104.3081      -55.41796        -999.25              0
      5011.0000         0.4865       3861.355        -999.25        -999.25         0.2054      -102.9177      -54.03401        -999.25     0.01756349
      5011.5000         0.5184       4264.414        -999.25        -999.25         0.1991      -101.3195      -52.44226        -999.25     0.04650442
      5012.0000         0.5424       4953.406        -999.25        -999.25         0.1947      -100.9562       -52.0854        -999.25     0.05299274
      5012.5000         0.5442       5072.469        -999.25        -999.25         0.1911      -100.5925      -51.72815        -999.25     0.05948826
      5013.0000         0.5389       5137.578        -999.25        -999.25         0.1875      -101.1155       -52.2576        -999.25     0.04986191
      5013.5000         0.5338       5199.828        -999.25        -999.25         0.1839      -107.5747      -58.72324        -999.25              0
      5014.0000         0.5298       5238.414        -999.25        -999.25         0.1803      -109.6543      -60.80928        -999.25              0
      5014.5000         0.5259       5215.969        -999.25        -999.25         0.1801      -110.4303      -61.59173        -999.25              0
      5015.0000          0.522       5162.352        -999.25        -999.25         0.1798      -110.9137      -62.08157        -999.25              0
      5015.5000         0.5181       5113.539        -999.25        -999.25         0.1795      -110.9899      -62.16422        -999.25              0
      5016.0000         0.5065       5073.477        -999.25        -999.25         0.1792       -111.066      -62.24677        -999.25              0
      5016.5000         0.4914       5033.422        -999.25        -999.25         0.1783      -110.9265      -62.11372        -999.25              0
