#------------------------------------------------------------------------------
# Created by    : vladimir.rabinovich
# Created on    : 09/19/2023 17:21:38
#------------------------------------------------------------------------------
~Version Information Section
VERS.           2.0     :   CWLS log ASCII Standard - VERSION 2.0
WRAP.           NO      :   One line per depth step
~Well Information Section
#MNEM       .UNIT                                         VALUE :DESCRIPTION
#------------------------------------------------------------------------------
STRT        .FT                                            1242 :START DEPTH
STOP        .FT                                            7802 :STOP DEPTH
STEP        .FT                                             0.5 :STEP      
NULL        .                                           -999.25 :NULL      
COMP        .                                    CITIES SERVICE :COMPANY   
WELL        .                               OCS G03070 ST00BP00 :WELL      
FLD         .                                           WILDCAT :FIELD     
LOC         .                                                   :LOCATION  
CNTY        .                               MUSTANG ISLAND EAST :LOCATION  
STAT        .                                             TEXAS :STATE     
CTRY        .                                     UNITED STATES :COUNTRY   
SRVC        .                                                   :SERVICE COMPANY
DATE        .                             9/13/2023 11:20:08 AM :LOG DATE  
API         .                                    42712400230000 :API NUMBER
UWI         .                                    42712400230000 :UNIQUE WELL ID
XCOORD      .                                  541821.370048326 :SURFACE X 
YCOORD      .                                   9995115.4612029 :SURFACE Y 
LAT         .                                         27.502648 :LATITUDE  
LON         .                                       -96.3890109 :LONGITUDE 
ELEV        .FT                                              64 :ELEVATION VALUE
ELEV_TYPE   .                                                KB :ELEVATION REFERENCE TYPE
~Curve Information Section
#MNEM       .UNIT                                      API CODE :CURVE DESCRIPTION
#------------------------------------------------------------------------------
DEPT        .FT                                                 :DEPTH     
CALI        .IN                                                 :          
CILD        .MMHO                                               :          
DRHO        .G/C3                                               :          
DT          .US/F                                               :          
GR          .GAPI                                               :          
GR_1        .GAPI                                               :          
GR_NORM     .GAPI                                               :GammaRay Normalized
ILD         .OHMM                                               :          
NPHI        .%                                                  :          
RHOB        .G/C3                                               :          
SFL         .OHMM                                               :          
SP          .MV                                                 :          
SP_NORM     .MV                                                 :SP Normalized
VSH_GR      .V/V                                                :Volume of Shale from GR
VSH_SP      .V/V                                                :Volume of Shale from SP
~A        DEPTH           CALI           CILD           DRHO             DT             GR           GR_1        GR_NORM            ILD           NPHI           RHOB            SFL             SP        SP_NORM         VSH_GR         VSH_SP
# ...
      4302.0000        12.0885       1079.955        -0.0334       130.8501        46.6497        51.9882       67.44951         0.8347        39.1373         2.2569          1.184       -73.8348      -19.71997      0.7329683      0.5070007
      4302.5000        12.0869       1099.205        -0.0385       129.5835        46.8495        51.0134       66.23074         0.8525        39.3928         2.2357         1.1742       -73.5715      -19.45827      0.7070371      0.5135432
      4303.0000        12.0887       1124.508        -0.0426       128.6721        47.3414        50.0719       65.05359         0.8744        39.9362         2.2301           1.16       -73.4525      -19.34087      0.6819913      0.5164784
      4303.5000        12.0947       1152.064        -0.0458       129.0974        47.5613        49.3372       64.13494         0.8965        40.5059          2.211         1.1571       -73.4474      -19.33737      0.6624455      0.5165658
      4304.0000        12.0976       1179.232        -0.0444       129.9338        46.6979        48.2617       62.79029         0.9184        40.3057         2.2216         1.1656       -73.5029      -19.39446       0.633836      0.5151385
      4304.5000        12.0948       1203.857        -0.0392       131.2236         45.446          47.33        61.6254         0.9455        39.7099         2.2354         1.1966       -73.3331      -19.22626       0.609051      0.5193436
      4305.0000        12.0974       1204.689        -0.0349       132.5513        44.4684        46.7855        60.9445         0.9659        38.5588         2.2466         1.2733       -72.7765      -18.67125      0.5945637      0.5332187
      4305.5000        12.1033       1201.117        -0.0291       135.7271        43.9525        46.2406        60.2631         0.9726        37.0521         2.2585         1.4081       -72.1045      -18.00085       0.580066      0.5499786
      4306.0000        12.1054       1189.316        -0.0215       138.3665        44.2245        45.6961        59.5822         0.9576        34.7483         2.2768         1.5744       -72.3894      -18.28735      0.5655787      0.5428163
      4306.5000        12.1058       1170.709        -0.0223       140.8291        44.5762        45.1047       58.84267         0.9193        33.6954         2.2925         1.7714       -73.3527      -19.25225      0.5498441      0.5186938
      4307.0000        12.1097       1152.088        -0.0231       144.0769        44.9186        44.4767        58.0574         0.8695        33.3929         2.2872          1.952       -74.2474      -20.14854      0.5331362      0.4962864
      4307.5000        12.1194       1132.814         -0.021       145.3647        45.2562        43.4777       56.80838         0.8196        33.5479         2.2831         1.9227       -74.8494      -20.75215      0.5065613      0.4811963
      4308.0000        12.1282       1110.633        -0.0156       145.8547        45.5646         44.351       57.89974         0.7641        34.0021         2.2985         1.7939        -74.701      -20.60534      0.5297816      0.4848666
      4308.5000        12.1352       1088.467        -0.0144       144.8374         45.946        45.8312       59.74971         0.7126         34.817          2.318         1.6356       -73.5966      -19.50254      0.5691428      0.5124365
      4309.0000        12.1423       1068.355        -0.0184       142.7383         46.588        47.1821       61.43806         0.6762        35.7836         2.3307         1.3948         -72.53      -18.43753      0.6050651      0.5390617
      4309.5000        12.1494       1049.736         -0.025        140.093        47.7589        48.5059       63.09254         0.6517        36.7465          2.314         1.0855       -71.8474      -17.75653      0.6402668      0.5560867
      4310.0000        12.1552       1132.982        -0.0446       136.3064         49.388        49.3194       64.10914          0.634        37.5062         2.2725         0.8611       -72.4417      -18.35243      0.6618966      0.5411892
      4310.5000        12.1605       1210.516        -0.0467       134.3049        51.1172        50.1335       65.12649         0.6234        38.4818         2.1943         0.8228       -75.2242      -21.13652      0.6835423      0.4715869
      4311.0000        12.1654       1299.672        -0.0412       134.2183        53.0662        50.9471       66.14322         0.6186         39.562         2.1854         0.8218       -77.1494      -23.06332      0.7051749      0.4234169
      4311.5000        12.1642       1358.463        -0.0322       134.4561        54.9584        51.7921       67.19919          0.623        40.3994         2.2011          0.837       -78.8033      -24.71882      0.7276423      0.3820294
      4312.0000        12.1631       1401.951         -0.021       135.5627        56.6234        52.6826       68.31204         0.6348        41.2734         2.2242         0.8917       -80.4298      -26.34692      0.7513201       0.341327
      4312.5000        12.1666       1464.811        -0.0234       137.2166        56.4529        53.5732       69.42503         0.6473        41.9536         2.2461         0.9456       -81.1699      -27.08862      0.7750007      0.3227846
      4313.0000        12.1722       1531.641         -0.026       137.1758        53.6295        54.5117       70.59788         0.6676        42.4772         2.2613         0.9929       -80.7584      -26.67871      0.7999548      0.3330321
      4313.5000        12.1787       1578.469        -0.0287       137.4465        50.1315         54.731       70.87173         0.7017        41.9083         2.2518         1.0137       -79.3733      -25.29521      0.8057814      0.3676197
      4314.0000        12.1859       1597.283        -0.0313       138.8848        47.5723        53.8813       69.80933         0.7368        40.4412         2.2456         1.0196       -77.1707      -23.09421      0.7831773      0.4226447
      4314.5000        12.1906       1572.658        -0.0331       140.1216        47.2557        50.6414       65.75918         0.7718        39.5612         2.2408          1.025       -74.5398      -20.46491      0.6970038      0.4883773
      4315.0000        12.1837       1548.033        -0.0333       142.1396        47.6338        48.4324       62.99766          0.804        38.2025         2.2684         1.0581       -72.7902       -18.7169       0.638248      0.5320774
      4315.5000        12.1768       1514.205        -0.0323       144.7583        49.4522        46.3206       60.35763         0.8321        37.1253         2.2737         1.1185       -71.6055       -17.5338      0.5820773      0.5616549
      4316.0000         12.173       1479.822        -0.0282       146.6479        52.5425        44.0619       57.53399         0.8629        36.8831         2.2528            1.2       -68.6835       -14.6134      0.5219998      0.6346649
      4316.5000        12.1695       1445.439        -0.0237       148.1726        54.0741        42.4585       55.52946         0.8979        37.8536         2.2453         1.2497       -66.5392       -12.4707      0.4793502      0.6882326
      4317.0000         12.158       1403.162        -0.0213       148.6562         55.471        43.4196       56.73057         0.9241        38.9188         2.2641         1.2574       -65.1542      -11.08729      0.5049057      0.7228177
      4317.5000        12.1529       1359.141        -0.0194       148.5557        56.1374        48.8104       63.46879         0.9337        38.2637         2.2731         1.2083       -64.2208      -10.15549      0.6482721      0.7461126
      4318.0000        12.1487        1310.18        -0.0181       148.2979        56.6284        50.2112       65.21951         0.9372        36.8474         2.2794         1.1323       -63.6705      -9.606792      0.6855215      0.7598302
      4318.5000        12.1447       1255.287        -0.0172       147.9004        58.0759        51.8774         67.302         0.9347          35.66         2.2815         1.1057       -63.2293      -9.167187      0.7298298      0.7708203
