#------------------------------------------------------------------------------
# Created by    : vladimir.rabinovich
# Created on    : 09/19/2023 17:21:28
#------------------------------------------------------------------------------
~Version Information Section
VERS.           2.0     :   CWLS log ASCII Standard - VERSION 2.0
WRAP.           NO      :   One line per depth step
~Well Information Section
#MNEM       .UNIT                                         VALUE :DESCRIPTION
#------------------------------------------------------------------------------
STRT        .FT                                             999 :START DEPTH
STOP        .FT                                           14605 :STOP DEPTH
STEP        .FT                                             0.5 :STEP      
NULL        .                                           -999.25 :NULL      
COMP        .                                      GETTY OIL CO :COMPANY   
WELL        .                               OCS G03116 ST00BP00 :WELL      
FLD         .                                           WILDCAT :FIELD     
LOC         .                                                   :LOCATION  
CNTY        .                                  HIGH ISLAND EAST :LOCATION  
STAT        .                                             TEXAS :STATE     
CTRY        .                                     UNITED STATES :COUNTRY   
SRVC        .                                                   :SERVICE COMPANY
DATE        .                             9/13/2023 11:19:51 AM :LOG DATE  
API         .                                    42710400090000 :API NUMBER
UWI         .                                    42710400090000 :UNIQUE WELL ID
XCOORD      .                                  1371379.55461592 :SURFACE X 
YCOORD      .                                  10664640.0845049 :SURFACE Y 
LAT         .                                        29.3834483 :LATITUDE  
LON         .                                       -93.8450221 :LONGITUDE 
ELEV        .FT                                              80 :ELEVATION VALUE
ELEV_TYPE   .                                                KB :ELEVATION REFERENCE TYPE
~Curve Information Section
#MNEM       .UNIT                                      API CODE :CURVE DESCRIPTION
#------------------------------------------------------------------------------
DEPT        .FT                                                 :DEPTH     
CALI        .IN                                                 :          
DRHO        .G/C3                                               :          
GR          .GAPI                                               :          
GR_NORM     .GAPI                                               :GammaRay Normalized
NPHI        .%                                                  :          
RHOB        .G/C3                                               :          
VSH_GR      .V/V                                                :Volume of Shale from GR
~A        DEPTH           CALI           DRHO             GR        GR_NORM           NPHI           RHOB         VSH_GR
# ...
     10948.5000        12.3781        -0.0392        59.3235       78.15466        39.4252         2.2754      0.9607373
     10949.0000        11.9849        -0.0574        60.7963       80.36975         39.091         2.2546              1
     10949.5000        11.4067        -0.0554        61.9865       82.15981        38.8118         2.3131              1
     10950.0000         11.056        -0.0371        61.7299       81.77388        38.9321         2.3184              1
     10950.5000        11.1835         -0.024        60.7852       80.35305        39.1479         2.3073              1
     10951.0000        11.0605         -0.013        60.2731       79.58285        39.0449         2.3208      0.9911244
     10951.5000        10.4947        -0.0045        59.7686       78.82408         38.281         2.3376      0.9749805
     10952.0000        10.5259        -0.0055        59.3148       78.14157        38.7307         2.3129      0.9604589
     10952.5000        10.5858         -0.013        58.9555       77.60119        39.7893         2.2906      0.9489614
     10953.0000         10.582        -0.0103        59.2354       78.02216        40.2903         2.2838      0.9579183
     10953.5000        10.7937        -0.0186         59.957       79.10744        40.2613         2.2596      0.9810095
     10954.0000        10.7836        -0.0118        60.4963       79.91856        39.2845         2.2646      0.9982672
     10954.5000        10.8634         0.0078        60.3878       79.75536        38.8237         2.3173       0.994795
     10955.0000        10.5973         0.0079        59.7946       78.86319        38.4411         2.3049      0.9758126
     10955.5000        10.3242         0.0117        58.8511       77.44417        37.9066         2.3098      0.9456206
     10956.0000        10.5091        -0.0033        58.5002        76.9164        37.4211         2.2774      0.9343916
     10956.5000        10.8133        -0.0141        58.9156       77.54117        37.2823         2.2649      0.9476844
     10957.0000        10.3291        -0.0133        59.6012       78.57232        37.9222         2.2717      0.9696238
     10957.5000        10.5517        -0.0145        60.0376       79.22867        39.5928         2.2848      0.9835887
     10958.0000        11.1092        -0.0295        60.4418       79.83658        40.5405         2.2747       0.996523
     10958.5000         11.124        -0.0452        61.0338       80.72694        40.6774         2.2718              1
     10959.0000        10.7159        -0.0318         61.392       81.26568        39.5064         2.3247              1
     10959.5000        10.3695        -0.0112        61.5919       81.56634        37.9847          2.338              1
     10960.0000        10.4813        -0.0087          61.56       81.51836        36.9589         2.3216              1
     10960.5000        10.9172         0.0009        60.4095         79.788        37.6929         2.3129      0.9954894
     10961.0000         10.761        -0.0084        58.3391       76.67413        39.0076         2.2962      0.9292367
     10961.5000        10.6878         -0.033         56.989       74.64356        39.8235         2.2984      0.8860332
     10962.0000        11.0848        -0.0429        57.1464        74.8803        40.2955         2.2894      0.8910702
     10962.5000        11.1649        -0.0453        58.5027       76.92017        40.8338          2.285      0.9344716
     10963.0000        11.2444        -0.0367        59.8715       78.97885        41.1937         2.3036      0.9782735
     10963.5000        10.8919        -0.0471        61.2005       80.97766        41.2736         2.3106              1
     10964.0000        10.1756        -0.0273        61.7764       81.84382        40.8107         2.3601              1
     10964.5000        10.0905         0.0136        60.0004       79.17271         39.021         2.3542      0.9823982
     10965.0000          10.39          0.004        57.8382       75.92076        38.3674         2.3186      0.9132077
     10965.5000          10.58        -0.0215        55.8595        72.9448        38.7485         2.2958      0.8498894
     10966.0000        10.8046        -0.0396        54.0469       70.21865        39.4081          2.307      0.7918862
     10966.5000        10.4813        -0.0559        52.8406       68.40439        40.9417         2.2889      0.7532849
     10967.0000        10.4565        -0.0627         52.186       67.41986         41.471         2.2909      0.7323375
     10967.5000        10.5229        -0.0383        52.7526       68.27203        41.6028         2.3355      0.7504686
     10968.0000        10.3796        -0.0282        54.0494       70.22242        41.1852         2.3426      0.7919664
     10968.5000        10.2522        -0.0448        55.0214        71.6843         40.638         2.3189      0.8230703
     10969.0000        10.1929        -0.0299        55.4566       72.33884        40.2457          2.346      0.8369965
     10969.5000        10.2338        -0.0128        56.4249       73.79517        40.2732         2.3764      0.8679823
     10970.0000        10.2021        -0.0257        56.9871       74.64072        40.5594         2.3239      0.8859727
     10970.5000        10.0037        -0.0274        56.5712        74.0152        40.6846         2.3345      0.8726638
     10971.0000         9.8455        -0.0143        55.5148       72.42636        40.6368          2.332      0.8388587
     10971.5000        10.3593        -0.0075        55.0382       71.70957        40.2218         2.3299      0.8236079
     10972.0000        10.7997        -0.0076        55.5768       72.51962        39.9356         2.3049       0.840843
     10972.5000        11.0677        -0.0265        55.6804       72.67544        39.8011         2.2871      0.8441582
     10973.0000        10.9941        -0.0406        53.7965       69.84206        40.2032         2.2873      0.7838736
     10973.5000        11.2004        -0.0512        53.8238       69.88312        41.1815         2.2954      0.7847472
     10974.0000        11.3732        -0.0587         55.686       72.68385        42.1537         2.3076      0.8443373
     10974.5000        10.9197        -0.0546        57.3869         75.242        41.5522         2.3507       0.898766
     10975.0000        10.2304        -0.0359        58.9515       77.59518        40.7586         2.3829      0.9488335
     10975.5000         9.7087         -0.012        60.1058       79.33123        39.7283         2.3982      0.9857709
     10976.0000         9.0888          0.006         60.603       80.07902        38.6994         2.3763              1
     10976.5000         9.4538         0.0059          60.05       79.24731        37.8865         2.3363      0.9839854
     10977.0000          9.721        -0.0008        58.7854       77.34535        38.5133         2.3069      0.9435181
     10977.5000         9.6909         0.0088         56.653       74.13822        39.7625         2.3286      0.8752813
     10978.0000         9.7454         0.0176        54.3024       70.60292        39.8697         2.3216      0.8000621
     10978.5000        10.3593         0.0028        53.6671       69.64743        38.7158         2.3006      0.7797326
     10979.0000        10.7746        -0.0189        54.1783       70.41627        37.6288         2.2641      0.7960908
     10979.5000        10.4942        -0.0392        55.7033       72.70988        38.3837         2.2534      0.8448912
     10980.0000        10.4466        -0.0455        55.7783       72.82269        40.1347         2.3095      0.8472912
     10980.5000        10.8969        -0.0242        55.7531       72.78478        40.2127         2.3722      0.8464847
     10981.0000        10.6568        -0.0327        55.9299       73.05068        40.1368         2.3447      0.8521422
     10981.5000        10.2204        -0.0312        56.0653       73.25433        40.0577         2.3512       0.856475
