#------------------------------------------------------------------------------
# Created by    : vladimir.rabinovich
# Created on    : 09/19/2023 17:22:52
#------------------------------------------------------------------------------
~Version Information Section
VERS.           2.0     :   CWLS log ASCII Standard - VERSION 2.0
WRAP.           NO      :   One line per depth step
~Well Information Section
#MNEM       .UNIT                                         VALUE :DESCRIPTION
#------------------------------------------------------------------------------
STRT        .FT                                            2993 :START DEPTH
STOP        .FT                                           15023 :STOP DEPTH
STEP        .FT                                             0.5 :STEP      
NULL        .                                           -999.25 :NULL      
COMP        .                                        TEXACO INC :COMPANY   
WELL        .                                     ST TR 00018-L :WELL      
FLD         .                                           WILDCAT :FIELD     
LOC         .                                                   :LOCATION  
CNTY        .                                       SABINE PASS :LOCATION  
STAT        .                                             TEXAS :STATE     
CTRY        .                                     UNITED STATES :COUNTRY   
SRVC        .                                                   :SERVICE COMPANY
DATE        .                             9/13/2023 11:20:07 AM :LOG DATE  
API         .                                    42715000300000 :API NUMBER
UWI         .                                    42715000300000 :UNIQUE WELL ID
XCOORD      .                                  1367853.58567514 :SURFACE X 
YCOORD      .                                  10716828.2466652 :SURFACE Y 
LAT         .                                         29.526933 :LATITUDE  
LON         .                                       -93.8573019 :LONGITUDE 
ELEV        .FT                                              75 :ELEVATION VALUE
ELEV_TYPE   .                                                KB :ELEVATION REFERENCE TYPE
~Curve Information Section
#MNEM       .UNIT                                      API CODE :CURVE DESCRIPTION
#------------------------------------------------------------------------------
DEPT        .FT                                                 :DEPTH     
ILD         .OHMM                                               :          
SFLA        .OHMM                                               :          
SP          .MV                                                 :          
SP_NORM     .MV                                                 :SP Normalized
VSH_SP      .V/V                                                :Volume of Shale from SP
~A        DEPTH            ILD           SFLA             SP        SP_NORM         VSH_SP
# ...
     10165.0000          0.412         0.3489       -21.3653       -2.59708      0.9784178
     10165.5000         0.4123         0.3509       -21.6347      -2.853756      0.9749492
     10166.0000         0.4126          0.355       -22.4729       -3.67923      0.9637942
     10166.5000         0.4227         0.3612       -23.3716      -4.565203      0.9518216
     10167.0000         0.4437         0.3623       -23.6267      -4.807577      0.9485462
     10167.5000         0.4439         0.3661       -24.4007      -5.568851      0.9382588
     10168.0000         0.4442         0.3699       -25.1746      -6.330027      0.9279726
     10168.5000         0.4445         0.3734       -25.9486      -7.091301      0.9176852
     10169.0000         0.4448         0.3733       -26.7225      -7.852476       0.907399
     10169.5000         0.4467         0.3715       -27.4965       -8.61375      0.8971115
     10170.0000         0.4606         0.3677       -28.2704      -9.374924      0.8868254
     10170.5000         0.4609         0.3639       -28.4647      -9.556499      0.8843716
     10171.0000         0.4612          0.361       -28.4638      -9.542873      0.8845558
     10171.5000         0.4615         0.3593       -28.2571      -9.323446       0.887521
     10172.0000         0.4618         0.3549       -27.5136      -8.567221      0.8977402
     10172.5000          0.462         0.3549       -26.6062      -7.647095      0.9101744
     10173.0000         0.4623         0.3549       -22.6764      -3.704569      0.9634517
     10173.5000         0.4626         0.3549       -21.6017      -2.617144      0.9781467
     10174.0000         0.4629         0.3548       -21.3485      -2.351217      0.9817403
     10174.5000         0.4632         0.3548       -21.3475      -2.337494      0.9819258
     10175.0000         0.4635         0.3548       -21.3466      -2.323868      0.9821099
     10175.5000         0.4638         0.3548       -21.3457      -2.310242       0.982294
     10176.0000         0.4641         0.3548       -21.4564      -2.408216        0.98097
     10176.5000         0.4643         0.3548       -21.6529      -2.591991      0.9784866
     10177.0000         0.4646         0.3541        -21.652      -2.578365      0.9786707
     10177.5000         0.4649         0.3503       -21.7252       -2.63884      0.9778535
     10178.0000         0.4652         0.3486        -21.918      -2.818913      0.9754201
     10178.5000         0.4655         0.3427       -22.2675      -3.155687      0.9708691
     10179.0000         0.4547         0.3357       -22.8326      -3.708061      0.9634046
     10179.5000         0.4508         0.3306       -24.2734      -5.136135      0.9441063
     10180.0000         0.4511          0.325       -24.4285      -5.278511      0.9421823
     10180.5000         0.4514         0.3212        -24.273      -5.110287      0.9444556
     10181.0000         0.4517         0.3179        -22.875       -3.69956      0.9635195
     10181.5000          0.452         0.3179       -20.8688      -1.680634      0.9908022
     10182.0000         0.4523         0.3199       -20.4061      -1.205208      0.9972269
     10182.5000         0.4525         0.3237       -20.4053      -1.191683      0.9974097
     10183.0000         0.4528         0.3275       -20.4044      -1.178057      0.9975938
     10183.5000         0.4531         0.3325       -20.4035      -1.164431      0.9977779
     10184.0000         0.4534         0.3401       -21.0206      -1.768805      0.9896107
     10184.5000         0.4537         0.3424       -22.1819      -2.917379      0.9740894
     10185.0000          0.454         0.3359       -23.6011      -4.323854      0.9550831
     10185.5000         0.4543          0.331       -24.5827      -5.292728      0.9419901
     10186.0000         0.4546         0.3252       -24.7265      -5.423803      0.9402189
     10186.5000         0.4548         0.3188       -24.5589      -5.243479      0.9426557
     10187.0000         0.4458         0.3117       -24.1257      -4.797552      0.9486817
     10187.5000         0.4402         0.3107       -23.6278      -4.286926      0.9555821
     10188.0000         0.4389         0.3086        -23.177        -3.8234      0.9618459
     10188.5000         0.4255         0.3055       -22.5421      -3.175776      0.9705976
     10189.0000         0.4258         0.3055        -22.107      -2.727949      0.9766493
     10189.5000         0.4261         0.3055       -21.6972      -2.305424      0.9823591
     10190.0000         0.4253         0.3055       -21.3774      -1.972897      0.9868528
     10190.5000         0.4066         0.3055       -21.0087      -1.591471      0.9920071
     10191.0000         0.3965         0.3054         -20.91      -1.480045      0.9935129
     10191.5000         0.3845         0.3054       -20.6096      -1.166922      0.9977443
     10192.0000         0.3665         0.3054       -20.3876     -0.9321957              1
     10192.5000         0.3668         0.3054       -20.3868     -0.9186707              1
     10193.0000         0.3671         0.3054       -20.3858     -0.9049435              1
     10193.5000         0.3675         0.3054       -20.3849     -0.8913174              1
     10194.0000         0.3524         0.3054        -20.384     -0.8776932              1
     10194.5000         0.3527         0.3054        -20.383      -0.863966              1
     10195.0000         0.3454         0.3054       -20.4352     -0.9034405              1
     10195.5000         0.3381         0.3053       -20.5357     -0.9912148              1
     10196.0000         0.3384         0.3053       -20.9984      -1.441189       0.994038
     10196.5000         0.3386         0.3053       -22.5432      -2.973263      0.9733343
     10197.0000         0.3317         0.3053       -22.5422      -2.959539      0.9735197
     10197.5000          0.313         0.3053       -22.5413      -2.945913      0.9737039
     10198.0000          0.309         0.3053       -22.4074      -2.799288      0.9756853
     10198.5000         0.3093         0.3053       -22.2303      -2.609463      0.9782505
     10199.0000         0.3096         0.3053       -22.1159      -2.482336      0.9799684
     10199.5000         0.3099         0.3052       -21.7275      -2.081211      0.9853891
     10200.0000         0.3102         0.3064       -21.3392      -1.680183      0.9908083
     10200.5000         0.3105         0.3083       -20.9901      -1.318359      0.9956979
     10201.0000         0.3171         0.3083       -21.4259      -1.741432      0.9899806
     10201.5000         0.3263         0.3113       -22.8581      -3.160908      0.9707986
     10202.0000         0.3266         0.3113       -24.2904      -4.580481      0.9516152
     10202.5000         0.3421         0.3113       -25.7226      -5.999958       0.932433
     10203.0000         0.3424         0.3113       -26.4728      -6.737431      0.9224672
     10203.5000         0.3523         0.3146       -25.7359      -5.987806      0.9325972
     10204.0000         0.3735         0.3174        -24.999       -5.23818      0.9427273
     10204.5000         0.3737         0.3191       -24.2621      -4.488554      0.9528574
     10205.0000          0.374         0.3235       -23.6384      -3.852127      0.9614577
     10205.5000         0.3836         0.3235       -23.1481      -3.349102      0.9682554
     10206.0000         0.4051         0.3235       -22.8346      -3.022877      0.9726638
     10206.5000         0.4068         0.3251       -22.1898      -2.365351      0.9815493
     10207.0000         0.4209         0.3296       -21.8661      -2.028925      0.9860956
     10207.5000           0.43         0.3296       -21.3878      -1.537899      0.9927311
     10208.0000         0.4367         0.3304       -21.1423      -1.279675      0.9962206
     10208.5000          0.437         0.3326       -20.8647     -0.9893494              1
