#------------------------------------------------------------------------------
# Created by    : vladimir.rabinovich
# Created on    : 09/19/2023 17:20:22
#------------------------------------------------------------------------------
~Version Information Section
VERS.           2.0     :   CWLS log ASCII Standard - VERSION 2.0
WRAP.           NO      :   One line per depth step
~Well Information Section
#MNEM       .UNIT                                         VALUE :DESCRIPTION
#------------------------------------------------------------------------------
STRT        .FT                                             538 :START DEPTH
STOP        .FT                                           11949 :STOP DEPTH
STEP        .FT                                             0.5 :STEP      
NULL        .                                           -999.25 :NULL      
COMP        .                                 CITIES SERVICE CO :COMPANY   
WELL        .                               OCS G03070 ST00BP00 :WELL      
FLD         .                                           WILDCAT :FIELD     
LOC         .                                                   :LOCATION  
CNTY        .                               MUSTANG ISLAND EAST :LOCATION  
STAT        .                                             TEXAS :STATE     
CTRY        .                                     UNITED STATES :COUNTRY   
SRVC        .                                                   :SERVICE COMPANY
DATE        .                             9/13/2023 11:20:11 AM :LOG DATE  
API         .                                    42712400020000 :API NUMBER
UWI         .                                    42712400020000 :UNIQUE WELL ID
XCOORD      .                                  546520.538281646 :SURFACE X 
YCOORD      .                                  9992103.69354039 :SURFACE Y 
LAT         .                                        27.4947268 :LATITUDE  
LON         .                                       -96.3742825 :LONGITUDE 
ELEV        .FT                                              65 :ELEVATION VALUE
ELEV_TYPE   .                                                KB :ELEVATION REFERENCE TYPE
~Curve Information Section
#MNEM       .UNIT                                      API CODE :CURVE DESCRIPTION
#------------------------------------------------------------------------------
DEPT        .FT                                                 :DEPTH     
ASFL        .OHMM                                               :          
CILD        .MMHO                                               :          
DT          .US/F                                               :          
GR          .GAPI                                               :          
GR_NORM     .GAPI                                               :GammaRay Normalized
ILD         .OHMM                                               :          
SFL         .OHMM                                               :          
SP          .MV                                                 :          
SP_NORM     .MV                                                 :SP Normalized
VSH_GR      .V/V                                                :Volume of Shale from GR
VSH_SP      .V/V                                                :Volume of Shale from SP
~A        DEPTH           ASFL           CILD             DT             GR        GR_NORM            ILD            SFL             SP        SP_NORM         VSH_GR         VSH_SP
# ...
      3575.5000         0.8346       1261.398       154.9255        67.3467       74.51319         0.7335          0.754      -136.3311      -10.10418      0.8832594      0.7979164
      3576.0000         0.8314       1286.344       154.5093        66.2083       73.03067         0.7289         0.7649      -137.2925      -11.06216      0.8517164      0.7787567
      3576.5000          0.829       1311.289       154.4106         65.129        71.6251         0.7241         0.7759      -137.9609      -11.72716      0.8218106      0.7654569
      3577.0000         0.8266       1336.234       154.4907        64.0895       70.27136         0.7183         0.7937      -138.3411      -12.10393      0.7930077      0.7579215
      3577.5000         0.8262       1359.703       155.1008        63.4242       69.40485         0.7111         0.8127      -139.0698      -12.82922      0.7745714      0.7434157
      3578.0000         0.8265       1380.883         156.27        64.2341       70.45919         0.6997         0.8273       -139.136      -12.89201       0.797004      0.7421599
      3578.5000         0.7627       1402.078       157.5312          65.34       71.89893         0.6869         0.8023      -138.7483       -12.5009      0.8276367       0.749982
      3579.0000         0.7457       1423.695       159.0374         66.559       73.48594         0.6732         0.7639      -139.0872      -12.83638      0.8614029      0.7432724
      3579.5000         0.7287       1451.895       160.5935        67.1791       74.29314         0.6588         0.7268      -139.7422      -13.48796      0.8785774      0.7302408
      3580.0000          0.714       1480.094       162.4131        67.4155       74.60071         0.6422         0.6882      -139.9814      -13.72375      0.8851215      0.7255251
      3580.5000         0.7076       1510.883       164.5674         67.558       74.78603         0.6261         0.6517      -140.0811      -13.82003      0.8890646      0.7235994
      3581.0000         0.7011       1546.863       166.8186        67.8262       75.13503         0.6069         0.6305      -140.0178      -13.75332        0.89649      0.7249336
      3581.5000         0.6946       1582.867       168.5706         68.304       75.75693         0.5878         0.6451      -139.7485      -13.48061      0.9097219      0.7303879
      3582.0000         0.6894        1618.41       169.6892        68.9906        76.6507         0.5715         0.6591       -139.343      -13.07169      0.9287384      0.7385663
      3582.5000         0.6846       1642.266       169.8818        70.1289       78.13264         0.5559         0.6661      -138.9089      -12.63418      0.9602689      0.7473164
      3583.0000         0.6799       1666.113       170.0447        71.4373       79.83605         0.5493         0.6599      -138.3911      -12.11295      0.9965118      0.7577409
      3583.5000         0.6751       1689.957        170.168        72.5653       81.30458         0.5454         0.6496      -137.7456      -11.46404              1      0.7707192
      3584.0000         0.6719       1713.816       170.2144          73.34       82.31306         0.5479         0.6382      -137.1355      -10.85052              1      0.7829895
      3584.5000         0.6691       1739.637       170.2075        72.1941       80.82079         0.5504         0.6262      -137.1216      -10.83321              1      0.7833359
      3585.0000         0.6662       1766.184       170.0969        70.7677       78.96327         0.5586         0.6231      -138.3369      -12.04509      0.9779419      0.7590982
      3585.5000         0.6633       1782.359        169.656        69.4323       77.22424         0.5682         0.6284      -139.3831      -13.08788      0.9409412      0.7382423
      3586.0000         0.6604       1756.738       169.1133        68.5125       76.02635         0.5808         0.6428      -140.2688      -13.97016      0.9154543      0.7205968
      3586.5000          0.669       1731.117       167.8914        68.4109       75.89383         0.5941          0.661      -140.2073      -13.90525      0.9126347       0.721895
      3587.0000         0.6815       1705.484       166.5449        69.3419       77.10584         0.6078         0.6968      -139.0444      -12.73894      0.9384222      0.7452213
      3587.5000         0.6941       1678.074       165.0288        70.2307        78.2629         0.6214         0.7488      -138.0566      -11.74771      0.9630405      0.7650458
      3588.0000         0.7207       1639.766       163.5791        71.0648       79.34874         0.6346         0.8074      -137.1528      -10.84051      0.9861434      0.7831898
      3588.5000         0.7473       1601.457       162.1599        71.7039       80.18068         0.6472         0.8186      -136.3025      -9.986794              1      0.8002641
      3589.0000         0.7711       1563.125       160.9316        72.0238       80.59699         0.6593         0.7701      -136.5935      -10.27438              1      0.7945125
      3589.5000         0.7826        1524.82       160.2131        71.6029       80.04871         0.6684         0.7146      -137.3987      -11.07616              1      0.7784769
      3590.0000         0.7749       1499.445       160.0886        70.5465       78.67296         0.6765         0.6888      -137.7712      -11.44524      0.9717651      0.7710953
      3590.5000         0.7672       1476.539        160.052         69.046       76.71895         0.6702         0.6998      -137.4119      -11.08252      0.9301904      0.7783496
      3591.0000         0.7595       1479.723       160.0156        67.6106       74.84972         0.6511         0.7146      -136.7222      -10.38941      0.8904195      0.7922118
      3591.5000         0.7517       1489.996       160.2107        66.1863       72.99493         0.6332         0.7194       -136.457       -10.1208      0.8509559      0.7975841
      3592.0000          0.744       1503.965       160.4597        66.9495       73.98844         0.6181         0.7138      -136.2705       -9.93087      0.8720945      0.8013826
      3592.5000         0.7363        1517.93       160.7085        67.5419       74.75957         0.6037         0.7021      -135.9954      -9.652374      0.8885014      0.8069525
      3593.0000          0.728       1531.898       161.2268         67.972       75.31937         0.5929         0.6899      -135.5505      -9.204056       0.900412      0.8159189
      3593.5000         0.7196       1545.859       161.7913        67.9408       75.27852         0.5822         0.6736      -135.3721       -9.02224      0.8995429      0.8195552
      3594.0000         0.7112       1559.828       162.3906        68.3223       75.77503         0.5738         0.6576      -135.5081      -9.154823      0.9101071      0.8169035
      3594.5000         0.7029       1573.797       163.0054        68.7109       76.28079         0.5694         0.6471       -135.228        -8.8713      0.9208679       0.822574
      3595.0000         0.6945       1587.758       163.6111        69.0996       76.78668         0.5651         0.6458      -134.8865      -8.526398      0.9316315      0.8294721
      3595.5000         0.6873       1601.727       164.2144         70.062       78.03957         0.5634         0.6505      -134.5447      -8.181168      0.9582888      0.8363767
      3596.0000         0.6827       1615.695       164.7554         71.119       79.41565         0.5669         0.6553       -134.136      -7.769058       0.987567      0.8446189
      3596.5000         0.6781       1625.898       164.4795        70.7502       78.93521         0.5704         0.6603      -133.6868      -7.316444      0.9773449      0.8536711
      3597.0000         0.6736       1633.422       164.0325        69.8059       77.70543         0.5742         0.6669      -133.2458      -6.872032      0.9511793      0.8625594
      3597.5000         0.6804       1640.941       163.5208        69.1907       76.90415          0.581         0.6778      -133.5876      -7.210419      0.9341309      0.8557916
