#------------------------------------------------------------------------------
# Created by    : vladimir.rabinovich
# Created on    : 09/19/2023 17:21:38
#------------------------------------------------------------------------------
~Version Information Section
VERS.           2.0     :   CWLS log ASCII Standard - VERSION 2.0
WRAP.           NO      :   One line per depth step
~Well Information Section
#MNEM       .UNIT                                         VALUE :DESCRIPTION
#------------------------------------------------------------------------------
STRT        .FT                                            1242 :START DEPTH
STOP        .FT                                            7802 :STOP DEPTH
STEP        .FT                                             0.5 :STEP      
NULL        .                                           -999.25 :NULL      
COMP        .                                    CITIES SERVICE :COMPANY   
WELL        .                               OCS G03070 ST00BP00 :WELL      
FLD         .                                           WILDCAT :FIELD     
LOC         .                                                   :LOCATION  
CNTY        .                               MUSTANG ISLAND EAST :LOCATION  
STAT        .                                             TEXAS :STATE     
CTRY        .                                     UNITED STATES :COUNTRY   
SRVC        .                                                   :SERVICE COMPANY
DATE        .                             9/13/2023 11:20:08 AM :LOG DATE  
API         .                                    42712400230000 :API NUMBER
UWI         .                                    42712400230000 :UNIQUE WELL ID
XCOORD      .                                  541821.370048326 :SURFACE X 
YCOORD      .                                   9995115.4612029 :SURFACE Y 
LAT         .                                         27.502648 :LATITUDE  
LON         .                                       -96.3890109 :LONGITUDE 
ELEV        .FT                                              64 :ELEVATION VALUE
ELEV_TYPE   .                                                KB :ELEVATION REFERENCE TYPE
~Curve Information Section
#MNEM       .UNIT                                      API CODE :CURVE DESCRIPTION
#------------------------------------------------------------------------------
DEPT        .FT                                                 :DEPTH     
CALI        .IN                                                 :          
CILD        .MMHO                                               :          
DRHO        .G/C3                                               :          
DT          .US/F                                               :          
GR          .GAPI                                               :          
GR_1        .GAPI                                               :          
GR_NORM     .GAPI                                               :GammaRay Normalized
ILD         .OHMM                                               :          
NPHI        .%                                                  :          
RHOB        .G/C3                                               :          
SFL         .OHMM                                               :          
SP          .MV                                                 :          
SP_NORM     .MV                                                 :SP Normalized
VSH_GR      .V/V                                                :Volume of Shale from GR
VSH_SP      .V/V                                                :Volume of Shale from SP
~A        DEPTH           CALI           CILD           DRHO             DT             GR           GR_1        GR_NORM            ILD           NPHI           RHOB            SFL             SP        SP_NORM         VSH_GR         VSH_SP
# ...
      5169.0000        12.9003       1099.629         0.0296       137.8245         62.116        59.8392       76.78936          0.909        37.3839         2.2597         1.0029       -64.6058      -11.97422      0.9316885      0.7006445
      5169.5000        12.9063       1086.189         0.0357       137.2131        59.3201        59.0316       75.77959         0.9175        38.0237         2.2704          1.025       -65.8486      -13.21703       0.910204      0.6695744
      5170.0000        12.8828       1072.752         0.0277        134.928        57.2603        56.6022       72.74255         0.9327        38.6697         2.2665         1.0396       -66.0521      -13.42052      0.8455862      0.6644869
      5170.5000        12.7813        1060.85         0.0118        134.467        55.6198         51.632       66.52954         0.9482        38.3491         2.2439         1.0425       -65.9414      -13.30982      0.7133945      0.6672544
      5171.0000        12.5969       1049.771        -0.0014       134.4561         54.358        48.4881       62.59939          0.963        37.6618         2.2557         1.0427       -66.4447      -13.81313      0.6297742      0.6546718
      5171.5000        12.4186       1038.707        -0.0046       133.6494        53.8495        48.3221       62.39162         0.9668        37.0269         2.2629         1.0544       -67.3654      -14.73383      0.6253536      0.6316544
      5172.0000        12.3427       1031.225        -0.0085        132.811        55.2561        49.1049       63.36985         0.9622        36.8998         2.2686         1.1086       -68.0643      -15.43272      0.6461669      0.6141819
      5172.5000        12.3419       1024.438        -0.0138       131.1306        56.2599        49.7934       64.23019         0.9442        37.5883         2.2843         1.1545       -68.1104      -15.47882      0.6644722      0.6130295
      5173.0000        12.3303       1029.518        -0.0125       130.2688        55.9458        50.4049       64.99429         0.9194        37.9763         2.3023         1.1376       -68.0261      -15.39452      0.6807296      0.6151369
      5173.5000        12.3182        1034.59        -0.0142       129.7019        54.9221        50.0435       64.54227         0.8966        38.0251         2.2976         1.0983       -68.5265      -15.89492      0.6711122       0.602627
      5174.0000        12.3175       1045.086        -0.0256       129.2986        53.4511        49.1174       63.38438         0.8695         37.826           2.29         1.0719       -69.7465      -17.11492      0.6464761       0.572127
      5174.5000        12.3244       1066.178        -0.0227       129.7332        51.9864        48.0034        61.9916         0.8399        36.8058         2.2807         1.0946       -71.3639      -18.73232      0.6168426      0.5316919
      5175.0000        12.3302       1087.268        -0.0206       130.6997        50.4462        46.8906       60.60033         0.8211        35.6809         2.2767         1.1478       -72.4966      -19.86502       0.587241      0.5033745
      5175.5000        12.3327       1110.391        -0.0191       131.2126        48.1117        45.7222       59.13955         0.8022        34.8696         2.2767         1.2061       -72.7007      -20.06912      0.5561607      0.4982719
      5176.0000        12.3295       1133.539        -0.0164         131.47        47.3187        44.3925       57.47716         0.7824        34.5365         2.2737         1.2686       -71.4418      -18.81023      0.5207906      0.5297443
      5176.5000        12.3233       1157.996        -0.0097       131.0212        46.8947        43.0617       55.81339         0.7737        34.4368         2.2724         1.3211       -69.9727      -17.34113      0.4853912      0.5664719
      5177.0000        12.3158       1186.229        -0.0029       130.6719        46.5393        41.5543       53.92886         0.7693        33.8174         2.2819         1.3272       -68.3342      -15.70262      0.4452948      0.6074345
      5177.5000        12.3109       1214.438        -0.0007       130.2283        46.2811        38.1603       49.68609         0.7725        32.9615         2.2966         1.2678       -66.9789      -14.34732      0.3550232       0.641317
      5178.0000        12.3072       1241.703          0.002       128.4951        46.1039         39.612       51.50044         0.7761        32.8129         2.3006         0.9818        -66.358      -13.72643      0.3936264      0.6568394
      5178.5000        12.3023       1267.637         0.0042       126.5535        47.6911        41.5804       53.96066         0.7799        33.6273         2.2823         0.8405       -67.0154      -14.38383      0.4459715      0.6404043
      5179.0000        12.2971       1286.088         0.0046       124.2845        49.5542        44.0761       57.08002         0.7859        34.8651         2.2666           0.81       -69.3433      -16.71172      0.5123408      0.5822069
      5179.5000        12.2976       1286.082         0.0028        123.049        50.6268        45.7909       59.22325         0.7954        36.4611         2.2552         0.8522       -71.8906      -19.25903      0.5579414      0.5185243
      5180.0000        12.3001       1285.502        -0.0034       122.3085        50.3262        47.1335       60.90122         0.8084        37.3557         2.2747         0.8915       -73.1804      -20.54882       0.593643      0.4862795
      5180.5000        12.2932       1284.922        -0.0106       122.3622        47.2655        48.0816       62.08607         0.8244        38.0824         2.3014         0.9433       -73.4865      -20.85493      0.6188526      0.4786268
      5181.0000        12.2852       1280.697        -0.0009       122.5991        45.1364        47.6591       61.55767         0.8439         37.918         2.3183         1.0314       -73.0803      -20.44872      0.6076101      0.4887819
      5181.5000        12.2778       1276.012         0.0068        123.885        43.6185        44.6473       57.79266         0.8609        37.5222         2.3195         1.1729       -70.3944      -17.76283      0.5275033      0.5559294
      5182.0000        12.2705       1270.348         0.0081       126.8575        41.0378        43.8077       56.74288         0.8687        37.0812         2.3022         1.4428       -68.1636      -15.53202      0.5051676      0.6116995
      5182.5000        12.2655       1260.748         0.0073       129.9661        39.4265        42.9675       55.69235          0.861        36.5904         2.2899         1.5936        -67.183      -14.55142       0.482816      0.6362144
      5183.0000        12.2605       1251.152         0.0065       131.3708        39.7822        42.1279       54.64258         0.8448        35.8949         2.2933         1.5872       -67.2856      -14.65402      0.4604805      0.6336495
      5183.5000        12.2642       1241.559         0.0055       132.2332        41.9261        41.0933       53.34906         0.8153        35.1199         2.3065         1.5477       -68.2915      -15.65992      0.4329586       0.608502
      5184.0000        12.2687       1222.066         0.0043       132.6528        47.2606        39.6404       51.53266         0.7877         34.296          2.326         1.4959       -69.1498      -16.51823      0.3943119      0.5870444
      5184.5000         12.283       1202.018         0.0031       133.1267        48.5657        38.9084       50.61739         0.7587        33.0886         2.3361         1.4301       -70.0037      -17.37212      0.3748381      0.5656969
      5185.0000        12.2929       1187.451         0.0022       133.2664        48.0436        38.5226       50.13486         0.7282        32.8226         2.3254         1.2965       -70.8124      -18.18082      0.3645714      0.5454794
      5185.5000        12.2931       1177.113         0.0013       133.1096        46.2498        38.4984       50.10434         0.6982        33.9572         2.3051         1.1474       -71.4746      -18.84303      0.3639221      0.5289243
