#------------------------------------------------------------------------------
# Created by    : vladimir.rabinovich
# Created on    : 09/19/2023 17:21:28
#------------------------------------------------------------------------------
~Version Information Section
VERS.           2.0     :   CWLS log ASCII Standard - VERSION 2.0
WRAP.           NO      :   One line per depth step
~Well Information Section
#MNEM       .UNIT                                         VALUE :DESCRIPTION
#------------------------------------------------------------------------------
STRT        .FT                                             999 :START DEPTH
STOP        .FT                                           14605 :STOP DEPTH
STEP        .FT                                             0.5 :STEP      
NULL        .                                           -999.25 :NULL      
COMP        .                                      GETTY OIL CO :COMPANY   
WELL        .                               OCS G03116 ST00BP00 :WELL      
FLD         .                                           WILDCAT :FIELD     
LOC         .                                                   :LOCATION  
CNTY        .                                  HIGH ISLAND EAST :LOCATION  
STAT        .                                             TEXAS :STATE     
CTRY        .                                     UNITED STATES :COUNTRY   
SRVC        .                                                   :SERVICE COMPANY
DATE        .                             9/13/2023 11:19:51 AM :LOG DATE  
API         .                                    42710400090000 :API NUMBER
UWI         .                                    42710400090000 :UNIQUE WELL ID
XCOORD      .                                  1371379.55461592 :SURFACE X 
YCOORD      .                                  10664640.0845049 :SURFACE Y 
LAT         .                                        29.3834483 :LATITUDE  
LON         .                                       -93.8450221 :LONGITUDE 
ELEV        .FT                                              80 :ELEVATION VALUE
ELEV_TYPE   .                                                KB :ELEVATION REFERENCE TYPE
~Curve Information Section
#MNEM       .UNIT                                      API CODE :CURVE DESCRIPTION
#------------------------------------------------------------------------------
DEPT        .FT                                                 :DEPTH     
CALI        .IN                                                 :          
DRHO        .G/C3                                               :          
GR          .GAPI                                               :          
GR_NORM     .GAPI                                               :GammaRay Normalized
NPHI        .%                                                  :          
RHOB        .G/C3                                               :          
VSH_GR      .V/V                                                :Volume of Shale from GR
~A        DEPTH           CALI           DRHO             GR        GR_NORM           NPHI           RHOB         VSH_GR
# ...
     14566.5000         9.5211        -0.0476        53.4279       69.28767        21.2497         2.5019      0.7720782
     14567.0000         9.5076         -0.061        55.4418       72.31658        22.1351         2.4815       0.836523
     14567.5000         9.5071        -0.0745        56.1181       73.33374        23.9179         2.4732      0.8581647
     14568.0000         9.5221        -0.0816         56.835       74.41196        25.7306         2.4791      0.8811055
     14568.5000         9.5732        -0.0606        57.5496       75.48672        27.5732         2.4928      0.9039727
     14569.0000         9.8087        -0.0479        58.4355        76.8191         28.481         2.4952      0.9323213
     14569.5000         9.9893        -0.0469        59.4548       78.35213        28.6933         2.5091      0.9649391
     14570.0000        10.0105        -0.0527        60.2496       79.54751        28.5431         2.5021      0.9903725
     14570.5000         9.9256        -0.0591        65.7582       87.83245           28.3         2.4866              1
     14571.0000          9.896        -0.0657        67.9147       91.07581        28.2083         2.4727              1
     14571.5000         9.9306         -0.073        66.2321       88.54519        28.8504         2.4557              1
     14572.0000        10.0258        -0.0707        65.0635       86.78763        30.1097         2.4566              1
     14572.5000        10.1273        -0.0535        64.8098       86.40604        31.1013         2.4766              1
     14573.0000        10.2113         -0.043        64.3884       85.77225        31.3495         2.4716              1
     14573.5000        10.2206         -0.058        63.2729       84.09455        31.2576         2.4651              1
     14574.0000        10.1653        -0.0683        63.0872       83.81526        30.1815          2.442              1
     14574.5000        10.0743        -0.0656        63.4654       84.38408        29.0882         2.4467              1
     14575.0000         10.066        -0.0613        63.6678       84.68848        28.9151          2.456              1
     14575.5000        10.0899        -0.0578        63.1606       83.92564         29.332         2.4812              1
     14576.0000        10.1346        -0.0518         62.741       83.29458        30.5135         2.4995              1
     14576.5000        10.1074        -0.0407         62.678       83.19984        31.7908         2.5185              1
     14577.0000        10.0192        -0.0455        62.7085        83.2457         32.205         2.5163              1
     14577.5000         9.9803         -0.053        62.4535       82.86218        31.8813         2.4884              1
     14578.0000         9.9811        -0.0566        62.2585       82.56889        31.5081          2.497              1
     14578.5000         9.9427        -0.0591        62.4844       82.90865        31.6532         2.4971              1
     14579.0000         9.8643        -0.0619        61.9722       82.13829         31.544         2.4845              1
     14579.5000         9.8691        -0.0659        61.5774       81.54453        30.9428         2.4676              1
     14580.0000         9.9777        -0.0535        62.7571       83.31879         30.874         2.4719              1
     14580.5000        10.0653        -0.0415        63.9664       85.13757        31.6636         2.5041              1
     14581.0000        10.0798        -0.0294        63.9485       85.11065         32.059         2.5185              1
     14581.5000         9.9957        -0.0485        64.2626       85.58306        31.5395         2.5133              1
     14582.0000         9.8225         -0.064        65.1165       86.86732        31.0512         2.5225              1
     14582.5000         9.4158        -0.0618        65.8582       87.98283        30.8239         2.5326              1
     14583.0000         9.1302        -0.0588        66.2588       88.58536        30.2772         2.4999              1
     14583.5000         9.0959         -0.057        66.4714        88.9051           25.8         2.4929              1
     14584.0000         9.1418        -0.0502        67.2687       90.10424        26.6728         2.4811              1
     14584.5000         9.1949        -0.0362        67.9436       91.11929        28.4496         2.4816              1
     14585.0000         9.2356        -0.0302        68.1216       91.38699        28.7958         2.4876              1
     14585.5000         9.2348        -0.0415        67.8967       91.04874        28.4675         2.4918              1
     14586.0000         9.2222        -0.0484        67.0514       89.77742        26.8672         2.4797              1
     14586.5000         9.2081        -0.0359        65.3188       87.17159        26.4784         2.4819              1
     14587.0000         9.1924        -0.0276         64.634       86.14164        26.8493         2.4841              1
     14587.5000         9.1884        -0.0366        65.0609        86.7837        27.1544         2.4783              1
     14588.0000         9.2001        -0.0416        65.3096       87.15775        27.1185         2.4755              1
     14588.5000         9.2208        -0.0411        65.0461       86.76144        26.7685         2.4796              1
     14589.0000         9.2342        -0.0428        64.8179       86.41824        26.7379         2.4815              1
     14589.5000         9.2351        -0.0396        65.2461       87.06226        27.0078          2.488              1
     14590.0000         9.2334        -0.0353        65.8051       87.90297         27.369         2.4894              1
     14590.5000         9.2442        -0.0361         66.186       88.47586         27.289         2.4872              1
     14591.0000         9.2596        -0.0429        65.7644       87.84177        27.3152          2.478              1
     14591.5000         9.2709        -0.0502        65.9927       88.18513        27.7302         2.4699              1
     14592.0000         9.2794        -0.0556        66.4246       88.83472         28.002         2.4571              1
     14592.5000         9.2903        -0.0634        68.1967       91.49995        28.0703         2.4339              1
     14593.0000         9.3121        -0.0584        67.0514       89.77742        28.1983          2.432              1
     14593.5000         9.3685        -0.0639        64.4452        85.8577        28.5087         2.4286              1
     14594.0000         9.3823        -0.0753         64.168       85.44077        28.4232         2.4095              1
     14594.5000         9.3027        -0.0807        63.8652       84.98537        28.5359         2.3932              1
     14595.0000         9.1259        -0.0787        62.9817       83.65659        28.5804         2.3926              1
     14595.5000          9.133        -0.0398        62.4955       82.92534        28.3793         2.4237              1
     14596.0000         9.2459        -0.0052        62.8287       83.42648        28.0839         2.5054              1
     14596.5000         9.4351        -0.0208        65.2053       87.00089        27.7295         2.5521              1
     14597.0000         9.4368        -0.0424        66.9946       89.69198        27.8009          2.566              1
     14597.5000         9.4398         -0.048          67.16       89.94075        27.9243         2.5637              1
     14598.0000         9.5046        -0.0454        66.5677       89.04993        27.6502         2.5295              1
     14598.5000         9.5459        -0.0519        65.9224       88.07941        27.4378         2.4879              1
     14599.0000         9.5732        -0.0632        65.6866       87.72476        27.7938         2.4921              1
     14599.5000         9.6468        -0.0572        65.9321       88.09399        28.0196         2.4955              1
