#------------------------------------------------------------------------------
# Created by    : vladimir.rabinovich
# Created on    : 09/19/2023 17:21:38
#------------------------------------------------------------------------------
~Version Information Section
VERS.           2.0     :   CWLS log ASCII Standard - VERSION 2.0
WRAP.           NO      :   One line per depth step
~Well Information Section
#MNEM       .UNIT                                         VALUE :DESCRIPTION
#------------------------------------------------------------------------------
STRT        .FT                                            1242 :START DEPTH
STOP        .FT                                            7802 :STOP DEPTH
STEP        .FT                                             0.5 :STEP      
NULL        .                                           -999.25 :NULL      
COMP        .                                    CITIES SERVICE :COMPANY   
WELL        .                               OCS G03070 ST00BP00 :WELL      
FLD         .                                           WILDCAT :FIELD     
LOC         .                                                   :LOCATION  
CNTY        .                               MUSTANG ISLAND EAST :LOCATION  
STAT        .                                             TEXAS :STATE     
CTRY        .                                     UNITED STATES :COUNTRY   
SRVC        .                                                   :SERVICE COMPANY
DATE        .                             9/13/2023 11:20:08 AM :LOG DATE  
API         .                                    42712400230000 :API NUMBER
UWI         .                                    42712400230000 :UNIQUE WELL ID
XCOORD      .                                  541821.370048326 :SURFACE X 
YCOORD      .                                   9995115.4612029 :SURFACE Y 
LAT         .                                         27.502648 :LATITUDE  
LON         .                                       -96.3890109 :LONGITUDE 
ELEV        .FT                                              64 :ELEVATION VALUE
ELEV_TYPE   .                                                KB :ELEVATION REFERENCE TYPE
~Curve Information Section
#MNEM       .UNIT                                      API CODE :CURVE DESCRIPTION
#------------------------------------------------------------------------------
DEPT        .FT                                                 :DEPTH     
CALI        .IN                                                 :          
CILD        .MMHO                                               :          
DRHO        .G/C3                                               :          
DT          .US/F                                               :          
GR          .GAPI                                               :          
GR_1        .GAPI                                               :          
GR_NORM     .GAPI                                               :GammaRay Normalized
ILD         .OHMM                                               :          
NPHI        .%                                                  :          
RHOB        .G/C3                                               :          
SFL         .OHMM                                               :          
SP          .MV                                                 :          
SP_NORM     .MV                                                 :SP Normalized
VSH_GR      .V/V                                                :Volume of Shale from GR
VSH_SP      .V/V                                                :Volume of Shale from SP
~A        DEPTH           CALI           CILD           DRHO             DT             GR           GR_1        GR_NORM            ILD           NPHI           RHOB            SFL             SP        SP_NORM         VSH_GR         VSH_SP
# ...
      2551.0000        -999.25       1362.414        -999.25       174.1052        -999.25       103.9689       75.14519         0.7035        -999.25        -999.25         1.0214       -83.3982      0.4611282      0.8967061              1
      2551.5000        -999.25       1384.703        -999.25       175.6553        -999.25       103.9325       75.10072         0.6951        -999.25        -999.25         1.0688       -82.9551       0.893158      0.8957601              1
      2552.0000        -999.25        1406.98        -999.25       176.8611        -999.25       103.8877       75.04577          0.689        -999.25        -999.25         1.1301       -82.7576        1.07959      0.8945908              1
      2552.5000        -999.25        1429.27        -999.25        177.364        -999.25       103.5664       74.64517         0.6834        -999.25        -999.25         1.1652       -82.9847      0.8414154      0.8860675              1
      2553.0000        -999.25       1448.453        -999.25       177.8496        -999.25       103.2451        74.2446         0.6777        -999.25        -999.25         1.1353       -83.4498      0.3652496      0.8775446              1
      2553.5000        -999.25       1467.363        -999.25       178.9084        -999.25       102.9238         73.844         0.6711        -999.25        -999.25         1.1121        -83.463      0.3409729      0.8690213              1
      2554.0000        -999.25       1485.652        -999.25       178.5574        -999.25       103.1353       74.10942         0.6653        -999.25        -999.25         1.1031       -83.0294      0.7634964      0.8746685              1
      2554.5000        -999.25       1496.133        -999.25       179.0945        -999.25       103.4686       74.52708         0.6598        -999.25        -999.25         1.1017       -82.3097        1.47213       0.883555              1
      2555.0000        -999.25       1506.607        -999.25        179.884        -999.25       103.8022       74.94513         0.6536        -999.25        -999.25         1.0979       -83.0531       0.717659      0.8924496              1
      2555.5000        -999.25       1516.984        -999.25       180.6794        -999.25       104.3984       75.69141         0.6482        -999.25        -999.25         1.0881       -83.9242     -0.1645126      0.9083279      0.9967098
      2556.0000        -999.25       1525.873        -999.25       180.4614        -999.25        104.994       76.43696         0.6433        -999.25        -999.25         1.0785       -84.5963     -0.8476868      0.9241906      0.9830463
      2556.5000        -999.25       1534.768        -999.25       179.7327        -999.25       105.3729       76.91162           0.64        -999.25        -999.25         1.0751       -85.0199      -1.282356      0.9342898      0.9743529
      2557.0000        -999.25       1543.656        -999.25       178.9685        -999.25       105.6573       77.26816         0.6364        -999.25        -999.25         1.0776       -84.8502      -1.123726      0.9418757      0.9775255
      2557.5000        -999.25       1552.549        -999.25       177.7781        -999.25        105.767       77.40632         0.6324        -999.25        -999.25         1.0842       -84.6162     -0.9008026      0.9448153       0.981984
      2558.0000        -999.25       1557.289        -999.25       177.1128        -999.25       105.6569       77.26974         0.6295        -999.25        -999.25          1.099        -84.428      -0.723671      0.9419093      0.9855266
      2558.5000        -999.25       1556.965        -999.25       176.8081        -999.25       105.2365       76.74529         0.6275        -999.25        -999.25         1.1214       -84.3086     -0.6153488      0.9307507       0.987693
      2559.0000        -999.25       1556.643        -999.25       176.6514        -999.25       104.5731       75.91706         0.6267        -999.25        -999.25         1.1339       -84.3376     -0.6554184       0.913129      0.9868916
      2559.5000        -999.25       1556.318        -999.25       176.6589        -999.25       106.3713       78.16586         0.6275        -999.25        -999.25         1.1121        -84.777      -1.105888      0.9609756      0.9778822
      2560.0000        -999.25       1555.996        -999.25       176.6414        -999.25       108.1746       80.42102         0.6306        -999.25        -999.25         1.0939       -86.4729      -2.812859              1      0.9437428
      2560.5000        -999.25       1555.672        -999.25       176.1841        -999.25       109.3616       81.90582         0.6327        -999.25        -999.25         1.0903       -87.1825      -3.533531              1      0.9293294
      2561.0000        -999.25        1555.35        -999.25       175.2437        -999.25       110.2382       83.00259         0.6321        -999.25        -999.25         1.1025        -86.795      -3.157104              1      0.9368579
      2561.5000        -999.25       1554.756        -999.25       173.4089        -999.25       111.0896       84.06789         0.6302        -999.25        -999.25          1.131       -85.6361      -2.009277              1      0.9598144
      2562.0000        -999.25       1554.139        -999.25         172.22        -999.25       111.2548       84.27543         0.6259        -999.25        -999.25         1.1492       -86.2577      -2.641945              1      0.9471611
      2562.5000        -999.25       1553.523        -999.25       171.5718        -999.25       110.9497       83.89508         0.6233        -999.25        -999.25         1.1545       -87.5172      -3.912514              1      0.9217497
      2563.0000        -999.25       1560.277        -999.25       171.4944        -999.25       110.6448         83.515         0.6211        -999.25        -999.25         1.1489       -87.4388      -3.845184              1      0.9230963
      2563.5000        -999.25       1567.338        -999.25       171.5852        -999.25        110.139       82.88379          0.619        -999.25        -999.25         1.1238       -86.7405      -3.157967              1      0.9368407
      2564.0000        -999.25         1574.4        -999.25       171.8962        -999.25       109.4885        82.0717          0.617        -999.25        -999.25         1.0758       -86.7716      -3.200134              1      0.9359973
      2564.5000        -999.25       1581.461        -999.25       171.9026        -999.25       108.9561       81.40724         0.6157        -999.25        -999.25         1.0233       -86.8765      -3.316109              1      0.9336779
      2565.0000        -999.25       1588.521        -999.25       172.5193        -999.25        108.531       80.87691         0.6159        -999.25        -999.25         1.0349       -86.6897      -3.140373              1      0.9371926
      2565.5000        -999.25       1595.584        -999.25       172.7297        -999.25       109.3246       81.86995         0.6153        -999.25        -999.25         1.0773       -86.0344      -2.496147              1      0.9500771
      2566.0000        -999.25       1602.645        -999.25       172.2102        -999.25       110.3505       83.15337         0.6142        -999.25        -999.25         1.1184       -85.3737      -1.846527              1      0.9630694
      2566.5000        -999.25       1608.133        -999.25       171.6917        -999.25        111.345       84.39752         0.6142        -999.25        -999.25         1.1459       -85.7659      -2.249794              1      0.9550041
      2567.0000        -999.25       1605.633        -999.25       171.1338        -999.25       112.0918       85.33206         0.6144        -999.25        -999.25         1.1212       -84.0802     -0.5751648              1      0.9884967
      2567.5000        -999.25       1603.133        -999.25       170.6865        -999.25       111.5079       84.60323         0.6153        -999.25        -999.25         1.0874       -82.6655      0.8284683              1              1
