#------------------------------------------------------------------------------
# Created by    : vladimir.rabinovich
# Created on    : 09/19/2023 17:19:33
#------------------------------------------------------------------------------
~Version Information Section
VERS.           2.0     :   CWLS log ASCII Standard - VERSION 2.0
WRAP.           NO      :   One line per depth step
~Well Information Section
#MNEM       .UNIT                                         VALUE :DESCRIPTION
#------------------------------------------------------------------------------
STRT        .FT                                          3947.5 :START DEPTH
STOP        .FT                                           10890 :STOP DEPTH
STEP        .FT                                             0.5 :STEP      
NULL        .                                           -999.25 :NULL      
COMP        .                          PALM ENERGY OFFSHORE LLC :COMPANY   
WELL        .                               OCS G21349 ST00BP00 :WELL      
FLD         .                            HIGH ISLAND BLOCK 0074 :FIELD     
LOC         .                                                   :LOCATION  
CNTY        .                                  HIGH ISLAND EAST :LOCATION  
STAT        .                                             TEXAS :STATE     
CTRY        .                                     UNITED STATES :COUNTRY   
SRVC        .                                                   :SERVICE COMPANY
DATE        .                             9/13/2023 11:20:11 AM :LOG DATE  
API         .                                    42710401490000 :API NUMBER
UWI         .                                    42710401490000 :UNIQUE WELL ID
XCOORD      .                                  1378068.78051204 :SURFACE X 
YCOORD      .                                  10648064.4011202 :SURFACE Y 
LAT         .                                        29.3379836 :LATITUDE  
LON         .                                       -93.8236467 :LONGITUDE 
ELEV        .FT                                             104 :ELEVATION VALUE
ELEV_TYPE   .                                                KB :ELEVATION REFERENCE TYPE
~Curve Information Section
#MNEM       .UNIT                                      API CODE :CURVE DESCRIPTION
#------------------------------------------------------------------------------
DEPT        .FT                                                 :DEPTH     
AHFCO90     .MMHO                                               :          
AHT10       .OHMM                                               :          
AHT20       .OHMM                                               :          
AHT30       .OHMM                                               :          
AHT60       .OHMM                                               :          
AHT90       .OHMM                                               :          
DCAL        .IN                                                 :          
DPHZ        .V/V                                                :          
DTLF        .US/F                                               :          
DTLN        .US/F                                               :          
GR          .GAPI                                               :          
GR_NORM     .GAPI                                               :GammaRay Normalized
HDRA        .G/CC                                               :          
NPOR        .V/V                                                :          
RWA         .OHMM                                               :          
SP          .MV                                                 :          
SPHI        .V/V                                                :          
TENS        .LB/F                                               :          
VSH_GR      .V/V                                                :Volume of Shale from GR
~A        DEPTH        AHFCO90          AHT10          AHT20          AHT30          AHT60          AHT90           DCAL           DPHZ           DTLF           DTLN             GR        GR_NORM           HDRA           NPOR            RWA             SP           SPHI           TENS         VSH_GR
# ...
      8105.5000       1027.327         1.1148         1.0272         0.9899         0.9584         0.9734         0.6465         0.1985       106.6327       106.5315        65.9728       58.33086         0.0086         0.3773         0.0473       -114.625         0.2965           3935      0.5389545
      8106.0000       1050.751         1.0985         1.0116         0.9665         0.9362         0.9517         0.4173         0.2036       107.9996       108.1842        66.8441       59.15511          0.012         0.3217         0.0487       -114.125         0.3015           4085      0.5564917
      8106.5000       1109.878         1.0444         0.9575         0.9146         0.8865          0.901         0.3914         0.2093       109.2886       109.6924        68.4661       60.68953         0.0124         0.3865         0.0487       -113.875         0.3059           4058      0.5891389
      8107.0000       1170.275         1.0056         0.9242          0.877         0.8413         0.8545         0.3803         0.2208       108.8313       108.9924        69.0443        61.2365         0.0088         0.4365         0.0515       -112.125         0.3039           3965      0.6007766
      8107.5000       1149.161         1.0344         0.9549         0.9022         0.8608         0.8702         0.6243         0.2192       105.6431       105.3686        70.1335       62.26688         0.0051         0.3312         0.0516      -112.9375         0.2928           4118      0.6226997
      8108.0000       1132.631         1.0767         0.9819         0.9228         0.8757         0.8829         0.6243         0.2013       102.0653       101.6236        66.5334       58.86119         0.0065         0.2959         0.0442      -114.3125         0.2806           4051      0.5502381
      8108.5000       1145.475         1.0907          0.991         0.9234         0.8714          0.873         0.7279         0.1783        99.5125        99.1347         67.386       59.66775         0.0108         0.3154         0.0343      -111.8125         0.2719           3996      0.5673989
      8109.0000       1150.351         1.1175          0.998         0.9268         0.8717         0.8693         0.7242         0.1723        98.8423        99.1326        66.0789       58.43123         0.0118         0.3329         0.0319      -110.6875         0.2719           4092      0.5410901
      8109.5000       1141.552         1.1697         1.0266         0.9456         0.8892          0.876         0.7501         0.1761        99.4577       100.0089        66.7631       59.07848         0.0113         0.3157         0.0335      -109.9375          0.275           3984      0.5548614
      8110.0000       1135.332         1.2135         1.0451          0.959         0.8993         0.8808         0.6835          0.185        99.7883        99.6139        67.1258        59.4216         0.0081          0.324         0.0372      -112.4375         0.2736           4009      0.5621617
      8110.5000       1120.197         1.2167         1.0573         0.9799         0.9167         0.8927         0.6798         0.1915        99.4331        99.1353        63.9295        56.3979         0.0065         0.3088         0.0404      -118.0625         0.2719           4092      0.4978277
      8111.0000       1101.686         1.2279         1.0601         0.9897         0.9216         0.9077         0.3655         0.2056        98.7307        98.5897        65.2027       57.60234         0.0029          0.322         0.0474      -117.9375           0.27           4010      0.5234541
      8111.5000       1108.279         1.2692         1.0934         1.0058         0.9355         0.9023         0.0993          0.216        99.3377        99.2044        62.5886       55.12941          0.002         0.3117          0.052      -115.9375         0.2722           4074      0.4708385
      8112.0000       1017.501         1.3676         1.1729         1.0694          0.991         0.9828         0.0105          0.213        99.8605        99.9283        66.1768       58.52385         0.0062         0.2806          0.055      -118.3125         0.2747           4134      0.5430606
      8112.5000       1048.438         1.4057         1.1508         1.0461         0.9675         0.9538         0.0697         0.1981       100.7102       100.7285        67.3781       59.66027         0.0127         0.3088         0.0462           -119         0.2775           3984      0.5672398
      8113.0000       1146.789         1.2869         1.0157         0.9425         0.8801          0.872         0.1584         0.1945       102.5464       102.9628        71.2284       63.30266         0.0119         0.3827         0.0407      -118.9375         0.2851           4149      0.6447374
      8113.5000       1266.785         1.1099          0.881         0.8369         0.7922         0.7894         0.2361         0.2148       104.0474       104.7326        66.7141       59.03213         0.0061         0.4093          0.045        -119.25         0.2908           4111      0.5538751
      8114.0000       1396.648         1.0194         0.8024         0.7642         0.7249          0.716         0.6687         0.2512       106.4645       106.6674        60.5196       53.17213        -0.0012         0.3625         0.0558      -118.8125         0.2969           3884      0.4291943
      8114.5000       1442.169         0.9852         0.8032         0.7461         0.7184         0.6934         0.4099         0.2836       106.2322        106.227        52.2011       45.30283        -0.0037         0.2906         0.0689        -118.75         0.2955           4086      0.2617624
      8115.0000       1402.721         0.9717          0.828         0.7674         0.7232         0.7129         0.3803         0.2935        98.2413        98.7445        52.5113       45.59628        -0.0026         0.2954         0.0758       -118.125         0.2705           4123      0.2680059
      8115.5000       1413.827         0.9966         0.8522          0.772         0.7132         0.7073         0.3655          0.285        88.3257        89.0336         53.899       46.90905              0         0.3017         0.0709      -118.0625         0.2319           3900      0.2959372
      8116.0000       1434.926         1.0241         0.8835         0.7795         0.7155         0.6969         0.3914         0.2419        79.9963        81.5467         55.862       48.76604          0.009         0.2686         0.0503      -118.5625         0.1958           4099      0.3354477
      8116.5000       1447.178         1.0689          0.899         0.7943         0.7099          0.691         0.4173         0.2028        76.4418        77.3721         52.789       45.85899         0.0141         0.1999         0.0351       -117.875         0.1726           4044      0.2735955
      8117.0000       1439.056         1.1094         0.9189         0.8141         0.7147         0.6949         0.5911         0.1891        79.5477        79.8109        49.2042       42.46776         0.0153         0.2287         0.0307        -118.75         0.1865           3878      0.2014417
      8117.5000       1441.338         1.1102         0.9041            0.8         0.7128         0.6938          0.469         0.2226        89.7786        90.2345         47.258       40.62666         0.0083          0.316         0.0424        -117.25         0.2371           4060      0.1622694
      8118.0000       1456.028         1.0761         0.8748         0.7849         0.7081         0.6868         0.4579         0.2673          97.64        98.7626         50.947       44.11645         0.0011         0.3074         0.0606      -116.3125         0.2706           4045      0.2365202
      8118.5000       1464.772          1.029         0.8449         0.7693         0.6994         0.6827         0.3507         0.2859        102.416       102.3148         54.546       47.52111        -0.0034         0.3068         0.0689        -116.25         0.2829           4000      0.3089597
