#------------------------------------------------------------------------------
# Created by    : vladimir.rabinovich
# Created on    : 09/19/2023 17:20:10
#------------------------------------------------------------------------------
~Version Information Section
VERS.           2.0     :   CWLS log ASCII Standard - VERSION 2.0
WRAP.           NO      :   One line per depth step
~Well Information Section
#MNEM       .UNIT                                         VALUE :DESCRIPTION
#------------------------------------------------------------------------------
STRT        .FT                                             613 :START DEPTH
STOP        .FT                                           12130 :STOP DEPTH
STEP        .FT                                             0.5 :STEP      
NULL        .                                           -999.25 :NULL      
COMP        .                                 CITIES SERVICE CO :COMPANY   
WELL        .                               OCS G03060 ST00BP00 :WELL      
FLD         .                                           WILDCAT :FIELD     
LOC         .                                                   :LOCATION  
CNTY        .                               MUSTANG ISLAND EAST :LOCATION  
STAT        .                                             TEXAS :STATE     
CTRY        .                                     UNITED STATES :COUNTRY   
SRVC        .                                                   :SERVICE COMPANY
DATE        .                             9/13/2023 11:12:08 AM :LOG DATE  
API         .                                    42712400440000 :API NUMBER
UWI         .                                    42712400440000 :UNIQUE WELL ID
XCOORD      .                                  632657.308411808 :SURFACE X 
YCOORD      .                                  10083439.8406154 :SURFACE Y 
LAT         .                                        27.7518805 :LATITUDE  
LON         .                                       -96.1160164 :LONGITUDE 
ELEV        .FT                                             103 :ELEVATION VALUE
ELEV_TYPE   .                                                KB :ELEVATION REFERENCE TYPE
~Curve Information Section
#MNEM       .UNIT                                      API CODE :CURVE DESCRIPTION
#------------------------------------------------------------------------------
DEPT        .FT                                                 :DEPTH     
ASFL        .OHMM                                               :          
CILD        .MMHO                                               :          
GR          .GAPI                                               :          
GR_NORM     .GAPI                                               :GammaRay Normalized
ILD         .OHMM                                               :          
SP          .MV                                                 :          
SP_NORM     .MV                                                 :SP Normalized
VSH_GR      .V/V                                                :Volume of Shale from GR
VSH_SP      .V/V                                                :Volume of Shale from SP
~A        DEPTH           ASFL           CILD             GR        GR_NORM            ILD             SP        SP_NORM         VSH_GR         VSH_SP
# ...
      2150.0000          0.719       1173.426        53.7768       81.50381         0.8289      -121.6675      -2.562881              1      0.9487424
      2150.5000         0.7181       1181.604        49.7737       76.27728         0.8311      -121.4326      -2.329102      0.9207931       0.953418
      2151.0000         0.7172       1187.596        46.5942       72.12601         0.8333      -121.5963      -2.493927      0.8324684      0.9501215
      2151.5000         0.7162       1188.189        45.7888       71.07425         0.8355        -121.76       -2.65876      0.8100904      0.9468248
      2152.0000         0.7156       1188.783        46.8375       72.44312         0.8377      -121.9236      -2.823479      0.8392154      0.9435304
      2152.5000         0.7151       1189.377        47.8282       73.73628         0.8399      -122.0566      -2.957611      0.8667294      0.9408478
      2153.0000         0.7146       1189.973        48.8051       75.01141         0.8421      -122.1127      -3.014839      0.8938599      0.9397032
      2153.5000         0.7141       1190.566        49.7819       76.28642         0.8443      -122.1686      -3.071861      0.9209875      0.9385628
      2154.0000         0.7135       1190.938        50.7587       77.56142         0.8465      -122.1696       -3.07399      0.9481154      0.9385202
      2154.5000          0.713       1189.572        51.6143       78.67821         0.8487      -122.0444      -2.949921      0.9718767      0.9410016
      2155.0000         0.7125       1188.207        51.8984       79.04884         0.8509      -121.9193      -2.825935      0.9797626      0.9434813
      2155.5000         0.7119       1186.842        52.1827       79.41975         0.8531      -121.8358      -2.743568      0.9876543      0.9451286
      2156.0000         0.7114       1185.475        51.8541       78.99049         0.8553      -121.7941      -2.702988       0.978521      0.9459403
      2156.5000         0.7109       1184.109        51.4462        78.4577         0.8588      -121.4115      -2.321518      0.9671851      0.9535697
      2157.0000         0.7103       1182.744        50.9594        77.8219         0.8629      -121.1984       -2.10955      0.9536574       0.957809
      2157.5000         0.7098       1179.646        50.4725       77.18595         0.8669      -121.8175      -2.729767      0.9401266      0.9454046
      2158.0000         0.7092       1174.922        49.9858       76.55029          0.871      -122.4364        -3.3498      0.9266018       0.933004
      2158.5000         0.7087       1170.195         49.499       75.91448          0.875      -122.8368      -3.751328      0.9130741      0.9249734
      2159.0000         0.7082       1165.471        49.0263       75.29708         0.8791      -123.1663      -4.081947      0.8999379      0.9183611
      2159.5000         0.7076       1160.744        48.6511       74.80698         0.8831      -123.4956      -4.412376      0.8895103      0.9117525
      2160.0000         0.7071       1155.119        50.7257       77.51523         0.8871      -123.5886      -4.506508      0.9471325      0.9098698
      2160.5000         0.7067       1149.375         51.455        78.4671         0.8912      -122.9426      -3.861626      0.9673852      0.9227675
      2161.0000         0.7062       1143.633        52.1842       79.41886         0.8952      -122.6553      -3.575455      0.9876354      0.9284909
      2161.5000         0.7057       1137.891        52.9135       80.37074         0.8981      -122.3679      -3.289185              1      0.9342163
      2162.0000         0.7053       1133.064        53.3048       80.88135            0.9      -122.0804      -3.002808              1      0.9399439
      2162.5000         0.7048       1131.055        53.4245       81.03735          0.902      -121.7703       -2.69384              1      0.9461232
      2163.0000         0.7045       1129.045        53.5442       81.19337          0.904      -121.5692      -2.493858              1      0.9501228
      2163.5000         0.7042       1127.035        53.5635       81.21831         0.9059      -122.0646      -2.990387              1      0.9401923
      2164.0000         0.7039       1125.689        53.5775       81.23633         0.9094      -122.5602      -3.487122              1      0.9302576
      2164.5000         0.7037       1125.178        55.6828       83.98466         0.9186      -123.0555      -3.983536              1      0.9203293
      2165.0000         0.7034       1124.668        55.4303       83.65474         0.9277      -123.2366      -4.165771              1      0.9166846
      2165.5000         0.7031       1124.158        54.4762       82.40885         0.9369      -123.1654      -4.095695              1      0.9180861
      2166.0000         0.7029       1123.648        53.5221       81.16296         0.9456      -122.8584      -3.789818              1      0.9242036
      2166.5000         0.7021       1122.975        52.6868       80.07218         0.9537      -122.5515      -3.484047              1      0.9303191
      2167.0000          0.698       1119.332        51.9326       79.08726         0.9618      -122.2446      -3.178276        0.98058      0.9364345
      2167.5000         0.6989       1115.688         51.175       78.09792         0.9699      -122.0101      -2.944901      0.9595301       0.941102
      2168.0000         0.7038       1112.043        50.9724       77.83315         0.9781      -122.0654      -3.001328      0.9538967      0.9399735
      2168.5000         0.7087       1101.525        50.8322       77.64985         0.9862      -122.1208      -3.057846      0.9499968      0.9388431
      2169.0000         0.7135       1087.094         50.692       77.46655         0.9943      -122.1761      -3.114281      0.9460968      0.9377144
      2169.5000         0.7184       1072.656         50.532       77.25741         1.0024      -122.1887      -3.128006       0.941647      0.9374399
      2170.0000         0.7231       1056.836        50.2482       76.88663         1.0105      -122.1439      -3.084328       0.933758      0.9383134
      2170.5000         0.7277       1038.494        49.9645       76.51598         1.0187       -122.099      -3.040558       0.925872      0.9391888
      2171.0000         0.7323       1020.148        49.6808       76.14532         1.0268      -122.0541      -2.996788      0.9179856      0.9400643
      2171.5000         0.7369       1001.801        48.7525       74.93312         1.0349      -121.9895      -2.933311       0.892194      0.9413338
      2172.0000         0.7435       983.1064        47.3916       73.15613         1.0426      -121.8683       -2.81324      0.8543857      0.9437352
      2172.5000          0.755       963.0957        45.4007       70.55664         1.0503      -122.0217      -2.967766      0.7990775      0.9406447
      2173.0000         0.7671       943.0918        42.9806       67.39681          1.058      -122.1752      -3.122391       0.731847      0.9375522
      2173.5000         0.7813       923.0869        40.1201       63.66201         1.0657      -122.3287      -3.277016      0.6523831      0.9344597
      2174.0000         0.7904       905.3975        38.3923       61.40601         1.0734      -122.7314       -3.68084      0.6043832      0.9263832
      2174.5000         0.7954       887.9941        36.9677       59.54586         1.0808      -123.1732      -4.123772      0.5648054      0.9175246
      2175.0000         0.8003       879.5508         43.151       67.61824         1.0838      -123.1793      -4.130997      0.7365583      0.9173801
      2175.5000         0.8053       876.8096        45.8068       71.08527         1.0869      -122.2874      -3.240219       0.810325      0.9351956
      2176.0000         0.8029       884.9873        46.6549       72.19225           1.09      -121.3955      -2.349449      0.8338777       0.953011
