#------------------------------------------------------------------------------
# Created by    : vladimir.rabinovich
# Created on    : 09/19/2023 17:21:39
#------------------------------------------------------------------------------
~Version Information Section
VERS.           2.0     :   CWLS log ASCII Standard - VERSION 2.0
WRAP.           NO      :   One line per depth step
~Well Information Section
#MNEM       .UNIT                                         VALUE :DESCRIPTION
#------------------------------------------------------------------------------
STRT        .FT                                            3004 :START DEPTH
STOP        .FT                                           10487 :STOP DEPTH
STEP        .FT                                             0.5 :STEP      
NULL        .                                           -999.25 :NULL      
COMP        .                                    TENNECO OIL CO :COMPANY   
WELL        .                               OCS G04082 ST00BP00 :WELL      
FLD         .                            SABINE PASS BLOCK 0017 :FIELD     
LOC         .                                                   :LOCATION  
CNTY        .                                       SABINE PASS :LOCATION  
STAT        .                                             TEXAS :STATE     
CTRY        .                                     UNITED STATES :COUNTRY   
SRVC        .                                                   :SERVICE COMPANY
DATE        .                             9/13/2023 11:20:07 AM :LOG DATE  
API         .                                    42715400130000 :API NUMBER
UWI         .                                    42715400130000 :UNIQUE WELL ID
XCOORD      .                                  1369313.82013612 :SURFACE X 
YCOORD      .                                  10714127.2468036 :SURFACE Y 
LAT         .                                        29.5195329 :LATITUDE  
LON         .                                       -93.8526471 :LONGITUDE 
ELEV        .FT                                             111 :ELEVATION VALUE
ELEV_TYPE   .                                                KB :ELEVATION REFERENCE TYPE
~Curve Information Section
#MNEM       .UNIT                                      API CODE :CURVE DESCRIPTION
#------------------------------------------------------------------------------
DEPT        .FT                                                 :DEPTH     
CALI        .IN                                                 :          
DPHI        .%                                                  :          
DRHO        .G/C3                                               :          
GR          .GAPI                                               :          
GR_NORM     .GAPI                                               :GammaRay Normalized
ILD         .OHMM                                               :          
ILM         .OHMM                                               :          
NPHI        .%                                                  :          
SFL         .OHMM                                               :          
SP          .MV                                                 :          
SP_NORM     .MV                                                 :SP Normalized
VSH_GR      .V/V                                                :Volume of Shale from GR
VSH_SP      .V/V                                                :Volume of Shale from SP
~A        DEPTH           CALI           DPHI           DRHO             GR        GR_NORM            ILD            ILM           NPHI            SFL             SP        SP_NORM         VSH_GR         VSH_SP
# ...
     10452.0000         8.8139        17.4588        -0.0575        70.9901       79.39411          0.364         0.3902        38.9896         0.4772       -43.7637      -2.616461      0.9871088       0.962622
     10452.5000         8.8235        16.2877        -0.0471        72.0277       80.49795         0.3739         0.3966         39.562          0.433       -43.4681      -2.121272              1      0.9696961
     10453.0000         8.8333        16.1823        -0.0371        73.2058       81.75124          0.379         0.4016        39.5353         0.4467       -43.4951      -2.166497              1        0.96905
     10453.5000         8.8179        16.6889        -0.0357        72.7125       81.22646         0.3802         0.4069        39.4146         0.4942       -43.7769      -2.638578              1       0.962306
     10454.0000         8.7957        17.4706        -0.0413        72.2058       80.68742         0.3847         0.4144        39.2941         0.5517       -44.3137      -3.537833              1      0.9494596
     10454.5000         8.7755         17.574        -0.0434        72.3718       80.86401         0.3996         0.4234        39.3558          0.568       -44.6691      -4.133204              1      0.9409542
     10455.0000          8.717        16.7647        -0.0406        73.5931       82.16327          0.424         0.4339        39.4117         0.5203       -44.8039      -4.359023              1      0.9377282
     10455.5000         8.6569        15.4507        -0.0327        74.3282       82.94529         0.4478          0.444        39.4793         0.4981       -44.5931      -4.005888              1       0.942773
     10456.0000         8.6154        14.6353        -0.0301        73.6863       82.26241         0.4533         0.4545        39.6941         0.5194       -44.2255      -3.390074              1      0.9515704
     10456.5000        -999.25        14.6761        -0.0317        71.4587       79.89263         0.4344         0.4647        40.1027         0.5883       -44.1495      -3.262764      0.9977156      0.9533891
     10457.0000        -999.25        15.6647         -0.034        70.1764       78.52847         0.4161         0.4635        40.0235         0.6292       -44.6519       -4.10439      0.9686909      0.9413658
     10457.5000        -999.25        16.9086        -0.0447        69.6373       77.95496         0.3999         0.4516         39.703         0.5899       -45.3189      -5.221757      0.9564886      0.9254035
     10458.0000        -999.25        17.5294        -0.0528        68.9408       77.21401         0.3862         0.4343        39.4117          0.522       -45.9706      -6.313492      0.9407237      0.9098073
     10458.5000        -999.25         17.962         -0.057        68.7788       77.04167         0.3749         0.4142        39.8264         0.4811       -45.9042       -6.20226      0.9370568      0.9113963
     10459.0000        -999.25         18.297        -0.0617        70.3668       78.73103         0.3687         0.4005        40.8235          0.438       -45.3823      -5.327966      0.9730005      0.9238862
     10459.5000        -999.25        18.9684        -0.0642        72.7061       81.21965         0.3654         0.3969        41.6265         0.4371       -45.1051      -4.863592              1      0.9305201
     10460.0000        -999.25        19.5458        -0.0709         75.245       83.92061         0.3634         0.3957        42.0972         0.4612       -44.9019      -4.523193              1       0.935383
     10460.5000        -999.25        20.2045        -0.0765        -999.25        -999.25         0.3618         0.3963        42.7023         0.4966       -44.7596      -4.284811        -999.25      0.9387884
     10461.0000        -999.25        20.4768        -0.0813        -999.25        -999.25         0.3617         0.3963        42.9931         0.5306       -44.8676       -4.46573        -999.25      0.9362038
     10461.5000        -999.25        20.6241        -0.0818        -999.25        -999.25          0.363         0.3953        42.1027         0.5472       -45.1616      -4.958241        -999.25       0.929168
     10462.0000        -999.25        20.7523        -0.0797        -999.25        -999.25         0.3659         0.3925        40.3374         0.5266       -45.2551      -5.114877        -999.25      0.9269303
     10462.5000        -999.25        20.8823        -0.0775        -999.25        -999.25         0.3699         0.3884        38.4459         0.4929       -45.2158      -5.049043        -999.25      0.9278708
     10463.0000        -999.25        20.7176        -0.0762        -999.25        -999.25         0.3704         0.3823        37.7059         0.4635       -44.8429      -4.424353        -999.25      0.9367949
     10463.5000        -999.25        20.4174        -0.0739        -999.25        -999.25         0.3665         0.3776        37.3123         0.4509       -44.5343      -3.907386        -999.25      0.9441802
     10464.0000        -999.25        20.2353        -0.0741        -999.25        -999.25         0.3597         0.3761        36.5419         0.4489       -43.9921      -2.999081        -999.25       0.957156
     10464.5000        -999.25        19.9179        -0.0749        -999.25        -999.25         0.3523        -999.25        36.5877         0.4469       -43.4508      -2.092292        -999.25      0.9701101
     10465.0000        -999.25         19.282        -0.0757        -999.25        -999.25         0.3487        -999.25        37.8411         0.4439       -43.2696       -1.78874        -999.25      0.9744466
     10465.5000        -999.25        18.6295        -0.0749        -999.25        -999.25         0.3458        -999.25        39.5173         0.4408       -43.4559      -2.100829        -999.25      0.9699882
     10466.0000        -999.25        18.5759        -0.0741        -999.25        -999.25         0.3444        -999.25        39.8694         0.4486       -43.9216       -2.88098        -999.25      0.9588432
     10466.5000        -999.25        18.9617        -0.0733        -999.25        -999.25         0.3431        -999.25        39.3823         0.4593       -44.3924      -3.669668        -999.25      0.9475762
     10467.0000        -999.25        19.1765        -0.0719        -999.25        -999.25         0.3435        -999.25        38.5535         0.4554       -44.7549      -4.276938        -999.25      0.9389009
     10467.5000        -999.25        19.0853        -0.0686        -999.25        -999.25         0.3443        -999.25        38.6943         0.4517       -44.3875      -3.661463        -999.25      0.9476934
     10468.0000        -999.25        18.9647        -0.0721        -999.25        -999.25         0.3443        -999.25        39.2702         0.4546       -43.8625      -2.781973        -999.25      0.9602575
     10468.5000        -999.25        18.9021        -0.0802        -999.25        -999.25         0.3458        -999.25        39.4117         0.4592       -43.4167      -2.035161        -999.25      0.9709263
     10469.0000        -999.25        19.5249        -0.0871        -999.25        -999.25         0.3464        -999.25        39.4117         0.4648       -43.4707      -2.125624        -999.25      0.9696339
     10469.5000        -999.25        20.3353        -0.0897        -999.25        -999.25         0.3469        -999.25        39.3471          0.467       -43.8235      -2.716643        -999.25      0.9611908
     10470.0000        -999.25        20.0198        -0.0801        -999.25        -999.25         0.3484        -999.25        39.2836         0.4679       -43.9415      -2.914319        -999.25      0.9583669
     10470.5000        -999.25        19.0521        -0.0683        -999.25        -999.25        -999.25        -999.25        39.2499         0.4717       -43.7769      -2.638578        -999.25       0.962306
