#------------------------------------------------------------------------------
# Created by    : vladimir.rabinovich
# Created on    : 09/19/2023 17:22:52
#------------------------------------------------------------------------------
~Version Information Section
VERS.           2.0     :   CWLS log ASCII Standard - VERSION 2.0
WRAP.           NO      :   One line per depth step
~Well Information Section
#MNEM       .UNIT                                         VALUE :DESCRIPTION
#------------------------------------------------------------------------------
STRT        .FT                                            2993 :START DEPTH
STOP        .FT                                           15023 :STOP DEPTH
STEP        .FT                                             0.5 :STEP      
NULL        .                                           -999.25 :NULL      
COMP        .                                        TEXACO INC :COMPANY   
WELL        .                                     ST TR 00018-L :WELL      
FLD         .                                           WILDCAT :FIELD     
LOC         .                                                   :LOCATION  
CNTY        .                                       SABINE PASS :LOCATION  
STAT        .                                             TEXAS :STATE     
CTRY        .                                     UNITED STATES :COUNTRY   
SRVC        .                                                   :SERVICE COMPANY
DATE        .                             9/13/2023 11:20:07 AM :LOG DATE  
API         .                                    42715000300000 :API NUMBER
UWI         .                                    42715000300000 :UNIQUE WELL ID
XCOORD      .                                  1367853.58567514 :SURFACE X 
YCOORD      .                                  10716828.2466652 :SURFACE Y 
LAT         .                                         29.526933 :LATITUDE  
LON         .                                       -93.8573019 :LONGITUDE 
ELEV        .FT                                              75 :ELEVATION VALUE
ELEV_TYPE   .                                                KB :ELEVATION REFERENCE TYPE
~Curve Information Section
#MNEM       .UNIT                                      API CODE :CURVE DESCRIPTION
#------------------------------------------------------------------------------
DEPT        .FT                                                 :DEPTH     
ILD         .OHMM                                               :          
SFLA        .OHMM                                               :          
SP          .MV                                                 :          
SP_NORM     .MV                                                 :SP Normalized
VSH_SP      .V/V                                                :Volume of Shale from SP
~A        DEPTH            ILD           SFLA             SP        SP_NORM         VSH_SP
# ...
     10957.0000         0.3475         0.3165       -23.8191      -2.361179      0.9816057
     10957.5000         0.3477         0.3196       -23.6606      -2.203939      0.9837306
     10958.0000         0.3479         0.3196       -23.9714      -2.515997      0.9795135
     10958.5000          0.348         0.3226       -24.1648      -2.710657       0.976883
     10959.0000         0.3482         0.3195        -24.274      -2.821115      0.9753903
     10959.5000         0.3483         0.3179        -24.272      -2.820374      0.9754003
     10960.0000         0.3485         0.3103       -24.1047      -2.654333      0.9776441
     10960.5000         0.3486         0.3026        -23.804      -2.354893      0.9816906
     10961.0000         0.3488          0.295       -23.4015      -1.953651      0.9871128
     10961.5000         0.3489          0.295       -23.0711       -1.62451      0.9915607
     10962.0000         0.3491          0.295       -22.6789      -1.233568      0.9968437
     10962.5000         0.3492          0.295       -22.2867     -0.8426266              1
     10963.0000         0.3494          0.295       -21.8945     -0.4516869              1
     10963.5000         0.3496          0.295       -21.4762    -0.03464508              1
     10964.0000         0.3497         0.2966       -21.4475   -0.007204056              1
     10964.5000         0.3499         0.3005       -21.3863     0.05273819              1
     10965.0000           0.35         0.3043       -21.4712    -0.03342247              1
     10965.5000         0.3502         0.3072       -21.4695    -0.03297997              1
     10966.0000         0.3503         0.3072       -21.4677    -0.03243828              1
     10966.5000         0.3505         0.3133       -21.5421      -0.108099              1
     10967.0000         0.3506         0.3135       -21.6188     -0.1860561              1
     10967.5000         0.3508         0.3174       -21.6171     -0.1856155              1
     10968.0000          0.351         0.3212       -21.7699      -0.339674              1
     10968.5000         0.3511         0.3255       -21.7682     -0.3392334              1
     10969.0000         0.3513         0.3319       -21.8915     -0.4637909              1
     10969.5000         0.3514         0.3357        -22.074     -0.6475487              1
     10970.0000         0.3516         0.3396       -22.0721     -0.6469078              1
     10970.5000         0.3517         0.3439       -22.2551     -0.8311672              1
     10971.0000         0.3519         0.3439       -22.3778     -0.9551258              1
     10971.5000          0.352         0.3439       -22.6854      -1.263985      0.9964327
     10972.0000         0.3522         0.3438       -22.7433      -1.323143      0.9956332
     10972.5000         0.3676         0.3438       -22.9367      -1.517803      0.9930027
     10973.0000         0.3696         0.3431       -23.2715      -1.853861      0.9884613
     10973.5000         0.3832         0.3354       -23.6059       -2.18952      0.9839254
     10974.0000          0.393         0.3277       -23.6039       -2.18878      0.9839354
     10974.5000         0.3987         0.3227       -23.6022      -2.188337      0.9839414
     10975.0000         0.4141         0.3193       -23.6005      -2.187897      0.9839473
     10975.5000         0.4143         0.3193       -23.5633      -2.151955      0.9844331
     10976.0000         0.4245         0.3233       -23.3664      -1.956314      0.9870768
     10976.5000         0.4451         0.3309       -23.0528      -1.643972      0.9912977
     10977.0000         0.4478         0.3386       -22.6606      -1.253033      0.9965807
     10977.5000         0.4671          0.345       -22.3119     -0.9055901              1
     10978.0000          0.476         0.3489        -22.115     -0.7099495              1
     10978.5000         0.4762          0.356       -21.7334     -0.3296089              1
     10979.0000         0.4916         0.3571       -21.7209      -0.318367              1
     10979.5000         0.4986         0.3647       -21.5237      -0.122427              1
     10980.0000         0.5071         0.3724       -21.4194    -0.01938438              1
     10980.5000         0.5073         0.3805       -21.6832     -0.2844448              1
     10981.0000         0.5227         0.3816       -22.0723     -0.6748028              1
     10981.5000         0.5228         0.3866       -22.4614      -1.065161      0.9991195
     10982.0000          0.523         0.3887       -22.6489       -1.25392      0.9965687
     10982.5000         0.5231         0.3927       -22.7883      -1.394579      0.9946678
     10983.0000         0.5233         0.3927       -22.9819      -1.589437      0.9920346
     10983.5000         0.5159         0.3927       -23.1754      -1.784197      0.9894028
     10984.0000         0.5084         0.3839       -23.2602      -1.870256      0.9882398
     10984.5000         0.5085         0.3559       -23.2585      -1.869814      0.9882458
     10985.0000         0.5087         0.3437       -23.4466      -2.059174      0.9856868
     10985.5000         0.5088         0.3407       -23.5642      -2.178032      0.9840807
     10986.0000         0.4633          0.333       -23.5625      -2.177591      0.9840866
     10986.5000         0.3714         0.3283       -23.5581       -2.17445      0.9841291
     10987.0000         0.3569         0.3214       -23.3609       -1.97851      0.9867769
     10987.5000          0.357         0.3161       -23.0797      -1.698568      0.9905599
     10988.0000         0.3572         0.3084       -22.6279      -1.248026      0.9966483
     10988.5000         0.3421         0.3007       -22.6051      -1.226486      0.9969394
     10989.0000         0.3422         0.2969       -22.2126     -0.8352451              1
     10989.5000         0.3337          0.293       -21.9124     -0.5363026              1
     10990.0000         0.3273         0.2885       -21.6937     -0.3188629              1
     10990.5000         0.3275         0.2884       -21.3831   -0.009521484              1
     10991.0000         0.3276         0.2884       -21.2623      0.1100197              1
     10991.5000         0.3278         0.2917       -20.8698      0.5012608              1
     10992.0000         0.3279          0.297       -20.7595       0.610302              1
     10992.5000         0.3297         0.3009       -20.4217      0.9468441              1
     10993.0000         0.3435         0.3068       -20.2249       1.142385              1
     10993.5000         0.3436         0.3101       -20.1362       1.229826              1
     10994.0000         0.3438         0.3154       -19.8253       1.539467              1
     10994.5000          0.346          0.319       -19.8588       1.504707              1
     10995.0000         0.3593           0.32       -20.0524       1.309849              1
     10995.5000         0.3595         0.3238       -21.3655   -0.004508972              1
     10996.0000         0.3597         0.3312        -21.993     -0.6332684              1
     10996.5000         0.3622         0.3312       -22.5988      -1.240328      0.9967523
     10997.0000         0.3815         0.3312       -22.5971      -1.239885      0.9967583
     10997.5000         0.3906         0.3312       -22.4706      -1.114645      0.9984508
     10998.0000         0.3908         0.3343       -22.2625     -0.9078045              1
     10998.5000         0.4089         0.3343       -21.9737     -0.6202621              1
     10999.0000         0.4216         0.3353        -21.788     -0.4358215              1
     10999.5000         0.4217         0.3373       -21.3518  -0.0008811951              1
     11000.0000         0.4219         0.3373       -21.1576      0.1920605              1
     11000.5000          0.422         0.3373       -20.8253      0.5231018              1
