#------------------------------------------------------------------------------
# Created by    : vladimir.rabinovich
# Created on    : 09/19/2023 17:19:33
#------------------------------------------------------------------------------
~Version Information Section
VERS.           2.0     :   CWLS log ASCII Standard - VERSION 2.0
WRAP.           NO      :   One line per depth step
~Well Information Section
#MNEM       .UNIT                                         VALUE :DESCRIPTION
#------------------------------------------------------------------------------
STRT        .FT                                          3947.5 :START DEPTH
STOP        .FT                                           10890 :STOP DEPTH
STEP        .FT                                             0.5 :STEP      
NULL        .                                           -999.25 :NULL      
COMP        .                          PALM ENERGY OFFSHORE LLC :COMPANY   
WELL        .                               OCS G21349 ST00BP00 :WELL      
FLD         .                            HIGH ISLAND BLOCK 0074 :FIELD     
LOC         .                                                   :LOCATION  
CNTY        .                                  HIGH ISLAND EAST :LOCATION  
STAT        .                                             TEXAS :STATE     
CTRY        .                                     UNITED STATES :COUNTRY   
SRVC        .                                                   :SERVICE COMPANY
DATE        .                             9/13/2023 11:20:11 AM :LOG DATE  
API         .                                    42710401490000 :API NUMBER
UWI         .                                    42710401490000 :UNIQUE WELL ID
XCOORD      .                                  1378068.78051204 :SURFACE X 
YCOORD      .                                  10648064.4011202 :SURFACE Y 
LAT         .                                        29.3379836 :LATITUDE  
LON         .                                       -93.8236467 :LONGITUDE 
ELEV        .FT                                             104 :ELEVATION VALUE
ELEV_TYPE   .                                                KB :ELEVATION REFERENCE TYPE
~Curve Information Section
#MNEM       .UNIT                                      API CODE :CURVE DESCRIPTION
#------------------------------------------------------------------------------
DEPT        .FT                                                 :DEPTH     
AHFCO90     .MMHO                                               :          
AHT10       .OHMM                                               :          
AHT20       .OHMM                                               :          
AHT30       .OHMM                                               :          
AHT60       .OHMM                                               :          
AHT90       .OHMM                                               :          
DCAL        .IN                                                 :          
DPHZ        .V/V                                                :          
DTLF        .US/F                                               :          
DTLN        .US/F                                               :          
GR          .GAPI                                               :          
GR_NORM     .GAPI                                               :GammaRay Normalized
HDRA        .G/CC                                               :          
NPOR        .V/V                                                :          
RWA         .OHMM                                               :          
SP          .MV                                                 :          
SPHI        .V/V                                                :          
TENS        .LB/F                                               :          
VSH_GR      .V/V                                                :Volume of Shale from GR
~A        DEPTH        AHFCO90          AHT10          AHT20          AHT30          AHT60          AHT90           DCAL           DPHZ           DTLF           DTLN             GR        GR_NORM           HDRA           NPOR            RWA             SP           SPHI           TENS         VSH_GR
# ...
      4865.5000       735.6728         1.1587         1.2442         1.2862         1.3429         1.3593         3.0204         0.2318       118.4919        118.695        84.9424        76.2761        -0.0106         0.3168         0.0901       -152.125         0.3301           2858      0.9207681
      4866.0000        727.961         1.1759          1.261         1.3009         1.3594         1.3737         3.0204         0.2284       116.0444       116.8826        84.1083       75.48705        -0.0081         0.3325         0.0885      -151.0625         0.3256           2964      0.9039797
      4866.5000       724.9003         1.1921         1.2756         1.3133         1.3666         1.3795         2.7542         0.2237       115.6286       115.6776        83.2248       74.65125        -0.0076         0.3222         0.0852        -151.75         0.3224           2963      0.8861967
      4867.0000        715.666         1.2178         1.3032         1.3402         1.3888         1.3973         2.9982         0.2182       114.0006       114.8358        77.1607       68.91461        -0.0085           0.35         0.0821      -153.8125         0.3202           2880      0.7641407
      4867.5000       705.4673         1.2464         1.3289         1.3677         1.4145         1.4175         2.8873         0.2156       113.0204       113.3746        73.2216       65.18822        -0.0048         0.3277         0.0813      -153.5625         0.3163           2991      0.6848558
      4868.0000       702.2472         1.2598         1.3396         1.3782          1.426          1.424         2.9428         0.2132       113.9807       114.1852        77.6325       69.36094        -0.0001         0.2996         0.0799      -154.0625         0.3185           2979       0.773637
      4868.5000       699.4474         1.2696         1.3468         1.3843         1.4323         1.4297         3.5751         0.2141       113.3753       113.7785        79.0712       70.72194         0.0009         0.3167         0.0809      -154.6875         0.3174           2913      0.8025944
      4869.0000       698.4703          1.278         1.3451          1.383          1.431         1.4317         3.6416         0.2154       114.6519       114.5654        75.5956       67.43403        -0.0006         0.3233          0.082      -154.5625         0.3195           2998      0.7326389
      4869.5000       701.3607         1.2742         1.3357         1.3761         1.4227         1.4258         3.6527         0.2148       115.1013        115.456        71.1847       63.26132         -0.004         0.3301         0.0812      -154.1875         0.3219           2986      0.6438578
      4870.0000       705.0695         1.2686         1.3272         1.3671         1.4132         1.4183          3.686         0.2182       116.3325       116.3997        69.4634       61.63297        -0.0049         0.3388         0.0833        -154.75         0.3243           2889      0.6092121
      4870.5000       704.3245         1.2683         1.3234         1.3664          1.411         1.4198         3.7304         0.2244       116.6595       117.0681        72.6835       64.67918        -0.0066         0.3133         0.0883       -155.625          0.326           3001      0.6740252
      4871.0000       704.4734         1.2664         1.3202         1.3638         1.4067         1.4195         3.8857         0.2285        116.487       117.1237        75.5611       67.40139        -0.0044          0.309         0.0915       -156.625         0.3262           2928      0.7319444
      4871.5000       706.2147         1.2671         1.3165          1.358         1.4021          1.416         3.7526         0.2248       115.4089       115.8344        75.3293       67.18211         0.0004         0.3015         0.0883      -156.9375         0.3228           2935       0.727279
      4872.0000       707.8643           1.26         1.3116         1.3542         1.3984         1.4127         3.5973         0.2181       115.0926       115.4838        79.4401       71.07093         0.0087         0.3408          0.083           -158         0.3219           2978      0.8100198
      4872.5000       708.2153         1.2625         1.3163         1.3559         1.3988          1.412         3.4642         0.2161       113.9765       114.2953        78.2925       69.98531         0.0108         0.3398         0.0814        -156.25         0.3188           2869      0.7869214
      4873.0000       706.1149         1.2705         1.3267         1.3652         1.4069         1.4162         3.5085         0.2117       113.1494       113.3837         79.586       71.20895         0.0058         0.3452         0.0783       -156.625         0.3163           2938      0.8129563
      4873.5000       700.7218         1.2809         1.3397         1.3821         1.4189         1.4271         3.6305         0.2105       112.6827       112.9472        78.8542       70.51666        -0.0033         0.3478         0.0781       -156.125         0.3151           2967      0.7982269
      4874.0000       702.6419         1.2838         1.3421          1.383         1.4178         1.4232         3.6638         0.2128       112.8984       113.7273         79.162       70.80785        -0.0118         0.3299         0.0796      -154.5625         0.3172           2858      0.8044223
      4874.5000       706.7637         1.2777         1.3367         1.3747         1.4118         1.4149         3.5751         0.2234       113.6187       114.3306        81.3535         72.881        -0.0152         0.3673         0.0872      -153.5625         0.3189           2925       0.848532
      4875.0000       709.9247         1.2738         1.3292         1.3689         1.4066         1.4086         3.5529         0.2252       115.3972       115.6608        78.3856       70.07336        -0.0136         0.3343         0.0882      -155.0625         0.3224           2956       0.788795
      4875.5000       715.3076         1.2592         1.3143         1.3548          1.392          1.398         3.5751         0.2265       116.2195       117.0424        82.1907       73.67299        -0.0102         0.3234         0.0885           -156          0.326           2821      0.8653827
      4876.0000       720.8766         1.2469         1.2984         1.3393         1.3788         1.3872         3.5751         0.2252       117.1632       117.6927        84.3584       75.72364        -0.0095         0.3261         0.0869         -156.5         0.3276           2898      0.9090136
      4876.5000       728.4913         1.2282         1.2841         1.3234         1.3638         1.3727         3.4863         0.2273       116.8206       117.4744        89.2913       80.39016        -0.0111         0.3178         0.0875        -156.25         0.3271           2938              1
      4877.0000       737.2457         1.2113         1.2698         1.3093           1.35         1.3564         3.2978         0.2249        116.482       116.8906        85.8157       77.10224        -0.0086         0.3368         0.0847       -155.625         0.3256           2889      0.9383456
      4877.5000        734.538         1.2138         1.2747         1.3158         1.3584         1.3614         2.8762         0.2204       115.4422       115.4427        84.1713       75.54665        -0.0062         0.3409         0.0817       -154.625         0.3218           2996      0.9052478
      4878.0000       720.6169          1.226         1.2963         1.3393         1.3837         1.3877         2.8429         0.2196       113.4535       113.9663        83.9489       75.33625        -0.0034         0.3513         0.0826      -152.8125         0.3179           2911      0.9007713
      4878.5000       712.8092         1.2358         1.3114         1.3585         1.3987         1.4029         2.9982          0.215        113.038        113.041        84.3428       75.70888         0.0003          0.325         0.0801      -151.3125         0.3154           2824      0.9086995
