#------------------------------------------------------------------------------
# Created by    : vladimir.rabinovich
# Created on    : 09/19/2023 17:20:10
#------------------------------------------------------------------------------
~Version Information Section
VERS.           2.0     :   CWLS log ASCII Standard - VERSION 2.0
WRAP.           NO      :   One line per depth step
~Well Information Section
#MNEM       .UNIT                                         VALUE :DESCRIPTION
#------------------------------------------------------------------------------
STRT        .FT                                             613 :START DEPTH
STOP        .FT                                           12130 :STOP DEPTH
STEP        .FT                                             0.5 :STEP      
NULL        .                                           -999.25 :NULL      
COMP        .                                 CITIES SERVICE CO :COMPANY   
WELL        .                               OCS G03060 ST00BP00 :WELL      
FLD         .                                           WILDCAT :FIELD     
LOC         .                                                   :LOCATION  
CNTY        .                               MUSTANG ISLAND EAST :LOCATION  
STAT        .                                             TEXAS :STATE     
CTRY        .                                     UNITED STATES :COUNTRY   
SRVC        .                                                   :SERVICE COMPANY
DATE        .                             9/13/2023 11:12:08 AM :LOG DATE  
API         .                                    42712400440000 :API NUMBER
UWI         .                                    42712400440000 :UNIQUE WELL ID
XCOORD      .                                  632657.308411808 :SURFACE X 
YCOORD      .                                  10083439.8406154 :SURFACE Y 
LAT         .                                        27.7518805 :LATITUDE  
LON         .                                       -96.1160164 :LONGITUDE 
ELEV        .FT                                             103 :ELEVATION VALUE
ELEV_TYPE   .                                                KB :ELEVATION REFERENCE TYPE
~Curve Information Section
#MNEM       .UNIT                                      API CODE :CURVE DESCRIPTION
#------------------------------------------------------------------------------
DEPT        .FT                                                 :DEPTH     
ASFL        .OHMM                                               :          
CILD        .MMHO                                               :          
GR          .GAPI                                               :          
GR_NORM     .GAPI                                               :GammaRay Normalized
ILD         .OHMM                                               :          
SP          .MV                                                 :          
SP_NORM     .MV                                                 :SP Normalized
VSH_GR      .V/V                                                :Volume of Shale from GR
VSH_SP      .V/V                                                :Volume of Shale from SP
~A        DEPTH           ASFL           CILD             GR        GR_NORM            ILD             SP        SP_NORM         VSH_GR         VSH_SP
# ...
      7503.0000        -999.25        -999.25        20.8018       82.33299        -999.25        -999.25       2.951199              1              1
      7503.5000        -999.25        -999.25        20.7065       82.12453        -999.25        -999.25       2.945114              1              1
      7504.0000        -999.25        -999.25        20.6112       81.91606        -999.25        -999.25       2.939029              1              1
      7504.5000        -999.25        -999.25        20.4458        81.7076        -999.25        -999.25       2.932944              1              1
      7505.0000        -999.25        -999.25        20.2192       81.49915        -999.25        -999.25       2.926859              1              1
      7505.5000        -999.25        -999.25        20.1671       81.29067        -999.25        -999.25       2.920774              1              1
      7506.0000        -999.25        -999.25        20.4796       81.08221        -999.25        -999.25       2.914689              1              1
      7506.5000        -999.25        -999.25        20.7921       80.87375        -999.25        -999.25       2.908604              1              1
      7507.0000        -999.25        -999.25        21.1047        80.6653        -999.25        -999.25       2.902519              1              1
      7507.5000        -999.25        -999.25        21.4172       80.45683        -999.25        -999.25       2.896434              1              1
      7508.0000        -999.25        -999.25        21.7297       80.24837        -999.25        -999.25       2.890349              1              1
      7508.5000        -999.25        -999.25        22.0321       80.03991        -999.25        -999.25       2.884264              1              1
      7509.0000        -999.25        -999.25        22.3272       80.31312        -999.25        -999.25       2.878179              1              1
      7509.5000        -999.25        -999.25        22.6219       80.58635        -999.25        -999.25       2.872094              1              1
      7510.0000        -999.25        -999.25        22.9165       80.85957        -999.25        -999.25       2.866009              1              1
      7510.5000        -999.25        -999.25        22.7099       81.13279        -999.25        -999.25       2.859925              1              1
      7511.0000        -999.25        -999.25        22.3469       81.40601        -999.25        -999.25        2.85384              1              1
      7511.5000        -999.25        -999.25        21.9838       81.67924        -999.25        -999.25       2.847755              1              1
      7512.0000        -999.25        -999.25        21.4814       81.95245        -999.25        -999.25        2.84167              1              1
      7512.5000        -999.25        -999.25        20.9709       82.22568        -999.25        -999.25       2.835585              1              1
      7513.0000        -999.25        -999.25        20.8877        82.4989        -999.25        -999.25         2.8295              1              1
      7513.5000        -999.25        -999.25        21.2005       82.77212        -999.25        -999.25       2.823415              1              1
      7514.0000        -999.25        -999.25        21.5134       83.04535        -999.25        -999.25        2.81733              1              1
      7514.5000        -999.25        -999.25        21.8415       82.90045        -999.25        -999.25       2.811245              1              1
      7515.0000        -999.25        -999.25        22.1994       82.75558        -999.25        -999.25        2.80516              1              1
      7515.5000        -999.25        -999.25        22.2165       82.61069        -999.25        -999.25       2.799075              1              1
      7516.0000        -999.25        -999.25        21.5788       82.46583        -999.25        -999.25        2.79299              1              1
      7516.5000        -999.25        -999.25        20.9412       82.32094        -999.25        -999.25       2.786905              1              1
      7517.0000        -999.25        -999.25        20.3035       82.17605        -999.25        -999.25        2.78082              1              1
      7517.5000        -999.25        -999.25        19.7722       82.03117        -999.25        -999.25       2.774735              1              1
      7518.0000        -999.25        -999.25        19.3485       81.88629        -999.25        -999.25        2.76865              1              1
      7518.5000        -999.25        -999.25        18.9249       81.74142        -999.25        -999.25       2.762565              1              1
      7519.0000        -999.25        -999.25        18.5258       81.59653        -999.25        -999.25        2.75648              1              1
      7519.5000        -999.25        -999.25        18.4462       81.04367        -999.25        -999.25       2.750396              1              1
      7520.0000        -999.25        -999.25        18.3666       80.49079        -999.25        -999.25       2.744311              1              1
      7520.5000        -999.25        -999.25        18.2871       79.93793        -999.25        -999.25       2.738226      0.9986793              1
      7521.0000        -999.25        -999.25        18.2075       79.38507        -999.25        -999.25       2.732141      0.9869164              1
      7521.5000        -999.25        -999.25        18.0812       78.83221        -999.25        -999.25       2.726056      0.9751535              1
      7522.0000        -999.25        -999.25        17.9475       78.27934        -999.25        -999.25       2.719971      0.9633901              1
      7522.5000        -999.25        -999.25        17.8137       77.72646        -999.25        -999.25       2.713886      0.9516269              1
      7523.0000        -999.25        -999.25        17.6799       77.17361        -999.25        -999.25       2.707801      0.9398642              1
      7523.5000        -999.25        -999.25         17.559       77.63357        -999.25        -999.25       2.701716      0.9496504              1
      7524.0000        -999.25        -999.25        17.7158       78.09354        -999.25        -999.25       2.695631      0.9594371              1
      7524.5000        -999.25        -999.25        17.8728        78.5535        -999.25        -999.25       2.689546      0.9692233              1
      7525.0000        -999.25        -999.25        18.0296       79.01347        -999.25        -999.25       2.683461        0.97901              1
      7525.5000        -999.25        -999.25        18.1866       79.47344        -999.25        -999.25       2.677376      0.9887967              1
      7526.0000        -999.25        -999.25        18.3434        79.9334        -999.25        -999.25       2.671291       0.998583              1
      7526.5000        -999.25        -999.25        18.6507       80.39337        -999.25        -999.25       2.665206              1              1
      7527.0000        -999.25        -999.25        19.1397       80.85334        -999.25        -999.25       2.659121              1              1
      7527.5000        -999.25        -999.25         19.631        81.3133        -999.25        -999.25       2.653036              1              1
      7528.0000        -999.25        -999.25        20.1586       81.77327        -999.25        -999.25       2.646951              1              1
      7528.5000        -999.25        -999.25         20.687       82.23324        -999.25        -999.25       2.640867              1              1
      7529.0000        -999.25        -999.25        21.2154        82.6932        -999.25        -999.25       2.634782              1              1
