#------------------------------------------------------------------------------
# Created by    : vladimir.rabinovich
# Created on    : 09/19/2023 17:21:39
#------------------------------------------------------------------------------
~Version Information Section
VERS.           2.0     :   CWLS log ASCII Standard - VERSION 2.0
WRAP.           NO      :   One line per depth step
~Well Information Section
#MNEM       .UNIT                                         VALUE :DESCRIPTION
#------------------------------------------------------------------------------
STRT        .FT                                            3004 :START DEPTH
STOP        .FT                                           10487 :STOP DEPTH
STEP        .FT                                             0.5 :STEP      
NULL        .                                           -999.25 :NULL      
COMP        .                                    TENNECO OIL CO :COMPANY   
WELL        .                               OCS G04082 ST00BP00 :WELL      
FLD         .                            SABINE PASS BLOCK 0017 :FIELD     
LOC         .                                                   :LOCATION  
CNTY        .                                       SABINE PASS :LOCATION  
STAT        .                                             TEXAS :STATE     
CTRY        .                                     UNITED STATES :COUNTRY   
SRVC        .                                                   :SERVICE COMPANY
DATE        .                             9/13/2023 11:20:07 AM :LOG DATE  
API         .                                    42715400130000 :API NUMBER
UWI         .                                    42715400130000 :UNIQUE WELL ID
XCOORD      .                                  1369313.82013612 :SURFACE X 
YCOORD      .                                  10714127.2468036 :SURFACE Y 
LAT         .                                        29.5195329 :LATITUDE  
LON         .                                       -93.8526471 :LONGITUDE 
ELEV        .FT                                             111 :ELEVATION VALUE
ELEV_TYPE   .                                                KB :ELEVATION REFERENCE TYPE
~Curve Information Section
#MNEM       .UNIT                                      API CODE :CURVE DESCRIPTION
#------------------------------------------------------------------------------
DEPT        .FT                                                 :DEPTH     
CALI        .IN                                                 :          
DPHI        .%                                                  :          
DRHO        .G/C3                                               :          
GR          .GAPI                                               :          
GR_NORM     .GAPI                                               :GammaRay Normalized
ILD         .OHMM                                               :          
ILM         .OHMM                                               :          
NPHI        .%                                                  :          
SFL         .OHMM                                               :          
SP          .MV                                                 :          
SP_NORM     .MV                                                 :SP Normalized
VSH_GR      .V/V                                                :Volume of Shale from GR
VSH_SP      .V/V                                                :Volume of Shale from SP
~A        DEPTH           CALI           DPHI           DRHO             GR        GR_NORM            ILD            ILM           NPHI            SFL             SP        SP_NORM         VSH_GR         VSH_SP
# ...
      8970.0000        12.3762        29.0735         0.0021        52.8586       61.86467         0.4248         0.3877        34.6975         0.4115       -81.0784      -58.97898       0.614142      0.1574431
      8970.5000        12.3748        28.3216         0.0029        53.4021       62.44262         0.4256         0.3794        32.9825         0.4436       -81.0093      -58.86322      0.6264387      0.1590968
      8971.0000        12.3655         27.404         0.0023        53.8431       62.91153         0.4361         0.3867        31.7059         0.4825       -81.4039      -59.52426      0.6364155      0.1496534
      8971.5000        12.3735        26.2865          0.011        53.6519       62.70787         0.4486         0.4051        31.0794          0.518        -81.405       -59.5261      0.6320823      0.1496271
      8972.0000        12.3726        25.7465          0.014        52.5117       61.49465         0.4594         0.4192        30.6823         0.5526       -81.1176      -59.04465      0.6062691       0.156505
      8972.5000        12.3823        25.8151         0.0146        52.7994       61.80047          0.469         0.4267        30.3735         0.5408       -80.6932      -58.33369      0.6127759      0.1666616
      8973.0000        12.3794        26.5782         0.0117        53.8529       62.92097         0.4757         0.4295        30.4765          0.511       -80.4454      -57.91856      0.6366164      0.1725919
      8973.5000         12.376        27.3153         0.0109        55.8351       65.02944         0.4793         0.4363        31.7656         0.4892       -80.5791      -58.14255      0.6814775      0.1693922
      8974.0000        12.3823        27.4455         0.0105        57.9412       67.26973         0.4667         0.4357        33.3529         0.4717       -80.6436       -58.2506      0.7291432      0.1678485
      8974.5000         12.397        27.1399         0.0107        59.3234       68.73991         0.4446         0.4235        34.1089          0.458       -80.5962      -58.17119      0.7604235       0.168983
      8975.0000        12.4568        26.7921         0.0127        59.0385       68.43658         0.4168          0.408        32.7706         0.4482       -80.5004       -58.0107      0.7539699      0.1712757
      8975.5000        12.5235        26.9968         0.0128        57.4124       66.70644          0.385         0.3922        31.4429         0.4429       -80.7336      -58.40136      0.7171584      0.1656949
      8976.0000        12.5568        27.6594         0.0085        55.6135       64.79247         0.3524         0.3745        30.1176         0.4389       -81.7187      -60.05162      0.6764356      0.1421198
      8976.5000        12.5853         28.752         0.0033        53.2404       62.26765         0.3201         0.3516          30.72         0.4474       -83.3699      -62.81774       0.622716      0.1026037
      8977.0000        12.5598        29.6495         0.0011        50.9313       59.81092         0.2933         0.3288        31.3765         0.4583        -85.489      -66.36768      0.5704451     0.05189035
      8977.5000        12.4244         30.197              0        49.4558       58.24099         0.2718         0.3066        32.0612         0.4671       -87.3103      -69.41875      0.5370424    0.008303615
      8978.0000        12.3529        30.2235         0.0019        49.8063       58.61362         0.2536         0.2853        32.9176         0.4328       -88.6274      -71.62518      0.5449706              0
      8978.5000        12.3039        29.9733         0.0034        51.3339       60.23848         0.2416         0.2657        33.8231         0.3803        -88.677      -71.70826      0.5795421              0
      8979.0000        12.2941        29.7327         0.0037        54.0574       63.13558          0.233         0.2525        34.5411         0.3323       -86.7048      -68.40441      0.6411826     0.02279412
      8979.5000         12.297        29.5782         0.0026        57.6688       66.97725         0.2393         0.2532        34.7646         0.2958       -84.0529      -63.96191      0.7229202     0.08625848
      8980.0000        12.3176        28.5078         0.0038         61.041       70.56445         0.2573         0.2685        34.9161         0.2939       -80.1478      -57.42002      0.7992435       0.179714
      8980.5000        12.3812         26.327         0.0092        62.9022        72.5442         0.2798          0.291        35.7403          0.332       -75.3029      -49.30379      0.8413659      0.2956602
      8981.0000        12.4748         23.989         0.0202        64.6505       74.40385         0.2987         0.3206        37.4554         0.3739       -71.1002      -42.26336      0.8809329      0.3962377
      8981.5000        12.6163         22.517         0.0298        65.6094       75.42371         0.3206         0.3534        39.9044         0.4238       -68.2085      -37.41916      0.9026322      0.4654406
      8982.0000        12.6196         22.648         0.0297        64.2639       73.99209         0.3537         0.3745        40.8005         0.4824       -67.4156      -36.09088      0.8721721       0.484416
      8982.5000        12.5862        24.0984          0.026        62.2413       71.84013         0.3867         0.3871        39.3203         0.4968       -68.0093      -37.08545      0.8263858      0.4702079
      8983.0000        12.5288        25.9377         0.0243        61.2667       70.80308         0.4126         0.3942        36.8369         0.4591       -69.3363      -39.30846      0.8043208      0.4384506
      8983.5000        12.4317         26.483         0.0249        62.3825       71.98986         0.4306          0.402        34.0128         0.4096       -69.3568      -39.34279      0.8295715      0.4379601
      8984.0000        12.4376         25.611         0.0275        64.3804       74.11504         0.4443         0.4132        33.3417         0.4215       -67.5951      -36.39157      0.8747882      0.4801204
      8984.5000        12.4891        23.8566           0.04        66.2849       76.14085         0.4583         0.4285        33.6028         0.4601       -65.0414      -32.11357      0.9178904      0.5412347
      8985.0000        12.5128        22.1059         0.0572        68.0962       78.06752          0.478         0.4457        34.1176         0.5025       -63.4517      -29.45049      0.9588834      0.5792787
      8985.5000        12.5801        20.4699         0.0775        69.5378        79.6009         0.5094         0.4626        34.9031         0.5451       -61.8045      -26.69108      0.9915085      0.6186988
      8986.0000        12.7008        19.4247           0.08        70.3171        80.4297         0.5504         0.4802        36.3249         0.5843       -60.3734      -24.29369              1      0.6529474
      8986.5000        12.8336        18.8821         0.0711        70.5148       80.63976         0.5992         0.4992        38.1539          0.622       -58.3536      -20.91009              1      0.7012845
      8987.0000        12.9643        18.8706         0.0526        70.0591       80.15473         0.6433         0.5199        38.1172          0.642       -56.4319      -17.69083              1      0.7472739
      8987.5000        13.0372        18.9412         0.0359        69.6302       79.69822         0.6743         0.5413        37.2104         0.6124       -55.4316      -16.01511      0.9935791      0.7712127
      8988.0000        13.0668             19         0.0331        69.8674       79.95031         0.6745         0.5631        37.9468         0.5838            -55      -15.29209      0.9989427      0.7815416
      8988.5000        13.1265             19         0.0373        70.3904       80.50645         0.6667         0.5835        39.8974         0.5845       -55.1469      -15.53818              1       0.778026
