#------------------------------------------------------------------------------
# Created by    : vladimir.rabinovich
# Created on    : 09/19/2023 17:20:10
#------------------------------------------------------------------------------
~Version Information Section
VERS.           2.0     :   CWLS log ASCII Standard - VERSION 2.0
WRAP.           NO      :   One line per depth step
~Well Information Section
#MNEM       .UNIT                                         VALUE :DESCRIPTION
#------------------------------------------------------------------------------
STRT        .FT                                             613 :START DEPTH
STOP        .FT                                           12130 :STOP DEPTH
STEP        .FT                                             0.5 :STEP      
NULL        .                                           -999.25 :NULL      
COMP        .                                 CITIES SERVICE CO :COMPANY   
WELL        .                               OCS G03060 ST00BP00 :WELL      
FLD         .                                           WILDCAT :FIELD     
LOC         .                                                   :LOCATION  
CNTY        .                               MUSTANG ISLAND EAST :LOCATION  
STAT        .                                             TEXAS :STATE     
CTRY        .                                     UNITED STATES :COUNTRY   
SRVC        .                                                   :SERVICE COMPANY
DATE        .                             9/13/2023 11:12:08 AM :LOG DATE  
API         .                                    42712400440000 :API NUMBER
UWI         .                                    42712400440000 :UNIQUE WELL ID
XCOORD      .                                  632657.308411808 :SURFACE X 
YCOORD      .                                  10083439.8406154 :SURFACE Y 
LAT         .                                        27.7518805 :LATITUDE  
LON         .                                       -96.1160164 :LONGITUDE 
ELEV        .FT                                             103 :ELEVATION VALUE
ELEV_TYPE   .                                                KB :ELEVATION REFERENCE TYPE
~Curve Information Section
#MNEM       .UNIT                                      API CODE :CURVE DESCRIPTION
#------------------------------------------------------------------------------
DEPT        .FT                                                 :DEPTH     
ASFL        .OHMM                                               :          
CILD        .MMHO                                               :          
GR          .GAPI                                               :          
GR_NORM     .GAPI                                               :GammaRay Normalized
ILD         .OHMM                                               :          
SP          .MV                                                 :          
SP_NORM     .MV                                                 :SP Normalized
VSH_GR      .V/V                                                :Volume of Shale from GR
VSH_SP      .V/V                                                :Volume of Shale from SP
~A        DEPTH           ASFL           CILD             GR        GR_NORM            ILD             SP        SP_NORM         VSH_GR         VSH_SP
# ...
     10577.0000         0.7708         1539.4        70.0964       86.00304         0.6837       -66.6635      -6.590858              1      0.8681828
     10577.5000         0.7567       1493.945        68.5321       83.90619         0.6666       -66.8843      -6.817596              1      0.8636481
     10578.0000         0.7452       1432.314        66.9103       81.73426         0.6496       -67.5118      -7.451035              1      0.8509793
     10578.5000         0.7343       1366.811        65.2462        79.5071         0.6678       -68.1443      -8.089474      0.9895128      0.8382105
     10579.0000         0.7297       1301.309        64.6024       78.61201         0.6914       -68.7755      -8.726604      0.9704682      0.8254679
     10579.5000         0.7924        1257.84        64.4587       78.36982          0.715        -69.408       -9.36504      0.9653153      0.8126992
     10580.0000         1.0478       1222.309         64.653       78.56891         0.7411       -69.6332       -9.59618      0.9695513      0.8080764
     10580.5000         1.0435        1199.73        64.8477       78.76852         0.7655        -69.194      -9.162918      0.9737982      0.8167416
     10581.0000         0.9632       1244.738        65.0419       78.96748         0.7457       -68.7555      -8.730354      0.9780314      0.8253929
     10581.5000         0.9079       1293.469        65.6042       79.64701         0.7287        -68.317      -8.297791      0.9924896      0.8340442
     10582.0000         0.8772         1342.1        66.5673       80.84981         0.7149       -67.8785      -7.865227              1      0.8426955
     10582.5000         0.8465       1395.891        67.5316       82.05418         0.7011       -67.4401      -7.432762              1      0.8513448
     10583.0000          0.823       1461.789        67.1548       81.50767         0.6872       -67.0016      -7.000202              1       0.859996
     10583.5000          0.806       1527.689         66.188       80.19088         0.6734       -66.5537      -6.558239              1      0.8688352
     10584.0000         0.7891       1546.967        65.6179         79.392         0.6596       -66.1008      -6.111271      0.9870638      0.8777746
     10584.5000         0.7721       1533.793        68.0431       82.50365          0.654       -65.6481      -5.664509              1      0.8867098
     10585.0000         0.7566       1520.617        70.3384       85.44571         0.6601       -65.8282      -5.850548              1       0.882989
     10585.5000         0.7429       1507.418        72.4542       88.15343         0.6661       -65.9961      -6.024384              1      0.8795123
     10586.0000           0.77       1494.242        71.6882       87.09879         0.6721       -66.1199      -6.154121              1      0.8769176
     10586.5000         0.7972       1481.068        70.6254       85.65666         0.6782        -66.244      -6.284157              1      0.8743169
     10587.0000          0.815       1467.893        69.5649       84.21755         0.6842       -66.3678      -6.413891              1      0.8717222
     10587.5000         0.8313       1457.758        68.3823       82.61901         0.6902        -66.485      -6.537029              1      0.8692594
     10588.0000          0.841       1449.234        67.1997       81.02048         0.6958       -66.4399      -6.497868              1      0.8700426
     10588.5000         0.8341       1440.699        66.0146       79.41869         0.7013       -66.4012      -6.465099      0.9876318       0.870698
     10589.0000         0.8272       1432.164         64.832       77.82016         0.7068       -66.5282      -6.598034      0.9536204      0.8680393
     10589.5000         0.8212       1423.643        64.6648       77.54729         0.7123       -66.6879      -6.763672      0.9478148      0.8647265
     10590.0000         0.8303        1419.52        66.0995       79.36579         0.7178       -66.9617      -7.043411      0.9865062      0.8591318
     10590.5000           0.84       1417.346        67.5316       81.18089         0.7233       -67.2355      -7.323143              1      0.8535371
     10591.0000           0.85       1415.176        67.1935        80.6849         0.7288       -67.5093      -7.602882              1      0.8479424
     10591.5000           0.86       1413.004        66.6309       79.89581         0.7343       -67.7837      -7.883221      0.9977832      0.8423356
     10592.0000           0.87       1407.316        66.0682       79.10661         0.7398        -68.042      -8.147457      0.9809916      0.8370509
     10592.5000         0.8799       1398.211        65.5056       78.31752         0.7443       -68.2734      -8.384792      0.9642026      0.8323042
     10593.0000         0.8854       1389.092         64.943       77.52843         0.7471       -68.2915      -8.408825      0.9474135      0.8318235
     10593.5000         0.8858       1379.986        64.3804       76.73935         0.7498       -67.8904      -8.013668      0.9306244      0.8397266
     10594.0000         0.8863       1370.867        63.8178       75.95026         0.7526       -67.4886      -7.617805      0.9138352      0.8476439
     10594.5000         0.8872       1361.762        63.5365       75.52843         0.7553       -67.0876       -7.22274      0.9048601      0.8555452
     10595.0000         0.8943       1352.645        63.8153       75.83783         0.7581       -66.6859      -6.826973      0.9114432      0.8634605
     10595.5000         0.9015       1343.525        64.2207       76.31254         0.7608       -66.2849      -6.431908      0.9215434      0.8713619
     10596.0000         0.9086        1334.42        65.3634       77.74982         0.7636       -65.9431       -6.09605      0.9521238       0.878079
     10596.5000         0.9135       1329.012        64.4054        76.4445         0.7664       -65.6162      -5.775089      0.9243512      0.8844982
     10597.0000         0.9122       1329.777        63.4224       75.10657         0.7691       -65.2894       -5.45422      0.8958844      0.8909156
     10597.5000          0.911       1330.541         62.473       73.81248         0.7719       -64.7798      -4.950558      0.8683507      0.9009888
     10598.0000         0.9098       1331.309        61.9341       73.05435         0.7746       -64.2284      -4.405094      0.8522202      0.9118981
     10598.5000         0.9085       1332.074        61.3952        72.2962         0.7754       -64.0999      -4.282532      0.8360893      0.9143494
     10599.0000         0.9073       1331.229        61.6659       72.59504         0.7754       -65.3823      -5.570869      0.8424476      0.8885826
     10599.5000         0.9061       1329.219        63.5721       75.02911         0.7754        -66.787      -6.981506      0.8942363      0.8603699
     10600.0000         0.9125       1327.209        64.8719       76.67149         0.7754       -66.4714      -6.671837      0.9291806      0.8665633
     10600.5000         0.9204       1325.199        66.1719       78.31412         0.7754       -65.8326      -6.038982      0.9641302      0.8792204
     10601.0000         0.9283       1316.865        67.3794       79.83601         0.7743       -65.8719      -6.084217      0.9965107      0.8783157
     10601.5000         0.9292       1303.295        67.6438       80.12661         0.7716       -66.1975      -6.415752              1       0.871685
     10602.0000         0.9275       1289.723        67.1436         79.419          0.769       -66.0272      -6.251385      0.9876383      0.8749723
     10602.5000         0.9257       1283.029        66.6421       78.70967         0.7663       -65.4834       -5.71352      0.9725462      0.8857296
     10603.0000         0.9263       1287.434        66.5548       78.54112         0.7636       -64.9882      -5.224258        0.96896      0.8955148
