#------------------------------------------------------------------------------
# Created by    : vladimir.rabinovich
# Created on    : 09/19/2023 17:21:38
#------------------------------------------------------------------------------
~Version Information Section
VERS.           2.0     :   CWLS log ASCII Standard - VERSION 2.0
WRAP.           NO      :   One line per depth step
~Well Information Section
#MNEM       .UNIT                                         VALUE :DESCRIPTION
#------------------------------------------------------------------------------
STRT        .FT                                            1242 :START DEPTH
STOP        .FT                                            7802 :STOP DEPTH
STEP        .FT                                             0.5 :STEP      
NULL        .                                           -999.25 :NULL      
COMP        .                                    CITIES SERVICE :COMPANY   
WELL        .                               OCS G03070 ST00BP00 :WELL      
FLD         .                                           WILDCAT :FIELD     
LOC         .                                                   :LOCATION  
CNTY        .                               MUSTANG ISLAND EAST :LOCATION  
STAT        .                                             TEXAS :STATE     
CTRY        .                                     UNITED STATES :COUNTRY   
SRVC        .                                                   :SERVICE COMPANY
DATE        .                             9/13/2023 11:20:08 AM :LOG DATE  
API         .                                    42712400230000 :API NUMBER
UWI         .                                    42712400230000 :UNIQUE WELL ID
XCOORD      .                                  541821.370048326 :SURFACE X 
YCOORD      .                                   9995115.4612029 :SURFACE Y 
LAT         .                                         27.502648 :LATITUDE  
LON         .                                       -96.3890109 :LONGITUDE 
ELEV        .FT                                              64 :ELEVATION VALUE
ELEV_TYPE   .                                                KB :ELEVATION REFERENCE TYPE
~Curve Information Section
#MNEM       .UNIT                                      API CODE :CURVE DESCRIPTION
#------------------------------------------------------------------------------
DEPT        .FT                                                 :DEPTH     
CALI        .IN                                                 :          
CILD        .MMHO                                               :          
DRHO        .G/C3                                               :          
DT          .US/F                                               :          
GR          .GAPI                                               :          
GR_1        .GAPI                                               :          
GR_NORM     .GAPI                                               :GammaRay Normalized
ILD         .OHMM                                               :          
NPHI        .%                                                  :          
RHOB        .G/C3                                               :          
SFL         .OHMM                                               :          
SP          .MV                                                 :          
SP_NORM     .MV                                                 :SP Normalized
VSH_GR      .V/V                                                :Volume of Shale from GR
VSH_SP      .V/V                                                :Volume of Shale from SP
~A        DEPTH           CALI           CILD           DRHO             DT             GR           GR_1        GR_NORM            ILD           NPHI           RHOB            SFL             SP        SP_NORM         VSH_GR         VSH_SP
# ...
      4727.0000        12.1288       1481.977        -0.0204       130.3276        57.9836        52.7709       68.19558         0.7792        39.2938          2.247         0.8644       -69.1737      -16.41668      0.7488421      0.5895829
      4727.5000         12.131       1452.703        -0.0148       131.4895        57.3676        51.6273       66.76581         0.7965        40.1118         2.2516         0.9348       -68.3835      -15.62808      0.7184215      0.6092979
      4728.0000        12.1235       1416.697        -0.0184       132.6169        56.3578        50.4766       65.32716         0.8044        39.6725         2.2391         1.0115       -67.7202      -14.96638       0.687812      0.6258405
      4728.5000         12.111       1379.213        -0.0131       133.7061        55.0931        49.3105       63.86926         0.8045        38.4183           2.26         1.0903       -67.5068      -14.75457      0.6567928      0.6311356
      4729.0000        12.0957       1347.953        -0.0171       134.9497        53.9203         48.033       62.27211          0.801        37.7386         2.2666          1.177       -68.2765      -15.52587       0.622811      0.6118532
      4729.5000        12.0817       1318.363        -0.0257       136.1111        53.2703        48.8015       63.23246         0.7908        37.5296         2.2457         1.2871       -69.3094      -16.56038      0.6432439      0.5859906
      4730.0000        12.0718        1288.17        -0.0241        136.855        52.8164        49.7845       64.46094         0.7715         37.285         2.2389         1.3008       -69.7701      -17.02267      0.6693817      0.5744332
      4730.5000        12.0667       1258.096        -0.0231       136.8718        52.2325        50.7753       65.69917         0.7508        36.8452         2.2498         1.1763       -69.3553      -16.60947      0.6957269      0.5847633
      4731.0000        12.0754       1255.021        -0.0259       136.6184        51.8663        51.7766       66.95052         0.7331        36.3921         2.2341         1.1471       -69.0963      -16.35206      0.7223516      0.5911984
      4731.5000        12.0813       1280.979        -0.0225       136.3809        52.0966        52.6109       67.99313         0.7141        36.0111         2.2299           1.15       -68.9493      -16.20667      0.7445346      0.5948334
      4732.0000        12.1227       1306.959         -0.014       136.2874        53.1082        53.2224       68.75723         0.6948        36.1378         2.2294         1.1202       -68.9568      -16.21576      0.7607922       0.594606
      4732.5000        12.1756       1332.941        -0.0126       136.2009        54.2291        53.8339       69.52133         0.6742        36.9699         2.2248         1.0034       -69.6703      -16.93086      0.7770496      0.5767285
      4733.0000         12.202       1365.654        -0.0134       136.3411          54.28        54.4152       70.24767         0.6575        38.1771          2.225         0.9142        -70.697      -17.95915      0.7925035      0.5510212
      4733.5000         12.203       1398.439         -0.017       137.3394        53.1749         54.933       70.89465         0.6448        40.3628         2.2173         0.8361       -71.9128      -19.17656      0.8062692      0.5205861
      4734.0000        12.1976       1430.789        -0.0201       138.1772        52.7945        54.3636       70.18263         0.6382        41.1269         2.2107         0.7883       -72.4812      -19.74655      0.7911198      0.5063363
      4734.5000        12.1921       1468.781        -0.0222       138.3967         53.942        53.3113       68.86697         0.6342        41.1373         2.2126         0.8611       -72.6484      -19.91534      0.7631271      0.5021164
      4735.0000        12.1894       1539.025        -0.0214       138.1182        54.8461        52.2578       67.54984         0.6333        41.3533         2.2188         0.9009       -72.4918      -19.76034      0.7351029      0.5059915
      4735.5000        12.1935         1564.4        -0.0133       136.1287        55.2333        50.7314       65.64156         0.6387        41.7458         2.2249         0.9068       -71.7355      -19.00564      0.6945013      0.5248591
      4736.0000        12.2003        1584.85        -0.0129       133.4177        54.3433        48.6599       63.05191         0.6498        41.9481         2.2289         0.8568       -70.8556      -18.12733      0.6394024      0.5468166
      4736.5000        12.1951       1605.287        -0.0263       130.7649         52.666        47.4683       61.56214         0.6639        40.2552         2.2104         0.8179        -69.832      -17.10534      0.6077051      0.5723666
      4737.0000         12.187       1575.127        -0.0342        129.843        51.6155        48.4697       62.81361         0.6812        38.3959         2.1999         0.7997       -70.0189      -17.29383      0.6343322      0.5676543
      4737.5000        12.1751       1520.502        -0.0293       130.4377        51.8484         49.493       64.09247         0.7024        37.8734         2.1937         0.8075       -70.1012      -17.37773      0.6615419      0.5655568
      4738.0000        12.1672        1479.58        -0.0219        131.916        52.6833        50.3824       65.20394         0.7292        38.2996         2.2005         0.8611       -69.6124      -16.89052      0.6851903       0.577737
      4738.5000        12.1606        1450.91        -0.0171       133.5552        53.3065        49.6187       64.24905         0.7574        39.2609          2.215         0.9423       -69.0823      -16.36202      0.6648733      0.5909494
      4739.0000        12.1581       1422.266        -0.0095       135.2356        53.1227        48.8549       63.29403         0.7818        40.6377          2.227         1.0432       -69.5913      -16.87262      0.6445537      0.5781844
      4739.5000        12.1562       1393.621        -0.0051       137.0632        52.5092        47.7438       61.90487         0.7999        41.0325         2.2358         1.1666       -70.4108      -17.69372      0.6149973      0.5576571
      4740.0000         12.156       1357.688        -0.0028       139.2412        52.6302        46.2294        60.0116         0.8047        40.8924         2.2291          1.288       -71.6328      -18.91731      0.5747149      0.5270672
      4740.5000        12.1606       1317.227         -0.005       140.6113         52.965        44.7789        58.1982         0.7972        39.9579         2.2418         1.3976       -72.7665      -20.05262       0.536132      0.4986846
      4741.0000        12.1706       1288.049        -0.0111       142.0315        51.3815        43.4125       56.48993         0.7777        38.8867         2.2564         1.4956        -73.866      -21.15371      0.4997856      0.4711573
      4741.5000        12.1755       1262.188        -0.0172        143.208         49.446        42.7562       55.66928         0.7495        37.6758         2.2402         1.5755       -74.7688      -22.05811      0.4823251      0.4485473
      4742.0000        12.1782       1264.223        -0.0226       144.4553        49.0134        43.5191       56.62263          0.713         36.252          2.232         1.5435       -74.8988      -22.18971      0.5026093      0.4452572
      4742.5000        12.1756       1295.652        -0.0259       145.7207        49.7906        45.2197       58.74811         0.6705        36.2166         2.2297         1.4328       -73.9214      -21.21391      0.5478321      0.4696524
      4743.0000         12.179       1348.729        -0.0223       146.8706        50.5394        46.6607       60.54909         0.6184        36.5546         2.2186         1.3097       -72.4342       -19.7283      0.5861508      0.5067925
      4743.5000        12.1861        1402.58        -0.0257       147.8933        50.9434        48.2155       62.49231           0.58        36.8257         2.2053         1.1513       -70.4481       -17.7438       0.627496      0.5564051
