#------------------------------------------------------------------------------
# Created by    : vladimir.rabinovich
# Created on    : 09/19/2023 17:20:22
#------------------------------------------------------------------------------
~Version Information Section
VERS.           2.0     :   CWLS log ASCII Standard - VERSION 2.0
WRAP.           NO      :   One line per depth step
~Well Information Section
#MNEM       .UNIT                                         VALUE :DESCRIPTION
#------------------------------------------------------------------------------
STRT        .FT                                             538 :START DEPTH
STOP        .FT                                           11949 :STOP DEPTH
STEP        .FT                                             0.5 :STEP      
NULL        .                                           -999.25 :NULL      
COMP        .                                 CITIES SERVICE CO :COMPANY   
WELL        .                               OCS G03070 ST00BP00 :WELL      
FLD         .                                           WILDCAT :FIELD     
LOC         .                                                   :LOCATION  
CNTY        .                               MUSTANG ISLAND EAST :LOCATION  
STAT        .                                             TEXAS :STATE     
CTRY        .                                     UNITED STATES :COUNTRY   
SRVC        .                                                   :SERVICE COMPANY
DATE        .                             9/13/2023 11:20:11 AM :LOG DATE  
API         .                                    42712400020000 :API NUMBER
UWI         .                                    42712400020000 :UNIQUE WELL ID
XCOORD      .                                  546520.538281646 :SURFACE X 
YCOORD      .                                  9992103.69354039 :SURFACE Y 
LAT         .                                        27.4947268 :LATITUDE  
LON         .                                       -96.3742825 :LONGITUDE 
ELEV        .FT                                              65 :ELEVATION VALUE
ELEV_TYPE   .                                                KB :ELEVATION REFERENCE TYPE
~Curve Information Section
#MNEM       .UNIT                                      API CODE :CURVE DESCRIPTION
#------------------------------------------------------------------------------
DEPT        .FT                                                 :DEPTH     
ASFL        .OHMM                                               :          
CILD        .MMHO                                               :          
DT          .US/F                                               :          
GR          .GAPI                                               :          
GR_NORM     .GAPI                                               :GammaRay Normalized
ILD         .OHMM                                               :          
SFL         .OHMM                                               :          
SP          .MV                                                 :          
SP_NORM     .MV                                                 :SP Normalized
VSH_GR      .V/V                                                :Volume of Shale from GR
VSH_SP      .V/V                                                :Volume of Shale from SP
~A        DEPTH           ASFL           CILD             DT             GR        GR_NORM            ILD            SFL             SP        SP_NORM         VSH_GR         VSH_SP
# ...
      2810.5000         0.6694        1494.57       180.1584        83.4924       76.29581          0.611         0.6407      -133.1482      -1.785263      0.9211875      0.9642947
      2811.0000         0.6645       1486.543       180.3291        83.0928        75.7755         0.6133         0.6302       -133.386      -2.028198       0.910117      0.9594361
      2811.5000         0.6599       1478.516       179.8789        82.8608       75.47343         0.6175         0.6221      -133.7668      -2.414108      0.9036899      0.9517179
      2812.0000          0.668       1470.492       178.8499        83.1941        75.9074          0.626         0.6271      -133.8599      -2.512329      0.9129235      0.9497534
      2812.5000         0.6809       1461.391       178.1523        84.2377       77.26626         0.6345         0.6411       -133.833      -2.490555      0.9418353      0.9501889
      2813.0000         0.6937       1447.078       177.7417        85.8612       79.38019          0.649         0.6597       -133.467      -2.129669      0.9868125      0.9574066
      2813.5000         0.7066       1432.773        177.854        84.7764       77.96769         0.6644         0.6832      -132.6746      -1.342407      0.9567593      0.9731519
      2814.0000         0.7196       1418.465       177.8032        82.9579       75.59986         0.6826         0.7194      -133.2915      -1.964432        0.90638      0.9607114
      2814.5000          0.735        1404.16       177.6416        80.8649       72.87459         0.7069         0.7635      -133.2214       -1.89946      0.8483955      0.9620108
      2815.0000         0.7429       1389.848       177.0903        82.2477       74.67512         0.7287         0.8055      -133.0288       -1.71196      0.8867046      0.9657608
      2815.5000         0.7353       1373.828       176.4146        84.2489       77.28085         0.7286         0.7359      -132.7527      -1.440994      0.9421456      0.9711801
      2816.0000         0.7276       1356.594       175.5239        85.7679       79.25871         0.7228          0.696      -132.5027      -1.196121       0.984228      0.9760776
      2816.5000           0.72       1339.355       174.3865        86.9736       80.82863         0.7124         0.6703      -133.0679      -1.766449              1       0.964671
      2817.0000         0.7123       1334.605       173.2466        88.0731       82.26027         0.7001         0.6612      -133.0171      -1.720764              1      0.9655847
      2817.5000         0.7081        1330.02       173.5254        89.1426       83.65285         0.6908         0.6614      -132.9248      -1.633591              1      0.9673282
      2818.0000         0.7042       1327.707       173.9568        90.2261       85.06365         0.6841          0.678      -132.8237      -1.537613              1      0.9692478
      2818.5000         0.7002        1334.09       174.3882        90.4709       85.38241         0.6783         0.6906      -132.7109      -1.429932              1      0.9714014
      2819.0000         0.6985       1340.473       174.5208        87.5601        81.5923         0.6731         0.6915      -132.5078      -1.231949              1       0.975361
      2819.5000            0.7       1346.855       174.0837        86.0726       79.65546         0.6689         0.6891      -132.3574      -1.086685      0.9926693      0.9782663
      2820.0000         0.7016       1353.238       173.6162        84.2722       77.31119         0.6657         0.6851      -132.6289      -1.363312      0.9427912      0.9727337
      2820.5000         0.7031       1359.625       173.1133         84.036       77.00363         0.6625         0.6808      -133.5779      -2.317413      0.9362475      0.9536517
      2821.0000         0.7046       1366.008       173.2849        85.2954       78.64348         0.6598         0.6783      -133.8296      -2.574249      0.9711378       0.948515
      2821.5000         0.7043       1372.391       173.4827        87.2877       81.23762         0.6576          0.677      -133.7622      -2.511978              1      0.9497604
      2822.0000         0.7014       1378.773       173.7668        89.1693       83.68761         0.6554         0.6757      -133.9939      -2.748795              1      0.9450241
      2822.5000         0.6985       1385.156       173.9373        90.8862       85.92316         0.6547         0.6729      -134.3359      -3.095917              1      0.9380817
      2823.0000         0.6957       1390.684       173.8369        91.7333       87.02615         0.6558           0.67      -134.4963      -3.261444              1      0.9347711
      2823.5000         0.6946       1390.711       173.7368        91.7039       86.98788         0.6573         0.6683      -133.9382      -2.708466              1      0.9458307
      2824.0000          0.697       1390.734       173.4702        91.6613       86.93241         0.6618         0.6758      -133.3083      -2.083679              1      0.9583264
      2824.5000         0.7029       1390.758       173.1345        91.7562       87.05598         0.6664         0.6834      -133.2815      -2.061996              1      0.9587601
      2825.0000         0.7088       1390.781       172.7705        92.0784        87.4755         0.6785         0.6931      -133.3425      -2.128128              1      0.9574375
      2825.5000         0.7147       1390.805       172.4333        90.2347       85.07486         0.6909         0.7029      -133.1921      -1.982849              1       0.960343
      2826.0000         0.7205       1390.828       172.2097         87.934       82.07915         0.7052         0.7093      -133.0017      -1.797562              1      0.9640487
      2826.5000         0.7264       1390.852       172.4463        85.5701       79.00115         0.7124         0.7142      -132.8889      -1.689896      0.9787479      0.9662021
      2827.0000         0.7323       1386.016       172.6379        83.3009       76.04647         0.7154         0.7185       -133.155      -1.961121      0.9158823      0.9607776
      2827.5000         0.7347       1381.414       172.6147        81.6235       73.86235          0.715         0.7151      -133.3569      -2.168137      0.8694117      0.9566373
      2828.0000         0.7316        1382.02       172.4536        82.0468       74.41353         0.7121         0.7048      -133.4795      -2.295868      0.8811389      0.9540827
      2828.5000         0.7265       1382.617       172.3044         82.842       75.44894         0.7093         0.6958      -133.6096      -2.431091       0.903169      0.9513782
      2829.0000          0.721       1386.219       172.3257        83.7659       76.65193         0.7066         0.6899      -133.6677      -2.494308      0.9287645      0.9501138
      2829.5000         0.7155       1393.598       172.7163        84.5848       77.71822         0.7037          0.684      -133.7312      -2.562927      0.9514514      0.9487414
      2830.0000           0.71        1400.98       173.4524        83.5958       76.43046         0.6995         0.6817      -133.7717      -2.608551      0.9240523       0.947829
      2830.5000         0.7061       1408.363       174.0781        83.2604       75.99374         0.6953         0.6844      -133.7187      -2.560684      0.9147604      0.9487863
      2831.0000         0.7035       1415.746       174.3916        83.6824       76.54321         0.6894          0.688      -133.5493      -2.396408      0.9264513      0.9520718
      2831.5000         0.7008       1423.125       175.0073         82.824        75.4255          0.683         0.6923      -133.3296      -2.181824      0.9026702      0.9563635
      2832.0000         0.6971       1430.508       175.9988          80.98       73.02447          0.676         0.6916      -133.1226       -1.97995      0.8515844       0.960401
      2832.5000         0.6932       1437.891       177.1599        79.0945       70.56938         0.6643         0.6894       -132.998      -1.860474      0.7993485      0.9627905
