#------------------------------------------------------------------------------
# Created by    : vladimir.rabinovich
# Created on    : 09/19/2023 17:19:33
#------------------------------------------------------------------------------
~Version Information Section
VERS.           2.0     :   CWLS log ASCII Standard - VERSION 2.0
WRAP.           NO      :   One line per depth step
~Well Information Section
#MNEM       .UNIT                                         VALUE :DESCRIPTION
#------------------------------------------------------------------------------
STRT        .FT                                          3947.5 :START DEPTH
STOP        .FT                                           10890 :STOP DEPTH
STEP        .FT                                             0.5 :STEP      
NULL        .                                           -999.25 :NULL      
COMP        .                          PALM ENERGY OFFSHORE LLC :COMPANY   
WELL        .                               OCS G21349 ST00BP00 :WELL      
FLD         .                            HIGH ISLAND BLOCK 0074 :FIELD     
LOC         .                                                   :LOCATION  
CNTY        .                                  HIGH ISLAND EAST :LOCATION  
STAT        .                                             TEXAS :STATE     
CTRY        .                                     UNITED STATES :COUNTRY   
SRVC        .                                                   :SERVICE COMPANY
DATE        .                             9/13/2023 11:20:11 AM :LOG DATE  
API         .                                    42710401490000 :API NUMBER
UWI         .                                    42710401490000 :UNIQUE WELL ID
XCOORD      .                                  1378068.78051204 :SURFACE X 
YCOORD      .                                  10648064.4011202 :SURFACE Y 
LAT         .                                        29.3379836 :LATITUDE  
LON         .                                       -93.8236467 :LONGITUDE 
ELEV        .FT                                             104 :ELEVATION VALUE
ELEV_TYPE   .                                                KB :ELEVATION REFERENCE TYPE
~Curve Information Section
#MNEM       .UNIT                                      API CODE :CURVE DESCRIPTION
#------------------------------------------------------------------------------
DEPT        .FT                                                 :DEPTH     
AHFCO90     .MMHO                                               :          
AHT10       .OHMM                                               :          
AHT20       .OHMM                                               :          
AHT30       .OHMM                                               :          
AHT60       .OHMM                                               :          
AHT90       .OHMM                                               :          
DCAL        .IN                                                 :          
DPHZ        .V/V                                                :          
DTLF        .US/F                                               :          
DTLN        .US/F                                               :          
GR          .GAPI                                               :          
GR_NORM     .GAPI                                               :GammaRay Normalized
HDRA        .G/CC                                               :          
NPOR        .V/V                                                :          
RWA         .OHMM                                               :          
SP          .MV                                                 :          
SPHI        .V/V                                                :          
TENS        .LB/F                                               :          
VSH_GR      .V/V                                                :Volume of Shale from GR
~A        DEPTH        AHFCO90          AHT10          AHT20          AHT30          AHT60          AHT90           DCAL           DPHZ           DTLF           DTLN             GR        GR_NORM           HDRA           NPOR            RWA             SP           SPHI           TENS         VSH_GR
# ...
      9955.0000       909.0909         0.9628         1.0641         1.0965         1.1141            1.1          0.469         0.1589       101.8653       102.0396         84.661        76.0099         0.0106         0.3698         0.0343         -4.625          0.282           4799      0.9151043
      9955.5000       936.5049          0.934         1.0357         1.0673         1.0874         1.0678         0.5023         0.1658       103.0439       102.8867        84.6095       75.96117         0.0147          0.379         0.0363        -3.8125         0.2848           4838      0.9140675
      9956.0000       956.5717          0.916         1.0107         1.0408         1.0673         1.0454         0.4801         0.1671       103.7206       103.7065        88.8639       79.98585          0.022         0.3937          0.036        -3.5625         0.2875           4694      0.9996989
      9956.5000       974.4689         0.9028         0.9979          1.028          1.059         1.0262         0.5134         0.1729       105.3579       105.1042        88.8639       79.98585         0.0214         0.3863         0.0379        -3.4375          0.292           4789      0.9996989
      9957.0000       971.1566         0.9018          0.997         1.0294         1.0578         1.0297         0.4912         0.1774       104.6891       105.0727        86.4587       77.71053         0.0165         0.3771           0.04         -3.125         0.2919           4802      0.9512878
      9957.5000       960.2458         0.9113         1.0107         1.0432         1.0662         1.0414         0.5134         0.1816       104.1647       104.2251         81.423       72.94675         0.0081         0.3957         0.0424             -3         0.2892           4633      0.8499308
      9958.0000       943.5742         0.9245         1.0283          1.061         1.0819         1.0598           0.58         0.1772       104.3626       104.2288        81.8327       73.33433         0.0056         0.3734         0.0411         -3.125         0.2892           4786      0.8581772
      9958.5000       950.2994         0.9186         1.0199         1.0498         1.0674         1.0523         0.7353         0.1737       104.6178       104.3759        85.5958       76.89422         0.0058         0.3934         0.0392        -2.1875         0.2897           4810      0.9339195
      9959.0000       967.7731         0.9041         1.0014         1.0305         1.0463         1.0333         0.6021         0.1776       104.8571        104.726         90.169       81.22047         0.0058         0.3948         0.0402          -2.75         0.2908           4656              1
      9959.5000       976.4672         0.8892         0.9905          1.019         1.0365         1.0241         0.5356         0.1864       105.6934       105.7012        90.6316       81.65809         0.0029         0.3932         0.0439        -3.5625         0.2939           4805              1
      9960.0000       988.0447         0.8785         0.9762         1.0058          1.022         1.0121         0.5134         0.1942       105.3064       105.3503        93.4959       84.36771         -0.001         0.3689         0.0471        -3.4375         0.2928           4786              1
      9960.5000       989.0218         0.8781         0.9748         1.0015         1.0199         1.0111         0.7575         0.1921       105.3454       105.5629         93.557       84.42551         0.0009         0.4054         0.0461          -3.25         0.2934           4630              1
      9961.0000       987.0693          0.879         0.9762         1.0061         1.0254         1.0131         0.7353          0.192       105.3376       105.4885        96.1426       86.87149         0.0034         0.3883         0.0461           -4.5         0.2932           4789              1
      9961.5000       987.8494         0.8815          0.978         1.0082         1.0263         1.0123         0.8129         0.1856       103.6154       103.8072        94.4643       85.28382         0.0064         0.3728         0.0431             -3         0.2878           4800              1
      9962.0000       986.9719         0.8821         0.9783         1.0072         1.0249         1.0132         0.8018          0.175       103.0738       103.1546        90.0089       81.06902         0.0098         0.3804         0.0383          -3.25         0.2857           4735              1
      9962.5000       972.5734         0.8943          0.993         1.0226         1.0406         1.0282         0.7796         0.1629       102.4382       102.4714        83.3071        74.7291         0.0144         0.3423         0.0337        -3.9375         0.2834           4856      0.8878533
      9963.0000       958.5889          0.904         1.0058         1.0377         1.0546         1.0432         0.8684          0.167       102.8138       102.9855        83.0936       74.52714         0.0154         0.3515         0.0359          -4.25         0.2851           4750      0.8835561
      9963.5000       959.1406         0.9097         1.0102         1.0373         1.0532         1.0426         0.8018         0.1797       103.6727       103.6339        90.5701       81.59991         0.0119         0.3591         0.0416        -5.1875         0.2873           4791              1
      9964.0000       950.1188         0.9067         1.0093         1.0389         1.0605         1.0525         0.7796         0.1896       103.9723       104.3415        94.6863       85.49384         0.0105         0.3581         0.0467        -3.8125         0.2896           4866              1
      9964.5000        962.001         0.9062         1.0028         1.0313         1.0482         1.0395         0.7796          0.187        99.4546        99.8235         98.218       88.83482         0.0129         0.3607         0.0449        -3.3125         0.2744           4716              1
      9965.0000       929.0226         0.9209         1.0278         1.0643         1.0824         1.0764         0.7796          0.164       101.4199       101.2669        84.7283       76.07356         0.0237         0.3884         0.0357        -3.6875         0.2794           4819      0.9164588
      9965.5000       889.2841         0.9663         1.0724         1.1103         1.1243         1.1245         0.7796         0.1483        99.9814        99.5868        81.4973       73.01704         0.0246         0.3548         0.0305        -3.4375         0.2735           4863      0.8514263
      9966.0000       841.9634         1.0093         1.1338         1.1768         1.1983         1.1877         0.7796          0.124        100.446       100.2053        75.4549       67.30093         0.0372         0.3355         0.0226             -4         0.2757           4676      0.7298071
      9966.5000        889.047         0.9941         1.0893         1.1184         1.1337         1.1248          0.824         0.1345       106.0742        106.382         79.899       71.50505         0.0323         0.3798         0.0251          -2.75          0.296           4827      0.8192564
      9967.0000       942.1519         0.9379         1.0404         1.0604         1.0718         1.0614         0.7796         0.1448       104.5743       104.2848        85.4428       76.74948         0.0286          0.429         0.0275           -2.5         0.2894           4849        0.93084
      9967.5000       963.7625         0.9046         1.0016         1.0338         1.0488         1.0376         0.9571         0.1615       105.7792       105.9735        89.3946       80.48788         0.0122         0.4165         0.0334        -2.8125         0.2947           4660              1
      9968.0000       965.3442         0.9005         1.0092         1.0369         1.0497         1.0359         0.9793         0.1585       103.0463       102.9858          91.48       82.46068         0.0054          0.392         0.0321          -3.25         0.2851           4802              1
