#------------------------------------------------------------------------------
# Created by    : vladimir.rabinovich
# Created on    : 09/19/2023 17:21:38
#------------------------------------------------------------------------------
~Version Information Section
VERS.           2.0     :   CWLS log ASCII Standard - VERSION 2.0
WRAP.           NO      :   One line per depth step
~Well Information Section
#MNEM       .UNIT                                         VALUE :DESCRIPTION
#------------------------------------------------------------------------------
STRT        .FT                                            1242 :START DEPTH
STOP        .FT                                            7802 :STOP DEPTH
STEP        .FT                                             0.5 :STEP      
NULL        .                                           -999.25 :NULL      
COMP        .                                    CITIES SERVICE :COMPANY   
WELL        .                               OCS G03070 ST00BP00 :WELL      
FLD         .                                           WILDCAT :FIELD     
LOC         .                                                   :LOCATION  
CNTY        .                               MUSTANG ISLAND EAST :LOCATION  
STAT        .                                             TEXAS :STATE     
CTRY        .                                     UNITED STATES :COUNTRY   
SRVC        .                                                   :SERVICE COMPANY
DATE        .                             9/13/2023 11:20:08 AM :LOG DATE  
API         .                                    42712400230000 :API NUMBER
UWI         .                                    42712400230000 :UNIQUE WELL ID
XCOORD      .                                  541821.370048326 :SURFACE X 
YCOORD      .                                   9995115.4612029 :SURFACE Y 
LAT         .                                         27.502648 :LATITUDE  
LON         .                                       -96.3890109 :LONGITUDE 
ELEV        .FT                                              64 :ELEVATION VALUE
ELEV_TYPE   .                                                KB :ELEVATION REFERENCE TYPE
~Curve Information Section
#MNEM       .UNIT                                      API CODE :CURVE DESCRIPTION
#------------------------------------------------------------------------------
DEPT        .FT                                                 :DEPTH     
CALI        .IN                                                 :          
CILD        .MMHO                                               :          
DRHO        .G/C3                                               :          
DT          .US/F                                               :          
GR          .GAPI                                               :          
GR_1        .GAPI                                               :          
GR_NORM     .GAPI                                               :GammaRay Normalized
ILD         .OHMM                                               :          
NPHI        .%                                                  :          
RHOB        .G/C3                                               :          
SFL         .OHMM                                               :          
SP          .MV                                                 :          
SP_NORM     .MV                                                 :SP Normalized
VSH_GR      .V/V                                                :Volume of Shale from GR
VSH_SP      .V/V                                                :Volume of Shale from SP
~A        DEPTH           CALI           CILD           DRHO             DT             GR           GR_1        GR_NORM            ILD           NPHI           RHOB            SFL             SP        SP_NORM         VSH_GR         VSH_SP
# ...
      2993.0000        -999.25       1608.658        -999.25       171.2285        -999.25       105.9915       79.25108          0.611        -999.25        -999.25         1.0895       -81.8361      -1.708549      0.9840656       0.965829
      2993.5000        -999.25       1615.078        -999.25       171.3877        -999.25       106.4944       79.80988         0.6154        -999.25        -999.25         1.0747       -81.6506      -1.518494      0.9959548      0.9696301
      2994.0000        -999.25       1621.502        -999.25       172.6204        -999.25       106.9994       80.37129         0.6251        -999.25        -999.25         1.0432       -82.7926      -2.655945              1      0.9468811
      2994.5000        -999.25       1610.158        -999.25       173.6812        -999.25       107.5922       81.04247         0.6413        -999.25        -999.25         1.0166       -82.7614      -2.620193              1      0.9475961
      2995.0000        -999.25       1592.379        -999.25       174.3325        -999.25       108.1849       81.71352          0.664        -999.25        -999.25         1.0112       -82.4465      -2.300743              1      0.9539852
      2995.5000        -999.25       1574.588        -999.25       174.3437        -999.25       108.7551       82.35643         0.6881        -999.25        -999.25         1.0274       -83.8279      -3.677589              1      0.9264482
      2996.0000        -999.25       1550.857        -999.25        173.667        -999.25       109.0167       82.61361         0.7112        -999.25        -999.25         1.0601       -83.8781      -3.723228              1      0.9255354
      2996.5000        -999.25       1507.619        -999.25       173.9839        -999.25       108.2582       81.59566         0.7335        -999.25        -999.25         1.1201       -83.6392      -3.479774              1      0.9304045
      2997.0000        -999.25       1464.383        -999.25        174.022        -999.25       107.4996       80.57758         0.7509        -999.25        -999.25         1.2166       -83.5167      -3.352722              1      0.9329455
      2997.5000        -999.25       1421.119        -999.25       173.1577        -999.25       106.5959       79.37813         0.7652        -999.25        -999.25           1.32       -83.6912      -3.522667      0.9867687      0.9295467
      2998.0000        -999.25       1388.902        -999.25       171.3699        -999.25       106.5709       79.27705         0.7764        -999.25        -999.25         1.3815       -83.8936      -3.720512       0.984618      0.9255897
      2998.5000        -999.25       1356.773        -999.25        168.998        -999.25       107.2585       80.06672         0.7825        -999.25        -999.25          1.248       -84.3694      -4.191757              1      0.9161649
      2999.0000        -999.25       1324.645        -999.25       168.1558        -999.25       108.0317       80.96339         0.7849        -999.25        -999.25         1.1293       -84.7009        -4.5187              1       0.909626
      2999.5000        -999.25        1301.67        -999.25       167.5984        -999.25        108.566       81.56144         0.7829        -999.25        -999.25         1.0289       -84.8837      -4.696945              1      0.9060611
      3000.0000        -999.25       1282.313        -999.25       166.8721        -999.25        109.161       82.23537         0.7726        -999.25        -999.25           1.03       -84.8578      -4.666496              1      0.9066701
      3000.5000        -999.25        1272.66        -999.25       165.5281        -999.25       108.2565       81.03491         0.7623        -999.25        -999.25         1.0423        -84.557      -4.361137              1      0.9127772
      3001.0000        -999.25       1283.096        -999.25       164.8364        -999.25       104.1318        75.8092         0.7561        -999.25        -999.25         1.0468       -84.0271      -3.826683      0.9108341      0.9234663
      3001.5000        -999.25       1293.539        -999.25       164.7109        -999.25       102.7394       73.99888         0.7553        -999.25        -999.25         1.0577       -83.3876      -3.182632      0.8723165      0.9363474
      3002.0000        -999.25       1303.975        -999.25       164.8293        -999.25       101.9109       72.89342         0.7577        -999.25        -999.25         1.0916       -82.5923      -2.382774      0.8487961      0.9523445
      3002.5000        -999.25       1314.412        -999.25         165.21        -999.25       101.9424       72.86297         0.7601        -999.25        -999.25         1.1376       -82.1619      -1.947823      0.8481483      0.9610435
      3003.0000        -999.25       1323.631        -999.25       165.3279        -999.25       102.6418       73.66739         0.7614        -999.25        -999.25         1.1695       -81.7905      -1.571861      0.8652636      0.9685628
      3003.5000        -999.25       1332.238        -999.25       165.5593        -999.25       103.3806       74.52106         0.7605        -999.25        -999.25         1.1579       -80.9025      -0.679306      0.8834269      0.9864139
      3004.0000        -999.25       1340.846        -999.25       165.2344        -999.25       103.9557       75.17012         0.7572        -999.25        -999.25         1.1191         -81.39      -1.162254      0.8972366      0.9767549
      3004.5000        -999.25       1336.922        -999.25       164.6721        -999.25       104.4406       75.70641         0.7533        -999.25        -999.25         1.1029       -82.1926      -1.960304      0.9086469      0.9607939
      3005.0000        -999.25        1328.98        -999.25       164.9517        -999.25       104.9006       76.21156         0.7469        -999.25        -999.25         1.1115       -81.9429      -1.706055       0.919395      0.9658789
      3005.5000        -999.25       1321.035        -999.25       164.7654        -999.25       105.2677       76.60062         0.7397        -999.25        -999.25         1.1223       -81.3778      -1.136398      0.9276727       0.977272
      3006.0000        -999.25       1331.824        -999.25       163.2302        -999.25       105.6539       77.01354         0.7305        -999.25        -999.25         1.1076       -81.0587     -0.8127441      0.9364583      0.9837451
      3006.5000        -999.25       1344.566        -999.25       162.3838        -999.25        106.163       77.58009         0.7232        -999.25        -999.25         1.0826       -81.0892     -0.8386917      0.9485126      0.9832262
      3007.0000        -999.25       1357.309        -999.25       162.3579        -999.25       106.6716       78.16601         0.7166        -999.25        -999.25         1.0883        -81.833      -1.577934      0.9609789      0.9684413
      3007.5000        -999.25       1370.428        -999.25       163.5691        -999.25       107.1965       78.82552           0.71        -999.25        -999.25         1.1063       -82.9994      -2.739777       0.975011      0.9452045
      3008.0000        -999.25       1385.021        -999.25       163.6946        -999.25       107.7355       79.50264         0.7028        -999.25        -999.25         1.1174       -83.8711      -3.606926      0.9894179      0.9278615
      3008.5000        -999.25       1399.619        -999.25       162.7612        -999.25       108.2743       80.17953         0.6978        -999.25        -999.25         1.1174       -83.9257      -3.656967              1      0.9268606
      3009.0000        -999.25       1414.219        -999.25       161.7603        -999.25       108.8813       80.94166         0.6916        -999.25        -999.25         1.1119       -83.8429      -3.569618              1      0.9286076
      3009.5000        -999.25       1428.816        -999.25       161.4736        -999.25        109.365       81.54967         0.6862        -999.25        -999.25         1.1094       -83.6688      -3.390961              1      0.9321808
