#------------------------------------------------------------------------------
# Created by    : vladimir.rabinovich
# Created on    : 09/19/2023 17:21:28
#------------------------------------------------------------------------------
~Version Information Section
VERS.           2.0     :   CWLS log ASCII Standard - VERSION 2.0
WRAP.           NO      :   One line per depth step
~Well Information Section
#MNEM       .UNIT                                         VALUE :DESCRIPTION
#------------------------------------------------------------------------------
STRT        .FT                                             999 :START DEPTH
STOP        .FT                                           14605 :STOP DEPTH
STEP        .FT                                             0.5 :STEP      
NULL        .                                           -999.25 :NULL      
COMP        .                                      GETTY OIL CO :COMPANY   
WELL        .                               OCS G03116 ST00BP00 :WELL      
FLD         .                                           WILDCAT :FIELD     
LOC         .                                                   :LOCATION  
CNTY        .                                  HIGH ISLAND EAST :LOCATION  
STAT        .                                             TEXAS :STATE     
CTRY        .                                     UNITED STATES :COUNTRY   
SRVC        .                                                   :SERVICE COMPANY
DATE        .                             9/13/2023 11:19:51 AM :LOG DATE  
API         .                                    42710400090000 :API NUMBER
UWI         .                                    42710400090000 :UNIQUE WELL ID
XCOORD      .                                  1371379.55461592 :SURFACE X 
YCOORD      .                                  10664640.0845049 :SURFACE Y 
LAT         .                                        29.3834483 :LATITUDE  
LON         .                                       -93.8450221 :LONGITUDE 
ELEV        .FT                                              80 :ELEVATION VALUE
ELEV_TYPE   .                                                KB :ELEVATION REFERENCE TYPE
~Curve Information Section
#MNEM       .UNIT                                      API CODE :CURVE DESCRIPTION
#------------------------------------------------------------------------------
DEPT        .FT                                                 :DEPTH     
CALI        .IN                                                 :          
DRHO        .G/C3                                               :          
GR          .GAPI                                               :          
GR_NORM     .GAPI                                               :GammaRay Normalized
NPHI        .%                                                  :          
RHOB        .G/C3                                               :          
VSH_GR      .V/V                                                :Volume of Shale from GR
~A        DEPTH           CALI           DRHO             GR        GR_NORM           NPHI           RHOB         VSH_GR
       999.0000        -999.25        -999.25        26.3786       74.13947        -999.25        -999.25      0.8753078
       999.5000        -999.25        -999.25        26.8163       74.79777        -999.25        -999.25      0.8893142
      1000.0000        -999.25        -999.25        26.9799       75.04383        -999.25        -999.25      0.8945496
      1000.5000        -999.25        -999.25        27.1402       75.28492        -999.25        -999.25      0.8996791
      1001.0000        -999.25        -999.25        27.4026       75.67957        51.4992        -999.25      0.9080759
      1001.5000        -999.25        -999.25        27.7718       76.23484        51.5497        -999.25      0.9198902
      1002.0000        -999.25        -999.25        28.4372        77.2356        54.1061        -999.25       0.941183
      1002.5000        -999.25        -999.25         29.355       78.61598        56.1217        -999.25      0.9705528
      1003.0000        -999.25        -999.25        30.4718       80.29564        57.3641        -999.25              1
      1003.5000        -999.25        -999.25        30.5239         80.374        58.8971        -999.25              1
      1004.0000        -999.25        -999.25        29.9695       79.54018        59.4902        -999.25      0.9902167
      1004.5000        -999.25        -999.25        28.8697       77.88609        56.4576        -999.25      0.9550231
      1005.0000        -999.25        -999.25        27.7789       76.24551        53.5444        -999.25      0.9201173
      1005.5000        -999.25        -999.25        26.7922       74.76152        52.5778        -999.25       0.888543
      1006.0000        -999.25        -999.25        25.8777       73.38612        51.1234        -999.25       0.859279
      1006.5000        -999.25        -999.25        25.6086       72.98139        50.3711        -999.25      0.8506679
      1007.0000        -999.25        -999.25        26.0426       73.63412        50.2495        -999.25      0.8645558
      1007.5000        -999.25        -999.25        27.3531       75.60513        49.6313        -999.25      0.9064921
      1008.0000        -999.25        -999.25        29.6121       79.00266         49.313        -999.25      0.9787799
      1008.5000        -999.25        -999.25        30.9297       80.98433        50.8923        -999.25              1
      1009.0000        -999.25        -999.25        31.6571       82.07834        52.9267        -999.25              1
      1009.5000        -999.25        -999.25        31.9115       82.46096        54.9274        -999.25              1
      1010.0000        -999.25        -999.25        31.8769       82.40891        55.6844        -999.25              1
      1010.5000        -999.25        -999.25        31.7512       82.21986        55.9285        -999.25              1
      1011.0000        17.6729         0.0387        31.7108        82.1591        56.3203         2.7418              1
      1011.5000        17.5277          0.033        31.8114        82.3104         57.337         2.7481              1
      1012.0000        18.6196         0.0268        32.0383       82.65165        57.0195         2.7896              1
      1012.5000        19.0934         0.0202        32.2232       82.92976        54.8976         2.7932              1
      1013.0000        18.7002         0.0133        32.0318       82.64188         53.614         2.8014              1
      1013.5000        17.9003         0.0058        31.5588       81.93049        55.3505         2.8021              1
      1014.0000        17.2864         0.0015        31.1572       81.32649        57.1796         2.8083              1
      1014.5000        17.2712         0.0017        30.8169       80.81467        56.9578         2.8118              1
      1015.0000        17.2681         0.0047        30.6142       80.50982        56.3974         2.8153              1
      1015.5000        17.2622         0.0065        30.6226       80.52245         56.295         2.8204              1
      1016.0000         17.273         0.0068        30.7249        80.6763          56.36         2.8272              1
      1016.5000        17.2845         0.0066        30.8717        80.8971        56.2679         2.8307              1
      1017.0000        17.3172         0.0062        30.9009       80.94101         55.787         2.8371              1
      1017.5000        17.4857         0.0056        30.7846       80.76609        55.6622         2.8395              1
      1018.0000        17.7886         0.0052        30.5439       80.40408        55.2678         2.8374              1
      1018.5000        17.7812         0.0045        30.0718       79.69404        54.8752         2.8249      0.9934902
      1019.0000        17.4506         0.0027        29.5571       78.91994        56.3328         2.8119      0.9770201
      1019.5000        17.3899          0.001        29.1662       78.33202        57.8328         2.8062      0.9645112
      1020.0000        17.3756         0.0016        28.9594         78.021        58.1846         2.8021      0.9578936
      1020.5000        17.3912         0.0042        28.8704       77.88713        58.0366         2.7949      0.9550453
      1021.0000        17.4496         0.0078        28.8419       77.84428        56.9119         2.7769      0.9541336
      1021.5000        17.5424         0.0095         28.868       77.88354        56.0945         2.7537      0.9549689
      1022.0000        17.7413         0.0087        28.9029       77.93601        56.2798         2.7305      0.9560854
      1022.5000        17.8071         0.0052         29.015       78.10461        56.3995         2.7018      0.9596725
      1023.0000        17.8044         0.0038        29.0956       78.22585        56.6079         2.6867       0.962252
      1023.5000        17.7479         0.0024        29.4204       78.53621        57.2939         2.6785      0.9688555
      1024.0000        17.6212        -0.0025        29.2075       77.97704        56.8246         2.6725      0.9569582
      1024.5000         17.525        -0.0069        29.1243       77.61294        54.6833         2.6651      0.9492114
      1025.0000         17.518        -0.0087        29.1537       77.41819        52.6318         2.6566      0.9450679
      1025.5000        17.5223        -0.0084        29.1635       77.19395        51.8815         2.6337      0.9402969
      1026.0000        17.5233        -0.0057        29.1903        76.9953         52.295         2.5989      0.9360702
      1026.5000        17.5184         0.0007        29.3101       76.93651        53.5816         2.5798      0.9348193
      1027.0000        17.4928         0.0112        29.4841       76.95924        54.8303         2.5499       0.935303
      1027.5000        17.3707         0.0217        29.6935        77.0352        54.9391         2.4786      0.9369192
      1028.0000        17.1647          0.017        29.7739       76.91716        52.9675         2.4519      0.9344077
      1028.5000        17.0558         0.0109        29.7054       76.57517        53.5394         2.4438      0.9271314
      1029.0000        17.1412         0.0067        29.5967       76.17271        54.5144         2.4397      0.9185683
      1029.5000        17.6073         0.0006        29.4538       75.71883        55.0413         2.4343      0.9089112
      1030.0000        17.8724        -0.0069        29.4895       75.53355        55.7782         2.4258      0.9049691
      1030.5000        18.0373        -0.0085        29.7374       75.66742        56.1876         2.4296      0.9078174
      1031.0000        18.2064        -0.0014        30.0886       75.95666        54.6897          2.436      0.9139714
      1031.5000        18.3741         0.0017        30.4551       76.26891        52.5935         2.4411       0.920615
      1032.0000        18.6024         0.0024        30.8218       76.58146        53.2168         2.4425      0.9272651
