#------------------------------------------------------------------------------
# Created by    : vladimir.rabinovich
# Created on    : 09/19/2023 17:20:21
#------------------------------------------------------------------------------
~Version Information Section
VERS.           2.0     :   CWLS log ASCII Standard - VERSION 2.0
WRAP.           NO      :   One line per depth step
~Well Information Section
#MNEM       .UNIT                                         VALUE :DESCRIPTION
#------------------------------------------------------------------------------
STRT        .FT                                            1439 :START DEPTH
STOP        .FT                                           13833 :STOP DEPTH
STEP        .FT                                             0.5 :STEP      
NULL        .                                           -999.25 :NULL      
COMP        .                                        EXXON CORP :COMPANY   
WELL        .                               OCS G04992 ST00BP00 :WELL      
FLD         .                                           WILDCAT :FIELD     
LOC         .                                                   :LOCATION  
CNTY        .                               MUSTANG ISLAND EAST :LOCATION  
STAT        .                                             TEXAS :STATE     
CTRY        .                                     UNITED STATES :COUNTRY   
SRVC        .                                                   :SERVICE COMPANY
DATE        .                             9/13/2023 11:20:08 AM :LOG DATE  
API         .                                    42712400640000 :API NUMBER
UWI         .                                    42712400640000 :UNIQUE WELL ID
XCOORD      .                                  530427.861923906 :SURFACE X 
YCOORD      .                                  9963308.63528926 :SURFACE Y 
LAT         .                                        27.4144168 :LATITUDE  
LON         .                                       -96.4214066 :LONGITUDE 
ELEV        .FT                                              73 :ELEVATION VALUE
ELEV_TYPE   .                                                KB :ELEVATION REFERENCE TYPE
~Curve Information Section
#MNEM       .UNIT                                      API CODE :CURVE DESCRIPTION
#------------------------------------------------------------------------------
DEPT        .FT                                                 :DEPTH     
ASFL        .OHMM                                               :          
CILD        .MMHO                                               :          
DT          .US/F                                               :          
GR          .GAPI                                               :          
GR_NORM     .GAPI                                               :GammaRay Normalized
ILD         .OHMM                                               :          
SP          .MV                                                 :          
SP_NORM     .MV                                                 :SP Normalized
VSH_GR      .V/V                                                :Volume of Shale from GR
VSH_SP      .V/V                                                :Volume of Shale from SP
~A        DEPTH           ASFL           CILD             DT             GR        GR_NORM            ILD             SP        SP_NORM         VSH_GR         VSH_SP
# ...
      8029.5000         0.7377       2254.887       127.4009        57.3885       77.24884         0.4613       -52.7838      -2.150887      0.9414647      0.9569823
      8030.0000         0.7343       2279.047       128.5491        57.0668       76.84746         0.4567       -53.2972      -2.664288      0.9329246      0.9467142
      8030.5000         0.7315       2300.203       129.7271        56.7451       76.44607         0.4521       -53.5424      -2.909489      0.9243844      0.9418103
      8031.0000          0.729       2320.609       130.2812        58.2859        78.3728         0.4455        -53.564      -2.931087      0.9653788      0.9413782
      8031.5000         0.7272       2334.816       130.6367        59.6631       80.09505         0.4383       -53.5855      -2.952587              1      0.9409482
      8032.0000         0.7287       2345.621       130.5205        60.4551       81.08578         0.4312       -53.9364       -3.30349              1      0.9339302
      8032.5000         0.7301       2352.281       130.1501        60.6959       81.38752         0.4241       -54.3192      -3.686287              1      0.9262742
      8033.0000         0.7316       2358.941       129.7407         60.937       81.68964         0.4193       -53.7181       -3.08519              1      0.9382962
      8033.5000         0.7315       2365.602       129.6484         61.341       82.19537          0.416       -52.6187      -1.985786              1      0.9602843
      8034.0000         0.7301        2375.93       129.6497        61.7781       82.74248         0.4128       -51.7113      -1.078388              1      0.9784322
      8034.5000         0.7287        2386.48       130.2969        63.1614       84.47235         0.4095       -51.1609     -0.5279884              1      0.9894402
      8035.0000          0.721       2397.324       131.4004        64.1858       85.75359         0.4075       -51.0555     -0.4225883              1      0.9915482
      8035.5000         0.7093       2409.379       132.0818        63.3391       84.69595         0.4071       -51.2823     -0.6493874              1      0.9870123
      8036.0000         0.7069       2421.434       132.4402        62.4923       83.63819         0.4067        -51.509     -0.8760872              1      0.9824783
      8036.5000         0.7052       2432.363       132.5991        61.6406       82.57431         0.4063       -51.7357      -1.102787              1      0.9779443
      8037.0000         0.7037       2439.734       132.3926        60.6449       81.33042         0.4094       -51.9574       -1.32449              1      0.9735102
      8037.5000          0.705       2429.672        132.075        59.6356       80.06953         0.4131       -52.1653      -1.532387              1      0.9693522
      8038.0000         0.7067       2363.273       131.6877        58.5774       78.74752         0.4167       -51.7632      -1.130287      0.9733515      0.9773943
      8038.5000         0.7086       2332.227       131.3826        57.7856        77.7585         0.4237       -51.7106       -1.07769      0.9523085      0.9784462
      8039.0000         0.7147       2297.426       131.3689        58.6837       78.88187         0.4311       -51.7138      -1.080887      0.9762101      0.9783823
      8039.5000         0.7207       2268.555       131.5015        61.0251       81.80937         0.4386        -51.717      -1.084087              1      0.9783183
      8040.0000         0.7233       2253.258       131.0151        61.2928       82.14473         0.4461       -51.7333      -1.100388              1      0.9779922
      8040.5000         0.7252       2253.336       130.0364        59.3766       79.75021         0.4525       -51.7509      -1.117989      0.9946854      0.9776402
      8041.0000         0.7272       2253.418       130.0334        57.2504        77.0932         0.4556       -51.8145      -1.181587      0.9381532      0.9763682
      8041.5000         0.7284       2262.023       130.8318        55.8645       75.36156         0.4587       -52.1878       -1.55489      0.9013099      0.9689022
      8042.0000         0.7292       2266.809       131.6865        54.4524       73.59718         0.4618       -52.5605      -1.927589      0.8637698      0.9614482
      8042.5000           0.73        2263.52       132.4573        54.9189       74.18105         0.4649       -53.4358      -2.802887      0.8761925      0.9439422
      8043.0000         0.7308        2260.23       132.6929         55.386       74.76566         0.4647       -53.6956      -3.062687      0.8886311      0.9387463
      8043.5000         0.7317       2256.941       132.9404        55.8526       75.34966         0.4629       -53.9555       -3.32259      0.9010565      0.9335482
      8044.0000         0.7326       2253.656        133.072        56.3198       75.93439         0.4611       -54.2156      -3.582687      0.9134976      0.9283463
      8044.5000         0.7341       2247.977        132.894        56.6956       76.40488         0.4593       -54.4623      -3.829388       0.923508      0.9234123
      8045.0000         0.7356       2225.016       132.4429         56.989       76.77237         0.4574       -53.9258      -3.292889       0.931327      0.9341422
      8045.5000         0.7371       2208.906       132.2412        57.1815       77.01372         0.4558       -53.4392       -2.80629      0.9364621      0.9438742
      8046.0000         0.7386       2201.094       132.2253        56.3548       75.98109         0.4554       -53.0322      -2.399288      0.9144914      0.9520142
      8046.5000         0.7411        2193.27       131.9634         55.064       74.36832          0.455       -52.9614      -2.328487      0.8801771      0.9534302
      8047.0000         0.7442       2188.004       131.3936        53.6431       72.59294         0.4546       -52.8907       -2.25779       0.842403      0.9548442
      8047.5000         0.7436       2184.371       130.7786        52.5775       71.26168         0.4542       -52.8199      -2.186989      0.8140783      0.9562602
      8048.0000         0.7422       2180.738       130.1221        51.8232       70.31955         0.4538        -52.744      -2.111088       0.794033      0.9577782
      8048.5000         0.7409       2178.578       129.8191        52.2817       70.89341         0.4538       -52.6561       -2.02319      0.8062428      0.9595362
      8049.0000         0.7395       2177.426         129.73        52.7701       71.50465         0.4541       -52.6381      -2.005188       0.819248      0.9598963
      8049.5000         0.7374       2176.277       130.2009        53.6694       72.62951         0.4544       -53.1716      -2.538689       0.843181      0.9492262
      8050.0000          0.734       2177.914       130.8494        54.5056        73.6755         0.4547        -53.705       -3.07209      0.8654361      0.9385582
      8050.5000         0.7293       2179.602       131.4983        55.0134       74.31099          0.455       -54.2435      -3.610588      0.8789572      0.9277883
      8051.0000         0.7257       2181.285       131.8743        54.8026       74.04823         0.4553       -54.7963      -4.163387      0.8733667      0.9167323
      8051.5000         0.7223       2180.398       131.6309        53.6656       72.62772          0.456       -54.7485      -4.115589      0.8431429      0.9176882
      8052.0000         0.7212        2179.48        131.217        53.5969       72.54258         0.4571       -54.4611       -3.82819      0.8413315      0.9234362
      8052.5000         0.7209       2178.563       130.7979        54.4474       73.60645         0.4582       -54.1734      -3.540489      0.8639669      0.9291902
      8053.0000         0.7206       2173.379       130.5928        54.6875       73.90731         0.4594       -53.8873      -3.254387      0.8703683      0.9349123
      8053.5000         0.7199        2166.98       130.4668        53.5756       72.51817         0.4605       -53.6046      -2.971687      0.8408122      0.9405662
