#------------------------------------------------------------------------------
# Created by    : vladimir.rabinovich
# Created on    : 09/19/2023 17:19:33
#------------------------------------------------------------------------------
~Version Information Section
VERS.           2.0     :   CWLS log ASCII Standard - VERSION 2.0
WRAP.           NO      :   One line per depth step
~Well Information Section
#MNEM       .UNIT                                         VALUE :DESCRIPTION
#------------------------------------------------------------------------------
STRT        .FT                                          3947.5 :START DEPTH
STOP        .FT                                           10890 :STOP DEPTH
STEP        .FT                                             0.5 :STEP      
NULL        .                                           -999.25 :NULL      
COMP        .                          PALM ENERGY OFFSHORE LLC :COMPANY   
WELL        .                               OCS G21349 ST00BP00 :WELL      
FLD         .                            HIGH ISLAND BLOCK 0074 :FIELD     
LOC         .                                                   :LOCATION  
CNTY        .                                  HIGH ISLAND EAST :LOCATION  
STAT        .                                             TEXAS :STATE     
CTRY        .                                     UNITED STATES :COUNTRY   
SRVC        .                                                   :SERVICE COMPANY
DATE        .                             9/13/2023 11:20:11 AM :LOG DATE  
API         .                                    42710401490000 :API NUMBER
UWI         .                                    42710401490000 :UNIQUE WELL ID
XCOORD      .                                  1378068.78051204 :SURFACE X 
YCOORD      .                                  10648064.4011202 :SURFACE Y 
LAT         .                                        29.3379836 :LATITUDE  
LON         .                                       -93.8236467 :LONGITUDE 
ELEV        .FT                                             104 :ELEVATION VALUE
ELEV_TYPE   .                                                KB :ELEVATION REFERENCE TYPE
~Curve Information Section
#MNEM       .UNIT                                      API CODE :CURVE DESCRIPTION
#------------------------------------------------------------------------------
DEPT        .FT                                                 :DEPTH     
AHFCO90     .MMHO                                               :          
AHT10       .OHMM                                               :          
AHT20       .OHMM                                               :          
AHT30       .OHMM                                               :          
AHT60       .OHMM                                               :          
AHT90       .OHMM                                               :          
DCAL        .IN                                                 :          
DPHZ        .V/V                                                :          
DTLF        .US/F                                               :          
DTLN        .US/F                                               :          
GR          .GAPI                                               :          
GR_NORM     .GAPI                                               :GammaRay Normalized
HDRA        .G/CC                                               :          
NPOR        .V/V                                                :          
RWA         .OHMM                                               :          
SP          .MV                                                 :          
SPHI        .V/V                                                :          
TENS        .LB/F                                               :          
VSH_GR      .V/V                                                :Volume of Shale from GR
~A        DEPTH        AHFCO90          AHT10          AHT20          AHT30          AHT60          AHT90           DCAL           DPHZ           DTLF           DTLN             GR        GR_NORM           HDRA           NPOR            RWA             SP           SPHI           TENS         VSH_GR
# ...
      9023.5000       899.1997         1.0172         1.0991         1.1293         1.1354         1.1121         0.6687         0.1547        100.917       100.5995        79.9921       71.59312        -0.0046         0.3167         0.0329       -19.0625         0.2771           4116      0.8211303
      9024.0000       874.7375         1.0501         1.1376         1.1691         1.1705         1.1432         0.7575         0.1578       101.4942       101.2695        84.9749       76.30685        -0.0046         0.2958         0.0351       -18.1875         0.2794           4100      0.9214222
      9024.5000       871.3079         1.0607         1.1473         1.1774         1.1814         1.1477         0.9571         0.1597       101.0975       100.9267        79.1205       70.76859        -0.0025         0.3288         0.0362         -16.75         0.2782           4186      0.8035869
      9025.0000        896.861         1.0253          1.109         1.1429         1.1476          1.115         0.9128         0.1651       103.5894       103.5085        85.2466       76.56387         0.0002         0.3276         0.0375        -17.875         0.2869           4115      0.9268907
      9025.5000       911.9095         0.9932         1.0764         1.1079         1.1265         1.0966         0.7796         0.1649       103.1444       103.1836        86.4323       77.68555         0.0027         0.3426         0.0368       -18.3125         0.2858           4192      0.9507563
      9026.0000       909.0082         0.9906         1.0771          1.108          1.123         1.1001         0.6021         0.1642       103.2738       103.1166        90.8348       81.85031         0.0041         0.3628         0.0366       -18.8125         0.2856           4296              1
      9026.5000       905.2231         0.9844         1.0723         1.1122         1.1407         1.1047         0.7575         0.1656       104.6697       104.5655        95.0027       85.79314         0.0041         0.3853         0.0374       -18.5625         0.2903           4120              1
      9027.0000       917.4312         0.9547         1.0415         1.0791         1.1039           1.09         0.8129         0.1678       105.2201       105.5625        96.2876       87.00866         0.0024         0.3801         0.0379       -19.0625         0.2934           4248              1
      9027.5000       934.2302         0.9381         1.0136         1.0477         1.0705         1.0704         0.6687         0.1693       107.0173       107.3131        99.2366       89.79842         0.0029         0.4023         0.0379       -18.5625         0.2989           4223              1
      9028.0000        939.938         0.9239         0.9951         1.0278         1.0522         1.0639         0.6798         0.1681       110.0092       110.0015        98.4131       89.01939         0.0077         0.4481         0.0371         -19.75         0.3068           4049              1
      9028.5000       954.0164         0.9153         0.9834         1.0061         1.0275         1.0482         0.8462         0.1726       109.4346       110.1266        98.1559       88.77608         0.0109           0.43         0.0385       -19.1875         0.3072           4254              1
      9029.0000       972.0062         0.8886         0.9492         0.9751         0.9958         1.0288         0.6465         0.1796       111.0108       110.9273        98.4508       89.05505         0.0097         0.4604          0.041       -19.4375         0.3095           4240              1
      9029.5000       1005.025         0.8673          0.919         0.9486          0.968          0.995          0.469         0.1835        110.782       111.2795        97.5729       88.22456         0.0047         0.4547         0.0414       -19.1875         0.3105           4152              1
      9030.0000       1019.472         0.8631         0.9094         0.9366         0.9546         0.9809         0.4468         0.1755       110.3412       110.0753        99.9442        90.4678         0.0023         0.4055         0.0373       -19.1875          0.307           4201              1
      9030.5000       992.4574         0.8764         0.9351         0.9597         0.9789         1.0076         0.4247         0.1596       108.0546       107.9772         99.418       89.97002         0.0038         0.3798         0.0317        -18.875         0.3009           4160              1
      9031.0000       977.6127         0.8963         0.9641         0.9838         1.0014         1.0229         0.4247         0.1418        102.909       103.3388       100.7076       91.18999         0.0049         0.4244         0.0254       -18.3125         0.2863           4109              1
      9031.5000       991.2767         0.9165         0.9795         0.9887         1.0006         1.0088           0.58         0.1345        97.6535        97.5088        91.1425        82.1414         0.0079         0.3838         0.0225          -17.5         0.2661           4176              1
      9032.0000       991.2767         0.9478         1.0184         1.0198         1.0043         1.0088         0.9349         0.1347        93.2925        94.5016        85.1808       76.50163         0.0079          0.267         0.0226       -18.0625         0.2546           4046      0.9255667
      9032.5000       884.2515         1.0814         1.1656         1.1597         1.1333         1.1309         0.9017         0.1343        91.0976        91.2467        77.1084       68.86514         0.0111         0.2131         0.0252       -18.5625         0.2414           4147       0.763088
      9033.0000       764.7014         1.2554          1.356         1.3629         1.3145         1.3077         0.9571         0.1335        91.4347        91.7598         76.736       68.51285         0.0099         0.2473         0.0288        -18.125         0.2436           4233      0.7555925
      9033.5000       749.9062         1.3237          1.441         1.4212          1.366         1.3335         0.9682         0.1317        93.6534        94.2637        75.9267       67.74725         0.0079         0.2872         0.0285         -16.25         0.2537           4081      0.7393031
      9034.0000       777.0008         1.2749         1.3734         1.3582         1.3273          1.287         0.9349         0.1336         95.395        95.1776        72.0004       64.03297         0.0063         0.2963         0.0284        -16.375         0.2573           4184      0.6602759
      9034.5000       779.3018         1.2479          1.336         1.3468         1.3276         1.2832         0.9571         0.1289        92.9539        93.3748        73.0298       65.00678         0.0106         0.2719         0.0263       -16.6875         0.2502           4193      0.6809953
      9035.0000       767.9312         1.2201         1.3073         1.3295         1.3297         1.3022         0.9349         0.1292        92.4848         92.799        68.4635       60.68707         0.0149         0.2746         0.0268       -17.3125         0.2478           3980      0.5890865
      9035.5000        781.189         1.1753         1.2496         1.2876         1.2984         1.2801         0.9571         0.1369        93.3433        93.1839        72.4437       64.45234         0.0154         0.2933         0.0296            -17         0.2494           4155      0.6691987
      9036.0000       800.8328         1.1642         1.1894         1.2394         1.2557         1.2487          1.057         0.1532        96.4445        97.0997        72.6089       64.60861         0.0104         0.2944         0.0362          -17.5         0.2645           4157      0.6725237
      9036.5000       831.3243         1.1143         1.1474           1.19         1.2085         1.2029         1.1568         0.1685       102.1347       102.2121        75.7763       67.60497         0.0063         0.3006         0.0421       -16.8125         0.2826           4026       0.736276
