#------------------------------------------------------------------------------
# Created by    : vladimir.rabinovich
# Created on    : 09/19/2023 17:21:48
#------------------------------------------------------------------------------
~Version Information Section
VERS.           2.0     :   CWLS log ASCII Standard - VERSION 2.0
WRAP.           NO      :   One line per depth step
~Well Information Section
#MNEM       .UNIT                                         VALUE :DESCRIPTION
#------------------------------------------------------------------------------
STRT        .FT                                            1142 :START DEPTH
STOP        .FT                                            9163 :STOP DEPTH
STEP        .FT                                             0.5 :STEP      
NULL        .                                           -999.25 :NULL      
COMP        .                                    ORYX ENERGY CO :COMPANY   
WELL        .                               OCS G06199 ST00BP00 :WELL      
FLD         .                            HIGH ISLAND BLOCK 0129 :FIELD     
LOC         .                                                   :LOCATION  
CNTY        .                                  HIGH ISLAND EAST :LOCATION  
STAT        .                                             TEXAS :STATE     
CTRY        .                                     UNITED STATES :COUNTRY   
SRVC        .                                                   :SERVICE COMPANY
DATE        .                             9/13/2023 11:20:11 AM :LOG DATE  
API         .                                    42710400360000 :API NUMBER
UWI         .                                    42710400360000 :UNIQUE WELL ID
XCOORD      .                                  1376484.19293712 :SURFACE X 
YCOORD      .                                  10620179.8267869 :SURFACE Y 
LAT         .                                        29.2612476 :LATITUDE  
LON         .                                        -93.828002 :LONGITUDE 
ELEV        .FT                                              93 :ELEVATION VALUE
ELEV_TYPE   .                                                KB :ELEVATION REFERENCE TYPE
~Curve Information Section
#MNEM       .UNIT                                      API CODE :CURVE DESCRIPTION
#------------------------------------------------------------------------------
DEPT        .FT                                                 :DEPTH     
CALI        .IN                                                 :          
DRHO        .G/C3                                               :          
DT          .US/F                                               :          
GR          .GAPI                                               :          
GR_1        .GAPI                                               :          
GR_NORM     .GAPI                                               :GammaRay Normalized
ILD         .OHMM                                               :          
ILM         .OHMM                                               :          
NPHI        .%                                                  :          
RFOC        .OHMM                                               :          
RHOB        .G/C3                                               :          
SP          .MV                                                 :          
SP_NORM     .MV                                                 :SP Normalized
VSH_GR      .V/V                                                :Volume of Shale from GR
VSH_SP      .V/V                                                :Volume of Shale from SP
~A        DEPTH           CALI           DRHO             DT             GR           GR_1        GR_NORM            ILD            ILM           NPHI           RFOC           RHOB             SP        SP_NORM         VSH_GR         VSH_SP
# ...
      3811.0000        -999.25        -999.25       130.7898        82.7164        -999.25       75.58246         1.0371         1.1882        -999.25          1.423        -999.25       -69.6334      -6.781796      0.9060097      0.9031172
      3811.5000        -999.25        -999.25       129.6174        81.2148        -999.25       73.98463         1.0879         1.2083        -999.25         1.4386        -999.25       -69.6315      -6.860531      0.8720135      0.9019924
      3812.0000        -999.25        -999.25       129.1357        82.6992        -999.25       75.56342         1.1396         1.2235        -999.25         1.4287        -999.25       -69.5872      -6.896862      0.9056046      0.9014734
      3812.5000        -999.25        -999.25       129.3484         84.396        -999.25       77.36816         1.1834          1.239        -999.25         1.4126        -999.25       -69.5353      -6.925602      0.9440033      0.9010628
      3813.0000        -999.25        -999.25       129.4622        84.9821        -999.25       77.99129         1.2104         1.2414        -999.25         1.3942        -999.25       -69.4305      -6.901432      0.9572616      0.9014081
      3813.5000        -999.25        -999.25       129.2637        84.1707        -999.25       77.12773         1.2102          1.242        -999.25         1.3762        -999.25       -69.2822      -6.833775      0.9388879      0.9023746
      3814.0000        -999.25        -999.25       128.8777        83.3918        -999.25       76.29874          1.206         1.2356        -999.25         1.3644        -999.25       -69.1735      -6.805706      0.9212497      0.9027756
      3814.5000        -999.25        -999.25       128.2566        83.9576        -999.25       76.90029         1.1984         1.2263        -999.25         1.3738        -999.25       -69.2686      -6.981441      0.9340488      0.9002651
      3815.0000        -999.25        -999.25       127.6759        87.3203        -999.25       80.47725         1.1742         1.2091        -999.25         1.3901        -999.25       -69.4786      -7.272076              1      0.8961132
      3815.5000        -999.25        -999.25        127.588        91.1768        -999.25       84.57954         1.1435         1.1887        -999.25         1.3972        -999.25       -69.8173       -7.69141              1      0.8901227
      3816.0000        -999.25        -999.25       129.1431         95.213        -999.25       88.87299         1.1089         1.1717        -999.25         1.3888        -999.25        -70.041      -7.995747              1       0.885775
      3816.5000        -999.25        -999.25       131.1091        98.3959        -999.25       92.25868         1.0812         1.1567        -999.25         1.3687        -999.25       -70.0918      -8.127178              1      0.8838975
      3817.0000        -999.25        -999.25       132.8203        99.0703        -999.25       92.97577         1.0534         1.1399        -999.25         1.3515        -999.25       -70.1196      -8.235615              1      0.8823484
      3817.5000        -999.25        -999.25       134.1667        97.2803        -999.25       91.07114          1.027         1.1227        -999.25         1.3515        -999.25        -69.925      -8.121655              1      0.8839763
      3818.0000        -999.25        -999.25       134.7451        95.2043        -999.25       88.86226          1.011         1.1121        -999.25         1.3727        -999.25       -69.7306      -8.007885              1      0.8856016
      3818.5000        -999.25        -999.25        134.675        92.9474        -999.25       86.46093         1.0019         1.1045        -999.25         1.3774        -999.25       -69.1995      -7.557423              1      0.8920368
      3819.0000        -999.25        -999.25       134.5415        90.8549        -999.25       84.23448         0.9965         1.0977        -999.25         1.3724        -999.25       -68.5042      -6.942757              1      0.9008178
      3819.5000        -999.25        -999.25       134.0203        92.0929        -999.25       85.55115         0.9868         1.0942        -999.25         1.3455        -999.25       -67.5017      -6.020889              1      0.9139873
      3820.0000        -999.25        -999.25       133.6167        94.0396        -999.25       87.62173         0.9817         1.0908        -999.25         1.3261        -999.25       -66.4401      -5.039925              1      0.9280011
      3820.5000        -999.25        -999.25       133.3276        95.9678        -999.25       89.67263         1.0055         1.0873        -999.25         1.3235        -999.25        -65.457      -4.137459              1      0.9408935
      3821.0000        -999.25        -999.25       134.0955        97.7137        -999.25       91.52959         1.0067         1.0876        -999.25         1.3296        -999.25       -65.4192       -4.18029              1      0.9402816
      3821.5000        -999.25        -999.25       134.6926        98.1903        -999.25       92.03625         1.0081          1.088        -999.25         1.3336        -999.25       -65.8069      -4.648628              1       0.933591
      3822.0000        -999.25        -999.25       135.1121        97.6381        -999.25       91.44843         1.0095         1.0878        -999.25         1.3327        -999.25       -65.8251      -4.747467              1       0.932179
      3822.5000        -999.25        -999.25       135.4521         96.661        -999.25        90.4086         1.0063         1.0867        -999.25         1.3237        -999.25       -65.1339      -4.136902              1      0.9409014
      3823.0000        -999.25        -999.25       135.7129        95.6569        -999.25       89.34003         1.0004         1.0855        -999.25         1.3262        -999.25       -63.3276      -2.411232              1      0.9655538
      3823.5000        -999.25        -999.25       136.0835        94.5154        -999.25        88.1253         0.9946         1.0747        -999.25         1.3353        -999.25       -61.5461     -0.7103691              1      0.9898519
      3824.0000        -999.25        -999.25        137.208        93.1198        -999.25       86.64024          0.979         1.0627        -999.25         1.3413        -999.25       -60.2099      0.5451965              1              1
      3824.5000        -999.25        -999.25       138.8586        91.4476        -999.25       84.86094         0.9591         1.0417        -999.25         1.3282        -999.25       -59.8282      0.8462601              1              1
      3825.0000        -999.25        -999.25       139.7676        89.8334        -999.25       83.14333         0.9394         1.0199        -999.25         1.2924        -999.25       -58.9103       1.683525              1              1
      3825.5000        -999.25        -999.25       139.9834         93.387        -999.25       86.92339         0.9198         0.9966        -999.25         1.2614        -999.25       -56.9922       3.520992              1              1
      3826.0000        -999.25        -999.25       140.1482        96.0109        -999.25       89.71439         0.9006         0.9749        -999.25         1.2449        -999.25        -55.342       5.090557              1              1
      3826.5000        -999.25        -999.25       140.3369        98.3429        -999.25       92.19488         0.8888         0.9602        -999.25         1.2444        -999.25       -54.1567       6.195221              1              1
      3827.0000        -999.25        -999.25       140.7246        99.8303        -999.25       93.77685         0.8771         0.9457        -999.25         1.2539        -999.25       -53.4876       6.783688              1              1
      3827.5000        -999.25        -999.25       141.1301        100.079        -999.25       94.04105         0.8656         0.9373        -999.25         1.2558        -999.25       -53.3557       6.834949              1              1
