#------------------------------------------------------------------------------
# Created by    : vladimir.rabinovich
# Created on    : 09/19/2023 17:22:52
#------------------------------------------------------------------------------
~Version Information Section
VERS.           2.0     :   CWLS log ASCII Standard - VERSION 2.0
WRAP.           NO      :   One line per depth step
~Well Information Section
#MNEM       .UNIT                                         VALUE :DESCRIPTION
#------------------------------------------------------------------------------
STRT        .FT                                            2993 :START DEPTH
STOP        .FT                                           15023 :STOP DEPTH
STEP        .FT                                             0.5 :STEP      
NULL        .                                           -999.25 :NULL      
COMP        .                                        TEXACO INC :COMPANY   
WELL        .                                     ST TR 00018-L :WELL      
FLD         .                                           WILDCAT :FIELD     
LOC         .                                                   :LOCATION  
CNTY        .                                       SABINE PASS :LOCATION  
STAT        .                                             TEXAS :STATE     
CTRY        .                                     UNITED STATES :COUNTRY   
SRVC        .                                                   :SERVICE COMPANY
DATE        .                             9/13/2023 11:20:07 AM :LOG DATE  
API         .                                    42715000300000 :API NUMBER
UWI         .                                    42715000300000 :UNIQUE WELL ID
XCOORD      .                                  1367853.58567514 :SURFACE X 
YCOORD      .                                  10716828.2466652 :SURFACE Y 
LAT         .                                         29.526933 :LATITUDE  
LON         .                                       -93.8573019 :LONGITUDE 
ELEV        .FT                                              75 :ELEVATION VALUE
ELEV_TYPE   .                                                KB :ELEVATION REFERENCE TYPE
~Curve Information Section
#MNEM       .UNIT                                      API CODE :CURVE DESCRIPTION
#------------------------------------------------------------------------------
DEPT        .FT                                                 :DEPTH     
ILD         .OHMM                                               :          
SFLA        .OHMM                                               :          
SP          .MV                                                 :          
SP_NORM     .MV                                                 :SP Normalized
VSH_SP      .V/V                                                :Volume of Shale from SP
~A        DEPTH            ILD           SFLA             SP        SP_NORM         VSH_SP
# ...
      3785.0000         0.5533         0.7503       -68.8002      -50.61611      0.1866211
      3785.5000         0.5539         0.7504       -68.5182      -50.33947      0.1911563
      3786.0000         0.5545         0.7504       -68.6993      -50.52592      0.1880997
      3786.5000         0.5551         0.7504        -68.822      -50.65396      0.1860006
      3787.0000         0.5433         0.7494       -69.1286      -50.96592      0.1808866
      3787.5000         0.5249         0.7444       -69.1786      -51.02127      0.1799792
      3788.0000         0.4951         0.7403        -69.369      -51.21703      0.1767701
      3788.5000         0.4821         0.7242       -69.7383      -51.59167      0.1706283
      3789.0000         0.4453          0.706       -70.3252      -52.18393      0.1609192
      3789.5000          0.422         0.6938       -71.7977      -53.66178      0.1366922
      3790.0000         0.4039         0.6815       -72.2035      -54.07293       0.129952
      3790.5000         0.3858         0.6693       -72.2005      -54.07528      0.1299134
      3791.0000         0.3756         0.6546       -72.0302      -53.91033      0.1326175
      3791.5000         0.3762          0.624       -71.7826      -53.66809      0.1365887
      3792.0000         0.3768         0.5934       -71.5746      -53.46544      0.1399108
      3792.5000         0.3749         0.5821       -71.5719      -53.46809      0.1398674
      3793.0000         0.3625         0.5939       -71.5692      -53.47074      0.1398239
      3793.5000         0.3631          0.613       -71.6693      -53.57619      0.1380953
      3794.0000         0.3484         0.6322       -72.7721      -54.68435      0.1199287
      3794.5000         0.3491         0.6528       -73.8654        -55.783      0.1019181
      3795.0000         0.3648         0.6483         -74.52      -56.44295     0.09109922
      3795.5000         0.3654          0.633       -74.9544       -56.8827     0.08389019
      3796.0000          0.366         0.6101        -75.352      -57.28565     0.07728439
      3796.5000         0.3666         0.5871       -75.8778       -57.8168       0.068577
      3797.0000         0.3671         0.5641       -76.0657      -58.01006     0.06540892
      3797.5000         0.3723         0.5462       -76.5919      -58.54161     0.05669491
      3798.0000         0.3837         0.5365       -77.2869      -59.24197     0.04521367
      3798.5000         0.3842         0.5273       -78.3459      -60.30631     0.02776537
      3799.0000         0.4002         0.5238       -79.4049      -61.37067     0.01031694
      3799.5000         0.4315         0.5212       -80.2397      -62.21082              0
      3800.0000          0.366         0.5212       -79.9116      -61.88807    0.001834932
      3800.5000         0.3847         0.5213       -78.9712      -60.95302     0.01716364
      3801.0000         0.4109         0.5218       -78.0307      -60.01787      0.0324939
      3801.5000         0.4274         0.5287       -77.0902      -59.08273     0.04782417
      3802.0000         0.4733         0.5422       -76.1497      -58.14757     0.06315456
      3802.5000         0.4948         0.5643       -75.0728      -57.07603     0.08072087
      3803.0000         0.5261         0.6376       -74.5859      -56.59448      0.0886151
      3803.5000         0.5453         0.7172       -74.1971      -56.21103     0.09490116
      3804.0000         0.5501         0.7967       -73.8084      -55.82769      0.1011855
      3804.5000         0.5502         0.8306       -73.6715      -55.69614       0.103342
      3805.0000         0.5503         0.8466       -73.6886      -55.71859       0.102974
      3805.5000         0.5401         0.8626       -73.9752      -56.01054     0.09818793
      3806.0000         0.5354         0.8786       -74.1466      -56.18729     0.09529033
      3806.5000         0.5355         0.8959       -74.5877      -56.63374     0.08797142
      3807.0000         0.5356         0.8994       -75.2791      -57.33049     0.07654928
      3807.5000         0.5257         0.9009       -76.8212      -58.87794     0.05118123
      3808.0000         0.5207         0.8911       -78.3633       -60.4254     0.02581318
      3808.5000          0.488         0.8745       -80.1411      -62.20855              0
      3809.0000          0.463         0.8667       -80.6115      -62.68431              0
      3809.5000          0.435         0.8428        -80.707      -62.78516              0
      3810.0000         0.4162         0.8001       -80.5112       -62.5947              0
      3810.5000         0.3952         0.7574       -80.3154      -62.40426              0
      3811.0000         0.3691         0.7148       -80.1281      -62.22231              0
      3811.5000         0.3596         0.6721       -80.0315      -62.13107              0
      3812.0000         0.3389         0.6294       -79.7281      -61.83302    0.002737452
      3812.5000          0.339         0.6117       -79.5014      -61.61167    0.006366042
      3813.0000         0.3392         0.6045       -79.1741      -61.28972     0.01164396
      3813.5000         0.3393         0.6007       -78.8318      -60.95277     0.01716764
      3814.0000         0.3394         0.5988        -78.551      -60.67732     0.02168324
      3814.5000         0.3548          0.605       -78.2542      -60.38588     0.02646099
      3815.0000         0.3603         0.6085       -77.7809      -59.91792     0.03413241
      3815.5000         0.3703         0.6135       -77.5392      -59.68158     0.03800689
      3816.0000         0.3705         0.6212       -77.1503      -59.29803     0.04429464
      3816.5000         0.3872         0.6365        -77.007      -59.16009     0.04655594
      3817.0000         0.4012         0.6549       -76.6887      -58.84713     0.05168639
      3817.5000         0.4014         0.6734       -76.4929      -58.65668     0.05480845
      3818.0000         0.4141         0.6918       -76.2972      -58.46634     0.05792887
      3818.5000         0.4321         0.7102       -76.1014      -58.27589     0.06105098
      3819.0000         0.4323         0.7286       -75.9057      -58.08554     0.06417146
      3819.5000         0.4411         0.7471       -75.7549      -57.94009      0.0665559
      3820.0000         0.4631         0.7655       -75.7522      -57.94274     0.06651244
      3820.5000         0.4632         0.7649       -75.7495      -57.94539     0.06646898
      3821.0000         0.4633         0.7407       -75.7231      -57.92435     0.06681398
      3821.5000         0.4635         0.7174       -75.0369       -57.2435     0.07797535
      3822.0000         0.4636         0.7078       -74.3712      -56.58315     0.08880077
      3822.5000         0.4638         0.7098        -73.339       -55.5563      0.1056344
      3823.0000         0.4683         0.7189       -72.3249      -54.54755      0.1221712
      3823.5000         0.4793         0.7481       -71.8483      -54.07631      0.1298966
      3824.0000         0.4947         0.7774       -71.2381      -53.47146      0.1398122
      3824.5000         0.4956         0.8066       -70.7817      -53.02041      0.1472064
      3825.0000         0.5337         0.8359       -70.7695      -53.01357      0.1473186
      3825.5000         0.5561         0.8651       -70.4677      -52.71711      0.1521785
      3826.0000         0.5678         0.8944       -70.4651      -52.71987      0.1521333
      3826.5000         0.5871         0.9236       -70.4624      -52.72252      0.1520898
      3827.0000         0.6174         0.9529       -70.4597      -52.72517      0.1520463
      3827.5000         0.6329         0.9821        -70.457      -52.72782      0.1520029
      3828.0000          0.671         1.0114       -70.4543      -52.73048      0.1519594
      3828.5000         0.6788         1.0407       -70.4517      -52.73322      0.1519144
