#------------------------------------------------------------------------------
# Created by    : vladimir.rabinovich
# Created on    : 09/19/2023 17:22:52
#------------------------------------------------------------------------------
~Version Information Section
VERS.           2.0     :   CWLS log ASCII Standard - VERSION 2.0
WRAP.           NO      :   One line per depth step
~Well Information Section
#MNEM       .UNIT                                         VALUE :DESCRIPTION
#------------------------------------------------------------------------------
STRT        .FT                                            2993 :START DEPTH
STOP        .FT                                           15023 :STOP DEPTH
STEP        .FT                                             0.5 :STEP      
NULL        .                                           -999.25 :NULL      
COMP        .                                        TEXACO INC :COMPANY   
WELL        .                                     ST TR 00018-L :WELL      
FLD         .                                           WILDCAT :FIELD     
LOC         .                                                   :LOCATION  
CNTY        .                                       SABINE PASS :LOCATION  
STAT        .                                             TEXAS :STATE     
CTRY        .                                     UNITED STATES :COUNTRY   
SRVC        .                                                   :SERVICE COMPANY
DATE        .                             9/13/2023 11:20:07 AM :LOG DATE  
API         .                                    42715000300000 :API NUMBER
UWI         .                                    42715000300000 :UNIQUE WELL ID
XCOORD      .                                  1367853.58567514 :SURFACE X 
YCOORD      .                                  10716828.2466652 :SURFACE Y 
LAT         .                                         29.526933 :LATITUDE  
LON         .                                       -93.8573019 :LONGITUDE 
ELEV        .FT                                              75 :ELEVATION VALUE
ELEV_TYPE   .                                                KB :ELEVATION REFERENCE TYPE
~Curve Information Section
#MNEM       .UNIT                                      API CODE :CURVE DESCRIPTION
#------------------------------------------------------------------------------
DEPT        .FT                                                 :DEPTH     
ILD         .OHMM                                               :          
SFLA        .OHMM                                               :          
SP          .MV                                                 :          
SP_NORM     .MV                                                 :SP Normalized
VSH_SP      .V/V                                                :Volume of Shale from SP
~A        DEPTH            ILD           SFLA             SP        SP_NORM         VSH_SP
      2993.0000         0.8308        -999.25        -999.25        -999.25        -999.25
      2993.5000         0.8309        -999.25        -999.25        -999.25        -999.25
      2994.0000         0.8194        -999.25        -999.25        -999.25        -999.25
      2994.5000            0.8        -999.25        -999.25        -999.25        -999.25
      2995.0000         0.7805        -999.25        -999.25        -999.25        -999.25
      2995.5000         0.7697        -999.25        -999.25        -999.25        -999.25
      2996.0000         0.7697        -999.25        -999.25        -999.25        -999.25
      2996.5000          0.753        -999.25        -999.25        -999.25        -999.25
      2997.0000         0.7391        -999.25        -999.25        -999.25        -999.25
      2997.5000         0.7392        -999.25        -999.25        -999.25        -999.25
      2998.0000         0.7392        -999.25        -999.25        -999.25        -999.25
      2998.5000         0.7418        -999.25        -999.25        -999.25        -999.25
      2999.0000         0.7614        -999.25        -999.25        -999.25        -999.25
      2999.5000         0.7702        -999.25        -999.25        -999.25        -999.25
      3000.0000         0.7851        -999.25        -999.25        -999.25        -999.25
      3000.5000         0.8011        -999.25        -999.25        -999.25        -999.25
      3001.0000         0.8089        -999.25       -14.3721      -1.038766      0.9992399
      3001.5000         0.8321        -999.25       -14.3694      -1.036066      0.9992929
      3002.0000         0.8321         0.8351       -14.5221      -1.188766      0.9962987
      3002.5000         0.8369         0.8446       -14.5729      -1.239566      0.9953026
      3003.0000         0.8564         0.8542       -14.7667      -1.433366      0.9915026
      3003.5000         0.8631         0.8643       -14.9783      -1.644966      0.9873536
      3004.0000         0.8802         0.8712       -14.9996      -1.666266       0.986936
      3004.5000          0.894         0.8725       -15.1284      -1.795066      0.9844105
      3005.0000         0.8941         0.8721        -15.126      -1.792666      0.9844575
      3005.5000         0.8942         0.8712       -15.1236      -1.790266      0.9845046
      3006.0000         0.8036         0.8712       -15.1213      -1.787966      0.9845497
      3006.5000         0.6355         0.8666       -15.1189      -1.785566      0.9845967
      3007.0000         0.3364         0.8528       -15.1165      -1.783166      0.9846438
      3007.5000         0.0329         0.7723       -15.1089      -1.775566      0.9847928
      3008.0000        -999.25         0.6739       -14.8638      -1.530466      0.9895987
      3008.5000        -999.25         0.5755       -14.3809      -3.280782      0.9552788
      3009.0000        -999.25         0.4772       -11.8873      -3.061892      0.9595708
      3009.5000        -999.25         0.3788        -8.4225      -1.871803      0.9829058
      3010.0000         0.0057         0.2804        -4.9578     -0.6818142              1
      3010.5000         0.0691          0.182         -1.493      0.5082746              1
      3011.0000         0.1797         0.0836         1.9717       1.698264              1
      3011.5000         0.2834        -999.25         5.4365       2.888353              1
      3012.0000         0.3305        -999.25         8.9012       4.078341              1
      3012.5000         0.3955         0.0082         12.366        5.26843              1
      3013.0000         0.4606         0.0225        15.8307       6.458419              1
      3013.5000         0.5257         0.0354        19.2955       7.648508              1
      3014.0000         0.5908         0.0452        22.7602       8.838497              1
      3014.5000         0.6409         0.0579        25.3675       9.171085              1
      3015.0000           0.68         0.0705         24.211       6.563288              1
      3015.5000          0.711         0.0988        22.8926       9.444353              1
      3016.0000         0.7192         0.1694        20.5017       11.25292              1
      3016.5000         0.7419           0.24         0.1075      -4.941813      0.9227096
      3017.0000         0.7727         0.3106       -10.5637      -11.41355      0.7958128
      3017.5000         0.7779         0.3812       -14.3052      -10.95558      0.8047926
      3018.0000         0.7975         0.4517       -19.0587      -11.50961      0.7939292
      3018.5000         0.8037         0.5223       -23.8123      -12.06375      0.7830638
      3019.0000         0.8059         0.5929       -26.3222      -10.37418      0.8161925
      3019.5000         0.8192         0.6635       -29.4714      -9.323914       0.836786
      3020.0000         0.8296         0.7341       -33.3006      -8.953646      0.8440462
      3020.5000         0.8348         0.8047       -37.1297      -8.583281      0.8513082
      3021.0000         0.8316         0.8753       -40.9589      -10.66093      0.8105699
      3021.5000         0.8122         0.9253        -44.788      -14.49873       0.735319
      3022.0000         0.8042         0.9501       -48.6172      -18.33664      0.6600659
      3022.5000         0.7735         0.9749       -52.4464      -22.17454      0.5848129
      3023.0000          0.765         0.9997       -56.2755      -26.01234      0.5095619
      3023.5000         0.7261         1.0245       -60.1047      -29.85024      0.4343089
      3024.0000         0.6871         1.0493       -63.9338      -33.68805      0.3590578
      3024.5000         0.6507         1.0807       -66.1457      -35.90865      0.3155166
      3025.0000         0.6346         1.1327       -66.9278      -36.69946      0.3000106
      3025.5000         0.5762         1.1293       -68.8855      -38.66586      0.2614538
      3026.0000         0.4905         1.1085       -73.3389      -43.12796      0.1739616
      3026.5000         0.4048         1.0761       -72.2253      -42.02307      0.1956261
      3027.0000         0.3984         0.9982       -71.1117      -40.91817      0.2172908
      3027.5000         0.3896         0.9203       -69.9981      -39.81327      0.2389555
      3028.0000         0.3897         0.8466       -68.8845      -38.70837      0.2606201
      3028.5000         0.3897         0.8541       -68.1831      -38.01567      0.2742025
      3029.0000         0.3898         0.8821       -67.6741      -37.51538      0.2840121
      3029.5000         0.3899         0.9101       -67.0834      -36.93338      0.2954239
      3030.0000         0.3904         0.9381       -66.4928      -36.35148      0.3068337
      3030.5000         0.4054         0.9558       -66.6282      -36.49558      0.3040082
      3031.0000         0.4055         0.9435       -67.4569      -37.33299      0.2875884
      3031.5000         0.4055         0.9233       -69.0561      -38.94089       0.256061
      3032.0000         0.4056         0.8766       -70.6552      -40.54869      0.2245355
      3032.5000         0.4057         0.8466       -72.2543       -42.1565      0.1930098
      3033.0000         0.4058         0.8559       -73.8534      -43.76431      0.1614842
      3033.5000         0.4058         0.8715       -74.3307      -44.25031      0.1519547
      3034.0000         0.4059         0.8871       -73.1516      -43.07991      0.1749037
      3034.5000          0.406         0.8992       -71.9725      -41.90952      0.1978526
      3035.0000         0.3952         0.8957       -70.2022      -40.14791      0.2323938
      3035.5000         0.3758         0.8822       -68.4866      -38.44102      0.2658624
      3036.0000           0.36          0.862        -69.009      -38.97212      0.2554486
      3036.5000         0.3601         0.8309       -69.6338      -39.60562       0.243027
