#------------------------------------------------------------------------------
# Created by    : vladimir.rabinovich
# Created on    : 09/19/2023 17:21:38
#------------------------------------------------------------------------------
~Version Information Section
VERS.           2.0     :   CWLS log ASCII Standard - VERSION 2.0
WRAP.           NO      :   One line per depth step
~Well Information Section
#MNEM       .UNIT                                         VALUE :DESCRIPTION
#------------------------------------------------------------------------------
STRT        .FT                                            1242 :START DEPTH
STOP        .FT                                            7802 :STOP DEPTH
STEP        .FT                                             0.5 :STEP      
NULL        .                                           -999.25 :NULL      
COMP        .                                    CITIES SERVICE :COMPANY   
WELL        .                               OCS G03070 ST00BP00 :WELL      
FLD         .                                           WILDCAT :FIELD     
LOC         .                                                   :LOCATION  
CNTY        .                               MUSTANG ISLAND EAST :LOCATION  
STAT        .                                             TEXAS :STATE     
CTRY        .                                     UNITED STATES :COUNTRY   
SRVC        .                                                   :SERVICE COMPANY
DATE        .                             9/13/2023 11:20:08 AM :LOG DATE  
API         .                                    42712400230000 :API NUMBER
UWI         .                                    42712400230000 :UNIQUE WELL ID
XCOORD      .                                  541821.370048326 :SURFACE X 
YCOORD      .                                   9995115.4612029 :SURFACE Y 
LAT         .                                         27.502648 :LATITUDE  
LON         .                                       -96.3890109 :LONGITUDE 
ELEV        .FT                                              64 :ELEVATION VALUE
ELEV_TYPE   .                                                KB :ELEVATION REFERENCE TYPE
~Curve Information Section
#MNEM       .UNIT                                      API CODE :CURVE DESCRIPTION
#------------------------------------------------------------------------------
DEPT        .FT                                                 :DEPTH     
CALI        .IN                                                 :          
CILD        .MMHO                                               :          
DRHO        .G/C3                                               :          
DT          .US/F                                               :          
GR          .GAPI                                               :          
GR_1        .GAPI                                               :          
GR_NORM     .GAPI                                               :GammaRay Normalized
ILD         .OHMM                                               :          
NPHI        .%                                                  :          
RHOB        .G/C3                                               :          
SFL         .OHMM                                               :          
SP          .MV                                                 :          
SP_NORM     .MV                                                 :SP Normalized
VSH_GR      .V/V                                                :Volume of Shale from GR
VSH_SP      .V/V                                                :Volume of Shale from SP
~A        DEPTH           CALI           CILD           DRHO             DT             GR           GR_1        GR_NORM            ILD           NPHI           RHOB            SFL             SP        SP_NORM         VSH_GR         VSH_SP
# ...
      3860.0000         12.505       986.1445        -0.0495        117.137        35.2865        29.5034       77.25877         1.0067        51.8281         2.0232         1.2282       -75.6694       -13.0189       0.941676      0.6745275
      3860.5000        12.4104       998.3018        -0.0561       117.6091        33.5845        28.4102       77.25877          1.038        52.9378         2.0003         1.2793       -75.8959      -13.11696       0.941676       0.672076
      3861.0000        12.3219        1010.46        -0.0613       118.3372        32.1771        27.6112       77.25877          1.072        53.9537         1.9812         1.3405       -76.1036      -13.19623       0.941676      0.6700942
      3861.5000        12.2332       1022.617        -0.0638       119.0574        31.6907        27.2657       77.25877         1.1034        53.7252         1.9578         1.4034         -76.39       -13.3542       0.941676       0.666145
      3862.0000        12.1308       1027.424        -0.0644       118.9257        33.1139        27.4043       77.25877           1.13        52.4336         1.9468         1.4477       -76.6877      -13.52346       0.941676      0.6619134
      3862.5000        12.0683       1012.889        -0.0592       117.8589         34.588        27.5429       77.25877         1.1577        51.5013          1.918         1.4512       -76.9762      -13.68353       0.941676      0.6579118
      3863.0000        12.0619       998.3643        -0.0535        116.884        35.8559        28.0355       77.80702         1.1835        50.9583         1.8894         1.4307       -77.2655       -13.8444      0.9533409        0.65389
      3863.5000        12.0725       983.8271        -0.0532       116.1431        36.8421        28.5595       78.35526         1.2032        50.1313         1.8997          1.429       -77.6176      -14.06807      0.9650056      0.6482984
      3864.0000        12.1568       969.3037        -0.0538       115.1571        37.1011        29.0836        78.9035         1.2143         48.591         1.9028         1.4505       -77.9443      -14.26633      0.9766703      0.6433417
      3864.5000        12.2084        941.709        -0.0533       113.9728        37.3096        29.6077       79.45175         1.2204        47.5063         1.8891         1.4737       -78.2028       -14.3964      0.9883351      0.6400901
      3865.0000        12.1213       912.2627        -0.0477       112.8123        37.6234        30.3425       79.67105          1.219        47.5071         1.8986         1.4969       -78.4081      -14.47326      0.9930011      0.6381685
      3865.5000        12.0382        882.792        -0.0448       111.9791        38.3682        31.0944       79.89035         1.2165        48.9965         1.9401         1.5204       -78.6873      -14.62404       0.997667      0.6343991
      3866.0000        12.0179       853.3457        -0.0253       111.6584        39.0981        31.9447       80.10965         1.2032        48.8091         2.0046         1.5439       -78.8352       -14.6435              1      0.6339124
      3866.5000        11.9972       823.8994        -0.0216       111.8716        39.7768        32.9828       80.32895         1.1883        47.9471         2.1358         1.5673       -78.7617      -14.44157              1      0.6389607
      3867.0000        11.9774       783.3926        -0.0203       113.5294          40.42        33.8283       80.54825         1.1583        46.2641         2.1895         1.5816       -78.6947      -14.24614              1      0.6438465
      3867.5000         11.963       777.8291        -0.0268       114.7198        40.9697        34.6152       80.27412         1.1244        45.1225         2.1854         1.5807       -79.0765       -14.4995              1      0.6375124
      3868.0000        11.9586       773.6348         -0.042        115.707        41.3139        35.8897             80         1.0901        44.8958         2.1616         1.5521       -79.9519      -15.24647              1      0.6188383
      3868.5000        11.9593       774.4619        -0.0531       117.6985        41.1619        36.8206       79.72588         1.0576        44.7504           2.14         1.5149       -80.8567      -16.02283      0.9941676      0.5994291
      3869.0000        11.9668       783.8486         -0.049       120.9808        41.1012        37.1823       79.45175         1.0269        45.6829         2.1292         1.4812       -81.5779      -16.61561      0.9883351      0.5846098
      3869.5000        11.9797       793.2422        -0.0357       123.7072        41.9809        36.9302       78.72076         1.0073        47.6565         2.1448         1.4824       -82.1973      -17.10658      0.9727822      0.5723356
      3870.0000        12.0092       802.6348        -0.0247        125.345        42.6364        36.4556       77.98977         0.9928        47.9178         2.1504         1.4889       -82.3027      -17.08353      0.9572291      0.5729116
      3870.5000        12.0628       816.0098        -0.0233       125.0728        42.7017         35.922       77.25877         0.9794         47.978         2.1585         1.4767       -82.3406        -16.993       0.941676      0.5751749
      3871.0000        12.1132       830.3105        -0.0279       123.9436        42.7017        35.4384       76.71053         0.9692        47.8297         2.1598         1.4461       -82.6437      -17.16767      0.9300112      0.5708082
      3871.5000        12.1292       844.6113        -0.0321       121.7709        42.6166        35.3992       76.16228         0.9646        47.3491         2.1456          1.381       -83.0665      -17.46204      0.9183463      0.5634491
      3872.0000        12.1364       858.9121        -0.0274       119.8505        42.0952        35.3534       76.16228         0.9626        47.7861         2.1451         1.3269       -83.4701      -17.73721      0.9183463      0.5565699
      3872.5000        12.1606       873.2119        -0.0256       117.6495         41.099        35.2891       76.16228         0.9668        48.4457         2.1586         1.3191       -83.3751      -17.51377      0.9183463      0.5621557
      3873.0000        12.2074       887.5127        -0.0329       113.2992         40.394        35.2249       75.61403          0.971        48.8543         2.1617         1.2901       -82.9343      -16.94454      0.9066815      0.5763865
      3873.5000        12.2947       902.4717         -0.029       110.7798        40.5611         35.124        75.0658         0.9749        49.3063         2.1741          1.243       -82.1677      -16.04951      0.8950169      0.5987623
      3874.0000        12.3793       918.0898        -0.0274       108.0216        39.9497        34.9156       74.51755         0.9789        50.6326         2.1876         1.2113       -81.0851      -14.83847      0.8833521      0.6290382
      3874.5000         12.384        933.707        -0.0267       105.6395        38.6386        34.4712        73.9693          0.983        51.5225         2.1838         1.2162        -80.788      -14.41294      0.8716872      0.6396765
      3875.0000        12.2901       949.3369        -0.0366       104.0179        37.3479        33.7631       73.42106         0.9871        50.3659         2.1672         1.2524       -80.6729       -14.1694      0.8600225      0.6457649
      3875.5000        12.1765       957.9043        -0.0381        103.162        35.7904        32.9656       72.87281         0.9927        49.5957         2.1621          1.282       -80.4796      -13.84767      0.8483577      0.6538082
      3876.0000           12.1       964.1592        -0.0427       102.8224        34.1736        32.1787       72.87281         0.9984        50.0887         2.1508         1.2939        -80.064      -13.43993      0.8483577      0.6640018
      3876.5000        12.0425       961.3984        -0.0538       102.5576        32.0356        31.3972       72.87281         1.0031        51.5782         2.1063         1.3002        -79.392       -12.8263      0.8483577      0.6793424
