#------------------------------------------------------------------------------
# Created by    : vladimir.rabinovich
# Created on    : 09/19/2023 17:20:40
#------------------------------------------------------------------------------
~Version Information Section
VERS.           2.0     :   CWLS log ASCII Standard - VERSION 2.0
WRAP.           NO      :   One line per depth step
~Well Information Section
#MNEM       .UNIT                                         VALUE :DESCRIPTION
#------------------------------------------------------------------------------
STRT        .FT                                             769 :START DEPTH
STOP        .FT                                           10573 :STOP DEPTH
STEP        .FT                                             0.5 :STEP      
NULL        .                                           -999.25 :NULL      
COMP        .                                        TEXACO INC :COMPANY   
WELL        .                               OCS G01846 ST00BP00 :WELL      
FLD         .                            HIGH ISLAND BLOCK 0129 :FIELD     
LOC         .                                                   :LOCATION  
CNTY        .                                  HIGH ISLAND EAST :LOCATION  
STAT        .                                             TEXAS :STATE     
CTRY        .                                     UNITED STATES :COUNTRY   
SRVC        .                                                   :SERVICE COMPANY
DATE        .                             9/13/2023 11:19:51 AM :LOG DATE  
API         .                                    42710300030000 :API NUMBER
UWI         .                                    42710300030000 :UNIQUE WELL ID
XCOORD      .                                   1386052.0565626 :SURFACE X 
YCOORD      .                                   10637380.600337 :SURFACE Y 
LAT         .                                        29.3087467 :LATITUDE  
LON         .                                       -93.7983562 :LONGITUDE 
ELEV        .FT                                              81 :ELEVATION VALUE
ELEV_TYPE   .                                                KB :ELEVATION REFERENCE TYPE
~Curve Information Section
#MNEM       .UNIT                                      API CODE :CURVE DESCRIPTION
#------------------------------------------------------------------------------
DEPT        .FT                                                 :DEPTH     
ASN         .OHMM                                               :          
CALI        .IN                                                 :          
DRHO        .G/C3                                               :          
GR          .GAPI                                               :          
GR_1        .GAPI                                               :          
GR_NORM     .GAPI                                               :GammaRay Normalized
ILD         .OHMM                                               :          
RHOB        .G/C3                                               :          
SP          .MV                                                 :          
SP_NORM     .MV                                                 :SP Normalized
VSH_GR      .V/V                                                :Volume of Shale from GR
VSH_SP      .V/V                                                :Volume of Shale from SP
~A        DEPTH            ASN           CALI           DRHO             GR           GR_1        GR_NORM            ILD           RHOB             SP        SP_NORM         VSH_GR         VSH_SP
# ...
      1425.0000         0.6373        -999.25        -999.25         48.907        -999.25       46.92234         0.3538        -999.25        -35.351      -8.574841        0.29622      0.1781449
      1425.5000         0.6346        -999.25        -999.25         49.031        -999.25       47.05425         0.3523        -999.25       -35.4569        -8.6772      0.2990266        0.16535
      1426.0000         0.6295        -999.25        -999.25        49.1909        -999.25       47.22436         0.3498        -999.25        -35.616      -8.832762       0.302646      0.1459048
      1426.5000         0.6238        -999.25        -999.25        49.3848        -999.25       47.43064         0.3467        -999.25       -35.8317      -9.044922      0.3070349      0.1193848
      1427.0000         0.6197        -999.25        -999.25        49.6671        -999.25       47.73096         0.3437        -999.25        -36.086      -9.295681      0.3134246     0.08803988
      1427.5000          0.622        -999.25        -999.25        49.9611        -999.25       48.04372         0.3404        -999.25       -36.2523      -9.458445      0.3200792     0.06769443
      1428.0000         0.6225        -999.25        -999.25        50.1804        -999.25       48.27702         0.3371        -999.25       -36.2795      -9.482105      0.3250431     0.06473684
      1428.5000         0.6223        -999.25        -999.25        50.1983        -999.25       48.29606         0.3284        -999.25       -36.2271      -9.426167      0.3254481     0.07172918
      1429.0000         0.6217        -999.25        -999.25        49.8416        -999.25        47.9166         0.3187        -999.25       -36.0953      -9.290827      0.3173744     0.08864665
      1429.5000         0.6208        -999.25        -999.25        48.9009        -999.25       46.91585         0.3137        -999.25       -35.8633      -9.055288       0.296082       0.118089
      1430.0000         0.6195        -999.25        -999.25        47.4897        -999.25       45.41457         0.3154        -999.25       -35.6194       -8.80785      0.2641399      0.1490188
      1430.5000         0.6181        -999.25        -999.25        46.2472        -999.25       44.09277         0.3171        -999.25       -35.4258      -8.610712      0.2360163       0.173661
      1431.0000         0.6175        -999.25        -999.25        45.2241        -999.25       43.00436         0.3255        -999.25       -35.2972      -8.478571      0.2128587      0.1901786
      1431.5000          0.617        -999.25        -999.25        44.1955        -999.25       41.91011         0.3343        -999.25        -35.179      -8.356834      0.1895767      0.2053957
      1432.0000         0.6161        -999.25        -999.25        43.0806        -999.25       40.72404         0.3432        -999.25       -35.0805      -8.254797      0.1643414      0.2181504
      1432.5000         0.6148        -999.25        -999.25        42.1454        -999.25       39.72915         0.3391        -999.25       -35.0425      -8.213255      0.1431734      0.2233431
      1433.0000         0.6135        -999.25        -999.25        42.4671        -999.25       40.07138         0.3332        -999.25       -35.1609      -8.328117      0.1504549      0.2089853
      1433.5000         0.6121        -999.25        -999.25        43.3682        -999.25          41.03         0.3263        -999.25       -35.5107      -8.674377       0.170851      0.1657028
      1434.0000         0.6107        -999.25        -999.25        45.0021        -999.25       42.76819         0.3133        -999.25       -35.9727      -9.132837      0.2078339      0.1083953
      1434.5000         0.6096        -999.25        -999.25        46.5531        -999.25       44.41819         0.3003        -999.25       -36.1345        -9.2911      0.2429403     0.08861256
      1435.0000         0.6085        -999.25        -999.25        47.8479        -999.25       45.79564         0.2968        -999.25       -36.2834      -9.436462      0.2722476      0.0704422
      1435.5000         0.6109        -999.25        -999.25        48.7456        -999.25       46.75064          0.297        -999.25       -36.5179      -9.667421      0.2925668     0.04157233
      1436.0000         0.6168        -999.25        -999.25        49.2644        -999.25       47.30256          0.304        -999.25       -36.5119      -9.657887      0.3043097     0.04276419
      1436.5000         0.6272        -999.25        -999.25        49.3973        -999.25       47.44394         0.3224        -999.25       -36.2355      -9.377945      0.3073178     0.07775688
      1437.0000         0.6414        -999.25        -999.25        49.1463        -999.25       47.17692         0.3409        -999.25       -36.0651      -9.204008      0.3016365     0.09949899
      1437.5000         0.6556        -999.25        -999.25        48.5435        -999.25       46.53564         0.3607        -999.25       -35.9396       -9.07497      0.2879923      0.1156287
      1438.0000         0.6649        -999.25        -999.25        47.5016        -999.25       45.42723         0.3805        -999.25       -35.8725       -9.00433      0.2644092      0.1244588
      1438.5000         0.6741        -999.25        -999.25        46.0078        -999.25       43.83809         0.3923        -999.25       -35.7694      -8.897692      0.2305976      0.1377885
      1439.0000           0.68        -999.25        -999.25         44.433        -999.25       42.16277         0.4014        -999.25        -35.681       -8.80575      0.1949525      0.1492813
      1439.5000         0.6851        -999.25        -999.25        42.6309        -999.25       40.24564         0.4049        -999.25       -35.7174      -8.838612      0.1541626      0.1451735
      1440.0000         0.6867        -999.25        -999.25        41.1263        -999.25         38.645         0.4034        -999.25        -35.967      -9.084673      0.1201064      0.1144159
      1440.5000         0.6878        -999.25        -999.25        40.3781        -999.25       37.84904         0.4014        -999.25       -36.2591      -9.373236      0.1031712     0.07834554
      1441.0000         0.6883        -999.25        -999.25        40.0558        -999.25       37.50617          0.392        -999.25        -36.441      -9.551598       0.095876      0.0560503
      1441.5000         0.6869        -999.25        -999.25        39.9988        -999.25       37.44553          0.383        -999.25       -36.5292      -9.636259     0.09458575     0.04546762
      1442.0000         0.6835        -999.25        -999.25        40.2256        -999.25       37.68681         0.3808        -999.25       -36.4695      -9.573019     0.09971935     0.05337262
      1442.5000         0.6767        -999.25        -999.25         41.087        -999.25        38.6032         0.3723        -999.25       -36.2905       -9.39048      0.1192169     0.07618999
      1443.0000          0.668        -999.25        -999.25        41.8527        -999.25       39.41777         0.3638        -999.25       -36.0687      -9.165138      0.1365482      0.1043577
      1443.5000         0.6568        -999.25        -999.25        42.7968        -999.25       40.42213         0.3522        -999.25       -35.8646      -8.957502      0.1579176      0.1303122
      1444.0000         0.6444        -999.25        -999.25        44.1503        -999.25       41.86202         0.3399        -999.25       -35.6723      -8.761662      0.1885536      0.1547923
      1444.5000         0.6499        -999.25        -999.25        45.0904        -999.25       42.86213         0.3311        -999.25       -35.6212      -8.707024      0.2098325       0.161622
      1445.0000         0.6563        -999.25        -999.25        45.9303        -999.25       43.75564         0.3244        -999.25       -35.5939      -8.676184      0.2288435       0.165477
