#------------------------------------------------------------------------------
# Created by    : vladimir.rabinovich
# Created on    : 09/19/2023 17:20:47
#------------------------------------------------------------------------------
~Version Information Section
VERS.           2.0     :   CWLS log ASCII Standard - VERSION 2.0
WRAP.           NO      :   One line per depth step
~Well Information Section
#MNEM       .UNIT                                         VALUE :DESCRIPTION
#------------------------------------------------------------------------------
STRT        .FT                                            1960 :START DEPTH
STOP        .FT                                           13420 :STOP DEPTH
STEP        .FT                                             0.5 :STEP      
NULL        .                                           -999.25 :NULL      
COMP        .                                 CALIFORNIA CO THE :COMPANY   
WELL        .                                     ST TR 00002-L :WELL      
FLD         .                                           WILDCAT :FIELD     
LOC         .                                                   :LOCATION  
CNTY        .                                       SABINE PASS :LOCATION  
STAT        .                                             TEXAS :STATE     
CTRY        .                                     UNITED STATES :COUNTRY   
SRVC        .                                                   :SERVICE COMPANY
DATE        .                             9/13/2023 11:12:08 AM :LOG DATE  
API         .                                    42715000310000 :API NUMBER
UWI         .                                    42715000310000 :UNIQUE WELL ID
XCOORD      .                                  1372392.72802961 :SURFACE X 
YCOORD      .                                   10750257.969662 :SURFACE Y 
LAT         .                                         29.618979 :LATITUDE  
LON         .                                       -93.8437903 :LONGITUDE 
ELEV        .FT                                              11 :ELEVATION VALUE
ELEV_TYPE   .                                                KB :ELEVATION REFERENCE TYPE
~Curve Information Section
#MNEM       .UNIT                                      API CODE :CURVE DESCRIPTION
#------------------------------------------------------------------------------
DEPT        .FT                                                 :DEPTH     
ASN         .OHMM                                               :          
IL          .OHMM                                               :          
SP          .MV                                                 :          
SP_NORM     .MV                                                 :SP Normalized
VSH_SP      .V/V                                                :Volume of Shale from SP
~A        DEPTH            ASN             IL             SP        SP_NORM         VSH_SP
# ...
      4248.0000         2.3486         0.7247       -129.197      -58.90955      0.1584349
      4248.5000         2.3098          0.738      -130.4319      -60.06812       0.141884
      4249.0000         1.7833         0.7513      -131.4255      -61.00149      0.1285501
      4249.5000         1.7078         0.7656      -132.4197       -61.9354      0.1152085
      4250.0000         1.6701         0.7841      -133.4133      -62.86877      0.1018747
      4250.5000         1.6461         0.8026      -134.4019      -63.79747     0.08860757
      4251.0000         1.6769          0.821      -134.9299      -64.29627     0.08148182
      4251.5000         1.7078         0.8395      -135.4583      -64.79545     0.07435074
      4252.0000         1.7522         0.8523      -135.9863      -65.29425     0.06722499
      4252.5000         1.7965         0.8567      -136.1748      -65.47619     0.06462587
      4253.0000         1.8409         0.8612      -136.1428      -65.45233     0.06496669
      4253.5000         1.8853         0.8656      -136.1108      -65.42845     0.06530783
      4254.0000         1.9236         0.8707      -136.0786       -65.4044     0.06565138
      4254.5000         1.9605         0.8766      -136.0466      -65.38055     0.06599219
      4255.0000         1.9923         0.8825      -135.9189      -65.26736     0.06760919
      4255.5000         2.0065         0.8789      -135.7751      -65.13915     0.06944068
      4256.0000         1.9635         0.8698      -135.6316      -65.01122     0.07126825
      4256.5000         1.8647         0.8607      -135.4878        -64.883     0.07309996
      4257.0000         1.7769         0.8444       -135.344      -64.75479     0.07493155
      4257.5000         1.7222         0.8268      -134.7126      -64.17149     0.08326438
      4258.0000         1.6819         0.8092      -134.0391      -63.54889     0.09215873
      4258.5000         1.6559          0.792       -133.366      -62.92667      0.1010476
      4259.0000         1.6374         0.7801      -132.2783      -61.91749      0.1154644
      4259.5000         1.6604         0.7682      -130.9202      -60.65593      0.1334867
      4260.0000         1.6901         0.7563      -129.5623      -59.39456      0.1515063
      4260.5000         1.7224         0.7445      -128.2334      -58.16026      0.1691392
      4261.0000         1.7551         0.7326      -126.9307      -56.95041      0.1864227
      4261.5000         1.7878         0.7207      -125.6281      -55.74065      0.2037051
      4262.0000         1.7895          0.715      -124.3481      -54.55198       0.220686
      4262.5000         1.7768          0.716      -123.0823      -53.37658      0.2374775
      4263.0000         1.7597         0.7169      -121.8165      -52.20116      0.2542691
      4263.5000         1.7317         0.7178      -119.9641      -50.47826      0.2788819
      4264.0000         1.7038         0.7187      -117.6346      -48.31006      0.3098563
      4264.5000         1.6788         0.7196      -114.9835      -45.84171      0.3451185
      4265.0000          1.655         0.7203      -109.4816       -40.7126      0.4183914
      4265.5000         1.6312         0.7196      -104.2793      -35.86312      0.4876697
      4266.0000         1.6309         0.7189        -99.703      -31.59792      0.5486012
      4266.5000         1.7039         0.7182       -95.1267      -27.33271      0.6095328
      4267.0000         1.8243         0.7174       -89.1422      -21.75317      0.6892405
      4267.5000         1.9662         0.7167       -82.8275      -15.86546      0.7733506
      4268.0000         2.1244          0.716       -75.8174      -9.328698      0.8667329
      4268.5000         2.2523         0.7153       -70.7977      -4.649648      0.9335765
      4269.0000         2.2986         0.7145       -67.6882      -1.753454      0.9749507
      4269.5000         2.2212         0.7147       -64.5808       1.140783              1
      4270.0000         2.1199         0.7156       -62.2383       3.321116              1
      4270.5000         2.0323         0.7165       -59.9654       5.436486              1
      4271.0000         1.9852         0.7174       -58.6061       6.699165              1
      4271.5000         1.9381         0.7183       -57.7283       7.512443              1
      4272.0000         1.8974         0.7193       -58.1154       7.145146              1
      4272.5000         1.8588         0.7202       -58.6336        6.65549              1
      4273.0000         1.8293         0.7211       -59.6666       5.685353              1
      4273.5000          1.805          0.722       -61.2105       4.238378              1
      4274.0000         1.7894         0.7207       -62.7544       2.791402              1
      4274.5000         1.7986         0.7187       -64.2983       1.344422              1
      4275.0000          1.817         0.7167       -66.3474     -0.5740692       0.991799
      4275.5000         1.8389         0.7148       -68.5117      -2.600091      0.9628558
      4276.0000         1.8607         0.7128        -70.674      -4.624241      0.9339394
      4276.5000         1.8826         0.7109       -72.7328       -6.55179       0.906403
      4277.0000         1.9044         0.7089        -74.531      -8.236109      0.8823413
      4277.5000         1.9256          0.707        -76.328      -9.919315      0.8582955
      4278.0000         1.9462          0.705       -77.8391      -11.33568      0.8380617
      4278.5000         1.9516         0.7032       -78.1586      -11.63988       0.833716
      4279.0000         1.9354         0.7099       -78.4777      -11.94371      0.8293756
      4279.5000         1.9183         0.7167       -78.1333      -11.62827      0.8338819
      4280.0000          1.861         0.7235       -77.3516      -10.90469      0.8442187
      4280.5000         1.8038         0.7302        -76.704      -10.30626      0.8527676
      4281.0000         1.7462          0.737       -76.2131       -9.85409      0.8592273
      4281.5000         1.6898         0.7438       -75.7223      -9.402013      0.8656855
      4282.0000         1.6681         0.7505       -75.2166       -8.93603      0.8723424
      4282.5000         1.6525         0.7573       -74.6809      -8.442048      0.8793993
      4283.0000          1.656         0.7641       -74.1453      -7.948159      0.8864549
      4283.5000         1.6594         0.7705       -73.6096       -7.45417      0.8935118
      4284.0000         1.6622         0.7764       -72.9789       -6.87152      0.9018354
      4284.5000         1.6647         0.7823       -72.2113      -6.161102      0.9119843
      4285.0000         1.6673         0.7883       -71.4437      -5.450677      0.9221332
      4285.5000         1.6695         0.7942       -71.5626       -5.56765      0.9204621
      4286.0000         1.6677         0.8001        -72.094      -6.069629       0.913291
      4286.5000         1.6658          0.806       -72.6255        -6.5717      0.9061186
      4287.0000         1.6777          0.812       -73.1569      -7.073671      0.8989475
      4287.5000         1.7291         0.8175       -73.6881      -7.575465      0.8917791
      4288.0000         1.8277         0.8184       -73.5314      -7.435214      0.8937827
      4288.5000         1.9085         0.8193       -72.6133      -6.584318      0.9059383
      4289.0000         1.9708         0.8202       -71.6952      -5.733429      0.9180939
      4289.5000         2.0348         0.8211       -70.7771       -4.88254      0.9302495
      4290.0000         2.1147          0.822         -69.79      -3.967251       0.943325
      4290.5000         2.1881         0.8229       -68.9176      -3.159015      0.9548712
      4291.0000         2.2607          0.822       -68.2762      -2.566375      0.9633375
      4291.5000         2.3458         0.8192       -68.7369      -3.002365      0.9571091
