#------------------------------------------------------------------------------
# Created by    : vladimir.rabinovich
# Created on    : 09/19/2023 17:19:33
#------------------------------------------------------------------------------
~Version Information Section
VERS.           2.0     :   CWLS log ASCII Standard - VERSION 2.0
WRAP.           NO      :   One line per depth step
~Well Information Section
#MNEM       .UNIT                                         VALUE :DESCRIPTION
#------------------------------------------------------------------------------
STRT        .FT                                          3947.5 :START DEPTH
STOP        .FT                                           10890 :STOP DEPTH
STEP        .FT                                             0.5 :STEP      
NULL        .                                           -999.25 :NULL      
COMP        .                          PALM ENERGY OFFSHORE LLC :COMPANY   
WELL        .                               OCS G21349 ST00BP00 :WELL      
FLD         .                            HIGH ISLAND BLOCK 0074 :FIELD     
LOC         .                                                   :LOCATION  
CNTY        .                                  HIGH ISLAND EAST :LOCATION  
STAT        .                                             TEXAS :STATE     
CTRY        .                                     UNITED STATES :COUNTRY   
SRVC        .                                                   :SERVICE COMPANY
DATE        .                             9/13/2023 11:20:11 AM :LOG DATE  
API         .                                    42710401490000 :API NUMBER
UWI         .                                    42710401490000 :UNIQUE WELL ID
XCOORD      .                                  1378068.78051204 :SURFACE X 
YCOORD      .                                  10648064.4011202 :SURFACE Y 
LAT         .                                        29.3379836 :LATITUDE  
LON         .                                       -93.8236467 :LONGITUDE 
ELEV        .FT                                             104 :ELEVATION VALUE
ELEV_TYPE   .                                                KB :ELEVATION REFERENCE TYPE
~Curve Information Section
#MNEM       .UNIT                                      API CODE :CURVE DESCRIPTION
#------------------------------------------------------------------------------
DEPT        .FT                                                 :DEPTH     
AHFCO90     .MMHO                                               :          
AHT10       .OHMM                                               :          
AHT20       .OHMM                                               :          
AHT30       .OHMM                                               :          
AHT60       .OHMM                                               :          
AHT90       .OHMM                                               :          
DCAL        .IN                                                 :          
DPHZ        .V/V                                                :          
DTLF        .US/F                                               :          
DTLN        .US/F                                               :          
GR          .GAPI                                               :          
GR_NORM     .GAPI                                               :GammaRay Normalized
HDRA        .G/CC                                               :          
NPOR        .V/V                                                :          
RWA         .OHMM                                               :          
SP          .MV                                                 :          
SPHI        .V/V                                                :          
TENS        .LB/F                                               :          
VSH_GR      .V/V                                                :Volume of Shale from GR
~A        DEPTH        AHFCO90          AHT10          AHT20          AHT30          AHT60          AHT90           DCAL           DPHZ           DTLF           DTLN             GR        GR_NORM           HDRA           NPOR            RWA             SP           SPHI           TENS         VSH_GR
# ...
      4406.5000       1090.037         0.7246         0.8195         0.8649         0.9237         0.9174         0.2472         0.3169       139.4725       139.8023        88.3252       79.47623         0.0099         0.5476         0.1137      -163.9375         0.3746           2740      0.9888561
      4407.0000       1104.484         0.7218         0.8162         0.8593         0.9143         0.9054         0.2028         0.3188       139.0587       139.5923        89.6277        80.7084         0.0087          0.504         0.1136      -163.5625         0.3743           2725              1
      4407.5000       1088.258         0.7249         0.8229         0.8692         0.9289         0.9189         0.1695         0.3159       136.2914       136.8047         93.292       84.17483          0.002         0.4755         0.1132        -163.25         0.3692           2804              1
      4408.0000       1082.837         0.7351         0.8339         0.8764         0.9387         0.9235         0.1584         0.3095       133.4563       133.2576        92.0457       82.99583        -0.0014         0.5096         0.1092           -164         0.3624           2732              1
      4408.5000       1054.296         0.7473         0.8457         0.8969         0.9626         0.9485         0.1362          0.302       131.9946        132.347        92.5575       83.47999          0.002         0.5151         0.1068       -164.375         0.3605           2776              1
      4409.0000       1048.768         0.7474         0.8485         0.9011         0.9646         0.9535         0.1584         0.2968       132.3861       132.6986        89.6663        80.7449         0.0082         0.4888         0.1037        -163.75         0.3612           2813              1
      4409.5000       1073.653         0.7354         0.8246         0.8751         0.9394         0.9314         0.2472         0.3017       135.7413       135.9395        90.5905        81.6192         0.0084         0.4859         0.1047           -165         0.3675           2716              1
      4410.0000       1094.811         0.7192         0.8086         0.8573         0.9219         0.9134         0.7796         0.3125       139.3839       139.9523        87.7465       78.92878          0.004         0.5461         0.1101      -162.8125         0.3749           2808      0.9772081
      4410.5000       1102.414         0.7078         0.7951         0.8466           0.91         0.9071         0.3137         0.3178       141.0926       141.5162        89.3378       80.43415         0.0003         0.5736         0.1131        -160.75         0.3777           2817              1
      4411.0000        1095.41         0.7076         0.7954         0.8469         0.9125         0.9129         0.1362         0.3179       140.6475       141.0855        92.0833       83.03139         0.0028         0.5878         0.1139      -160.9375         0.3769           2723              1
      4411.5000       1081.783         0.7126         0.8016         0.8517         0.9201         0.9244         0.0475         0.3139       139.3777        139.849        99.2581       89.81876         0.0024         0.5952         0.1124       -160.625         0.3747           2847              1
      4412.0000       1069.976         0.7188         0.8097         0.8605          0.929         0.9346         0.0142         0.3127       137.9249       138.3272        98.3593       88.96849         0.0021         0.5317         0.1128      -161.4375          0.372           2809              1
      4412.5000       1058.649         0.7252         0.8178         0.8678         0.9361         0.9446         0.0253         0.3092       136.8569       137.3741        90.0457       81.10382         0.0006          0.536         0.1115       -163.375         0.3702           2715              1
      4413.0000       1052.742         0.7274         0.8221         0.8698         0.9394         0.9499         0.0142         0.3054       136.3064       136.8101        83.1018        74.5349         0.0009         0.5384         0.1093           -163         0.3692           2787      0.8837212
      4413.5000       1045.041         0.7301         0.8267         0.8752         0.9432         0.9569         0.0031         0.3063       136.0458       136.4794        87.7126       78.89671         0.0031         0.5515         0.1109        -163.25         0.3686           2707      0.9765258
      4414.0000       1037.022         0.7339         0.8315          0.881         0.9522         0.9643         0.0253         0.3093       136.1522       136.6718         95.645       86.40076          0.007         0.6233         0.1139      -162.5625         0.3689           2663              1
      4414.5000       1030.078         0.7398         0.8387         0.8865         0.9595         0.9708         0.0142         0.3147       136.2786       136.7968        95.7488       86.49896         0.0103         0.5759         0.1187      -163.3125         0.3691           2799              1
      4415.0000        1019.16         0.7462         0.8453         0.8947         0.9678         0.9812         0.0253         0.3139       136.3992       136.9584        90.4945       81.52839         0.0112         0.4778         0.1194      -162.3125         0.3694           2733              1
      4415.5000       1012.556         0.7523         0.8496         0.8994         0.9728         0.9876         0.0142         0.3132       137.0419       137.5712        91.7278       82.69509           0.01         0.5245         0.1196        -160.75         0.3706           2806              1
      4416.0000       1005.733         0.7574         0.8551         0.9059         0.9795         0.9943         0.0253         0.3122       136.5446       136.7877        94.5083       85.32544         0.0114            0.5         0.1197       -161.625         0.3691           2858              1
      4416.5000       1001.402         0.7629         0.8571          0.908         0.9807         0.9986         0.0031         0.3122       134.3091       134.8325        95.4319       86.19917         0.0122         0.5056         0.1202         -161.5         0.3654           2770              1
      4417.0000        991.375         0.7734         0.8661         0.9167         0.9906         1.0087         0.0475         0.3123       133.0511       133.4433        87.5221        78.7165         0.0093         0.5033         0.1214        -160.75         0.3627           2815      0.9726915
      4417.5000       980.4883         0.7815         0.8788         0.9286         1.0023         1.0199         0.0697         0.3117       132.4283       132.3233        89.0001       80.11469          0.004         0.4765         0.1223      -161.1875         0.3605           2816              1
      4418.0000       973.0466          0.789         0.8872         0.9378         1.0135         1.0277         0.1141         0.3133       132.0999       132.5301        91.1504       82.14887         0.0022         0.4692         0.1245        -161.25         0.3609           2725              1
      4418.5000       970.3086         0.7949         0.8957         0.9434         1.0202         1.0306         0.0475         0.3089       132.9137       133.5648        96.5937       87.29823          0.007         0.4842         0.1214      -161.5625          0.363           2797              1
      4419.0000       956.4801         0.8095         0.9132         0.9599         1.0386         1.0455         0.0475          0.303       131.9192       132.3986        90.0165        81.0762         0.0097         0.5186         0.1185       -162.375         0.3606           2789              1
      4419.5000       931.6191         0.8292         0.9335          0.985          1.063         1.0734         0.0919         0.2884       130.3501       131.0654          82.37       73.84261         0.0128          0.432         0.1102       -161.875          0.358           2709      0.8689918
