#------------------------------------------------------------------------------
# Created by    : vladimir.rabinovich
# Created on    : 09/19/2023 17:21:48
#------------------------------------------------------------------------------
~Version Information Section
VERS.           2.0     :   CWLS log ASCII Standard - VERSION 2.0
WRAP.           NO      :   One line per depth step
~Well Information Section
#MNEM       .UNIT                                         VALUE :DESCRIPTION
#------------------------------------------------------------------------------
STRT        .FT                                            1142 :START DEPTH
STOP        .FT                                            9163 :STOP DEPTH
STEP        .FT                                             0.5 :STEP      
NULL        .                                           -999.25 :NULL      
COMP        .                                    ORYX ENERGY CO :COMPANY   
WELL        .                               OCS G06199 ST00BP00 :WELL      
FLD         .                            HIGH ISLAND BLOCK 0129 :FIELD     
LOC         .                                                   :LOCATION  
CNTY        .                                  HIGH ISLAND EAST :LOCATION  
STAT        .                                             TEXAS :STATE     
CTRY        .                                     UNITED STATES :COUNTRY   
SRVC        .                                                   :SERVICE COMPANY
DATE        .                             9/13/2023 11:20:11 AM :LOG DATE  
API         .                                    42710400360000 :API NUMBER
UWI         .                                    42710400360000 :UNIQUE WELL ID
XCOORD      .                                  1376484.19293712 :SURFACE X 
YCOORD      .                                  10620179.8267869 :SURFACE Y 
LAT         .                                        29.2612476 :LATITUDE  
LON         .                                        -93.828002 :LONGITUDE 
ELEV        .FT                                              93 :ELEVATION VALUE
ELEV_TYPE   .                                                KB :ELEVATION REFERENCE TYPE
~Curve Information Section
#MNEM       .UNIT                                      API CODE :CURVE DESCRIPTION
#------------------------------------------------------------------------------
DEPT        .FT                                                 :DEPTH     
CALI        .IN                                                 :          
DRHO        .G/C3                                               :          
DT          .US/F                                               :          
GR          .GAPI                                               :          
GR_1        .GAPI                                               :          
GR_NORM     .GAPI                                               :GammaRay Normalized
ILD         .OHMM                                               :          
ILM         .OHMM                                               :          
NPHI        .%                                                  :          
RFOC        .OHMM                                               :          
RHOB        .G/C3                                               :          
SP          .MV                                                 :          
SP_NORM     .MV                                                 :SP Normalized
VSH_GR      .V/V                                                :Volume of Shale from GR
VSH_SP      .V/V                                                :Volume of Shale from SP
~A        DEPTH           CALI           DRHO             DT             GR           GR_1        GR_NORM            ILD            ILM           NPHI           RFOC           RHOB             SP        SP_NORM         VSH_GR         VSH_SP
# ...
      8622.0000         11.771          0.065       100.7375         79.772        82.1947       74.09671         1.0086         1.0079        33.4993         1.0386         2.3582       -56.4122      -3.503521      0.8743981      0.9499497
      8622.5000        11.7743          0.075        102.528        79.4069        87.0903        73.7083         0.9963         1.0044        33.3713         1.0494         2.3702       -56.8638      -3.959908       0.866134      0.9434299
      8623.0000        11.7766         0.0825        103.894        82.0229        90.7399       76.49128         0.9841         1.0047        33.1085         1.0697         2.3759       -56.9536      -4.054497      0.9253464      0.9420786
      8623.5000        11.7721         0.0701       104.7634        85.0963        89.4839       79.76085         0.9827         1.0049         33.001          1.095         2.3676       -56.8764      -3.982082      0.9949117      0.9431131
      8624.0000        11.7676         0.0515       103.7733        88.3025        87.0386        83.1717         0.9865         1.0156        34.8434         1.1189          2.352       -56.7947       -3.90517              1      0.9442118
      8624.5000        11.7602         0.0466       102.6858        89.9695        87.1753       84.94511         0.9903         1.0313        37.3671         1.1234           2.34       -56.3598      -3.475052              1      0.9503564
      8625.0000        11.7508          0.068        102.005        88.0713         87.241       82.92574         1.0001         1.0473        39.4268         1.1231         2.3446       -55.8774       -2.99744              1      0.9571794
      8625.5000        11.7445         0.0997       101.9738        86.6244         87.116       81.38649         1.0132         1.0561        38.5757         1.1164          2.358       -55.4199      -2.544727              1      0.9636468
      8626.0000         11.741          0.112       101.9779        85.5045         86.349       80.19511         1.0265         1.0642        37.2149         1.1209         2.3704       -55.2736      -2.403217              1      0.9656683
      8626.5000        11.7381         0.1131       102.0436        84.4951        86.1102       79.12128         1.0332         1.0613        37.8295          1.137         2.3795       -55.4061      -2.540504      0.9813038      0.9637071
      8627.0000        11.7361         0.1092       102.1091        83.5253        87.1088       78.08958         1.0342         1.0432        38.6511         1.1428          2.384       -55.7483      -2.887489      0.9593527      0.9587501
      8627.5000        11.7264          0.109       102.1769        82.5687         84.938       77.07192         1.0351         1.0255        37.0657          1.132         2.3872        -55.957      -3.100975      0.9377005      0.9557003
      8628.0000        11.7086          0.113       102.2458        81.6591        81.8376       76.10426         1.0226          1.009        34.0426         1.1158         2.3829        -56.247      -3.395763       0.917112      0.9514891
      8628.5000        11.6851         0.1018       102.3046         80.931          82.34       75.32968         1.0041         0.9911        31.9504         1.1088         2.3779       -56.4343      -3.587849      0.9006315       0.948745
      8629.0000        11.6526         0.1009       102.3588        82.1066        84.7238       76.58032         0.9845         0.9683        31.4418         1.1107         2.3744       -56.1918      -3.350136      0.9272409      0.9521409
      8629.5000        11.6098          0.136       102.7141        83.9624        86.9006       78.55458         0.9574          0.946        32.0997         1.1182         2.3711       -55.9018      -3.064922      0.9692464      0.9562154
      8630.0000         11.528         0.1733       103.3085        84.0991        88.4447           78.7         0.9311         0.9238        33.3748         1.0799          2.364       -55.5464      -2.714306      0.9723403      0.9612242
      8630.5000        11.4395         0.1957       104.0334        84.0021        89.6809       78.59681         0.9082         0.9019        33.6157         1.0364         2.3558       -55.2377      -2.410397      0.9701449      0.9655657
      8631.0000        11.3431         0.1854       104.7954        85.0767         90.858          79.74          0.886         0.8835        33.9436         1.0505         2.3494       -54.9964      -2.173882       0.994468      0.9689445
      8631.5000        11.2715         0.1646       105.5685        87.1592        92.0192       81.95543         0.8656          0.885         35.204         1.0649         2.3539       -54.7234       -1.90567              1      0.9727761
      8632.0000        11.2036         0.1373       106.2257        88.8618        93.7047       83.76671         0.8581         0.8864        36.5958         1.0359         2.3653        -54.451      -1.638058              1      0.9765992
      8632.5000        11.1396         0.1213       106.7344        88.8818         95.995       83.78798         0.8506         0.8878        35.4138         1.0166         2.3708       -54.1781      -1.369946              1      0.9804294
      8633.0000        11.0902         0.1117       107.0339        88.6816        98.6028         83.575         0.8637         0.9048        34.1948         1.0059           2.37        -54.321      -1.517628              1      0.9783196
      8633.5000        11.0566         0.1055       106.8696        88.7198        99.9745       83.61565         0.8786         0.9249        34.2451         1.0459         2.3665       -54.5861      -1.787518              1      0.9744641
      8634.0000         11.039         0.1028       106.2332        88.9135        99.0905        83.8217         0.8937         0.9455        35.1198         1.0723         2.3624       -54.8415      -2.047703              1      0.9707471
      8634.5000        11.0373          0.111       105.1444        88.6641        97.0588       83.55639         0.9032         0.9577        35.9767         1.0941         2.3565       -55.0669      -2.277889              1      0.9674587
      8635.0000        11.0373         0.1423       104.4304        88.8531        94.6208       83.75745         0.9126          0.969        36.5167         1.0927         2.3492       -55.2924      -2.508179              1      0.9641688
      8635.5000        11.0402         0.1568       103.8392        89.4187        92.0623       84.35915         0.9221         0.9804        36.1119         1.0942          2.339       -55.4763      -2.696865              1      0.9614733
      8636.0000        11.0432         0.1413       103.3473        88.2324        90.0208       83.09713         0.9281          0.983        35.7874         1.1025         2.3259       -55.5984       -2.82375              1      0.9596607
      8636.5000        11.0432         0.1121       102.9305         87.078        89.1317       81.86905         0.9322         0.9809        36.6431          1.127         2.3142       -55.7208      -2.950935              1      0.9578438
      8637.0000        11.0407         0.0988       102.6602        86.2384        90.1316       80.97585         0.9364         0.9788        37.9714         1.1321         2.3135        -55.742      -2.976925              1      0.9574725
      8637.5000        11.0383         0.0932       102.4037        86.0159        91.2841       80.73915         0.9368          0.972        39.0411         1.1214         2.3236       -55.7106      -2.950314              1      0.9578527
      8638.0000        11.0338         0.0877       102.2655        86.2283        92.3325       80.96511         0.9366          0.965        37.6951         1.1033         2.3348       -55.6793      -2.923798              1      0.9582314
      8638.5000        11.0277         0.0817       102.4138         85.722        92.3097       80.42649         0.9365         0.9581        35.4389         1.0964         2.3408       -55.5913      -2.840588              1      0.9594202
