#------------------------------------------------------------------------------
# Created by    : vladimir.rabinovich
# Created on    : 09/19/2023 17:20:21
#------------------------------------------------------------------------------
~Version Information Section
VERS.           2.0     :   CWLS log ASCII Standard - VERSION 2.0
WRAP.           NO      :   One line per depth step
~Well Information Section
#MNEM       .UNIT                                         VALUE :DESCRIPTION
#------------------------------------------------------------------------------
STRT        .FT                                            1439 :START DEPTH
STOP        .FT                                           13833 :STOP DEPTH
STEP        .FT                                             0.5 :STEP      
NULL        .                                           -999.25 :NULL      
COMP        .                                        EXXON CORP :COMPANY   
WELL        .                               OCS G04992 ST00BP00 :WELL      
FLD         .                                           WILDCAT :FIELD     
LOC         .                                                   :LOCATION  
CNTY        .                               MUSTANG ISLAND EAST :LOCATION  
STAT        .                                             TEXAS :STATE     
CTRY        .                                     UNITED STATES :COUNTRY   
SRVC        .                                                   :SERVICE COMPANY
DATE        .                             9/13/2023 11:20:08 AM :LOG DATE  
API         .                                    42712400640000 :API NUMBER
UWI         .                                    42712400640000 :UNIQUE WELL ID
XCOORD      .                                  530427.861923906 :SURFACE X 
YCOORD      .                                  9963308.63528926 :SURFACE Y 
LAT         .                                        27.4144168 :LATITUDE  
LON         .                                       -96.4214066 :LONGITUDE 
ELEV        .FT                                              73 :ELEVATION VALUE
ELEV_TYPE   .                                                KB :ELEVATION REFERENCE TYPE
~Curve Information Section
#MNEM       .UNIT                                      API CODE :CURVE DESCRIPTION
#------------------------------------------------------------------------------
DEPT        .FT                                                 :DEPTH     
ASFL        .OHMM                                               :          
CILD        .MMHO                                               :          
DT          .US/F                                               :          
GR          .GAPI                                               :          
GR_NORM     .GAPI                                               :GammaRay Normalized
ILD         .OHMM                                               :          
SP          .MV                                                 :          
SP_NORM     .MV                                                 :SP Normalized
VSH_GR      .V/V                                                :Volume of Shale from GR
VSH_SP      .V/V                                                :Volume of Shale from SP
~A        DEPTH           ASFL           CILD             DT             GR        GR_NORM            ILD             SP        SP_NORM         VSH_GR         VSH_SP
# ...
     13811.5000          0.737       1727.156         102.39        66.8955       71.05608          0.641       -26.2159         1.6322      0.8097038              1
     13812.0000         0.7533       1749.412       102.7557        67.4784       71.78471         0.6184       -26.3325         1.5156      0.8252065              1
     13812.5000         0.7714       1767.648       102.8712        68.0599       72.51158         0.5957       -26.4754         1.3727       0.840672              1
     13813.0000         0.7909       1794.123       102.9736        68.1393       72.61082         0.5781       -26.6905         1.1576      0.8427835              1
     13813.5000         0.7982       1840.293       102.9924         68.142        72.6142         0.5634        -26.905         0.9431      0.8428554              1
     13814.0000         0.7907       1867.975       102.9379        67.4923       71.80208          0.551        -27.455      0.3931007      0.8255761              1
     13814.5000         0.7647       1764.986       102.8804        66.7959       70.93158         0.6673       -28.2208     -0.3726997      0.8070549       0.992546
     13815.0000         0.7386       1572.471       102.8815        66.0995       70.06108         0.8202       -28.8806      -1.032499      0.7885336        0.97935
     13815.5000         0.7918       1380.359        102.932        65.4019       69.18908         0.9794       -29.4381          -1.59      0.7699804         0.9682
     13816.0000         0.9117       1186.236       103.0143        64.7345       68.35483         1.0691       -29.8948        -2.0467      0.7522304       0.959066
     13816.5000         1.0608       1035.723       103.0597        64.3605       67.88733          1.158       -30.2802      -2.432098      0.7422836       0.951358
     13817.0000         1.2099       942.6807       103.0928        65.3779       69.15908         1.2237       -30.0424        -2.1943      0.7693421       0.956114
     13817.5000         1.3594       863.1025       103.0677         66.208        70.1967         1.2651       -29.3095      -1.461399      0.7914191       0.970772
     13818.0000         1.5084       804.4238       103.0073        67.0072       71.19571         1.2978       -28.5778     -0.7297001      0.8126746       0.985406
     13818.5000         1.6527       764.5352       102.9829        66.6521       70.75183         1.2898       -27.8852    -0.03709984      0.8032305       0.999258
     13819.0000          1.671       780.8125       103.0525        66.2964       70.30721         1.1321       -27.2809      0.5672016      0.7937703              1
     13819.5000         1.6451       834.3662       102.9559        65.9412        69.8632         0.9902       -26.5744       1.273701      0.7843235              1
     13820.0000         1.3059       902.2891       102.9026        65.5861       69.41933         0.9116         -26.01         1.8381      0.7748793              1
     13820.5000         0.9644       1275.461       102.9261        65.0878       68.79646         0.8333         -25.92       1.928101      0.7616267              1
     13821.0000         0.9109       1374.129       103.0081        64.5516       68.12621         0.7768       -26.1505       1.697601      0.7473661              1
     13821.5000         0.8778       1430.598       103.1021        64.0155       67.45609         0.7413        -26.447         1.4011      0.7331082              1
     13822.0000         0.8689       1471.994       103.1583        63.4806       66.78745         0.7057       -26.7441          1.104       0.718882              1
     13822.5000         0.8698       1504.248       103.1464        62.9444        66.1172         0.6702       -26.9838      0.8642998      0.7046213              1
     13823.0000         0.8755       1532.129       103.1377        63.6572       67.00821         0.6513       -27.0415      0.8066006      0.7235789              1
     13823.5000         0.8811       1555.691       103.1625        64.5403       68.11208         0.6354        -26.975      0.8731003      0.7470654              1
     13824.0000         0.8667        1507.16       103.1863        65.4208       69.21271         0.6536        -26.688       1.160101      0.7704831              1
     13824.5000         0.8488       1450.492       103.2014         66.304        70.3167         0.6936       -26.3461       1.502001      0.7939724              1
     13825.0000         0.8357       1414.119       103.1765         67.187       71.42045         0.7297       -25.9998       1.848301      0.8174564              1
     13825.5000         0.8265       1385.885       103.1366        67.8984       72.30971         0.7657        -25.639       2.209101      0.8363768              1
     13826.0000         0.8526       1365.338       103.0835        68.5255       73.09357         0.7983       -25.4408       2.407301      0.8530548              1
     13826.5000         0.8702        1355.24       103.0179        69.1512        73.8757         0.8011       -25.4631          2.385      0.8696958              1
     13827.0000         0.8796       1347.615       102.9596        69.7756        74.6562         0.8038       -25.4854       2.362701      0.8863022              1
     13827.5000         0.8875       1341.424       102.9347         70.298        75.3092         0.8066       -25.5077       2.340401      0.9001958              1
     13828.0000         0.8867       1336.611       102.9486        70.3774       75.40846         0.8076       -25.4712         2.3769      0.9023077              1
     13828.5000         0.8747       1335.709       102.9954        69.8704        74.7747         0.8047       -25.2687       2.579401      0.8888235              1
     13829.0000         0.8577       1334.592       103.0011        69.0491       73.74809         0.8017        -25.071       2.777102      0.8669806              1
     13829.5000         0.8373       1332.883        102.975        68.1987       72.68508         0.7987       -24.8934         2.9547      0.8443635              1
     13830.0000         0.8225       1332.096       102.9098        67.3459       71.61908         0.7957       -24.8466       3.001501      0.8216826              1
     13830.5000         0.8103       1333.781       102.8906        66.4944        70.5547         0.7928       -24.9081       2.940001      0.7990362              1
     13831.0000         0.8025       1336.965       102.9457        66.5637       70.64133         0.7898       -24.9694         2.8787      0.8008793              1
     13831.5000         0.7947       1341.838       103.0151        67.3977       71.68382         0.7878       -25.0309       2.817202        0.82306              1
     13832.0000          0.787       1345.449       103.0629        67.9387       72.36008         0.7863       -25.0407         2.8074      0.8374484              1
     13832.5000         0.7764       1348.848       103.1156         67.994       72.42921         0.7849       -25.0501          2.798      0.8389193              1
     13833.0000         0.7652       1352.244        103.035        68.1962       72.68195         0.7834       -24.9956       2.852501      0.8442969              1
