#------------------------------------------------------------------------------
# Created by    : vladimir.rabinovich
# Created on    : 09/19/2023 17:20:22
#------------------------------------------------------------------------------
~Version Information Section
VERS.           2.0     :   CWLS log ASCII Standard - VERSION 2.0
WRAP.           NO      :   One line per depth step
~Well Information Section
#MNEM       .UNIT                                         VALUE :DESCRIPTION
#------------------------------------------------------------------------------
STRT        .FT                                             538 :START DEPTH
STOP        .FT                                           11949 :STOP DEPTH
STEP        .FT                                             0.5 :STEP      
NULL        .                                           -999.25 :NULL      
COMP        .                                 CITIES SERVICE CO :COMPANY   
WELL        .                               OCS G03070 ST00BP00 :WELL      
FLD         .                                           WILDCAT :FIELD     
LOC         .                                                   :LOCATION  
CNTY        .                               MUSTANG ISLAND EAST :LOCATION  
STAT        .                                             TEXAS :STATE     
CTRY        .                                     UNITED STATES :COUNTRY   
SRVC        .                                                   :SERVICE COMPANY
DATE        .                             9/13/2023 11:20:11 AM :LOG DATE  
API         .                                    42712400020000 :API NUMBER
UWI         .                                    42712400020000 :UNIQUE WELL ID
XCOORD      .                                  546520.538281646 :SURFACE X 
YCOORD      .                                  9992103.69354039 :SURFACE Y 
LAT         .                                        27.4947268 :LATITUDE  
LON         .                                       -96.3742825 :LONGITUDE 
ELEV        .FT                                              65 :ELEVATION VALUE
ELEV_TYPE   .                                                KB :ELEVATION REFERENCE TYPE
~Curve Information Section
#MNEM       .UNIT                                      API CODE :CURVE DESCRIPTION
#------------------------------------------------------------------------------
DEPT        .FT                                                 :DEPTH     
ASFL        .OHMM                                               :          
CILD        .MMHO                                               :          
DT          .US/F                                               :          
GR          .GAPI                                               :          
GR_NORM     .GAPI                                               :GammaRay Normalized
ILD         .OHMM                                               :          
SFL         .OHMM                                               :          
SP          .MV                                                 :          
SP_NORM     .MV                                                 :SP Normalized
VSH_GR      .V/V                                                :Volume of Shale from GR
VSH_SP      .V/V                                                :Volume of Shale from SP
~A        DEPTH           ASFL           CILD             DT             GR        GR_NORM            ILD            SFL             SP        SP_NORM         VSH_GR         VSH_SP
# ...
      6613.0000         0.6926       1594.754       117.2073        63.5441       81.54465         0.6167         0.6646      -119.4427      -1.314049              1       0.973719
      6613.5000         0.6878       1597.863       116.3053        62.9531       80.77557         0.6116         0.6902      -116.6698       1.458855              1              1
      6614.0000          0.683       1610.736       115.5244        63.7643       81.83226         0.6052         0.7007      -119.1499      -1.021248              1       0.979575
      6614.5000         0.6782       1623.596       115.2046         64.639       82.97164         0.5992          0.675      -119.3949      -1.266243              1      0.9746751
      6615.0000         0.6745       1636.457       115.5803        65.4738       84.05906         0.5979          0.657      -119.1681      -1.039444              1      0.9792111
      6615.5000         0.6726       1646.268       116.6505        66.3013       85.13699         0.5966         0.6558      -119.1699      -1.041245              1      0.9791751
      6616.0000         0.6707       1648.365       117.5531        65.7666        84.4412         0.5916         0.6631      -119.5183      -1.389648              1       0.972207
      6616.5000         0.6688       1650.465       118.3905        64.4781       82.76392         0.5856           0.67      -119.7549      -1.626244              1      0.9674751
      6617.0000         0.6669       1652.563       119.1621        62.9767       80.80942         0.5866          0.635      -119.9149      -1.786247              1      0.9642751
      6617.5000         0.6659        1654.66       119.4551        61.4958       78.88159         0.5892         0.6118      -119.7833      -1.654648      0.9762041       0.966907
      6618.0000         0.6679       1656.762       119.0417        60.8353       78.02202         0.5935         0.6339      -119.6097      -1.481049      0.9579153      0.9703791
      6618.5000         0.6699       1657.738       118.1527        61.1241       78.39851         0.5923          0.656      -120.9792      -2.850548      0.9659256      0.9429891
      6619.0000         0.6745       1650.238       117.2266        61.3231       78.65806         0.5891         0.6739      -121.0186      -2.889946      0.9714481      0.9422011
      6619.5000         0.6795       1642.738       116.4668        61.3095       78.64079         0.5841         0.6753       -120.766      -2.637344      0.9710807      0.9472531
      6620.0000         0.6846       1635.242        116.068        62.3609       80.01025         0.5794         0.6733      -120.3048      -2.176147              1       0.956477
      6620.5000         0.6906       1627.742       116.5896        64.6305       82.96591         0.5752         0.6715      -119.8038      -1.675148              1      0.9664971
      6621.0000         0.6996       1620.248       117.1334        66.8107       85.80516          0.571         0.6707       -119.366      -1.237343              1      0.9752532
      6621.5000         0.7051       1612.746       117.9207        67.7567       87.03736          0.569          0.644      -118.8033     -0.6746445              1      0.9865071
      6622.0000         0.6975       1605.246       118.7257        65.8743       84.58677         0.5683         0.5967      -119.2056      -1.076942              1      0.9784611
      6622.5000           0.69       1597.752       119.1913        63.8829       81.99425         0.5677         0.6039      -120.2158      -2.087143              1      0.9582571
      6623.0000          0.689       1587.207       119.0906        63.0794       80.94847         0.5721         0.6219      -119.7609      -1.632248              1       0.967355
      6623.5000         0.6889       1575.043       118.7764        63.0444       80.90333         0.5777           0.63      -118.3442     -0.2155457              1      0.9956891
      6624.0000         0.6926       1562.893       118.4116         62.843       80.64155         0.5883         0.6228        -115.91       2.218651              1              1
      6624.5000          0.698        1550.73        118.036        62.5421       80.25018         0.5962         0.6336      -115.1865       2.942154              1              1
      6625.0000         0.7036        1538.58       117.6251        62.8025        80.5897         0.6004         0.6546      -117.5747      0.5539551              1              1
      6625.5000         0.7237       1526.416       117.2135        64.2168       82.43167         0.6031         0.6672      -119.0181     -0.8894424              1      0.9822112
      6626.0000         0.7369       1513.121       116.8926        62.9827       80.82521         0.6053         0.6755      -118.9999     -0.8712463              1      0.9825751
      6626.5000         0.7469       1499.488       116.6201        61.3059       78.64233         0.6071         0.6917      -119.1427      -1.014046      0.9711133      0.9797191
      6627.0000         0.7524       1485.855       116.3645        59.6097       76.43417         0.6079         0.7084      -120.2909      -2.162247      0.9241313       0.956755
      6627.5000         0.7578       1472.225       116.3328        58.1942       74.59152         0.6063          0.699      -121.3845      -3.255844       0.884926      0.9348831
      6628.0000         0.7629       1458.592       116.3011        57.0078       73.04717         0.6008         0.6528      -120.5885      -2.459846      0.8520675       0.950803
      6628.5000          0.768       1444.961       116.3656        57.4901       73.67562         0.5943          0.628      -120.1384      -2.009743      0.8654388      0.9598051
      6629.0000          0.773       1431.328       116.9069        59.2758       76.00118         0.5859         0.6322      -120.7336      -2.604942      0.9149188      0.9479011
      6629.5000          0.778       1418.518       117.3712        61.1123       78.39291         0.5766         0.6431      -120.7578      -2.629143      0.9658067      0.9474171
      6630.0000          0.783       1406.154       117.7909        63.1086       80.99271         0.5681         0.6538      -120.2545      -2.125847              1      0.9574831
      6630.5000         0.7854       1393.781       118.2024        64.7805        83.1701         0.5599          0.661      -119.4561      -1.327446              1      0.9734511
      6631.0000         0.7858       1381.418       118.5684        64.9374       83.37485         0.5519         0.6088      -118.6064     -0.4777451              1      0.9904451
      6631.5000         0.7771       1394.291       118.9346        64.5748       82.90315          0.545         0.6203      -119.0326     -0.9039459              1      0.9819211
      6632.0000          0.766       1413.463       119.1733         64.219       82.44031          0.539         0.6328      -117.7828      0.3458557              1              1
      6632.5000         0.7549       1436.047       119.3342        64.0515       82.22266         0.5401         0.6433      -116.9442       1.184456              1              1
      6633.0000         0.7398       1462.563       119.1842        64.6849       83.04785         0.5445         0.6097      -118.9261     -0.7974472              1       0.984051
      6633.5000         0.7229       1489.057       119.1112        65.4799       84.08344          0.553         0.5825      -118.0442      0.0844574              1              1
      6634.0000          0.706       1515.572       119.6761        66.4163       85.30316         0.5616         0.5667      -116.5367       1.591957              1              1
      6634.5000         0.6891        1542.09       120.0341        67.3999       86.58434         0.5719         0.5617      -118.9709      -0.842247              1      0.9831551
      6635.0000         0.6734       1568.582       119.7389         65.942       84.68648         0.5827         0.5724      -120.8474      -2.718742              1      0.9456251
