#------------------------------------------------------------------------------
# Created by    : vladimir.rabinovich
# Created on    : 09/19/2023 17:19:33
#------------------------------------------------------------------------------
~Version Information Section
VERS.           2.0     :   CWLS log ASCII Standard - VERSION 2.0
WRAP.           NO      :   One line per depth step
~Well Information Section
#MNEM       .UNIT                                         VALUE :DESCRIPTION
#------------------------------------------------------------------------------
STRT        .FT                                          3947.5 :START DEPTH
STOP        .FT                                           10890 :STOP DEPTH
STEP        .FT                                             0.5 :STEP      
NULL        .                                           -999.25 :NULL      
COMP        .                          PALM ENERGY OFFSHORE LLC :COMPANY   
WELL        .                               OCS G21349 ST00BP00 :WELL      
FLD         .                            HIGH ISLAND BLOCK 0074 :FIELD     
LOC         .                                                   :LOCATION  
CNTY        .                                  HIGH ISLAND EAST :LOCATION  
STAT        .                                             TEXAS :STATE     
CTRY        .                                     UNITED STATES :COUNTRY   
SRVC        .                                                   :SERVICE COMPANY
DATE        .                             9/13/2023 11:20:11 AM :LOG DATE  
API         .                                    42710401490000 :API NUMBER
UWI         .                                    42710401490000 :UNIQUE WELL ID
XCOORD      .                                  1378068.78051204 :SURFACE X 
YCOORD      .                                  10648064.4011202 :SURFACE Y 
LAT         .                                        29.3379836 :LATITUDE  
LON         .                                       -93.8236467 :LONGITUDE 
ELEV        .FT                                             104 :ELEVATION VALUE
ELEV_TYPE   .                                                KB :ELEVATION REFERENCE TYPE
~Curve Information Section
#MNEM       .UNIT                                      API CODE :CURVE DESCRIPTION
#------------------------------------------------------------------------------
DEPT        .FT                                                 :DEPTH     
AHFCO90     .MMHO                                               :          
AHT10       .OHMM                                               :          
AHT20       .OHMM                                               :          
AHT30       .OHMM                                               :          
AHT60       .OHMM                                               :          
AHT90       .OHMM                                               :          
DCAL        .IN                                                 :          
DPHZ        .V/V                                                :          
DTLF        .US/F                                               :          
DTLN        .US/F                                               :          
GR          .GAPI                                               :          
GR_NORM     .GAPI                                               :GammaRay Normalized
HDRA        .G/CC                                               :          
NPOR        .V/V                                                :          
RWA         .OHMM                                               :          
SP          .MV                                                 :          
SPHI        .V/V                                                :          
TENS        .LB/F                                               :          
VSH_GR      .V/V                                                :Volume of Shale from GR
~A        DEPTH        AHFCO90          AHT10          AHT20          AHT30          AHT60          AHT90           DCAL           DPHZ           DTLF           DTLN             GR        GR_NORM           HDRA           NPOR            RWA             SP           SPHI           TENS         VSH_GR
# ...
      6256.0000        958.038         0.8909         0.9678         1.0102         1.0442         1.0438         1.4674         0.2356       115.5229       115.9597        92.1839       83.12656         0.0027         0.4116         0.0716       -157.375         0.3232           3394              1
      6256.5000       959.8771         0.9041         0.9794         1.0168         1.0428         1.0418          1.778         0.2314        115.926       116.3302        90.1374       81.19057         0.0059         0.3263         0.0689       -158.875         0.3241           3467              1
      6257.0000       945.6265         0.9113         0.9925         1.0287         1.0566         1.0575         1.6338          0.231       118.0183       118.1753         89.265       80.36528         0.0087         0.3534         0.0697         -159.5         0.3288           3504              1
      6257.5000        982.801         0.8937         0.9627         0.9931          1.023         1.0175         1.6671         0.2352        119.436        119.928        87.9221        79.0949         0.0083         0.4051         0.0695      -158.3125         0.3332           3357      0.9807426
      6258.0000       1020.617         0.8634         0.9284         0.9589         0.9887         0.9798         1.7115         0.2392       120.0532       120.3103        87.4495       78.64782         0.0031         0.3992         0.0692           -159         0.3341           3455      0.9712302
      6258.5000       1039.393         0.8376         0.9068         0.9416         0.9713         0.9621         1.6671         0.2395       120.4213       120.4566        90.0337       81.09248        -0.0047         0.4009         0.0681      -157.8125         0.3344           3494              1
      6259.0000        1055.52         0.8348         0.8976         0.9302         0.9585         0.9474         1.5118         0.2298       120.1003       120.1943        86.0326       77.30743        -0.0064         0.3887         0.0618      -155.5625         0.3338           3353      0.9427112
      6259.5000       1065.303           0.83         0.8896         0.9206         0.9511         0.9387         1.4896         0.2308       121.1733       121.2025        88.3458       79.49573        -0.0044         0.3687         0.0617      -155.0625         0.3362           3488      0.9892708
      6260.0000       1080.264         0.8117         0.8718         0.9043         0.9373         0.9257         1.6449         0.2378       122.8941       123.2017        89.4424        80.5331        -0.0011         0.3889         0.0646      -155.4375         0.3409           3525              1
      6260.5000       1102.536         0.7956         0.8522         0.8838         0.9148          0.907         1.8113         0.2528       123.8202       124.0622        95.0426       85.83089        -0.0033         0.3787         0.0716      -154.5625         0.3429           3394              1
      6261.0000       1097.333         0.7896         0.8532         0.8852         0.9155         0.9113          1.534         0.2571       123.5672        124.041        95.0426       85.83089        -0.0065         0.3866         0.0744        -154.75         0.3428           3467              1
      6261.5000       1091.346         0.7941         0.8547         0.8858         0.9186         0.9163         1.4674         0.2531       122.4457       123.0199        90.5396       81.57104        -0.0079         0.3929         0.0725        -154.25         0.3405           3414              1
      6262.0000       1093.255          0.795         0.8535         0.8809         0.9117         0.9147         1.4896         0.2465       122.9924       123.4094        94.3626       85.18761        -0.0078         0.3965         0.0686      -154.9375         0.3414           3355              1
      6262.5000       1103.144         0.7842         0.8422         0.8697         0.8998         0.9065         1.5561         0.2464       123.4972       124.0841        94.1047       84.94363        -0.0075         0.3912         0.0679      -154.1875         0.3429           3461              1
      6263.0000       1111.482         0.7768         0.8341         0.8585         0.8881         0.8997          1.534         0.2456       124.7451       125.2719       100.5346       91.02632        -0.0046         0.4249          0.067      -154.5625         0.3456           3407              1
      6263.5000       1117.568         0.7686         0.8289         0.8529         0.8824         0.8948         1.5561         0.2435       124.6703       125.2599        95.4762       86.24107        -0.0006         0.4174         0.0655           -155         0.3456           3437              1
      6264.0000       1122.965         0.7724         0.8287         0.8463         0.8756         0.8905         1.5783         0.2429       125.2438       125.7025        94.3569       85.18223          0.002         0.4723         0.0648        -154.75         0.3466           3527              1
      6264.5000       1125.366         0.7729         0.8227         0.8459         0.8756         0.8886         1.5561         0.2482       124.6676       125.1387        95.7375       86.48827          0.002         0.4336         0.0676      -155.5625         0.3453           3469              1
      6265.0000       1138.174          0.774         0.8223         0.8392         0.8691         0.8786          1.534         0.2553       125.2206       125.8827       103.9105       94.21992        -0.0007         0.4434         0.0707      -153.5625          0.347           3444              1
      6265.5000       1136.622         0.7784         0.8251         0.8426         0.8714         0.8798         1.6449         0.2552       125.4266       125.8655       104.9277        95.1822        -0.0007         0.4324         0.0707       -154.375         0.3469           3555              1
      6266.0000       1133.658         0.7842         0.8327         0.8472         0.8753         0.8821         1.6005         0.2534       125.2919       125.9749        101.389       91.83459        -0.0011         0.4082         0.0699      -154.3125         0.3472           3462              1
      6266.5000       1126.888         0.7937         0.8408         0.8545          0.879         0.8874         1.5783         0.2528       124.8579       125.4293        94.6572       85.46631        -0.0003         0.4133           0.07        -154.75          0.346           3495              1
      6267.0000       1122.713          0.806         0.8494         0.8578         0.8829         0.8907         1.6005         0.2517       122.3373       123.0176        91.2652       82.25748         0.0004         0.3863         0.0696       -154.375         0.3405           3559              1
      6267.5000       1105.705         0.8227         0.8637         0.8721         0.8961         0.9044         1.4896         0.2497       120.1963       120.6154        92.0218       82.97321        -0.0005         0.4122         0.0696      -153.1875         0.3348           3462              1
      6268.0000       1068.262         0.8609         0.8993         0.9042         0.9254         0.9361         1.4674          0.247       117.7532       118.3387        88.8878       80.00845         -0.003           0.35         0.0705           -154         0.3292           3533              1
      6268.5000       1023.123          0.904          0.941         0.9439         0.9617         0.9774          1.423         0.2432       115.6915       115.8294        91.6104       82.58402        -0.0062         0.3468         0.0714       -152.875         0.3228           3487              1
      6269.0000       1002.607         0.9367         0.9652         0.9635         0.9828         0.9974         1.5229         0.2391       116.8246       116.9819        92.8059       83.71497         -0.008         0.3506         0.0704      -152.1875         0.3258           3363              1
