#------------------------------------------------------------------------------
# Created by    : vladimir.rabinovich
# Created on    : 09/19/2023 17:20:21
#------------------------------------------------------------------------------
~Version Information Section
VERS.           2.0     :   CWLS log ASCII Standard - VERSION 2.0
WRAP.           NO      :   One line per depth step
~Well Information Section
#MNEM       .UNIT                                         VALUE :DESCRIPTION
#------------------------------------------------------------------------------
STRT        .FT                                            1439 :START DEPTH
STOP        .FT                                           13833 :STOP DEPTH
STEP        .FT                                             0.5 :STEP      
NULL        .                                           -999.25 :NULL      
COMP        .                                        EXXON CORP :COMPANY   
WELL        .                               OCS G04992 ST00BP00 :WELL      
FLD         .                                           WILDCAT :FIELD     
LOC         .                                                   :LOCATION  
CNTY        .                               MUSTANG ISLAND EAST :LOCATION  
STAT        .                                             TEXAS :STATE     
CTRY        .                                     UNITED STATES :COUNTRY   
SRVC        .                                                   :SERVICE COMPANY
DATE        .                             9/13/2023 11:20:08 AM :LOG DATE  
API         .                                    42712400640000 :API NUMBER
UWI         .                                    42712400640000 :UNIQUE WELL ID
XCOORD      .                                  530427.861923906 :SURFACE X 
YCOORD      .                                  9963308.63528926 :SURFACE Y 
LAT         .                                        27.4144168 :LATITUDE  
LON         .                                       -96.4214066 :LONGITUDE 
ELEV        .FT                                              73 :ELEVATION VALUE
ELEV_TYPE   .                                                KB :ELEVATION REFERENCE TYPE
~Curve Information Section
#MNEM       .UNIT                                      API CODE :CURVE DESCRIPTION
#------------------------------------------------------------------------------
DEPT        .FT                                                 :DEPTH     
ASFL        .OHMM                                               :          
CILD        .MMHO                                               :          
DT          .US/F                                               :          
GR          .GAPI                                               :          
GR_NORM     .GAPI                                               :GammaRay Normalized
ILD         .OHMM                                               :          
SP          .MV                                                 :          
SP_NORM     .MV                                                 :SP Normalized
VSH_GR      .V/V                                                :Volume of Shale from GR
VSH_SP      .V/V                                                :Volume of Shale from SP
~A        DEPTH           ASFL           CILD             DT             GR        GR_NORM            ILD             SP        SP_NORM         VSH_GR         VSH_SP
# ...
      5555.0000         1.0291       1003.284       107.4479        68.9912       74.99653         0.9963       -63.6972       -2.93771      0.8935432      0.9412458
      5555.5000         1.0209       998.8037       109.2642         70.546       76.94114         1.0018       -63.7838      -3.024307      0.9349179      0.9395139
      5556.0000         1.0146       993.8594       109.8286        70.7123       77.15012         1.0074       -64.0908      -3.331306      0.9393643      0.9333739
      5556.5000         1.0241       987.1338       109.6941        69.0026       75.01411          1.013       -64.3979      -3.638412      0.8939173      0.9272317
      5557.0000         1.0666       966.9785       108.6694         67.668       73.34697         1.0222        -64.498       -3.73851      0.8584462      0.9252298
      5557.5000         1.1019       946.8232       107.2198        66.5072       71.89708          1.037       -64.5765      -3.817009      0.8275974      0.9236598
      5558.0000         1.1306       928.1963       105.8718        65.7399       70.93906         1.0517       -64.6353      -3.875809      0.8072141      0.9224838
      5558.5000         1.1512       915.6396       104.8212        65.5487       70.70117         1.0664       -64.6868      -3.927307      0.8021526      0.9214538
      5559.0000         1.1565        903.084       104.1136        65.3589       70.46503         1.0748       -64.8169      -4.057411      0.7971283      0.9188518
      5559.5000         1.1561       890.5273       103.5747        65.2266       70.30077         1.0829       -65.3854      -4.625908      0.7936333      0.9074818
      5560.0000         1.1556       884.9258       103.0729        65.0944       70.13663          1.091        -66.077      -5.317513       0.790141      0.8936498
      5560.5000          1.154       879.7988       102.3556        64.9623       69.97262         1.0991       -67.1532      -6.393707      0.7866514      0.8721259
      5561.0000         1.1525        874.667       101.7305        64.5488       69.45685         1.1023       -67.1699      -6.410408      0.7756776      0.8717918
      5561.5000         1.1537       867.6377        101.311        63.8194        68.5462         1.1037       -67.1866      -6.427109      0.7563022      0.8714578
      5562.0000         1.1594       860.4521       101.1312        61.5755       65.74245          1.105       -67.2112      -6.451706      0.6966478      0.8709659
      5562.5000         1.1694       853.2158       101.0786         59.069       62.61043         1.1064       -67.3767       -6.61721      0.6300091      0.8676558
      5563.0000         1.1788       845.4736       100.9219        57.9708       61.23879         1.1086       -67.5424      -6.782906      0.6008253      0.8643419
      5563.5000         1.1883       837.7305       100.2388        57.0878       60.13615         1.1123       -67.7468      -6.987312      0.5773648      0.8602538
      5564.0000         1.2011       830.3291        99.3428        58.1284         61.438         1.1161       -68.0367      -7.277206      0.6050639      0.8544559
      5564.5000         1.2106       827.4658       100.0225          61.83       66.06612         1.1198       -67.9092      -7.149712      0.7035345      0.8570058
      5565.0000          1.213       824.5986       102.5043        61.3597       65.47935         1.1235       -67.6545      -6.895012      0.6910501      0.8620998
      5565.5000         1.2161       821.7354       104.1682        60.6049       64.53696         1.1166       -67.4026      -6.643112      0.6709991      0.8671377
      5566.0000         1.2203       818.8682       104.1732        59.3341       62.94957         1.1003       -67.1511      -6.391609      0.6372249      0.8721678
      5566.5000         1.2287       836.8105        101.347        58.2497       61.59518         1.0841       -66.8998      -6.140312       0.608408      0.8771937
      5567.0000         1.2373       893.7949        99.7053        57.6744       60.87717         1.0605       -66.6492      -5.889709      0.5931313      0.8822058
      5567.5000         1.2467       926.7187       100.7993        57.8019       61.03765         1.0368       -66.4578      -5.698311      0.5965458      0.8860338
      5568.0000         1.2402       941.2275       102.6578        58.4298       61.82363         1.0131       -66.2666      -5.507111      0.6132687      0.8898578
      5568.5000         1.2337       959.2422       102.2291        59.3842       63.01775         0.9909       -69.4128      -8.653313      0.6386755      0.8269337
      5569.0000         1.2273       989.2109       100.1353        60.7687       64.74948         0.9688       -70.8838      -10.12431      0.6755209      0.7975139
      5569.5000         1.2037       1017.403        99.3101        61.7062       65.92246         0.9468       -71.9807      -11.22121      0.7004779      0.7755759
      5570.0000         1.1736       1044.193       104.8508        62.2484       66.60133         0.9247       -72.9838      -12.22431       0.714922      0.7555138
      5570.5000         1.1135        1065.75        107.153        62.8988       67.41543         0.9111       -75.4984      -14.73891      0.7322432      0.7052219
      5571.0000         1.0919       1082.611       108.9581         64.082       68.89555         0.8998       -76.4291      -15.66961      0.7637352      0.6866078
      5571.5000          1.074       1088.434       110.3297        66.5048       71.92516         0.8886       -77.1814      -16.42191      0.8281948      0.6715619
      5572.0000         1.0596       1094.254       111.3358        67.5779       73.26764         0.8826       -77.9968      -17.23731      0.8567583      0.6552538
      5572.5000         1.0452       1099.969       111.0266         70.611       77.06013         0.8838       -77.2264      -16.46691      0.9374495      0.6706617
      5573.0000         1.0312       1103.121       110.4381        73.4427       80.60086         0.8851       -74.5535      -13.79401              1      0.7241199
      5573.5000         1.0176       1106.271       109.7821        75.7629       83.50223         0.8863       -72.7637      -12.00421              1      0.7599158
      5574.0000          1.009        1100.52       109.2531        76.8711       84.88858         0.8875       -71.4767      -10.71721              1      0.7856558
      5574.5000         1.0011        1093.49       108.7891        74.4283       81.83618         0.8969       -70.2721      -9.512611              1      0.8097478
      5575.0000         0.9952       1078.932       108.5824        71.8274       78.58618         0.9111       -68.8149      -8.055412      0.9699188      0.8388917
      5575.5000         0.9926        1060.43       108.4463        71.0463       77.61092         0.9253       -68.6522      -7.892708      0.9491684      0.8421459
      5576.0000         0.9973       1043.879       108.3303        70.3214       76.70589         0.9395       -68.6073      -7.847809      0.9299126      0.8430438
      5576.5000          1.012        1036.85        108.204        69.9948       76.29875         0.9541       -68.3553       -7.59581        0.92125      0.8480838
      5577.0000         1.0359       1029.814       108.1031         69.673       75.89761         0.9688       -67.8763      -7.116806       0.912715      0.8576639
      5577.5000         1.0506       1031.969       108.1122        70.2098       76.56973         0.9836        -67.226      -6.466507      0.9270156      0.8706698
      5578.0000         1.0547         1034.6       107.5154        70.6267       77.09196         0.9883        -66.467      -5.707512      0.9381269      0.8858498
      5578.5000         1.0538       1048.949       107.4955        71.0432       77.61369         0.9737       -66.1575       -5.39801      0.9492273      0.8920398
      5579.0000         1.0469        1063.57       108.9346          71.46        78.1358         0.9592       -65.7087      -4.949211      0.9603363      0.9010158
