#------------------------------------------------------------------------------
# Created by    : vladimir.rabinovich
# Created on    : 09/19/2023 17:21:39
#------------------------------------------------------------------------------
~Version Information Section
VERS.           2.0     :   CWLS log ASCII Standard - VERSION 2.0
WRAP.           NO      :   One line per depth step
~Well Information Section
#MNEM       .UNIT                                         VALUE :DESCRIPTION
#------------------------------------------------------------------------------
STRT        .FT                                            3004 :START DEPTH
STOP        .FT                                           10487 :STOP DEPTH
STEP        .FT                                             0.5 :STEP      
NULL        .                                           -999.25 :NULL      
COMP        .                                    TENNECO OIL CO :COMPANY   
WELL        .                               OCS G04082 ST00BP00 :WELL      
FLD         .                            SABINE PASS BLOCK 0017 :FIELD     
LOC         .                                                   :LOCATION  
CNTY        .                                       SABINE PASS :LOCATION  
STAT        .                                             TEXAS :STATE     
CTRY        .                                     UNITED STATES :COUNTRY   
SRVC        .                                                   :SERVICE COMPANY
DATE        .                             9/13/2023 11:20:07 AM :LOG DATE  
API         .                                    42715400130000 :API NUMBER
UWI         .                                    42715400130000 :UNIQUE WELL ID
XCOORD      .                                  1369313.82013612 :SURFACE X 
YCOORD      .                                  10714127.2468036 :SURFACE Y 
LAT         .                                        29.5195329 :LATITUDE  
LON         .                                       -93.8526471 :LONGITUDE 
ELEV        .FT                                             111 :ELEVATION VALUE
ELEV_TYPE   .                                                KB :ELEVATION REFERENCE TYPE
~Curve Information Section
#MNEM       .UNIT                                      API CODE :CURVE DESCRIPTION
#------------------------------------------------------------------------------
DEPT        .FT                                                 :DEPTH     
CALI        .IN                                                 :          
DPHI        .%                                                  :          
DRHO        .G/C3                                               :          
GR          .GAPI                                               :          
GR_NORM     .GAPI                                               :GammaRay Normalized
ILD         .OHMM                                               :          
ILM         .OHMM                                               :          
NPHI        .%                                                  :          
SFL         .OHMM                                               :          
SP          .MV                                                 :          
SP_NORM     .MV                                                 :SP Normalized
VSH_GR      .V/V                                                :Volume of Shale from GR
VSH_SP      .V/V                                                :Volume of Shale from SP
~A        DEPTH           CALI           DPHI           DRHO             GR        GR_NORM            ILD            ILM           NPHI            SFL             SP        SP_NORM         VSH_GR         VSH_SP
# ...
      9464.0000        15.5327        19.0588         0.0294        75.2073       85.39747         0.6003         0.5573        46.4493         0.6049       -51.4136      -5.269845              1      0.9247165
      9464.5000        15.5901        18.3529         0.0368        76.8904       87.18776         0.6003         0.5566        47.0177         0.6049       -51.1628      -4.863132              1      0.9305267
      9465.0000           15.6        17.4706         0.0456        78.3956       88.78879         0.5997         0.5577        46.8117         0.6016       -51.1676      -4.884604              1      0.9302199
      9465.5000         15.604        16.8235         0.0559        78.7921       89.21035         0.5977         0.5589        46.1171         0.5988       -51.9194      -6.157457              1      0.9120364
      9466.0000        15.5963        16.8824         0.0559        77.5676       87.90745         0.5963         0.5603         44.591          0.596       -52.5704      -7.261456              1      0.8962649
      9466.5000        15.4915        17.5294         0.0544        74.0261       84.13964          0.598         0.5683        42.5409         0.5934       -52.7786      -7.623659              1      0.8910906
      9467.0000        15.3672        18.0588         0.0529        70.4309       80.31472         0.6013          0.578        40.8467          0.595       -52.8325      -7.727388              1      0.8896087
      9467.5000        15.1794        18.2941         0.0449        66.7825        76.4332         0.6095          0.593        39.9055         0.6064       -52.9854      -7.996963      0.9241107      0.8857577
      9468.0000        14.7022        18.1176         0.0419        66.7943        76.4455         0.6289         0.6143        38.9146         0.6229       -52.9608      -7.969177      0.9243724      0.8861546
      9468.5000        14.5468        17.6609         0.0353        68.9922       78.78346         0.6578         0.6364        37.1375         0.6433       -52.6036      -7.384222      0.9741162      0.8945111
      9469.0000        14.4452        17.4975         0.0309        71.6039       81.56161         0.6917         0.6632        35.3892         0.6756       -52.2672      -6.834108              1      0.9023699
      9469.5000         14.359        18.2794         0.0199        71.5793       81.53519         0.7281         0.6771        35.0522          0.708       -52.3267      -6.947213              1      0.9007541
      9470.0000        14.3711        19.1176         0.0184        70.8341       80.74219          0.745         0.6678        37.7646          0.737       -52.2669      -6.860469              1      0.9019933
      9470.5000        14.4912        19.7647         0.0199         70.495        80.3812           0.75         0.6552        40.2206         0.7532        -52.003      -6.431805              1      0.9081171
      9471.0000        14.6582        19.4706         0.0235         70.218       80.08627         0.7415         0.6421        42.7389         0.7253       -51.6336      -5.826414              1      0.9167655
      9471.5000        14.7558        18.8235         0.0294        69.7831       79.62336         0.7205         0.6261        44.5629         0.6954       -51.0322      -4.832369      0.9919864      0.9309661
      9472.0000        14.9056         18.647         0.0324        68.9111       78.69547         0.6918         0.6089        46.8118         0.6659       -50.3651      -3.728268       0.972244       0.946739
      9472.5000        15.0594        19.2941         0.0324        67.9642       77.68788         0.6536         0.5961        47.7029         0.6412       -50.1485      -3.378846       0.950806      0.9517308
      9473.0000        15.2179        19.3529         0.0324        67.1205       76.79007         0.6192         0.5872        47.4059         0.6153       -50.4165      -3.841232      0.9317036      0.9451253
      9473.5000        15.2911        18.4706         0.0368        66.6208       76.25823         0.6013         0.5806        46.2772         0.5972       -50.7142      -4.353374      0.9203879      0.9378089
      9474.0000        15.3426        17.8812         0.0404        66.4706        76.0982         0.5983         0.5748        45.0891         0.5979       -50.6718      -4.295771      0.9169829      0.9386318
      9474.5000        15.3921        17.6464         0.0479        66.6144       76.25094         0.6001         0.5707        43.7227         0.6046       -50.6436      -4.261965      0.9202327      0.9391148
      9475.0000        15.5723        17.8989         0.0527        67.7556       77.46474         0.6032         0.5706        41.1765         0.6112       -50.6436      -4.275398      0.9460582      0.9389229
      9475.5000        15.6852        18.3466         0.0605        69.3606       79.17194          0.608         0.5787        38.4706         0.6154       -50.6436      -4.288824      0.9823816      0.9387311
      9476.0000        15.7208        19.5709         0.0625        70.0394       79.89381         0.6247         0.6103        37.2353          0.622       -50.7426      -4.468101      0.9977407        0.93617
      9476.5000        15.7327        21.8814         0.0603        69.8024       79.64144          0.653         0.6514        36.2353         0.6446       -50.8218      -4.614212      0.9923711      0.9340827
      9477.0000        15.7089        23.7645         0.0465        67.9568        77.6778         0.6855            0.7        36.1176         0.6875       -51.1784      -5.225017      0.9505914      0.9253569
      9477.5000        15.4416        23.4009         0.0382        66.4829       76.10957         0.7171         0.7546        35.7087         0.7363       -51.7527      -6.200529      0.9172248       0.911421
      9478.0000         14.516        20.9362         0.0409        66.1764       75.78326         0.7506         0.7838        35.5922         0.7879       -53.1033      -8.476494      0.9102821      0.8789072
      9478.5000        13.8476        18.9272         0.0539        65.9745       75.56823         0.7738          0.779        35.5964         0.8302       -54.2079      -10.34037       0.905707      0.8522804
      9479.0000        13.5382        18.3235         0.0665        66.1237       75.72671         0.7774         0.7439        35.1176         0.8188       -55.1565      -11.94291      0.9090789      0.8293869
      9479.5000        13.5886        18.3088         0.0787        67.7412        77.4472         0.7673         0.7101        34.6168         0.7802       -55.5835      -12.67165      0.9456852      0.8189764
      9480.0000        13.7216        18.0505         0.0911        70.9706       80.88248         0.7539           0.68        35.6179         0.7437       -55.3922      -12.36462              1      0.8233626
      9480.5000        13.8724        18.0028         0.0982        73.0645       83.10979         0.7354         0.6557        37.8812         0.7219       -54.8917       -11.5396              1      0.8351486
      9481.0000        14.0811        18.9706         0.0785        72.7228       82.74605         0.7178         0.6375        39.9647         0.7077       -54.4088      -10.74407              1      0.8465133
      9481.5000        14.2412        19.9647         0.0375        72.2772       82.27176         0.7019         0.6314        40.8469         0.6986        -53.778       -9.70078              1      0.8614174
      9482.0000        14.2812        19.4571         0.0288        73.1089        83.1563         0.6897         0.6366        41.3176         0.6838       -53.0781      -8.541721              1      0.8779754
      9482.5000        14.3061        17.9923         0.0414        74.1985        84.3152         0.6798          0.647        42.2145         0.6698       -52.4758      -7.546175              1      0.8921975
