#------------------------------------------------------------------------------
# Created by    : vladimir.rabinovich
# Created on    : 09/19/2023 17:21:28
#------------------------------------------------------------------------------
~Version Information Section
VERS.           2.0     :   CWLS log ASCII Standard - VERSION 2.0
WRAP.           NO      :   One line per depth step
~Well Information Section
#MNEM       .UNIT                                         VALUE :DESCRIPTION
#------------------------------------------------------------------------------
STRT        .FT                                             999 :START DEPTH
STOP        .FT                                           14605 :STOP DEPTH
STEP        .FT                                             0.5 :STEP      
NULL        .                                           -999.25 :NULL      
COMP        .                                      GETTY OIL CO :COMPANY   
WELL        .                               OCS G03116 ST00BP00 :WELL      
FLD         .                                           WILDCAT :FIELD     
LOC         .                                                   :LOCATION  
CNTY        .                                  HIGH ISLAND EAST :LOCATION  
STAT        .                                             TEXAS :STATE     
CTRY        .                                     UNITED STATES :COUNTRY   
SRVC        .                                                   :SERVICE COMPANY
DATE        .                             9/13/2023 11:19:51 AM :LOG DATE  
API         .                                    42710400090000 :API NUMBER
UWI         .                                    42710400090000 :UNIQUE WELL ID
XCOORD      .                                  1371379.55461592 :SURFACE X 
YCOORD      .                                  10664640.0845049 :SURFACE Y 
LAT         .                                        29.3834483 :LATITUDE  
LON         .                                       -93.8450221 :LONGITUDE 
ELEV        .FT                                              80 :ELEVATION VALUE
ELEV_TYPE   .                                                KB :ELEVATION REFERENCE TYPE
~Curve Information Section
#MNEM       .UNIT                                      API CODE :CURVE DESCRIPTION
#------------------------------------------------------------------------------
DEPT        .FT                                                 :DEPTH     
CALI        .IN                                                 :          
DRHO        .G/C3                                               :          
GR          .GAPI                                               :          
GR_NORM     .GAPI                                               :GammaRay Normalized
NPHI        .%                                                  :          
RHOB        .G/C3                                               :          
VSH_GR      .V/V                                                :Volume of Shale from GR
~A        DEPTH           CALI           DRHO             GR        GR_NORM           NPHI           RHOB         VSH_GR
# ...
      8235.0000        11.9373        -0.0314        44.1383       55.31612         35.361          2.162      0.4748111
      8235.5000        11.9302        -0.0265        44.4493       55.78386        36.3755         2.1677       0.484763
      8236.0000        11.9214        -0.0265        44.4079        55.7216        36.7986         2.1703      0.4834382
      8236.5000        11.9062        -0.0377        43.6556       54.59014        37.0461         2.1687      0.4593646
      8237.0000        11.8855        -0.0468        40.8654       50.39367        36.5632         2.1615      0.3700781
      8237.5000        11.8397        -0.0544        38.7394       47.19617         36.356         2.1661      0.3020461
      8238.0000        11.7171        -0.0573        36.8949       44.42204        36.0791         2.1636      0.2430222
      8238.5000        11.5803        -0.0559        35.1788       41.84103        35.2523         2.1492      0.1881069
      8239.0000        11.6297         -0.057        33.7145       39.63872        33.9562          2.143      0.1412494
      8239.5000        11.7129        -0.0642        32.8651       38.36122        32.6572         2.1603      0.1140685
      8240.0000        11.7447        -0.0715        32.7366       38.16796        31.4855         2.1573      0.1099565
      8240.5000        11.7476         -0.079        31.8836       36.88505        31.2046         2.1563     0.08266059
      8241.0000          11.75        -0.0864        31.4164       36.18238          31.37         2.1608     0.06771015
      8241.5000        11.7375        -0.0885        31.7775       36.72547        31.8102         2.1688     0.07926535
      8242.0000         11.719        -0.0794        32.9911       38.55073         32.064         2.1806      0.1181006
      8242.5000        11.6604        -0.0773        34.5739       40.93126        31.7693         2.1692      0.1687501
      8243.0000         11.576        -0.0792        36.0455       43.14455        31.4201         2.1735      0.2158415
      8243.5000        11.5063        -0.0809        36.7344       44.18066         31.405         2.1836      0.2378863
      8244.0000        11.4423        -0.0813        36.7776       44.24562        31.6046         2.1827      0.2392685
      8244.5000        11.4064         -0.078        36.0764       43.19102        31.5456         2.1747      0.2168302
      8245.0000        11.4124        -0.0725        35.7285       42.66778        31.5412         2.1863      0.2056974
      8245.5000        11.4346        -0.0668        36.2097        43.3915        31.4177         2.1944      0.2210958
      8246.0000        11.4464        -0.0662        36.6004       43.97911        31.0117         2.1755      0.2335981
      8246.5000        11.4526        -0.0696        35.8183       42.80283        30.5097         2.1575      0.2085709
      8247.0000        11.4518        -0.0653         35.022        41.6052        29.9786         2.1581      0.1830894
      8247.5000        11.4499         -0.059        34.5096       40.83455        29.2609         2.1521      0.1666926
      8248.0000         11.444         -0.056          35.28       41.99323        29.5883         2.1498      0.1913453
      8248.5000        11.4349        -0.0612        35.8967       42.92075        30.0196         2.1391      0.2110798
      8249.0000        11.4005        -0.0634        36.4727       43.78705        30.5208         2.1349      0.2295118
      8249.5000        11.4059        -0.0606        37.0856       44.70885        30.9529          2.126      0.2491246
      8250.0000        11.4468        -0.0521        37.8073       45.79429        31.5026         2.1345       0.272219
      8250.5000        11.4833          -0.05        38.4011       46.68737        32.0441          2.127      0.2912206
      8251.0000        11.4511        -0.0382         38.985       47.56556        32.5067          2.136      0.3099054
      8251.5000        11.3789        -0.0292        39.5764       48.45502        32.8065         2.1554      0.3288302
      8252.0000         11.335        -0.0218        41.1469       50.81705        32.4039         2.1726      0.3790863
      8252.5000         11.423        -0.0189        44.3568       55.64474        31.6471         2.1939      0.4818029
      8253.0000         11.607        -0.0223        47.4828       60.34624         31.081         2.2075      0.5818349
      8253.5000        11.8218        -0.0258        49.8854       63.95976        30.8341         2.2051      0.6587183
      8254.0000         11.682        -0.0152        52.3077        67.6029        31.0281         2.2043      0.7362319
      8254.5000        11.7164        -0.0079        54.2509       70.52547        34.2452         2.2169      0.7984142
      8255.0000        12.5038        -0.0212        55.5362       72.45856        37.6954         2.2183      0.8395439
      8255.5000        12.9433        -0.0444          55.98       73.12603        41.1457         2.2139      0.8537453
      8256.0000        12.4653        -0.0657        55.2966       72.09819         42.412         2.2188      0.8318764
      8256.5000        11.9967        -0.0555        54.3596       70.68896        43.6939         2.2273      0.8018927
      8257.0000        11.7179        -0.0644        53.4769       69.36137        43.5662         2.2225      0.7736461
      8257.5000        11.6519        -0.0704        52.3126       67.61026        43.0601         2.2164      0.7363885
      8258.0000        11.7083        -0.0685          50.92       65.51579        41.1874         2.2382      0.6918252
      8258.5000        11.3947        -0.0606        49.0656       62.72678        36.8314         2.2352      0.6324847
      8259.0000         11.344        -0.0533        47.2063       59.93038         33.119         2.2065      0.5729868
      8259.5000        11.4194        -0.0568        45.6309       57.56099        32.1179         2.1783      0.5225742
      8260.0000        11.4417        -0.0625        44.4229       55.74416        31.4365         2.1509      0.4839182
      8260.5000        11.4195        -0.0682         44.584       55.98644         31.843         2.1579      0.4890732
      8261.0000        11.4045        -0.0642        45.4371       57.26951        32.5171         2.1925      0.5163726
      8261.5000        11.3939        -0.0605        46.2173       58.44293        33.0038         2.2064      0.5413389
      8262.0000        11.3761        -0.0627        46.3063       58.57679        33.2083          2.216       0.544187
      8262.5000         11.399        -0.0677        45.3964        57.2083        33.2554         2.2095      0.5150703
      8263.0000        11.4411        -0.0606        44.0679       55.21024        33.3169         2.2169      0.4725582
      8263.5000        11.5596        -0.0557        42.6309       53.04899          33.44         2.2169      0.4265742
      8264.0000        11.4608         -0.051        41.7142       51.67027        33.5373         2.1977      0.3972397
      8264.5000        11.4944        -0.0487        41.5401       51.40842         33.549         2.1772      0.3916685
      8265.0000        11.7328        -0.0481        41.3787       51.16568        33.3901         2.1605      0.3865038
      8265.5000        11.7466        -0.0564         41.516       51.37217        32.7242         2.1444      0.3908973
      8266.0000        11.7489        -0.0665        41.7555       51.73239        31.6992         2.1354      0.3985614
      8266.5000        11.7368         -0.076        42.0617       52.19291        31.3594         2.1294      0.4083598
      8267.0000           11.7         -0.081        42.8593        53.3925        31.5465         2.1373      0.4338829
      8267.5000        11.6557        -0.0735        44.1272       55.29942        32.4754         2.1519      0.4744558
      8268.0000        11.6183        -0.0701        45.9322       58.01414        33.5302         2.1609      0.5322158
