#------------------------------------------------------------------------------
# Created by    : vladimir.rabinovich
# Created on    : 09/19/2023 17:20:21
#------------------------------------------------------------------------------
~Version Information Section
VERS.           2.0     :   CWLS log ASCII Standard - VERSION 2.0
WRAP.           NO      :   One line per depth step
~Well Information Section
#MNEM       .UNIT                                         VALUE :DESCRIPTION
#------------------------------------------------------------------------------
STRT        .FT                                            1439 :START DEPTH
STOP        .FT                                           13833 :STOP DEPTH
STEP        .FT                                             0.5 :STEP      
NULL        .                                           -999.25 :NULL      
COMP        .                                        EXXON CORP :COMPANY   
WELL        .                               OCS G04992 ST00BP00 :WELL      
FLD         .                                           WILDCAT :FIELD     
LOC         .                                                   :LOCATION  
CNTY        .                               MUSTANG ISLAND EAST :LOCATION  
STAT        .                                             TEXAS :STATE     
CTRY        .                                     UNITED STATES :COUNTRY   
SRVC        .                                                   :SERVICE COMPANY
DATE        .                             9/13/2023 11:20:08 AM :LOG DATE  
API         .                                    42712400640000 :API NUMBER
UWI         .                                    42712400640000 :UNIQUE WELL ID
XCOORD      .                                  530427.861923906 :SURFACE X 
YCOORD      .                                  9963308.63528926 :SURFACE Y 
LAT         .                                        27.4144168 :LATITUDE  
LON         .                                       -96.4214066 :LONGITUDE 
ELEV        .FT                                              73 :ELEVATION VALUE
ELEV_TYPE   .                                                KB :ELEVATION REFERENCE TYPE
~Curve Information Section
#MNEM       .UNIT                                      API CODE :CURVE DESCRIPTION
#------------------------------------------------------------------------------
DEPT        .FT                                                 :DEPTH     
ASFL        .OHMM                                               :          
CILD        .MMHO                                               :          
DT          .US/F                                               :          
GR          .GAPI                                               :          
GR_NORM     .GAPI                                               :GammaRay Normalized
ILD         .OHMM                                               :          
SP          .MV                                                 :          
SP_NORM     .MV                                                 :SP Normalized
VSH_GR      .V/V                                                :Volume of Shale from GR
VSH_SP      .V/V                                                :Volume of Shale from SP
~A        DEPTH           ASFL           CILD             DT             GR        GR_NORM            ILD             SP        SP_NORM         VSH_GR         VSH_SP
# ...
      7221.0000         0.7247       1676.693       120.4454        68.7367       78.37665         0.5857        -53.968      -1.358639      0.9654606      0.9728272
      7221.5000         0.7275       1672.223       120.3983        68.1163       77.60225         0.5859       -54.5236      -1.917427       0.948984      0.9616514
      7222.0000         0.7255       1678.539       120.3638         66.855       76.02673         0.5863       -55.1566      -2.553608      0.9154624      0.9489278
      7222.5000         0.7219       1684.855       120.0846        65.6906       74.57234         0.5866       -55.6087      -3.008892      0.8845179      0.9398221
      7223.0000         0.7184        1691.17       119.9244        65.0579       73.78258          0.587       -56.0526      -3.455978      0.8677144      0.9308804
      7223.5000         0.7148       1697.637       120.1346        65.3075        74.0957         0.5874       -56.2078      -3.614365      0.8743765      0.9277127
      7224.0000         0.7106       1709.654       120.4048         65.557       74.40868         0.5876        -56.311      -3.720745      0.8810357      0.9255851
      7224.5000         0.7059       1721.672       120.7286        65.8065       74.72166         0.5867       -56.3476      -3.760529       0.887695      0.9247894
      7225.0000         0.7013       1733.689       121.0374        65.9257       74.87177         0.5858       -56.3423      -3.758415      0.8908886      0.9248317
      7225.5000         0.6973        1754.07       121.3739        65.9407       74.89162         0.5848       -55.4017      -2.820999      0.8913112        0.94358
      7226.0000          0.694       1766.713       121.7068        66.0536       75.03386         0.5839        -54.689      -2.111485      0.8943374      0.9577703
      7226.5000         0.6925       1765.311        121.849        66.3496       75.40498          0.583       -54.9479      -2.373566      0.9022335      0.9525287
      7227.0000         0.6917       1761.438       121.7776        66.6455       75.77596         0.5821       -55.2068      -2.635651      0.9101267       0.947287
      7227.5000         0.6913       1734.441       121.3329        67.6279       77.00507         0.5834       -55.5493      -2.981339      0.9362782      0.9403732
      7228.0000         0.6912       1690.576       120.6536        68.7673       78.43044         0.5873       -55.9214      -3.356621       0.966605      0.9328676
      7228.5000         0.6946       1656.174       119.6226        67.4866       76.83067         0.5913       -56.2522      -3.690605      0.9325674      0.9261879
      7229.0000         0.7071       1636.145       118.5358        65.8456       74.78052         0.5952       -55.4067      -2.848289      0.8889472      0.9430342
      7229.5000         0.7348       1618.268        117.634        65.4926       74.34038         0.5991       -55.0754      -2.520176      0.8795825      0.9495965
      7230.0000         0.7546       1600.617       116.3348        65.5995       74.47513          0.603       -54.9404      -2.388359      0.8824495      0.9522328
      7230.5000         0.7635       1579.236       114.3488        65.7148       74.62035         0.6069        -54.832      -2.283146      0.8855394      0.9543371
      7231.0000         0.7663       1557.127       113.7307        65.8304       74.76596         0.6123       -55.0158      -2.470127      0.8886375      0.9505975
      7231.5000         0.7572       1533.693       114.5338        65.3846       74.20982         0.6179       -55.2772      -2.734711      0.8768048      0.9453058
      7232.0000         0.7483        1535.57       116.0914        65.7268       74.63868         0.6235        -55.715      -3.175697      0.8859293      0.9364861
      7232.5000         0.7442       1548.965        117.516        66.6185       75.75441         0.6291       -56.1584      -3.622284      0.9096683      0.9275543
      7233.0000         0.7439       1561.936       118.1818        67.4553       76.80153         0.6347       -56.6249      -4.091965      0.9319474      0.9181607
      7233.5000         0.7442       1564.447       118.3888        67.9531       77.42489         0.6376       -57.0192      -4.489449      0.9452104       0.910211
      7234.0000         0.7467       1564.021       118.3354        68.1846       77.71538         0.6367       -57.3307      -4.804134       0.951391      0.9039173
      7234.5000         0.7503       1563.594       117.8899        68.3965       77.98135         0.6358       -57.3972      -4.873821      0.9570501      0.9025236
      7235.0000         0.7539       1563.588       116.9894        68.5897       78.22396         0.6349       -57.4369      -4.916706      0.9622119      0.9016659
      7235.5000         0.7578       1563.695       115.7622        69.5941       79.48058          0.634       -57.3909      -4.873886      0.9889486      0.9025223
      7236.0000         0.7617       1563.805       114.7245        70.6736       80.83106         0.6331       -57.2484      -4.734573              1      0.9053085
      7236.5000         0.7519       1577.508       114.4674        71.2479       81.55005         0.6321       -56.6662      -4.155556              1      0.9168889
      7237.0000          0.742       1594.758        115.017        71.4219       81.76865         0.6279       -56.0364      -3.528942              1      0.9294212
      7237.5000         0.7328        1612.01       116.9646        71.3164       81.63789         0.6215       -55.6747      -3.170425              1      0.9365915
      7238.0000         0.7251       1639.449       118.2004        70.1095       80.13038          0.615       -55.4818      -2.980709              1      0.9403858
      7238.5000         0.7175       1675.002       119.0712        68.5298       78.15686         0.6086       -55.3649      -2.866993      0.9607843      0.9426602
      7239.0000           0.71       1690.074       119.5865        67.5817       76.97285         0.6022       -55.2552      -2.760479      0.9355925      0.9447904
      7239.5000         0.7027       1696.584       119.1028        66.7161       75.89196         0.5957       -55.1368      -2.645264      0.9125949      0.9470947
      7240.0000         0.7112       1688.248       119.0553        65.8506       74.81119         0.5896       -54.9289      -2.440548      0.8895997       0.951189
      7240.5000         0.7228       1679.896       119.6207        64.9313       73.66318         0.5945       -54.7209      -2.235733       0.865174      0.9552853
      7241.0000         0.7494       1659.881       120.0729        63.7293       72.16179         0.5994       -54.4305      -1.948517      0.8332295      0.9610296
      7241.5000          0.766        1626.18       120.2887        64.8175       73.52314         0.6043       -54.0296        -1.5508      0.8621945       0.968984
      7242.0000          0.776        1592.68       119.5021        67.2865        76.6105         0.6092       -53.9352      -1.459583      0.9278831      0.9708083
      7242.5000         0.7852       1561.484       118.3582        68.8737       78.59562         0.6146       -54.4123      -1.939869      0.9701195      0.9612026
      7243.0000         0.7928       1530.287       116.9174        67.6367       77.05048          0.621       -54.8707      -2.401455      0.9372442      0.9519709
      7243.5000         0.7886       1514.803       115.9722        65.3928       74.24671         0.6273        -55.271      -2.804939      0.8775896      0.9439012
      7244.0000         0.7833       1504.912       115.2875         64.703       73.38557         0.6336       -55.6712      -3.208324      0.8592675      0.9358335
      7244.5000          0.775       1500.264       115.1018        65.3953       74.25206         0.6395       -55.9382      -3.478508      0.8777034      0.9304298
      7245.0000         0.7666       1501.043        115.129         66.865       76.09029         0.6428       -56.1931      -3.736591      0.9168146      0.9252682
