#------------------------------------------------------------------------------
# Created by    : vladimir.rabinovich
# Created on    : 09/19/2023 17:20:45
#------------------------------------------------------------------------------
~Version Information Section
VERS.           2.0     :   CWLS log ASCII Standard - VERSION 2.0
WRAP.           NO      :   One line per depth step
~Well Information Section
#MNEM       .UNIT                                         VALUE :DESCRIPTION
#------------------------------------------------------------------------------
STRT        .FT                                             565 :START DEPTH
STOP        .FT                                           11656 :STOP DEPTH
STEP        .FT                                             0.5 :STEP      
NULL        .                                           -999.25 :NULL      
COMP        .                     MITCHELL ENERGY OFFSHORE CORP :COMPANY   
WELL        .                               OCS G02394 ST00BP00 :WELL      
FLD         .                            HIGH ISLAND BLOCK 0047 :FIELD     
LOC         .                                                   :LOCATION  
CNTY        .                                  HIGH ISLAND EAST :LOCATION  
STAT        .                                             TEXAS :STATE     
CTRY        .                                     UNITED STATES :COUNTRY   
SRVC        .                                                   :SERVICE COMPANY
DATE        .                             9/13/2023 11:11:59 AM :LOG DATE  
API         .                                    42710400050000 :API NUMBER
UWI         .                                    42710400050000 :UNIQUE WELL ID
XCOORD      .                                  1370895.90844183 :SURFACE X 
YCOORD      .                                  10676661.5178287 :SURFACE Y 
LAT         .                                        29.4165067 :LATITUDE  
LON         .                                        -93.846815 :LONGITUDE 
ELEV        .FT                                              96 :ELEVATION VALUE
ELEV_TYPE   .                                                KB :ELEVATION REFERENCE TYPE
~Curve Information Section
#MNEM       .UNIT                                      API CODE :CURVE DESCRIPTION
#------------------------------------------------------------------------------
DEPT        .FT                                                 :DEPTH     
ASN         .OHMM                                               :          
CILD        .MMHO                                               :          
GR          .GAPI                                               :          
GR_NORM     .GAPI                                               :GammaRay Normalized
ILD         .OHMM                                               :          
SP          .MV                                                 :          
SP_NORM     .MV                                                 :SP Normalized
VSH_GR      .V/V                                                :Volume of Shale from GR
VSH_SP      .V/V                                                :Volume of Shale from SP
~A        DEPTH            ASN           CILD             GR        GR_NORM            ILD             SP        SP_NORM         VSH_GR         VSH_SP
# ...
      1307.0000         1.0624       989.5244        100.998        91.7984         0.9559       -68.4238      -3.090753              1      0.9438045
      1307.5000         1.0712       973.5859       102.3782       92.90256         0.9628       -68.8419       -3.82619              1      0.9304329
      1308.0000           1.08       957.1729        103.176        93.5408         0.9758       -69.1394      -4.349473              1      0.9209186
      1308.5000         1.0889       939.2676       103.6818       93.94544         0.9888        -69.384      -4.779729              1      0.9130958
      1309.0000         1.0974       921.3604       102.6503       93.12024         1.0018       -69.3146      -4.657648              1      0.9153155
      1309.5000         1.1021       903.7334        100.036        91.0288         1.0148       -69.1152      -4.306905              1      0.9216926
      1310.0000         1.0977       938.4551        96.5953       88.27624         1.0313       -68.6965      -3.570434              1       0.935083
      1310.5000         1.0871       1004.387        93.9287       86.14296         1.0264       -68.2777      -2.833775              1      0.9484768
      1311.0000         1.0696       1091.818        91.8442       84.47536         1.0021         -67.76      -1.923154              1      0.9650336
      1311.5000         1.0518       1142.133        89.7417       82.79336         0.9779        -67.196     -0.9310867              1      0.9830711
      1312.0000         1.0339       1190.674        87.1677       80.73416         0.9367       -66.6926    -0.04561427              1      0.9991707
      1312.5000         1.0064       1243.203        83.2797       77.62376          0.885       -66.3859      0.4938527      0.9494418              1
      1313.0000         0.9826       1291.041        82.8639       77.29112          0.837       -66.6545     0.02139134      0.9423643              1
      1313.5000         0.9579        1336.09         82.299        76.8392         0.7625       -68.0624      -2.455065       0.932749      0.9553624
      1314.0000         0.9251       1410.975        81.5859       76.26872         0.6799       -70.4664      -6.683639      0.9206111      0.8784793
      1314.5000         0.8787       1508.594        80.5548       75.44384          0.633       -71.4943      -8.491689      0.9030604      0.8456057
      1315.0000         0.8467       1581.387        77.6685        73.1348         0.5961       -72.8622      -10.89778       0.853932      0.8018585
      1315.5000         0.8376        1624.59        75.9855        71.7884         0.6003       -73.5391      -12.08844      0.8252851      0.7802102
      1316.0000         0.8388       1595.617        74.8625          70.89         0.6046       -73.9585      -12.82616      0.8061702      0.7667971
      1316.5000         0.8401       1566.645        74.5681       70.65448         0.6088       -73.8663      -12.66398      0.8011591      0.7697458
      1317.0000         0.8413       1516.373        75.6923       71.55384         0.6131       -73.7742      -12.50197      0.8202945      0.7726914
      1317.5000         0.8467       1454.342        77.5067       73.00536          0.624        -73.682      -12.33979      0.8511778      0.7756401
      1318.0000         0.8532       1395.234        79.3882       74.51056         0.6453       -73.0389       -11.2086      0.8832034      0.7962072
      1318.5000         0.8597       1309.439        81.3005        76.0404         0.6701       -72.3561      -10.00758      0.9157531      0.8180441
      1319.0000         0.8742       1248.779        83.4363       77.74904          0.711       -71.3784      -8.287827      0.9521072      0.8493122
      1319.5000         0.8915       1198.881        85.4196       79.33568         0.7519       -70.2631      -6.326038      0.9858655      0.8849812
      1320.0000         0.9116       1154.498        87.2328       80.78624         0.7926       -68.8672      -3.870691              1      0.9296238
      1320.5000         0.9295         1125.5        88.3467       81.67736         0.8322       -67.7227      -1.857544              1      0.9662265
      1321.0000         0.9453        1098.41        89.4606       82.56848         0.8695        -66.928     -0.4596856              1      0.9916421
      1321.5000         0.9619       1074.416         91.196        83.9568         0.9068       -66.8693     -0.3564328              1      0.9935194
      1322.0000         0.9785        1048.85        93.1078       85.48624         0.9338       -66.8107     -0.2533545              1      0.9953936
      1322.5000         0.9939       1022.622         94.838        86.8704         0.9565       -66.7521     -0.1502761              1      0.9972677
      1323.0000         1.0054       997.9482        96.2057       87.96456         0.9743       -66.6855    -0.03313376              1      0.9993976
      1323.5000          1.017       974.5635        96.9286       88.54288         0.9804       -66.5483      0.2081965              1              1
      1324.0000         1.0303       952.4033        97.6514       89.12112         0.9865       -66.4113      0.4491778              1              1
      1324.5000         1.0396       922.9834        96.9229       88.53831         0.9919        -66.274      0.6906825              1              1
      1325.0000         1.0403       929.6611        96.1671       87.93368         0.9898       -66.1329      0.9388837              1              1
      1325.5000         1.0371       948.6855        95.2616       87.20927         0.9851        -65.952        1.25707              1              1
      1326.0000         1.0314       973.9463        94.1775         86.342         0.9738       -65.7712       1.575095              1              1
      1326.5000         1.0256       1005.378        92.9828       85.38625         0.9568       -65.4994       2.053192              1              1
      1327.0000         1.0186       1048.439        91.7269       84.38152         0.9389       -65.1293       2.704179              1              1
      1327.5000         1.0095       1070.547        90.5903       83.47224         0.9198       -64.7859       3.308223              1              1
      1328.0000         1.0003       1089.045        89.7006       82.76048         0.9002       -64.6045       3.627294              1              1
      1328.5000         0.9908       1103.547        88.8179       82.05432         0.8805       -64.5831       3.664937              1              1
      1329.0000          0.981       1103.926        87.8275         81.262         0.8609       -64.6627       3.524927              1              1
      1329.5000         0.9724       1103.926        86.8544       80.48352         0.8508       -64.7959       3.290629              1              1
      1330.0000         0.9645       1103.926        86.9725         80.578         0.8419       -65.0161       2.903303              1              1
      1330.5000         0.9579       1103.926        87.2671       80.81367         0.8358       -65.4171       2.197953              1              1
      1331.0000         0.9559       1103.926        87.6201       81.09608         0.8322       -65.8872       1.371058              1              1
      1331.5000         0.9597       1105.975        87.8335        81.2668          0.841       -66.1139      0.9722993              1              1
      1332.0000         0.9657       1108.066        87.4059       80.92472         0.8499       -65.9448       1.269738              1              1
      1332.5000         0.9717       1110.158        86.7164       80.37312         0.8607       -65.5129       2.029439              1              1
      1333.0000         0.9742       1122.422        85.5895        79.4716         0.8716       -65.1085       2.740775      0.9887575              1
