#------------------------------------------------------------------------------
# Created by    : vladimir.rabinovich
# Created on    : 09/19/2023 17:19:33
#------------------------------------------------------------------------------
~Version Information Section
VERS.           2.0     :   CWLS log ASCII Standard - VERSION 2.0
WRAP.           NO      :   One line per depth step
~Well Information Section
#MNEM       .UNIT                                         VALUE :DESCRIPTION
#------------------------------------------------------------------------------
STRT        .FT                                          3947.5 :START DEPTH
STOP        .FT                                           10890 :STOP DEPTH
STEP        .FT                                             0.5 :STEP      
NULL        .                                           -999.25 :NULL      
COMP        .                          PALM ENERGY OFFSHORE LLC :COMPANY   
WELL        .                               OCS G21349 ST00BP00 :WELL      
FLD         .                            HIGH ISLAND BLOCK 0074 :FIELD     
LOC         .                                                   :LOCATION  
CNTY        .                                  HIGH ISLAND EAST :LOCATION  
STAT        .                                             TEXAS :STATE     
CTRY        .                                     UNITED STATES :COUNTRY   
SRVC        .                                                   :SERVICE COMPANY
DATE        .                             9/13/2023 11:20:11 AM :LOG DATE  
API         .                                    42710401490000 :API NUMBER
UWI         .                                    42710401490000 :UNIQUE WELL ID
XCOORD      .                                  1378068.78051204 :SURFACE X 
YCOORD      .                                  10648064.4011202 :SURFACE Y 
LAT         .                                        29.3379836 :LATITUDE  
LON         .                                       -93.8236467 :LONGITUDE 
ELEV        .FT                                             104 :ELEVATION VALUE
ELEV_TYPE   .                                                KB :ELEVATION REFERENCE TYPE
~Curve Information Section
#MNEM       .UNIT                                      API CODE :CURVE DESCRIPTION
#------------------------------------------------------------------------------
DEPT        .FT                                                 :DEPTH     
AHFCO90     .MMHO                                               :          
AHT10       .OHMM                                               :          
AHT20       .OHMM                                               :          
AHT30       .OHMM                                               :          
AHT60       .OHMM                                               :          
AHT90       .OHMM                                               :          
DCAL        .IN                                                 :          
DPHZ        .V/V                                                :          
DTLF        .US/F                                               :          
DTLN        .US/F                                               :          
GR          .GAPI                                               :          
GR_NORM     .GAPI                                               :GammaRay Normalized
HDRA        .G/CC                                               :          
NPOR        .V/V                                                :          
RWA         .OHMM                                               :          
SP          .MV                                                 :          
SPHI        .V/V                                                :          
TENS        .LB/F                                               :          
VSH_GR      .V/V                                                :Volume of Shale from GR
~A        DEPTH        AHFCO90          AHT10          AHT20          AHT30          AHT60          AHT90           DCAL           DPHZ           DTLF           DTLN             GR        GR_NORM           HDRA           NPOR            RWA             SP           SPHI           TENS         VSH_GR
      3947.5000       909.4216          0.725         0.8719         0.9913         1.1208         1.0996        -5.2993         0.1079       117.6202        92.7453        53.5039       75.74999         0.0604         0.8613          0.001      -317.8125         0.2476           2772      0.9095743
      3948.0000       909.4216          0.725         0.8719         0.9913         1.1208         1.0996        -5.2993         0.1079       117.6202        92.7453        53.5039       75.74999         0.0604         0.8613          0.001      -317.8125         0.2476           2772      0.9095743
      3948.5000       909.4216          0.725         0.8719         0.9913         1.1208         1.0996        -5.2993         0.1079       117.6202        92.7453        53.5039       75.74999         0.0604         0.8613          0.001      -317.8125         0.2476           2772      0.9095743
      3949.0000       909.4216          0.725         0.8719         0.9913         1.1208         1.0996        -5.2993         0.1079       117.6202        92.7453        53.5039       75.74999         0.0604         0.8613          0.001      -317.8125         0.2476           2772      0.9095743
      3949.5000       909.4216          0.725         0.8719         0.9913         1.1208         1.0996        -5.2993         0.1079       117.6202        92.7453        53.5039       75.74999         0.0604         0.8613          0.001      -317.8125         0.2476           2772      0.9095743
      3950.0000       909.4216          0.725         0.8719         0.9913         1.1208         1.0996        -5.2993         0.1079       117.6202        92.7453        53.5039       75.74999         0.0604         0.8613          0.001      -317.8125         0.2476           2772      0.9095743
      3950.5000       909.4216          0.725         0.8719         0.9913         1.1208         1.0996        -5.2993         0.1079       117.6202        92.7453        53.5039       75.74999         0.0604         0.8613          0.001      -317.8125         0.2476           2772      0.9095743
      3951.0000       909.4216          0.725         0.8719         0.9913         1.1208         1.0996        -5.2993         0.1079       117.6202        92.7453        53.5039       75.74999         0.0604         0.8613          0.001      -317.8125         0.2476           2772      0.9095743
      3951.5000       909.4216          0.725         0.8719         0.9913         1.1208         1.0996        -5.2993         0.1079       117.6202        92.7453        52.3877       74.69405         0.0604         0.8613          0.001      -317.8125         0.2476           2772      0.8871076
      3952.0000       909.4216          0.725         0.8719         0.9913         1.1208         1.0996        -5.2993         0.1079       117.6202        92.7453        54.6347       76.81972         0.0604         0.8613          0.001      -317.8125         0.2476           2772      0.9323344
      3952.5000       909.4216          0.725         0.8719         0.9913         1.1208         1.0996        -5.2993         0.1079       117.6202        92.7453         56.697       78.77066         0.0604         0.8613          0.001      -317.8125         0.2476           2772      0.9738438
      3953.0000       909.4216          0.725         0.8719         0.9913         1.1208         1.0996        -5.2993         0.1079       117.6202        92.7453        56.3944       78.48441         0.0604         0.8613          0.001      -317.8125         0.2476           2772      0.9677533
      3953.5000       909.4216          0.725         0.8719         0.9913         1.1208         1.0996        -5.2993         0.1079       117.6202        92.7453         54.379       76.57784         0.0604         0.8613          0.001      -317.8125         0.2476           2772       0.927188
      3954.0000       909.4216          0.725         0.8719         0.9913         1.1208         1.0996        -5.2993         0.1079       117.6202        92.7453           53.7       75.93549         0.0604         0.8613          0.001      -317.8125         0.2476           2772      0.9135211
      3954.5000       909.4216          0.725         0.8719         0.9913         1.1208         1.0996        -5.2993         0.1079       117.6202        92.7453         54.568       76.75663         0.0604         0.8613          0.001      -317.8125         0.2476           2772      0.9309921
      3955.0000       909.4216          0.725         0.8719         0.9913         1.1208         1.0996        -5.2993         0.1079       117.6202        92.7453        57.0451       79.09996         0.0604         0.8613          0.001      -317.8125         0.2476           2772      0.9808502
      3955.5000       909.4216          0.725         0.8719         0.9913         1.1208         1.0996        -5.2993         0.1079       117.6202        92.7453        57.7264       79.74448         0.0604         0.8613          0.001      -317.8125         0.2476           2772      0.9945633
      3956.0000       909.4216          0.725         0.8719         0.9913         1.1208         1.0996        -5.2993         0.1079       117.6202        92.7453         57.455       79.48772         0.0604         0.8613          0.001      -317.8125         0.2476           2772      0.9891005
      3956.5000       909.4216          0.725         0.8719         0.9913         1.1208         1.0996        -5.2993         0.1079       117.6202        92.7453        57.2951       79.33646         0.0604         0.8613          0.001      -317.8125         0.2476           2772      0.9858822
      3957.0000       909.4216          0.725         0.8719         0.9913         1.1208         1.0996        -5.2993         0.1079       117.6202        92.7453         54.764       76.94205         0.0604         0.8613          0.001      -317.8125         0.2476           2772      0.9349372
      3957.5000       909.4216          0.725         0.8719         0.9913         1.1208         1.0996        -5.2993         0.1079       117.6202        92.7453         49.604       72.06068         0.0604         0.8613          0.001      -317.8125         0.2476           2772      0.8310782
      3958.0000       909.4216          0.725         0.8719         0.9913         1.1208         1.0996        -5.2993         0.1079       117.6202        92.7453         44.738       67.45744         0.0604         0.8613          0.001      -317.8125         0.2476           2772      0.7331371
      3958.5000       909.4216          0.725         0.8719         0.9913         1.1208         1.0996        -5.2993         0.1079       117.6202        92.7453        45.7657       68.42964         0.0604         0.8613          0.001      -317.8125         0.2476           2772      0.7538221
      3959.0000       909.4216          0.725         0.8719         0.9913         1.1208         1.0996        -5.2993         0.1079       117.6202        92.7453        48.3145       70.84081         0.0604         0.8613          0.001      -317.8125         0.2476           2772      0.8051237
      3959.5000       909.4216          0.725         0.8719         0.9913         1.1208         1.0996        -5.2993         0.1079       117.6202        92.7453        56.4523       78.53917         0.0604         0.8613          0.001      -317.8125         0.2476           2772      0.9689185
      3960.0000       909.4216          0.725         0.8719         0.9913         1.1208         1.0996        -5.2993         0.1079       117.6202        92.7453        54.4229       76.61936         0.0604         0.8613          0.001      -317.8125         0.2476           2772      0.9280716
      3960.5000       909.4216          0.725         0.8719         0.9913         1.1208         1.0996        -5.2993         0.1079       117.6202        92.7453        54.4183       76.61501         0.0604         0.8613          0.001      -317.8125         0.2476           2772      0.9279788
