#------------------------------------------------------------------------------
# Created by    : vladimir.rabinovich
# Created on    : 09/19/2023 17:20:22
#------------------------------------------------------------------------------
~Version Information Section
VERS.           2.0     :   CWLS log ASCII Standard - VERSION 2.0
WRAP.           NO      :   One line per depth step
~Well Information Section
#MNEM       .UNIT                                         VALUE :DESCRIPTION
#------------------------------------------------------------------------------
STRT        .FT                                             538 :START DEPTH
STOP        .FT                                           11949 :STOP DEPTH
STEP        .FT                                             0.5 :STEP      
NULL        .                                           -999.25 :NULL      
COMP        .                                 CITIES SERVICE CO :COMPANY   
WELL        .                               OCS G03070 ST00BP00 :WELL      
FLD         .                                           WILDCAT :FIELD     
LOC         .                                                   :LOCATION  
CNTY        .                               MUSTANG ISLAND EAST :LOCATION  
STAT        .                                             TEXAS :STATE     
CTRY        .                                     UNITED STATES :COUNTRY   
SRVC        .                                                   :SERVICE COMPANY
DATE        .                             9/13/2023 11:20:11 AM :LOG DATE  
API         .                                    42712400020000 :API NUMBER
UWI         .                                    42712400020000 :UNIQUE WELL ID
XCOORD      .                                  546520.538281646 :SURFACE X 
YCOORD      .                                  9992103.69354039 :SURFACE Y 
LAT         .                                        27.4947268 :LATITUDE  
LON         .                                       -96.3742825 :LONGITUDE 
ELEV        .FT                                              65 :ELEVATION VALUE
ELEV_TYPE   .                                                KB :ELEVATION REFERENCE TYPE
~Curve Information Section
#MNEM       .UNIT                                      API CODE :CURVE DESCRIPTION
#------------------------------------------------------------------------------
DEPT        .FT                                                 :DEPTH     
ASFL        .OHMM                                               :          
CILD        .MMHO                                               :          
DT          .US/F                                               :          
GR          .GAPI                                               :          
GR_NORM     .GAPI                                               :GammaRay Normalized
ILD         .OHMM                                               :          
SFL         .OHMM                                               :          
SP          .MV                                                 :          
SP_NORM     .MV                                                 :SP Normalized
VSH_GR      .V/V                                                :Volume of Shale from GR
VSH_SP      .V/V                                                :Volume of Shale from SP
~A        DEPTH           ASFL           CILD             DT             GR        GR_NORM            ILD            SFL             SP        SP_NORM         VSH_GR         VSH_SP
# ...
      4340.5000         1.3268       1083.891       118.9015        51.8714       54.01262         0.8504         1.2559      -143.8472      -21.94978      0.4470771      0.5610045
      4341.0000         1.3019       1091.746       120.4276        52.7789       55.19404         0.8371         1.1205      -141.2102       -19.3176      0.4722136      0.6136481
      4341.5000         1.2628       1099.598       121.5021        54.2144       57.06295         0.8298         1.0024      -138.2646       -16.3768      0.5119777       0.672464
      4342.0000         1.2236       1107.453       122.2017        55.8089       59.13889         0.8281         0.9225      -134.7791      -12.89611      0.5561466      0.7420778
      4342.5000         1.1714       1115.313       122.7286        57.5637       61.42356         0.8289         0.8715      -131.8311      -9.952927      0.6047566      0.8009415
      4343.0000          1.092       1114.129       123.0837        58.8461       63.09312         0.8323         0.8598      -128.9487      -7.075333      0.6402792      0.8584933
      4343.5000         1.0106        1105.91       123.0067        59.6868       64.18755         0.8367         0.8639      -128.3535      -6.484947       0.663565      0.8703011
      4344.0000         0.9758       1097.695       122.6218         60.293       64.97665         0.8428         0.8734      -128.0049      -6.141151      0.6803542       0.877177
      4344.5000          0.966       1089.484       121.7717        60.9902       65.88423         0.8489         0.8934      -127.9946      -6.135666      0.6996645      0.8772867
      4345.0000         0.9602        1081.27       120.9055        61.7194       66.83349         0.8568         0.9177      -128.0066      -6.152481      0.7198614      0.8769504
      4345.5000         0.9616       1073.055       119.9814        62.6788       68.08247         0.8653         0.9421      -127.1981      -5.348785      0.7464356      0.8930243
      4346.0000         0.9639       1064.836        119.301        62.3015       67.59097         0.8737         0.9386      -126.4087      -4.564201       0.735978       0.908716
      4346.5000         0.9702       1056.625       118.9323        60.9468       65.82681         0.8792         0.9188      -126.9299       -5.09021      0.6984428      0.8981958
      4347.0000         0.9766        1048.41        119.759        59.5379       63.99208         0.8848         0.9006      -127.1193      -5.284424      0.6594059      0.8943115
      4347.5000         0.9829       1040.035       120.8707         58.029       62.02713         0.8894         0.8943      -126.7274      -4.897331      0.6175984      0.9020534
      4348.0000         0.9893       1031.441       121.7026        56.9406       60.60971         0.8934         0.8957      -126.4418      -4.616547      0.5874407      0.9076691
      4348.5000         0.9956       1022.844       121.4093        57.5632       61.42016         0.8973         0.9127      -127.1571      -5.336655      0.6046842      0.8932669
      4349.0000         1.0019        1014.25       119.8721        58.3098       62.39206          0.901         0.9374      -127.9608      -6.145164      0.6253631      0.8770967
      4349.5000         1.0083       1005.656       117.7419        59.1197       63.44639         0.9045         0.9891      -128.2366      -6.425781      0.6477956      0.8714844
      4350.0000         1.0146       997.0625       115.8368        57.9036        61.8627           0.91         1.0184      -127.2137      -5.407684         0.6141      0.8918463
      4350.5000          1.021       988.4648       114.7034        56.8177       60.44854         0.9187         0.9881      -126.2737      -4.472496      0.5840115      0.9105501
      4351.0000         1.0304       979.8789        115.915         56.831       60.46563         0.9284         0.9744      -125.6636      -3.867203      0.5843751      0.9226559
      4351.5000         1.0405       971.2852       117.9036        56.3947        59.8973         0.9388         0.9831      -125.6831      -3.891518       0.572283      0.9221696
      4352.0000         1.0506       962.6875        120.399        54.8182       57.84434         0.9513         1.0199      -126.9999      -5.213135      0.5286029      0.8957373
      4352.5000         1.0608       954.0938       122.0706        53.0333       55.52002         0.9646         1.0014      -127.6229      -5.840942      0.4791493      0.8831812
      4353.0000         1.0709          945.5       122.6171        52.5883       54.94036         0.9774         0.9668      -127.7407      -5.963554      0.4668163      0.8807289
      4353.5000         1.0808       938.6914       121.4641        52.8954       55.34001         0.9903          1.029      -127.6143      -5.841965      0.4753193      0.8831607
      4354.0000         1.0905       932.1094       119.0145        52.8877       55.32975         0.9973         1.0929      -128.1533       -6.38578      0.4751011      0.8722844
      4354.5000         1.1003       925.5352       115.2563        52.6494       55.01924         1.0034          1.128      -129.0916       -7.32888      0.4684944      0.8534224
      4355.0000         1.0985       918.9531       111.6249        51.6834        53.7612         1.0074         1.1152      -129.5542      -7.796295      0.4417276      0.8440741
      4355.5000         1.0874       919.9648       108.4397        50.9717       52.83427         1.0113         1.0816      -129.4629      -7.709816      0.4220058      0.8458037
      4356.0000          1.078       933.7695       108.6099        51.5623       53.60306         1.0151         1.0411      -129.1597      -7.411415      0.4383629      0.8517717
      4356.5000         1.0685        959.043       111.4883        52.7669       55.17131         1.0138         0.9933      -128.9463      -7.202835      0.4717299      0.8559433
      4357.0000          1.059       984.3398       114.0087        54.1331       56.94999         1.0017         0.9524      -128.8049      -7.066238      0.5095742      0.8586752
      4357.5000         1.0496       1009.609       115.7994        54.8773       57.91877         0.9571          0.931      -128.7905      -7.056648      0.5301866       0.858867
      4358.0000         1.0401       1059.352       117.1697        55.2153       58.35865         0.9238         0.9707      -130.4258      -8.696762      0.5395457      0.8260648
      4358.5000         1.0417       1145.676       116.1611        54.5374       57.47573         0.8942         1.0293      -132.9954      -11.27118      0.5207602      0.7745764
      4359.0000          1.048       1212.582       114.8586        53.4376       56.04347         0.8688         1.0785      -135.8301      -14.11068      0.4902866      0.7177864
      4359.5000         1.0543       1253.789       113.6786         53.069        55.5633         0.8435         1.0776      -139.1589       -17.4443      0.4800701       0.651114
      4360.0000         1.0606           1295       114.3652        52.9377       55.39211         0.8121         1.0329      -142.5264       -20.8166      0.4764278      0.5836679
      4360.5000          1.067       1336.211       116.3053        53.2035       55.73797         0.7629         1.0569      -144.0508      -22.34581      0.4837866      0.5530838
      4361.0000         1.0733       1377.418        118.807        53.5798       56.22772         0.7258         1.0865      -144.1482      -22.44802      0.4942068      0.5510396
      4361.5000         1.0796       1418.629       118.5336        54.2915       57.15418         0.6864         1.1141      -144.2185      -22.52315      0.5139187      0.5495371
      4362.0000         1.0849        1459.84        117.261        55.1129       58.22348         0.6599          1.134      -148.4199      -26.72935      0.5366699      0.4654129
      4362.5000         1.0853       1494.918       116.3531        55.9891       59.36414         0.6418         1.0753      -151.4172      -29.73147      0.5609391      0.4053706
