#------------------------------------------------------------------------------
# Created by    : vladimir.rabinovich
# Created on    : 09/19/2023 17:20:22
#------------------------------------------------------------------------------
~Version Information Section
VERS.           2.0     :   CWLS log ASCII Standard - VERSION 2.0
WRAP.           NO      :   One line per depth step
~Well Information Section
#MNEM       .UNIT                                         VALUE :DESCRIPTION
#------------------------------------------------------------------------------
STRT        .FT                                             538 :START DEPTH
STOP        .FT                                           11949 :STOP DEPTH
STEP        .FT                                             0.5 :STEP      
NULL        .                                           -999.25 :NULL      
COMP        .                                 CITIES SERVICE CO :COMPANY   
WELL        .                               OCS G03070 ST00BP00 :WELL      
FLD         .                                           WILDCAT :FIELD     
LOC         .                                                   :LOCATION  
CNTY        .                               MUSTANG ISLAND EAST :LOCATION  
STAT        .                                             TEXAS :STATE     
CTRY        .                                     UNITED STATES :COUNTRY   
SRVC        .                                                   :SERVICE COMPANY
DATE        .                             9/13/2023 11:20:11 AM :LOG DATE  
API         .                                    42712400020000 :API NUMBER
UWI         .                                    42712400020000 :UNIQUE WELL ID
XCOORD      .                                  546520.538281646 :SURFACE X 
YCOORD      .                                  9992103.69354039 :SURFACE Y 
LAT         .                                        27.4947268 :LATITUDE  
LON         .                                       -96.3742825 :LONGITUDE 
ELEV        .FT                                              65 :ELEVATION VALUE
ELEV_TYPE   .                                                KB :ELEVATION REFERENCE TYPE
~Curve Information Section
#MNEM       .UNIT                                      API CODE :CURVE DESCRIPTION
#------------------------------------------------------------------------------
DEPT        .FT                                                 :DEPTH     
ASFL        .OHMM                                               :          
CILD        .MMHO                                               :          
DT          .US/F                                               :          
GR          .GAPI                                               :          
GR_NORM     .GAPI                                               :GammaRay Normalized
ILD         .OHMM                                               :          
SFL         .OHMM                                               :          
SP          .MV                                                 :          
SP_NORM     .MV                                                 :SP Normalized
VSH_GR      .V/V                                                :Volume of Shale from GR
VSH_SP      .V/V                                                :Volume of Shale from SP
~A        DEPTH           ASFL           CILD             DT             GR        GR_NORM            ILD            SFL             SP        SP_NORM         VSH_GR         VSH_SP
       538.0000        -999.25        -999.25        -999.25        35.6743        -999.25        -999.25        -999.25        -999.25        -999.25        -999.25        -999.25
       538.5000        -999.25        -999.25        -999.25        36.1952        -999.25        -999.25        -999.25        -999.25        -999.25        -999.25        -999.25
       539.0000        -999.25        -999.25        -999.25        37.3118        -999.25        -999.25        -999.25        -999.25        -999.25        -999.25        -999.25
       539.5000        -999.25        -999.25        -999.25        39.5097        -999.25        -999.25        -999.25        -999.25        -999.25        -999.25        -999.25
       540.0000        -999.25        -999.25        -999.25        42.1088        -999.25        -999.25        -999.25        -999.25        -999.25        -999.25        -999.25
       540.5000        -999.25        -999.25        -999.25        43.3828        -999.25        -999.25        -999.25        -999.25        -999.25        -999.25        -999.25
       541.0000        -999.25        -999.25        -999.25        44.9855        -999.25        -999.25        -999.25        -999.25        -999.25        -999.25        -999.25
       541.5000        -999.25        -999.25        -999.25        47.3121        -999.25        -999.25        -999.25        -999.25        -999.25        -999.25        -999.25
       542.0000        -999.25        -999.25        -999.25        50.6448        -999.25         0.7379         0.2397      -150.8123       7.082428        -999.25        -999.25
       542.5000        -999.25        -999.25        -999.25        55.2208        -999.25         0.7474         0.4874      -137.8435       20.05122        -999.25        -999.25
       543.0000        -999.25        -999.25        -999.25        60.1928        -999.25         0.7499         0.6632      -137.9119       19.98283        -999.25        -999.25
       543.5000        -999.25        -999.25        -999.25        64.2966        -999.25         0.7239         0.7424      -139.8875       18.00723        -999.25        -999.25
       544.0000        -999.25        -999.25        -999.25        67.3833        -999.25         0.6815         0.7528      -142.0957       15.79903        -999.25        -999.25
       544.5000        -999.25        -999.25        -999.25        69.2329        -999.25         0.6108         0.7823      -144.4392       13.45554        -999.25        -999.25
       545.0000         0.6633       1496.695        -999.25        70.6312        -999.25         0.6412         0.8194      -146.3835       11.51123        -999.25        -999.25
       545.5000         0.7083       1446.184        -999.25        71.7042        -999.25         0.7088         0.8635      -148.0403       9.854431        -999.25        -999.25
       546.0000          0.774       1395.664        -999.25        73.6167        -999.25         0.7365         0.9122      -148.9529       8.941833        -999.25        -999.25
       546.5000         0.7983       1345.156        -999.25        79.8977        -999.25         0.7567         0.9113      -149.7493       8.145432        -999.25        -999.25
       547.0000         0.8115       1294.645        -999.25        89.8679        -999.25         0.7698         0.8898      -150.5312       7.363525        -999.25        -999.25
       547.5000         0.8247       1288.887        -999.25           92.4        -999.25         0.7771         0.8826       -151.325       6.569733        -999.25        -999.25
       548.0000         0.8316        1286.59        -999.25        88.4855        -999.25          0.782          0.883      -152.0962       5.798523        -999.25        -999.25
       548.5000         0.8384       1277.973        -999.25        78.0132        -999.25         0.7821         0.8884      -152.7542       5.140533        -999.25        -999.25
       549.0000         0.8345       1267.516        -999.25        74.0488        -999.25         0.7826         0.8961      -153.5054       4.389328        -999.25        -999.25
       549.5000         0.8276        1250.27        -999.25        73.0356        -999.25         0.7836         0.9069      -153.7534       4.141327        -999.25        -999.25
       550.0000         0.8205       1228.926        -999.25         71.762       81.46155         0.7792         0.8949      -153.9006       3.994125              1              1
       550.5000         0.8109       1224.422        -999.25        69.9799        79.1411           0.77         0.8713      -154.6284       3.266327      0.9817255              1
       551.0000         0.8012       1237.309        -999.25        69.2601       78.20387         0.7542         0.8423      -154.6069       3.287827      0.9617844              1
       551.5000         0.7916       1250.195        -999.25        69.6759       78.74528          0.742         0.8061      -154.3643       3.530426      0.9733038              1
       552.0000         0.7819       1263.086        -999.25          69.99       79.15425         0.7265         0.7788      -154.2864       3.608322      0.9820054              1
       552.5000         0.7722       1279.176        -999.25        69.9225       79.06636         0.7131         0.7616      -154.5544       3.340332      0.9801353              1
       553.0000         0.7626       1296.352        -999.25        70.2384        79.4777         0.6987         0.7592      -154.9631       2.931625      0.9888872              1
       553.5000          0.754       1313.527        -999.25        70.7269       80.11375         0.6909          0.749      -155.3452        2.54953              1              1
       554.0000         0.7461       1330.703        -999.25        70.6635        80.0312         0.6883         0.7374      -155.6587       2.236023              1              1
       554.5000         0.7381       1347.879        -999.25        70.6709       80.04084         0.6905         0.7355      -155.9443       1.950424              1              1
       555.0000         0.7302       1365.059        -999.25        71.1144       80.61832         0.6928         0.7342      -156.0674       1.827332              1              1
       555.5000         0.7223       1364.129        -999.25        72.0264       81.80582         0.6944         0.7316      -156.0198       1.874924              1              1
       556.0000         0.7156        1361.09        -999.25        73.8478       84.17743         0.6959         0.7289      -155.9849       1.909836              1              1
       556.5000         0.7103       1362.402        -999.25        75.3252       86.10114         0.6973          0.728      -155.6899       2.204834              1              1
       557.0000          0.705       1365.227        -999.25        76.3938       87.49253         0.6978         0.7299      -155.8052       2.089523              1              1
       557.5000         0.6998       1368.055        -999.25        76.6907       87.87911         0.6983         0.7358      -156.2542       1.640533              1              1
       558.0000         0.6945       1367.973        -999.25        75.3787       86.17079         0.6988         0.7544      -156.5869       1.307831              1              1
       558.5000         0.6994        1363.82        -999.25        74.0592       84.45269         0.6988         0.7681      -156.8369       1.057831              1              1
       559.0000         0.7043       1359.668        -999.25        73.1071       83.21297         0.6986         0.7464      -157.0989      0.7958221              1              1
       559.5000         0.7093       1355.516        -999.25        73.2719       83.42755         0.6986         0.7374      -157.3611      0.5336304              1              1
       560.0000         0.7134       1351.363        -999.25        73.4965       83.72001         0.6986         0.7391      -157.6106      0.2841339              1              1
