#------------------------------------------------------------------------------
# Created by    : vladimir.rabinovich
# Created on    : 09/19/2023 17:21:28
#------------------------------------------------------------------------------
~Version Information Section
VERS.           2.0     :   CWLS log ASCII Standard - VERSION 2.0
WRAP.           NO      :   One line per depth step
~Well Information Section
#MNEM       .UNIT                                         VALUE :DESCRIPTION
#------------------------------------------------------------------------------
STRT        .FT                                             999 :START DEPTH
STOP        .FT                                           14605 :STOP DEPTH
STEP        .FT                                             0.5 :STEP      
NULL        .                                           -999.25 :NULL      
COMP        .                                      GETTY OIL CO :COMPANY   
WELL        .                               OCS G03116 ST00BP00 :WELL      
FLD         .                                           WILDCAT :FIELD     
LOC         .                                                   :LOCATION  
CNTY        .                                  HIGH ISLAND EAST :LOCATION  
STAT        .                                             TEXAS :STATE     
CTRY        .                                     UNITED STATES :COUNTRY   
SRVC        .                                                   :SERVICE COMPANY
DATE        .                             9/13/2023 11:19:51 AM :LOG DATE  
API         .                                    42710400090000 :API NUMBER
UWI         .                                    42710400090000 :UNIQUE WELL ID
XCOORD      .                                  1371379.55461592 :SURFACE X 
YCOORD      .                                  10664640.0845049 :SURFACE Y 
LAT         .                                        29.3834483 :LATITUDE  
LON         .                                       -93.8450221 :LONGITUDE 
ELEV        .FT                                              80 :ELEVATION VALUE
ELEV_TYPE   .                                                KB :ELEVATION REFERENCE TYPE
~Curve Information Section
#MNEM       .UNIT                                      API CODE :CURVE DESCRIPTION
#------------------------------------------------------------------------------
DEPT        .FT                                                 :DEPTH     
CALI        .IN                                                 :          
DRHO        .G/C3                                               :          
GR          .GAPI                                               :          
GR_NORM     .GAPI                                               :GammaRay Normalized
NPHI        .%                                                  :          
RHOB        .G/C3                                               :          
VSH_GR      .V/V                                                :Volume of Shale from GR
~A        DEPTH           CALI           DRHO             GR        GR_NORM           NPHI           RHOB         VSH_GR
# ...
      2808.0000        19.3405         0.0884        43.4274       66.66526        46.5908         2.9688      0.7162821
      2808.5000        19.3315         0.0819        42.9763       65.98682        46.0552         2.9653      0.7018471
      2809.0000        18.9655         0.0643        42.8479       65.79369        45.6514         2.9678      0.6977382
      2809.5000        18.0371         0.0591        42.9854        66.0005        46.1243         2.9962      0.7021384
      2810.0000        17.6496         0.0619        43.4019       66.62691        46.5273         3.0058      0.7154663
      2810.5000        17.5355         0.0459        43.8869       67.35635        46.6255         2.9636      0.7309862
      2811.0000        17.4901         0.0403        44.4685       68.23109        46.2372         2.9385      0.7495977
      2811.5000        17.3224         0.0497        45.1768       69.29637        45.4183         2.9274      0.7722632
      2812.0000        17.5801         0.0632         46.452       71.21427         45.327         2.8971      0.8130696
      2812.5000        18.6666         0.0922        47.4935       72.78069         46.637         2.8393      0.8463976
      2813.0000        19.5677         0.1031         48.004       73.54848        47.7919         2.8324      0.8627335
      2813.5000        19.9064         0.1037        48.0194       73.57164        48.9382         2.8343      0.8632264
      2814.0000        19.7536         0.1001        47.6467        73.0111        49.7892         2.8411         0.8513
      2814.5000        19.7573         0.0777         47.024       72.07455        49.1642         2.8575      0.8313735
      2815.0000        19.7372           0.06        46.3073       70.99664        47.9448         2.8587      0.8084391
      2815.5000        20.0846         0.0595        45.7725       70.19231        47.3575         2.8534      0.7913257
      2816.0000        20.1222         0.0655        45.4354        69.6853        47.9105         2.8438      0.7805384
      2816.5000        19.6438         0.0727        45.3885       69.61476        49.2709         2.8538      0.7790375
      2817.0000        19.0908         0.0852        45.3705       69.58768        50.9034         2.8857      0.7784614
      2817.5000        18.7627         0.1061         45.103       69.18537        51.3823         2.9318      0.7699015
      2818.0000        18.7203         0.0998        45.0821       69.15395        50.9103         2.9254      0.7692329
      2818.5000        18.9913         0.0932        45.0401       69.09077        50.3534         2.9018      0.7678887
      2819.0000        19.4425         0.0847        45.6277       69.97452        49.5796         2.8783      0.7866918
      2819.5000        19.9449         0.0797         46.436        71.1902        49.4401          2.861      0.8125575
      2820.0000        19.4119         0.0803        46.4868       71.26661        50.4343         2.8488      0.8141832
      2820.5000         18.862         0.0883        46.1522       70.76337        52.5778         2.8406       0.803476
      2821.0000        19.0118         0.0974        45.8759       70.34782        55.3194         2.8447      0.7946344
      2821.5000        19.4873         0.1003        45.8795       70.35323        57.5971         2.8529      0.7947495
      2822.0000        19.8806         0.0594        46.1212       70.71674        59.3028         2.8297      0.8024839
      2822.5000        19.7229         0.0347        46.3741       71.09711        59.2308         2.8212      0.8105767
      2823.0000        18.7655         0.0458        46.6694       71.54124        57.0363         2.8218      0.8200263
      2823.5000        19.0508         0.0572         47.053       72.11818        54.7966         2.8423      0.8323017
      2824.0000        19.6111         0.0621        47.2952       72.48244        53.6943         2.8846       0.840052
      2824.5000        18.5044         0.0637        47.3712       72.59675         51.436         2.8969       0.842484
      2825.0000        17.4816         0.0584        47.2593       72.42846        50.0211          2.902      0.8389034
      2825.5000        17.6723          0.039        46.9775       72.00463        50.4794         2.8744      0.8298858
      2826.0000        17.5228         0.0204         46.801       71.73916        52.4689         2.8591      0.8242374
      2826.5000        17.1969         0.0343        46.9874       72.01951        53.9202         2.8491      0.8302023
      2827.0000        18.2094         0.0467        47.1536       72.26948        55.4693          2.824      0.8355208
      2827.5000        18.9297         0.0458        47.1796       72.30858          56.71         2.8116      0.8363527
      2828.0000        19.6166         0.0378        46.9786       72.00628        57.6351          2.814      0.8299208
      2828.5000        19.2457         0.0354        46.6666       71.53703        58.0655          2.796      0.8199367
      2829.0000        18.9805         0.0566        46.6759       71.55102        57.5345          2.783      0.8202344
      2829.5000        19.7882         0.0739        47.0527       72.11772        56.4657          2.796       0.832292
      2830.0000        19.7887         0.0859        47.2769       72.45492        55.2724         2.8203      0.8394663
      2830.5000        19.2388           0.09        47.3088        72.5029        53.8949         2.8268      0.8404872
      2831.0000        19.2754         0.0826         47.255       72.42199        52.4085         2.8129      0.8387657
      2831.5000        19.6757         0.0725        47.2252       72.37717        53.7159         2.8036      0.8378121
      2832.0000        19.2363         0.0618        47.2405       72.40018        55.6043         2.8116      0.8383018
      2832.5000        18.7116         0.0506        47.3162       72.51403        56.3536         2.7896      0.8407241
      2833.0000        18.5139         0.0495        47.3215         72.522        56.1722         2.7777      0.8408935
      2833.5000        18.7257         0.0598        47.2325       72.38814        55.5417         2.7866      0.8380455
      2834.0000        18.8478          0.049        47.0891       72.17247        54.0575         2.8038      0.8334568
      2834.5000        18.3145         0.0486        46.9324       71.93679        53.4494         2.8196      0.8284423
      2835.0000        17.4503         0.0709        47.0684       72.14133        53.7001          2.832      0.8327944
      2835.5000        18.7848         0.0543        47.4473        72.7112        52.8746         2.8043      0.8449193
      2836.0000        18.9888         0.0383         47.585        72.9183        51.1578         2.7425      0.8493256
      2836.5000         18.651         0.0243        47.3179       72.51658        49.5511         2.7303      0.8407783
      2837.0000        19.3251         0.0261        46.7134       71.60742        49.9467         2.7435      0.8214345
      2837.5000        19.7228         0.0436        45.4684       69.73493        49.9995         2.7421      0.7815943
      2838.0000        19.6744         0.0572        44.5453       68.34659        49.1884         2.7396       0.752055
      2838.5000        19.1985         0.0511        43.9429       67.44058        48.6934         2.7532      0.7327784
      2839.0000         18.883         0.0465        43.4733       66.73431        48.7565         2.7983      0.7177512
      2839.5000        18.1004          0.042        43.1614       66.26521        48.1357          2.918      0.7077705
      2840.0000        17.6706         0.0199        43.3314       66.52089        43.8696         3.0376      0.7132104
      2840.5000        17.6987         0.0513        43.6122       66.94321        42.1923         3.0732       0.722196
      2841.0000        17.5172         0.0761        44.0157       67.55007        40.7014         3.1039      0.7351079
