#------------------------------------------------------------------------------
# Created by    : vladimir.rabinovich
# Created on    : 09/19/2023 17:22:52
#------------------------------------------------------------------------------
~Version Information Section
VERS.           2.0     :   CWLS log ASCII Standard - VERSION 2.0
WRAP.           NO      :   One line per depth step
~Well Information Section
#MNEM       .UNIT                                         VALUE :DESCRIPTION
#------------------------------------------------------------------------------
STRT        .FT                                            2993 :START DEPTH
STOP        .FT                                           15023 :STOP DEPTH
STEP        .FT                                             0.5 :STEP      
NULL        .                                           -999.25 :NULL      
COMP        .                                        TEXACO INC :COMPANY   
WELL        .                                     ST TR 00018-L :WELL      
FLD         .                                           WILDCAT :FIELD     
LOC         .                                                   :LOCATION  
CNTY        .                                       SABINE PASS :LOCATION  
STAT        .                                             TEXAS :STATE     
CTRY        .                                     UNITED STATES :COUNTRY   
SRVC        .                                                   :SERVICE COMPANY
DATE        .                             9/13/2023 11:20:07 AM :LOG DATE  
API         .                                    42715000300000 :API NUMBER
UWI         .                                    42715000300000 :UNIQUE WELL ID
XCOORD      .                                  1367853.58567514 :SURFACE X 
YCOORD      .                                  10716828.2466652 :SURFACE Y 
LAT         .                                         29.526933 :LATITUDE  
LON         .                                       -93.8573019 :LONGITUDE 
ELEV        .FT                                              75 :ELEVATION VALUE
ELEV_TYPE   .                                                KB :ELEVATION REFERENCE TYPE
~Curve Information Section
#MNEM       .UNIT                                      API CODE :CURVE DESCRIPTION
#------------------------------------------------------------------------------
DEPT        .FT                                                 :DEPTH     
ILD         .OHMM                                               :          
SFLA        .OHMM                                               :          
SP          .MV                                                 :          
SP_NORM     .MV                                                 :SP Normalized
VSH_SP      .V/V                                                :Volume of Shale from SP
~A        DEPTH            ILD           SFLA             SP        SP_NORM         VSH_SP
# ...
      4577.0000         0.8524         0.7908        -34.907      -25.20034      0.6388009
      4577.5000         0.8445         0.8119       -32.8021      -23.10079      0.6701374
      4578.0000          0.806         0.8354       -30.6972      -21.00124       0.701474
      4578.5000         0.7756         0.8588       -30.4789       -20.7883      0.7046523
      4579.0000         0.7383         0.8822        -33.784      -24.09875      0.6552426
      4579.5000         0.7221         0.9035       -37.3479        -27.668      0.6019701
      4580.0000         0.6977         0.9136       -40.9119      -31.23735      0.5486963
      4580.5000         0.6685         0.9143       -44.4758       -34.8066      0.4954239
      4581.0000         0.6474         0.8976       -47.3646      -37.70076      0.4522275
      4581.5000         0.6475          0.881       -46.5445      -36.88601       0.464388
      4582.0000         0.6477         0.8914       -45.9674      -36.31426      0.4729215
      4582.5000         0.6478         0.9226        -45.803      -36.15521      0.4752953
      4583.0000          0.648         0.9538       -45.5547      -35.91226      0.4789215
      4583.5000         0.6514          0.985       -45.3419      -35.70481      0.4820178
      4584.0000         0.6635         1.0162       -46.5755      -36.94376      0.4635259
      4584.5000         0.6637         1.0354       -56.6261      -46.99972       0.313437
      4585.0000         0.6945         1.0505       -57.7608      -48.13977      0.2964213
      4585.5000          0.714         1.0656       -57.9545      -48.33882      0.2934504
      4586.0000         0.7251         1.0806       -57.6936      -48.08327      0.2972645
      4586.5000         0.7253         1.0957         -57.13      -47.52502      0.3055966
      4587.0000         0.6619         1.1081       -56.6129      -47.01328      0.3132347
      4587.5000         0.6234         1.1138       -56.2177      -46.62343      0.3190533
      4588.0000         0.6038         1.1164       -55.8256      -46.23668      0.3248257
      4588.5000         0.5904         1.1157       -55.6268      -46.04323       0.327713
      4589.0000         0.5689         1.1056       -55.4279      -45.84968      0.3306018
      4589.5000         0.5369         1.0471       -58.4673      -48.89444      0.2851577
      4590.0000         0.5177         0.9487        -63.225      -53.65749      0.2140674
      4590.5000         0.4826         0.8502       -67.9828      -58.42064      0.1429755
      4591.0000         0.4794         0.7854       -70.8364      -61.27959      0.1003046
      4591.5000         0.4602         0.7799       -71.8153      -62.26384     0.08561428
      4592.0000         0.4526         0.7792       -72.7942      -63.24809     0.07092399
      4592.5000         0.4222         0.7792       -73.6339      -64.09315     0.05831112
      4593.0000         0.4224         0.7792         -74.22       -64.6846     0.04948357
      4593.5000          0.414         0.7792       -74.6533      -65.12325     0.04293664
      4594.0000         0.3922         0.7789       -75.0434      -65.51871     0.03703422
      4594.5000         0.3924         0.7751       -75.4334      -65.91406     0.03113339
      4595.0000         0.3925         0.7692       -76.1939      -66.67991     0.01970285
      4595.5000         0.3831         0.7614       -76.5225      -67.01385     0.01471858
      4596.0000         0.3624         0.7525       -76.8074      -67.30412     0.01038634
      4596.5000         0.3625         0.7398       -76.8048      -67.30686     0.01034535
      4597.0000         0.3626         0.7253       -76.8023      -67.30972     0.01030276
      4597.5000         0.3628         0.7058       -76.7997      -67.31246     0.01026176
      4598.0000          0.363          0.695       -76.7971      -67.31522     0.01022066
      4598.5000         0.3631         0.6827       -76.7945      -67.31797     0.01017955
      4599.0000         0.3633         0.6643       -76.7919      -67.32072     0.01013844
      4599.5000         0.3634          0.646       -76.7893      -67.32347     0.01009745
      4600.0000         0.3952         0.6276       -76.7867      -67.32623     0.01005634
      4600.5000         0.4293         0.6092       -74.7745      -65.31937     0.04000934
      4601.0000         0.4663         0.5894        -71.458      -62.00823     0.08942937
      4601.5000         0.5012         0.5944       -68.1416      -58.69718       0.138848
      4602.0000         0.5351         0.6087       -64.8251      -55.38604      0.1882681
      4602.5000         0.5796          0.623       -61.5087      -52.07499      0.2376867
      4603.0000         0.6377         0.6474       -58.1922      -48.76384      0.2871069
      4603.5000         0.6848         0.6747       -54.8758      -45.45279      0.3365255
      4604.0000          0.736          0.702       -51.5593      -42.14164      0.3859457
      4604.5000         0.7749         0.7293       -48.2429      -38.83059      0.4353643
      4605.0000         0.8028          0.756       -44.9264      -35.51944      0.4847844
      4605.5000         0.8073         0.7636         -41.61       -32.2084      0.5342031
      4606.0000         0.7885         0.7488       -38.2935      -28.89725      0.5836232
      4606.5000         0.7536          0.734        -34.977       -25.5861      0.6330433
      4607.0000         0.6859         0.7192       -32.1754      -22.78985      0.6747783
      4607.5000         0.7622          0.708       -31.1916      -21.81141       0.689382
      4608.0000         0.7069         0.7063       -43.3602      -33.98536      0.5076813
      4608.5000         0.6771         0.7063       -42.5724      -33.20291      0.5193596
      4609.0000         0.6555         0.7139       -38.0554      -28.69126      0.5866976
      4609.5000         0.6555         0.7217       -33.5383      -24.17951      0.6540371
      4610.0000         0.6555         0.7295       -31.5262      -22.17276      0.6839886
      4610.5000         0.6555         0.7374       -30.6212      -21.27312      0.6974162
      4611.0000         0.6555         0.7452         -30.43      -21.08727        0.70019
      4611.5000         0.6707         0.7512       -30.8431      -21.50572      0.6939445
      4612.0000         0.6707         0.7555       -32.0355      -22.70347      0.6760676
      4612.5000         0.6707         0.7625       -33.2911      -23.96442      0.6572474
      4613.0000         0.6707         0.7703       -33.8323      -24.51097      0.6490899
      4613.5000         0.6743         0.7823       -34.0581      -24.74213      0.6456398
      4614.0000         0.6936         0.7924       -34.4019      -25.09128      0.6404286
      4614.5000         0.7129         0.8055       -35.8983      -26.59303      0.6180145
      4615.0000         0.7317         0.8154       -39.4281      -30.12819       0.565251
      4615.5000         0.7363         0.8232       -39.7331      -30.43854      0.5606188
      4616.0000         0.7642         0.8166       -36.5621      -27.27289      0.6078674
      4616.5000         0.7927         0.8011       -33.1637      -23.87984      0.6585099
      4617.0000         0.7941         0.7855       -29.7653      -20.48679      0.7091523
      4617.5000         0.8134          0.768       -26.3669      -17.09374      0.7597949
      4618.0000         0.8327         0.7681       -22.9685       -13.7007      0.8104374
      4618.5000         0.8384         0.7693       -19.5701      -10.30765      0.8610799
      4619.0000         0.8408         0.7752       -16.1717      -6.914598      0.9117224
      4619.5000         0.8472         0.7804       -12.8529      -3.601151      0.9611769
      4620.0000         0.8384         0.7915       -14.1613      -4.914903      0.9415686
      4620.5000         0.8232         0.8017       -17.7441      -8.503056      0.8880141
