#------------------------------------------------------------------------------
# Created by    : vladimir.rabinovich
# Created on    : 09/19/2023 17:21:39
#------------------------------------------------------------------------------
~Version Information Section
VERS.           2.0     :   CWLS log ASCII Standard - VERSION 2.0
WRAP.           NO      :   One line per depth step
~Well Information Section
#MNEM       .UNIT                                         VALUE :DESCRIPTION
#------------------------------------------------------------------------------
STRT        .FT                                            3004 :START DEPTH
STOP        .FT                                           10487 :STOP DEPTH
STEP        .FT                                             0.5 :STEP      
NULL        .                                           -999.25 :NULL      
COMP        .                                    TENNECO OIL CO :COMPANY   
WELL        .                               OCS G04082 ST00BP00 :WELL      
FLD         .                            SABINE PASS BLOCK 0017 :FIELD     
LOC         .                                                   :LOCATION  
CNTY        .                                       SABINE PASS :LOCATION  
STAT        .                                             TEXAS :STATE     
CTRY        .                                     UNITED STATES :COUNTRY   
SRVC        .                                                   :SERVICE COMPANY
DATE        .                             9/13/2023 11:20:07 AM :LOG DATE  
API         .                                    42715400130000 :API NUMBER
UWI         .                                    42715400130000 :UNIQUE WELL ID
XCOORD      .                                  1369313.82013612 :SURFACE X 
YCOORD      .                                  10714127.2468036 :SURFACE Y 
LAT         .                                        29.5195329 :LATITUDE  
LON         .                                       -93.8526471 :LONGITUDE 
ELEV        .FT                                             111 :ELEVATION VALUE
ELEV_TYPE   .                                                KB :ELEVATION REFERENCE TYPE
~Curve Information Section
#MNEM       .UNIT                                      API CODE :CURVE DESCRIPTION
#------------------------------------------------------------------------------
DEPT        .FT                                                 :DEPTH     
CALI        .IN                                                 :          
DPHI        .%                                                  :          
DRHO        .G/C3                                               :          
GR          .GAPI                                               :          
GR_NORM     .GAPI                                               :GammaRay Normalized
ILD         .OHMM                                               :          
ILM         .OHMM                                               :          
NPHI        .%                                                  :          
SFL         .OHMM                                               :          
SP          .MV                                                 :          
SP_NORM     .MV                                                 :SP Normalized
VSH_GR      .V/V                                                :Volume of Shale from GR
VSH_SP      .V/V                                                :Volume of Shale from SP
~A        DEPTH           CALI           DPHI           DRHO             GR        GR_NORM            ILD            ILM           NPHI            SFL             SP        SP_NORM         VSH_GR         VSH_SP
# ...
      8476.0000        12.2255        29.7029         0.0021        25.7253       33.24187         0.1888         0.1871        33.5822         0.2516       -97.5297      -76.83574    0.005146189              0
      8476.5000        12.2186        29.8636         0.0092        25.4215       32.91844         0.1781         0.1803        34.6072         0.2601       -96.7839      -75.57515              0              0
      8477.0000        12.2157        30.2361         0.0125        25.7256       33.24171         0.1751         0.1751        36.2285         0.2564       -95.7452       -73.8239    0.005142699              0
      8477.5000        12.2255        30.9628         0.0071        26.5686       34.13827         0.1754         0.1723        36.9601         0.2401       -94.9407      -72.46499     0.02421846              0
      8478.0000        12.2157        30.7903         0.0028        28.0959       35.76281         0.1801         0.1704        35.6284         0.2184       -94.4117      -71.56759     0.05878327              0
      8478.5000        12.2265        30.2987          0.002        29.0861       36.81596         0.1901         0.1712        34.6448          0.198        -93.579      -70.16144     0.08119072              0
      8479.0000        12.2333        29.5453         0.0012        28.4045       36.09061          0.207         0.1802        34.8225         0.1858       -92.5486      -68.42409     0.06575775     0.02251304
      8479.5000        12.2255        27.8656        -0.0004        27.3723       34.99229         0.2366         0.2015        34.9304         0.1763       -91.7454      -67.06735     0.04238908     0.04189497
      8480.0000        12.2255        23.8471         0.0122        26.7327       34.31162          0.267         0.2275        30.4407         0.1836       -91.3309      -66.36177     0.02790678     0.05197471
      8480.5000         12.226         20.214         0.0254         26.846        34.4319         0.2971         0.2658        26.6564         0.2997       -91.3921      -66.45309     0.03046596     0.05067019
      8481.0000        12.2167        19.7588         0.0404        27.4059       35.02729         0.3192         0.2945        23.2059         0.4699       -92.0098      -67.47666     0.04313384     0.03604769
      8481.5000        12.2118        23.3109         0.0395        27.1287       34.73215         0.3355           0.29        24.0646         0.6851       -92.9314      -69.00932     0.03685436     0.01415253
      8482.0000         12.192        27.5964         0.0232        27.4864       35.11245         0.3429         0.2697        28.0277         0.6139       -93.3567      -69.71058     0.04494566    0.004134587
      8482.5000        12.2178         29.813         0.0057        28.3854       36.06858         0.3454         0.2479        32.0587          0.319       -93.5293      -69.98853     0.06528903    0.000163923
      8483.0000        12.2178        29.7742         0.0037        29.6437       37.40695         0.3308         0.2267        35.5688         0.2221        -93.451      -69.84615     0.09376486     0.00219792
      8483.5000        12.2079        30.1064         0.0022        29.4059       37.15372         0.2864         0.2092        35.9761         0.1945       -93.5293       -69.9661     0.08837712   0.0004842486
      8484.0000        12.2079        30.6534        -0.0007        28.1655       35.83391         0.2419         0.1954        34.9799         0.1871       -94.1176      -70.94044     0.06029592              0
      8484.5000        12.2183        31.0693        -0.0037        26.7029       34.27771          0.207         0.1833        34.4137         0.1871       -94.4117       -71.4219     0.02718532              0
      8485.0000        12.2287         30.802        -0.0029        25.6931        33.2032         0.1849          0.174        35.0792         0.1922       -94.4019      -71.39429    0.004323432              0
      8485.5000        12.2376        30.2023        -0.0005        25.3465       32.83424         0.1762         0.1687        35.7566         0.2053       -94.2408       -71.1132              0              0
      8486.0000        12.2475        30.1663         0.0006        26.6173       34.18591         0.1742         0.1652        35.9406         0.2192       -93.6074      -70.04091     0.02523211              0
      8486.5000        12.2475        30.7126         0.0002        28.2581        35.9312         0.1744         0.1636        36.1232         0.2292        -93.304      -69.52145     0.06236592    0.006836482
      8487.0000        12.2475        31.0277         0.0018        28.6139       36.30945         0.1756         0.1626        36.4226         0.2198       -93.0978      -69.16482     0.07041387     0.01193117
      8487.5000        12.2475        31.0278         0.0026        28.8412       36.55102         0.1767          0.162        37.0496         0.2085       -92.7941      -68.64484     0.07555365     0.01935948
      8488.0000        12.2475        30.6873         0.0116        29.2477       36.98322         0.1757          0.162        38.0823         0.2023       -92.6864      -68.45322     0.08474942     0.02209691
      8488.5000        12.2406        30.2975         0.0167        29.4457       37.19362         0.1743         0.1624        38.8235         0.1974        -92.745      -68.54018     0.08922593     0.02085451
      8489.0000        12.2376         29.977         0.0179        28.7713       36.47593         0.1725         0.1625        38.4235         0.1938       -92.8234      -68.66031     0.07395594     0.01913845
      8489.5000        12.2475        29.6815         0.0171        27.2772        34.8862         0.1715         0.1618        36.3237         0.1907       -93.0294      -68.99419     0.04013199     0.01436866
      8490.0000        12.2475        29.3428         0.0149         25.694       33.20171         0.1752         0.1656        35.3746         0.1859       -93.3333      -69.49207    0.004291697    0.007256099
      8490.5000        12.2475        28.9292         0.0134        24.7426       32.18933         0.1949         0.1763        35.0958         0.1802       -93.7157      -70.12148              0              0
      8491.0000        12.2376        27.7523         0.0106        25.3465       32.83154         0.2245         0.1881        35.9998         0.1759       -94.3826      -71.22747              0              0
      8491.5000        12.2376        25.5048         0.0034         27.654       35.28608         0.2601         0.2111         35.519          0.179       -95.1248      -72.45961      0.0486399              0
      8492.0000        12.2376         23.352         0.0028        30.1031       37.89126         0.2981         0.2456        33.4512         0.2072       -95.9126      -73.76813      0.1040693              0
      8492.5000        12.2376        22.0352         0.0035        32.4893       40.42952          0.329         0.2833        31.4599         0.3009       -96.3861      -74.55014       0.158075              0
      8493.0000        12.2376        22.8242         0.0144        33.5478       41.55534         0.3557         0.2975        31.2357         0.3912       -95.4749      -73.01247      0.1820286              0
      8493.5000        12.2475        25.3883         0.0184         34.666       42.74467          0.373         0.2991        32.4156         0.4397       -93.9993      -70.52933      0.2073333              0
      8494.0000        12.2376        29.3477          0.015        35.3132       43.43294         0.3704         0.2901         34.282         0.4197       -92.3131      -67.69337      0.2219774     0.03295179
      8494.5000        12.2475        32.2946         0.0019        36.2737        44.4545         0.3393         0.2783        34.8115         0.3463       -90.4109      -64.49557      0.2437128     0.07863475
