#------------------------------------------------------------------------------
# Created by    : vladimir.rabinovich
# Created on    : 09/19/2023 17:20:10
#------------------------------------------------------------------------------
~Version Information Section
VERS.           2.0     :   CWLS log ASCII Standard - VERSION 2.0
WRAP.           NO      :   One line per depth step
~Well Information Section
#MNEM       .UNIT                                         VALUE :DESCRIPTION
#------------------------------------------------------------------------------
STRT        .FT                                             613 :START DEPTH
STOP        .FT                                           12130 :STOP DEPTH
STEP        .FT                                             0.5 :STEP      
NULL        .                                           -999.25 :NULL      
COMP        .                                 CITIES SERVICE CO :COMPANY   
WELL        .                               OCS G03060 ST00BP00 :WELL      
FLD         .                                           WILDCAT :FIELD     
LOC         .                                                   :LOCATION  
CNTY        .                               MUSTANG ISLAND EAST :LOCATION  
STAT        .                                             TEXAS :STATE     
CTRY        .                                     UNITED STATES :COUNTRY   
SRVC        .                                                   :SERVICE COMPANY
DATE        .                             9/13/2023 11:12:08 AM :LOG DATE  
API         .                                    42712400440000 :API NUMBER
UWI         .                                    42712400440000 :UNIQUE WELL ID
XCOORD      .                                  632657.308411808 :SURFACE X 
YCOORD      .                                  10083439.8406154 :SURFACE Y 
LAT         .                                        27.7518805 :LATITUDE  
LON         .                                       -96.1160164 :LONGITUDE 
ELEV        .FT                                             103 :ELEVATION VALUE
ELEV_TYPE   .                                                KB :ELEVATION REFERENCE TYPE
~Curve Information Section
#MNEM       .UNIT                                      API CODE :CURVE DESCRIPTION
#------------------------------------------------------------------------------
DEPT        .FT                                                 :DEPTH     
ASFL        .OHMM                                               :          
CILD        .MMHO                                               :          
GR          .GAPI                                               :          
GR_NORM     .GAPI                                               :GammaRay Normalized
ILD         .OHMM                                               :          
SP          .MV                                                 :          
SP_NORM     .MV                                                 :SP Normalized
VSH_GR      .V/V                                                :Volume of Shale from GR
VSH_SP      .V/V                                                :Volume of Shale from SP
~A        DEPTH           ASFL           CILD             GR        GR_NORM            ILD             SP        SP_NORM         VSH_GR         VSH_SP
# ...
      6734.5000         0.6052       1686.615        61.5555       71.22565           0.64       -83.0331       -1.21492      0.8133118      0.9757016
      6735.0000         0.5899       1731.953        62.0665       71.89317         0.6461       -82.9221       -1.10392      0.8275144      0.9779216
      6735.5000         0.5746       1764.041        62.5776       72.56081         0.6474       -82.8954      -1.077225      0.8417193      0.9784555
      6736.0000         0.5597       1746.146        63.0887       73.22847         0.6445       -83.0465      -1.228325      0.8559249      0.9754335
      6736.5000          0.549       1725.117        63.4961       73.76073         0.6416       -83.1975      -1.379326      0.8672495      0.9724135
      6737.0000         0.5382       1700.287        63.7645       74.11153         0.6386       -83.3485      -1.530327      0.8747135      0.9693935
      6737.5000         0.5445       1616.424         63.465        73.7209         0.6363       -83.4996      -1.681427      0.8664021      0.9663715
      6738.0000         0.5684       1564.822        62.8697       72.94407         0.6344       -83.6129      -1.794724      0.8498738      0.9641055
      6738.5000         0.5864       1522.244         62.275       72.16805         0.6324       -83.5121      -1.693924      0.8333628      0.9661215
      6739.0000         0.5994       1522.318        61.6803       71.39202         0.6305       -83.4113      -1.593124      0.8168515      0.9681375
      6739.5000         0.6017       1554.234         60.625       70.01465          0.627       -83.3104      -1.492226      0.7875457      0.9701555
      6740.0000         0.5871        1591.17        60.5894       69.96855         0.6225       -83.1798      -1.361626      0.7865649      0.9727675
      6740.5000         0.5724       1634.518        62.2769       72.17205          0.618       -83.0289      -1.210724      0.8334479      0.9757855
      6741.0000         0.5578       1677.916        63.9619        74.3723         0.6135       -82.8779      -1.059723      0.8802617      0.9788055
      6741.5000         0.5772       1701.914        64.7239       75.36752         0.6086       -82.7271     -0.9089203      0.9014365      0.9818216
      6742.0000         0.5901       1710.496        65.4269        76.2857         0.6022        -82.576     -0.7578201      0.9209723      0.9848436
      6742.5000         0.5824       1704.281        66.1298       77.20377         0.5958       -82.5544     -0.7362213      0.9405057      0.9852756
      6743.0000         0.5703       1694.035        66.8333        78.1226         0.5894       -82.5533     -0.7351227      0.9600552      0.9852976
      6743.5000         0.5616       1678.984        67.4698       78.95398          0.583       -82.5782      -0.760025      0.9777442      0.9847995
      6744.0000         0.5651       1628.453        67.9415       79.57018         0.5766       -82.8608      -1.042625       0.990855      0.9791475
      6744.5000         0.5753       1560.846        68.4126        80.1856         0.5728       -83.1434      -1.325226              1      0.9734955
      6745.0000         0.5791       1551.896        68.8843       80.80183         0.5703        -83.426      -1.607826              1      0.9678435
      6745.5000         0.5655       1619.604         69.356       81.41804         0.5677       -83.7089      -1.890724              1      0.9621855
      6746.0000         0.5519       1685.521        69.5581       81.68227         0.5651       -83.9778      -2.159622              1      0.9568076
      6746.5000         0.5383       1723.354        69.5814       81.71307         0.5626       -84.1229      -2.304726              1      0.9539055
      6747.0000         0.5247       1761.184        69.6046       81.74374           0.56       -84.2679      -2.449722              1      0.9510056
      6747.5000         0.5177       1799.064         69.594       81.73029         0.5574       -84.4131      -2.594925              1      0.9481015
      6748.0000         0.5294       1832.471        68.7122       80.57943         0.5562       -84.5582      -2.740021              1      0.9451996
      6748.5000         0.5411       1854.393        67.8302       79.42831         0.5627       -84.5149      -2.696724      0.9878363      0.9460655
      6749.0000         0.6187       1876.291        66.9484       78.27746         0.5692       -84.3018      -2.483627      0.9633502      0.9503275
      6749.5000         0.6698       1899.953        65.3518       76.19338         0.5757       -84.0884      -2.270226      0.9190081      0.9545955
      6750.0000         0.7163       1812.287        63.5585       73.85251         0.5822        -83.875      -2.056824      0.8692023      0.9588635
      6750.5000         0.7557       1729.318        61.7996       71.55656         0.5887       -83.6619      -1.843727      0.8203523      0.9631255
      6751.0000         0.7805       1695.117        60.5426       69.91585         0.5952       -83.4485      -1.630325      0.7854435      0.9673935
      6751.5000         0.8021       1660.914        60.8243       70.28403         0.6017       -83.2377      -1.419525      0.7932771      0.9716095
      6752.0000         0.8002       1667.824        62.0284       71.85642         0.6081       -83.1078      -1.289627      0.8267324      0.9742075
      6752.5000         0.7661       1702.225        63.1969       73.38234         0.6144       -82.9778      -1.159622      0.8591987      0.9768075
      6753.0000         0.7397       1736.625        64.1415       74.61595         0.6207       -82.8479      -1.029724      0.8854458      0.9794055
      6753.5000         0.7285        1739.16        65.0861       75.84956          0.627        -82.718      -0.899826      0.9116927      0.9820035
      6754.0000         0.7175       1704.412        64.8635       75.55933         0.6333       -82.5881     -0.7699203      0.9055176      0.9846016
      6754.5000         0.7228       1666.383        63.9718       74.39555         0.6396       -82.4581     -0.6399231      0.8807563      0.9872015
      6755.0000         0.7336       1628.404          63.08       73.23164         0.6458       -82.4877     -0.6695251      0.8559923      0.9866095
      6755.5000         0.7444       1590.373        62.1883       72.06786          0.648       -82.5316     -0.7134247       0.831231      0.9857315
      6756.0000          0.754       1559.951        61.2966       70.90407          0.646       -82.5756     -0.7574234      0.8064696      0.9848515
      6756.5000         0.7618       1533.279        60.5211       69.89198          0.644       -82.6195     -0.8013229      0.7849358      0.9839736
      6757.0000         0.7695       1506.584        60.2265       69.50776         0.6419       -82.6179     -0.7997208      0.7767608      0.9840056
      6757.5000         0.7772       1516.727        61.5364       71.21829          0.626       -82.5798     -0.7616272      0.8131552      0.9847674
      6758.0000          0.785       1598.029        62.8451       72.92725         0.6047       -82.5419     -0.7237244       0.849516      0.9855255
      6758.5000         0.7927       1689.301        64.1267       74.60084         0.5835       -82.5038     -0.6856232      0.8851242      0.9862875
      6759.0000         0.7989       1749.949        65.3395       76.18459         0.5648       -82.4658     -0.6476212      0.9188212      0.9870476
      6759.5000         0.8044       1796.826        66.5522       77.76823         0.5603       -82.4153     -0.5971222      0.9525155      0.9880576
      6760.0000           0.81       1843.754        67.7383       79.31712         0.5558       -82.3187     -0.5005264      0.9854705      0.9899895
      6760.5000         0.8155       1873.309        67.7429       79.32351         0.5513       -82.2222     -0.4040222      0.9856066      0.9919196
