#------------------------------------------------------------------------------
# Created by    : vladimir.rabinovich
# Created on    : 09/19/2023 17:20:47
#------------------------------------------------------------------------------
~Version Information Section
VERS.           2.0     :   CWLS log ASCII Standard - VERSION 2.0
WRAP.           NO      :   One line per depth step
~Well Information Section
#MNEM       .UNIT                                         VALUE :DESCRIPTION
#------------------------------------------------------------------------------
STRT        .FT                                            1960 :START DEPTH
STOP        .FT                                           13420 :STOP DEPTH
STEP        .FT                                             0.5 :STEP      
NULL        .                                           -999.25 :NULL      
COMP        .                                 CALIFORNIA CO THE :COMPANY   
WELL        .                                     ST TR 00002-L :WELL      
FLD         .                                           WILDCAT :FIELD     
LOC         .                                                   :LOCATION  
CNTY        .                                       SABINE PASS :LOCATION  
STAT        .                                             TEXAS :STATE     
CTRY        .                                     UNITED STATES :COUNTRY   
SRVC        .                                                   :SERVICE COMPANY
DATE        .                             9/13/2023 11:12:08 AM :LOG DATE  
API         .                                    42715000310000 :API NUMBER
UWI         .                                    42715000310000 :UNIQUE WELL ID
XCOORD      .                                  1372392.72802961 :SURFACE X 
YCOORD      .                                   10750257.969662 :SURFACE Y 
LAT         .                                         29.618979 :LATITUDE  
LON         .                                       -93.8437903 :LONGITUDE 
ELEV        .FT                                              11 :ELEVATION VALUE
ELEV_TYPE   .                                                KB :ELEVATION REFERENCE TYPE
~Curve Information Section
#MNEM       .UNIT                                      API CODE :CURVE DESCRIPTION
#------------------------------------------------------------------------------
DEPT        .FT                                                 :DEPTH     
ASN         .OHMM                                               :          
IL          .OHMM                                               :          
SP          .MV                                                 :          
SP_NORM     .MV                                                 :SP Normalized
VSH_SP      .V/V                                                :Volume of Shale from SP
~A        DEPTH            ASN             IL             SP        SP_NORM         VSH_SP
# ...
     10320.0000         1.6395         1.4976       -41.5427      0.2555537              1
     10320.5000         1.6428         1.5114       -41.3534      0.4306071              1
     10321.0000          1.646         1.5027       -41.1644      0.6053828              1
     10321.5000         1.6327          1.494       -41.1566      0.6110331              1
     10322.0000         1.6163         1.4854       -41.1867      0.5813146              1
     10322.5000         1.5999         1.4767       -41.2169         0.5515              1
     10323.0000         1.5835          1.468       -41.2469       0.521874              1
     10323.5000         1.5708         1.4605       -41.3892      0.3874374              1
     10324.0000         1.5592         1.4567       -41.5639      0.2227554              1
     10324.5000         1.5476         1.4529       -41.7383     0.05835469              1
     10325.0000          1.536         1.4491        -41.913     -0.1063237      0.9984811
     10325.5000         1.5244         1.4453       -42.0801     -0.2639135      0.9962298
     10326.0000         1.5165         1.4415       -42.1902     -0.3683004      0.9947386
     10326.5000         1.5173         1.4376       -42.3002     -0.4725947      0.9932486
     10327.0000         1.5182         1.4383       -42.4103     -0.5769816      0.9917574
     10327.5000          1.519         1.4407       -42.5203     -0.6812724      0.9902675
     10328.0000         1.5222          1.443        -42.621     -0.7768829      0.9889017
     10328.5000         1.5267         1.4454        -42.693     -0.8457123      0.9879184
     10329.0000         1.5313         1.4477        -42.765     -0.9145381      0.9869352
     10329.5000         1.5358         1.4501        -42.837     -0.9833674      0.9859519
     10330.0000         1.5403         1.4524       -42.8926      -1.036887      0.9851874
     10330.5000         1.5448         1.4555       -42.9374      -1.080327      0.9845667
     10331.0000         1.5533         1.4616       -42.9822      -1.123768      0.9839462
     10331.5000          1.562         1.4677       -42.6234     -0.7905121      0.9887069
     10332.0000         1.5708         1.4737        -42.146     -0.3465642      0.9950491
     10332.5000         1.5795         1.4798       -41.6686     0.09738363              1
     10333.0000         1.5882         1.4858       -41.4075       0.339447              1
     10333.5000          1.597         1.4919       -41.3271      0.4128622              1
     10334.0000         1.6057          1.498       -41.2465      0.4864624              1
     10334.5000         1.6111         1.5002       -41.1661      0.5598739              1
     10335.0000         1.6157         1.5007       -41.3528      0.3839981              1
     10335.5000         1.6204         1.5012       -41.5677      0.1817968              1
     10336.0000         1.6251         1.5017       -41.7828     -0.0205897      0.9997059
     10336.5000         1.6298         1.5021       -41.9976     -0.2226985      0.9968186
     10337.0000         1.6243         1.4994       -42.2128     -0.4251775       0.993926
     10337.5000         1.6182         1.4842       -42.2645     -0.4750585      0.9932135
     10338.0000         1.6121          1.469       -42.2841     -0.4949788      0.9929289
     10338.5000         1.6061         1.4538       -42.3035     -0.5147141      0.9926469
     10339.0000            1.6         1.4386       -42.3231     -0.5346308      0.9923624
     10339.5000          1.594         1.4233       -42.3425     -0.5543625      0.9920805
     10340.0000         1.5878         1.4081       -42.3621     -0.5742828       0.991796
     10340.5000         1.5817         1.3941       -42.2643     -0.4846324      0.9930767
     10341.0000         1.5756         1.3923        -42.162     -0.3907771      0.9944175
     10341.5000         1.5695         1.3905       -42.0598     -0.2970179      0.9957569
     10342.0000         1.5634         1.3887       -41.9575     -0.2031662      0.9970976
     10342.5000         1.5573         1.3869       -41.9254     -0.1748327      0.9975024
     10343.0000         1.5573         1.3851       -41.9212     -0.1725362      0.9975352
     10343.5000         1.5593         1.3833        -41.917     -0.1702433       0.997568
     10344.0000         1.5612         1.4045       -41.9128     -0.1679504      0.9976007
     10344.5000         1.5632         1.4259       -41.9087     -0.1657501      0.9976321
     10345.0000         1.5694         1.4473       -41.9045     -0.1634572      0.9976649
     10345.5000         1.5861         1.4687       -41.9004     -0.1612569      0.9976963
     10346.0000         1.6029         1.4859       -41.8962      -0.158964      0.9977291
     10346.5000         1.6197          1.494       -41.9053     -0.1690826      0.9975845
     10347.0000         1.6365         1.5021       -41.9634     -0.2249379      0.9967866
     10347.5000         1.6532         1.5103       -42.0217     -0.2809784       0.995986
     10348.0000         1.6654         1.5184       -42.0798     -0.3368301      0.9951881
     10348.5000         1.6744         1.5265        -42.138      -0.392778      0.9943889
     10349.0000         1.6835          1.507       -42.2404     -0.4899765      0.9930003
     10349.5000         1.6925         1.4817       -42.3573     -0.6007116      0.9914184
     10350.0000         1.6893         1.4564       -42.4739     -0.7111654      0.9898405
     10350.5000         1.6749         1.4311       -42.5428     -0.7770966      0.9888986
     10351.0000         1.6605         1.4058        -42.506     -0.7443766      0.9893661
     10351.5000         1.6461         1.4114       -42.4692     -0.7116567      0.9898335
     10352.0000         1.6291         1.4185       -42.4324     -0.6789368      0.9903009
     10352.5000         1.6116         1.4257       -42.3953     -0.6459391      0.9907723
     10353.0000         1.5942         1.4328       -42.3529     -0.6079925      0.9913144
     10353.5000         1.5768         1.4399       -42.3107     -0.5702311      0.9918538
     10354.0000         1.5701         1.4471       -42.2684     -0.5323771      0.9923946
     10354.5000         1.5796         1.4524       -42.2581     -0.5243876      0.9925088
     10355.0000          1.589         1.4569        -42.292     -0.5576559      0.9920335
     10355.5000         1.5984         1.4613       -42.3259     -0.5909241      0.9915583
     10356.0000         1.6079         1.4657       -42.3599     -0.6242849      0.9910817
     10356.5000         1.6148         1.4701       -42.3643     -0.6300171      0.9909998
     10357.0000         1.6162         1.4745       -42.3601     -0.6277242      0.9910325
     10357.5000         1.6176         1.4789       -42.3559     -0.6254313      0.9910653
     10358.0000          1.619         1.4768       -42.3517     -0.6231349       0.991098
     10358.5000         1.6199          1.469       -42.3476     -0.6209345      0.9911295
     10359.0000         1.6101         1.4611       -42.3434     -0.6186417      0.9911622
     10359.5000         1.6003         1.4533       -42.4324     -0.7033361      0.9899523
     10360.0000         1.5905         1.4454       -42.5311     -0.7970846      0.9886131
     10360.5000         1.5807         1.4376       -42.6298     -0.8908294      0.9872739
     10361.0000         1.5709         1.4298       -42.7284     -0.9844854      0.9859359
     10361.5000         1.5692         1.4244       -42.7393     -0.9962845      0.9857674
     10362.0000         1.5677         1.4196        -42.735     -0.9938955      0.9858015
     10362.5000         1.5663         1.4148       -42.7309     -0.9916952      0.9858329
     10363.0000         1.5678           1.41       -42.7267     -0.9894022      0.9858657
     10363.5000         1.5759         1.4052       -42.7161     -0.9811351      0.9859838
