#------------------------------------------------------------------------------
# Created by    : vladimir.rabinovich
# Created on    : 09/19/2023 17:20:45
#------------------------------------------------------------------------------
~Version Information Section
VERS.           2.0     :   CWLS log ASCII Standard - VERSION 2.0
WRAP.           NO      :   One line per depth step
~Well Information Section
#MNEM       .UNIT                                         VALUE :DESCRIPTION
#------------------------------------------------------------------------------
STRT        .FT                                             565 :START DEPTH
STOP        .FT                                           11656 :STOP DEPTH
STEP        .FT                                             0.5 :STEP      
NULL        .                                           -999.25 :NULL      
COMP        .                     MITCHELL ENERGY OFFSHORE CORP :COMPANY   
WELL        .                               OCS G02394 ST00BP00 :WELL      
FLD         .                            HIGH ISLAND BLOCK 0047 :FIELD     
LOC         .                                                   :LOCATION  
CNTY        .                                  HIGH ISLAND EAST :LOCATION  
STAT        .                                             TEXAS :STATE     
CTRY        .                                     UNITED STATES :COUNTRY   
SRVC        .                                                   :SERVICE COMPANY
DATE        .                             9/13/2023 11:11:59 AM :LOG DATE  
API         .                                    42710400050000 :API NUMBER
UWI         .                                    42710400050000 :UNIQUE WELL ID
XCOORD      .                                  1370895.90844183 :SURFACE X 
YCOORD      .                                  10676661.5178287 :SURFACE Y 
LAT         .                                        29.4165067 :LATITUDE  
LON         .                                        -93.846815 :LONGITUDE 
ELEV        .FT                                              96 :ELEVATION VALUE
ELEV_TYPE   .                                                KB :ELEVATION REFERENCE TYPE
~Curve Information Section
#MNEM       .UNIT                                      API CODE :CURVE DESCRIPTION
#------------------------------------------------------------------------------
DEPT        .FT                                                 :DEPTH     
ASN         .OHMM                                               :          
CILD        .MMHO                                               :          
GR          .GAPI                                               :          
GR_NORM     .GAPI                                               :GammaRay Normalized
ILD         .OHMM                                               :          
SP          .MV                                                 :          
SP_NORM     .MV                                                 :SP Normalized
VSH_GR      .V/V                                                :Volume of Shale from GR
VSH_SP      .V/V                                                :Volume of Shale from SP
~A        DEPTH            ASN           CILD             GR        GR_NORM            ILD             SP        SP_NORM         VSH_GR         VSH_SP
# ...
     11642.0000         1.2878       946.4697        -999.25        -999.25         1.2453       -55.3508      -14.61006        -999.25      0.7912849
     11642.5000         1.2958       996.5088        -999.25        -999.25         1.2497       -54.3756      -13.63486        -999.25      0.8052163
     11643.0000         1.3042       1046.645        -999.25        -999.25         1.2543       -53.4435      -12.70276        -999.25       0.818532
     11643.5000         1.3128       1147.986        -999.25        -999.25         1.2241       -52.6062      -11.86546        -999.25      0.8304934
     11644.0000         1.3214       1271.234        -999.25        -999.25         1.1362       -51.7689      -11.02816        -999.25      0.8424548
     11644.5000         1.1194       1341.912        -999.25        -999.25         1.0332       -51.0326      -10.29186        -999.25      0.8529734
     11645.0000          1.034       1401.393        -999.25        -999.25         0.9624        -50.763      -10.02226        -999.25      0.8568248
     11645.5000         1.0075       1447.537        -999.25        -999.25         0.9091       -50.6401      -9.899361        -999.25      0.8585806
     11646.0000         0.9748       1493.684        -999.25        -999.25         0.8601        -50.517       -9.77626        -999.25      0.8603392
     11646.5000         0.9389       1523.082        -999.25        -999.25         0.8152       -49.8851      -9.144363        -999.25      0.8693662
     11647.0000         0.9102       1547.859        -999.25        -999.25         0.7778       -49.2029      -8.462162        -999.25      0.8791119
     11647.5000         0.8828       1572.635        -999.25        -999.25         0.7537       -48.5208      -7.780064        -999.25      0.8888562
     11648.0000         0.8593       1595.537        -999.25        -999.25         0.7489       -47.6896      -6.948864        -999.25      0.9007305
     11648.5000         0.8358       1609.701        -999.25        -999.25         0.7447       -46.5839      -5.843163        -999.25      0.9165263
     11649.0000          0.812       1623.865        -999.25        -999.25         0.7412        -46.016      -5.275261        -999.25      0.9246391
     11649.5000         0.7873       1628.041        -999.25        -999.25         0.7377       -45.8833      -5.142563        -999.25      0.9265348
     11650.0000         0.7619        1622.09        -999.25        -999.25         0.7342       -46.1191      -5.378361        -999.25      0.9231663
     11650.5000         0.8904       1616.139        -999.25        -999.25         0.7335       -46.3549      -5.614162        -999.25      0.9197977
     11651.0000         1.0355       1610.176        -999.25        -999.25         0.7339       -46.5913      -5.850563        -999.25      0.9164205
     11651.5000         1.0861       1604.225        -999.25        -999.25         0.7344       -46.8271      -6.086361        -999.25       0.913052
     11652.0000         1.1368       1598.262        -999.25        -999.25         0.7348       -47.0863      -6.345562        -999.25      0.9093491
     11652.5000         1.1807       1592.313        -999.25        -999.25         0.7352       -47.5406      -6.799862        -999.25      0.9028591
     11653.0000         1.2244       1586.361        -999.25        -999.25         0.7353       -48.0135      -7.272762        -999.25      0.8961034
     11653.5000         1.2948       1580.398        -999.25        -999.25          0.735        -48.559       -7.81826        -999.25      0.8883106
     11654.0000          1.321       1574.447        -999.25        -999.25         0.7347       -49.5095      -8.768761        -999.25       0.874732
     11654.5000         1.3349       1571.424        -999.25        -999.25         0.7344       -52.0411      -11.30036        -999.25      0.8385662
     11655.0000         1.3467       1570.094        -999.25        -999.25         0.7348       -53.1566      -12.41586        -999.25      0.8226305
     11655.5000         1.3583       1568.766        -999.25        -999.25         0.7352       -54.2377      -13.49696        -999.25      0.8071862
     11656.0000           1.36       1567.432        -999.25        -999.25         0.7356       -55.0442      -14.30346        -999.25      0.7956648
