#------------------------------------------------------------------------------
# Created by    : vladimir.rabinovich
# Created on    : 09/19/2023 17:20:22
#------------------------------------------------------------------------------
~Version Information Section
VERS.           2.0     :   CWLS log ASCII Standard - VERSION 2.0
WRAP.           NO      :   One line per depth step
~Well Information Section
#MNEM       .UNIT                                         VALUE :DESCRIPTION
#------------------------------------------------------------------------------
STRT        .FT                                             538 :START DEPTH
STOP        .FT                                           11949 :STOP DEPTH
STEP        .FT                                             0.5 :STEP      
NULL        .                                           -999.25 :NULL      
COMP        .                                 CITIES SERVICE CO :COMPANY   
WELL        .                               OCS G03070 ST00BP00 :WELL      
FLD         .                                           WILDCAT :FIELD     
LOC         .                                                   :LOCATION  
CNTY        .                               MUSTANG ISLAND EAST :LOCATION  
STAT        .                                             TEXAS :STATE     
CTRY        .                                     UNITED STATES :COUNTRY   
SRVC        .                                                   :SERVICE COMPANY
DATE        .                             9/13/2023 11:20:11 AM :LOG DATE  
API         .                                    42712400020000 :API NUMBER
UWI         .                                    42712400020000 :UNIQUE WELL ID
XCOORD      .                                  546520.538281646 :SURFACE X 
YCOORD      .                                  9992103.69354039 :SURFACE Y 
LAT         .                                        27.4947268 :LATITUDE  
LON         .                                       -96.3742825 :LONGITUDE 
ELEV        .FT                                              65 :ELEVATION VALUE
ELEV_TYPE   .                                                KB :ELEVATION REFERENCE TYPE
~Curve Information Section
#MNEM       .UNIT                                      API CODE :CURVE DESCRIPTION
#------------------------------------------------------------------------------
DEPT        .FT                                                 :DEPTH     
ASFL        .OHMM                                               :          
CILD        .MMHO                                               :          
DT          .US/F                                               :          
GR          .GAPI                                               :          
GR_NORM     .GAPI                                               :GammaRay Normalized
ILD         .OHMM                                               :          
SFL         .OHMM                                               :          
SP          .MV                                                 :          
SP_NORM     .MV                                                 :SP Normalized
VSH_GR      .V/V                                                :Volume of Shale from GR
VSH_SP      .V/V                                                :Volume of Shale from SP
~A        DEPTH           ASFL           CILD             DT             GR        GR_NORM            ILD            SFL             SP        SP_NORM         VSH_GR         VSH_SP
# ...
      8885.5000         0.3541       4067.582       126.1666        46.9036       75.34805         0.2462         0.3687       -98.0548       1.633217      0.9010224              1
      8886.0000         0.3614       4022.066       126.4316        47.4586       76.07275         0.2423         0.3545       -98.0818       1.581482      0.9164416              1
      8886.5000         0.3687       3607.395       126.7732        48.5494       77.49509         0.2375         0.3482       -98.2485       1.390045      0.9467041              1
      8887.0000         0.3759       3527.219       127.3385        49.5255       78.76809         0.2312         0.3471       -98.6527      0.9610977      0.9737892              1
      8887.5000         0.3832       3447.047       127.9077        49.4386       78.65697         0.2332         0.3282        -99.624      -0.034935       0.971425      0.9993013
      8888.0000         0.3875       3465.918       128.3677        48.5892         77.553         0.2406         0.3035      -100.4071     -0.8427734      0.9479362      0.9831445
      8888.5000         0.3895       3493.457       128.4631        47.8483       76.59031         0.2472         0.3085      -100.5284     -0.9888077      0.9274534      0.9802238
      8889.0000         0.3836       3520.996       127.9568        47.1823       75.72517         0.2568         0.3357      -100.5718      -1.056953      0.9090461      0.9788609
      8889.5000         0.3777       3548.535       126.5387        47.3724       75.97472         0.2688          0.373      -100.7594      -1.269295      0.9143556      0.9746141
      8890.0000         0.3717        3576.07       123.1947        46.8674        75.3192         0.2821         0.4127      -101.7959      -2.330528      0.9004085      0.9533894
      8890.5000         0.3671       3612.375       118.7561         45.504       73.54597         0.2945         0.4549       -103.736      -4.295372      0.8626801      0.9140925
      8891.0000         0.3682       3669.441       114.6907        44.2178       71.87326         0.3041         0.4887      -103.8446      -4.428703      0.8270906      0.9114259
      8891.5000         0.3694       3726.512       113.4316        45.5281       73.58141         0.3145         0.4422      -102.7804      -3.389252      0.8634341       0.932215
      8892.0000         0.3705       3774.914       115.3948        47.2535       75.83006         0.3262          0.389      -101.9274      -2.560989      0.9112779      0.9487802
      8892.5000         0.3726       3730.941       117.2159        48.8389       77.89642         0.3208         0.3711       -101.172      -1.830322      0.9552429      0.9633936
      8893.0000         0.3749       3673.824       118.8506        50.1565       79.61407         0.3115         0.3914      -100.5568      -1.239868      0.9917887      0.9752026
      8893.5000         0.3772       3609.285        118.944        51.0276       80.75034         0.3043         0.4075      -100.0669     -0.7747116              1      0.9845058
      8894.0000         0.3794        3544.75       118.2747        51.6055       81.50484         0.3017         0.4086       -99.6765     -0.4090424              1      0.9918191
      8894.5000         0.3817       3480.211       117.6128        52.0851       82.13134         0.3042         0.4159       -99.4978     -0.2550888              1      0.9948982
      8895.0000          0.384       3415.773       116.8341        51.1531       80.91984         0.3077         0.4291       -99.5675     -0.3495178              1      0.9930096
      8895.5000         0.3863       3355.766       116.0068        49.3071       78.51822         0.3098         0.4162       -99.3827     -0.1894608      0.9684727      0.9962108
      8896.0000         0.3886       3319.961       115.3474        49.6708       78.99381         0.3085         0.3978       -99.0913     0.07719421      0.9785917              1
      8896.5000         0.3852       3284.109        114.885        50.1414       79.60861         0.3058         0.3983       -98.8057      0.3380585      0.9916726              1
      8897.0000          0.381       3302.934       116.7457        50.5161       80.09853         0.3004         0.4043       -98.6057      0.5133209              1              1
      8897.5000         0.3768       3481.305       119.3607        50.9951       80.72425         0.2916         0.3957       -98.4482      0.6460876              1              1
      8898.0000         0.3726       3740.254        121.254        51.4807       81.35859         0.2815         0.3608       -98.2401      0.8294449              1              1
      8898.5000         0.3685       3833.773       122.8165        51.8396       81.82794         0.2708         0.3519       -97.9756       1.069199              1              1
      8899.0000         0.3643       3932.672       123.8988        52.2438       82.35626         0.2619         0.3522       -97.8033       1.216766              1              1
      8899.5000         0.3601       3976.156       124.0898         51.351       81.19579         0.2563         0.3556       -97.4043       1.591026              1              1
      8900.0000         0.3559       3990.047       124.3638        48.8763       77.97556         0.2519           0.36       -98.1907       0.779892      0.9569267              1
      8900.5000         0.3534       4003.922       124.7025        47.8423       76.63123         0.2502         0.3637       -99.1534       -0.20755      0.9283239       0.995849
      8901.0000          0.351       4017.797       125.1304        47.4261       76.09133         0.2489         0.3661       -99.5902     -0.6690979      0.9168369       0.986618
      8901.5000         0.3485       4031.688       125.7997        47.4355       76.10561         0.2476         0.3558       -98.8916    0.004768372      0.9171405              1
      8902.0000         0.3461       4045.563       126.2631         46.871       75.37261         0.2463         0.3505       -98.0894      0.7822266      0.9015449              1
      8902.5000         0.3437       4059.453       126.3757        46.1036       74.37542          0.246         0.3524       -97.6284       1.218483      0.8803281              1
      8903.0000         0.3412        4080.48       125.7412        45.3737       73.42706         0.2491         0.3506       -97.2671       1.555054      0.8601501              1
      8903.5000         0.3399       4108.867       124.9836        45.2535       73.27258         0.2533         0.3467       -97.0413       1.756111      0.8568634              1
      8904.0000         0.3391       4137.297       123.6675        45.4373       73.51393         0.2591         0.3489       -96.9954       1.777275      0.8619986              1
      8904.5000         0.3383       4165.734       122.5081        46.1869         74.492          0.268         0.3719       -96.8833       1.864632      0.8828086              1
      8905.0000         0.3375       4202.031       121.4493        47.1787       75.78544         0.2773         0.3935       -96.5076       2.215591      0.9103285              1
      8905.5000         0.3367       4243.117       120.5114        47.8785       76.69868         0.2844         0.3841       -96.1951       2.503357      0.9297593              1
      8906.0000         0.3359        4284.25       119.5933        48.3756       77.34796         0.2873         0.3926       -96.1445       2.529213      0.9435737              1
      8906.5000         0.3351       4341.969       118.7288        48.6042       77.64764         0.2884         0.4062       -95.9543       2.694679      0.9499499              1
      8907.0000         0.3339        4413.18       118.0177        48.6152       77.66401         0.2868         0.4214       -95.7931       2.831139      0.9502981              1
      8907.5000         0.3318       4452.914       118.3928        48.3708       77.34782         0.2862         0.3993        -96.005       2.594498      0.9435706              1
