#------------------------------------------------------------------------------
# Created by    : vladimir.rabinovich
# Created on    : 09/19/2023 17:21:38
#------------------------------------------------------------------------------
~Version Information Section
VERS.           2.0     :   CWLS log ASCII Standard - VERSION 2.0
WRAP.           NO      :   One line per depth step
~Well Information Section
#MNEM       .UNIT                                         VALUE :DESCRIPTION
#------------------------------------------------------------------------------
STRT        .FT                                            1242 :START DEPTH
STOP        .FT                                            7802 :STOP DEPTH
STEP        .FT                                             0.5 :STEP      
NULL        .                                           -999.25 :NULL      
COMP        .                                    CITIES SERVICE :COMPANY   
WELL        .                               OCS G03070 ST00BP00 :WELL      
FLD         .                                           WILDCAT :FIELD     
LOC         .                                                   :LOCATION  
CNTY        .                               MUSTANG ISLAND EAST :LOCATION  
STAT        .                                             TEXAS :STATE     
CTRY        .                                     UNITED STATES :COUNTRY   
SRVC        .                                                   :SERVICE COMPANY
DATE        .                             9/13/2023 11:20:08 AM :LOG DATE  
API         .                                    42712400230000 :API NUMBER
UWI         .                                    42712400230000 :UNIQUE WELL ID
XCOORD      .                                  541821.370048326 :SURFACE X 
YCOORD      .                                   9995115.4612029 :SURFACE Y 
LAT         .                                         27.502648 :LATITUDE  
LON         .                                       -96.3890109 :LONGITUDE 
ELEV        .FT                                              64 :ELEVATION VALUE
ELEV_TYPE   .                                                KB :ELEVATION REFERENCE TYPE
~Curve Information Section
#MNEM       .UNIT                                      API CODE :CURVE DESCRIPTION
#------------------------------------------------------------------------------
DEPT        .FT                                                 :DEPTH     
CALI        .IN                                                 :          
CILD        .MMHO                                               :          
DRHO        .G/C3                                               :          
DT          .US/F                                               :          
GR          .GAPI                                               :          
GR_1        .GAPI                                               :          
GR_NORM     .GAPI                                               :GammaRay Normalized
ILD         .OHMM                                               :          
NPHI        .%                                                  :          
RHOB        .G/C3                                               :          
SFL         .OHMM                                               :          
SP          .MV                                                 :          
SP_NORM     .MV                                                 :SP Normalized
VSH_GR      .V/V                                                :Volume of Shale from GR
VSH_SP      .V/V                                                :Volume of Shale from SP
~A        DEPTH           CALI           CILD           DRHO             DT             GR           GR_1        GR_NORM            ILD           NPHI           RHOB            SFL             SP        SP_NORM         VSH_GR         VSH_SP
# ...
      7345.0000        12.6734       1318.168         0.0119       125.8617        52.7509        53.1991        68.0105         0.8714        37.2487         2.3048         0.9217       -50.4319      -2.478683      0.7449042      0.9380329
      7345.5000        12.6228       1304.775         0.0128       127.0272        52.8193        52.4077       67.02126         0.8886        37.2185         2.3202         0.9304       -50.3729      -2.419682      0.7238565       0.939508
      7346.0000        12.6725        1286.35         0.0223       127.0822        53.0131        51.6163         66.032         0.9045        37.4595         2.3353         0.9204       -50.1316      -2.178383      0.7028084      0.9455404
      7346.5000        12.8934       1265.371         0.0589       126.8787        53.5618        50.9221       65.16425         0.9074        37.4263         2.3459         0.9037       -49.5234      -1.570183      0.6843458      0.9607455
      7347.0000         13.093       1244.393         0.0455       127.6311        54.1495        51.2266       65.54488         0.8972        36.9445         2.3297         0.9064       -48.8495     -0.8962822      0.6924441      0.9775929
      7347.5000        13.2346       1223.561         0.0425       128.4692         55.037        52.5103       67.14951         0.8793        37.3002          2.321         0.9193       -48.4404     -0.4871826      0.7265852      0.9878204
      7348.0000          13.19       1202.992          0.056       128.9253        56.5375        55.9082       71.39687         0.8547        38.1433         2.3438         0.9383       -48.4833     -0.5300827      0.8169547      0.9867479
      7348.5000        13.1466       1184.482         0.0713       128.7507        57.6858        58.1655       74.21851           0.83        38.5856         2.3694          0.959       -48.6981     -0.7448845      0.8769895      0.9813779
      7349.0000        13.1087       1171.549         0.0685       127.9017        57.9779        60.7137       77.40376          0.804        38.4813         2.3578          0.983       -48.9473     -0.9940834      0.9447607      0.9751479
      7349.5000        13.0837       1164.143         0.0583       128.2239        57.9637        62.9162       80.15688         0.7789        38.3127         2.3035         1.0031        -49.213      -1.259785              1      0.9685054
      7350.0000        13.1194       1160.764         0.0583       128.3713         58.192        64.7969       82.50774         0.7539        38.0959         2.3003         0.9747       -50.0411      -2.087883              1      0.9478029
      7350.5000        13.0759       1163.068          0.083       128.4517         58.868        66.2271        84.2955         0.7294        37.9879         2.3194          0.881       -51.4025      -3.449284              1      0.9137679
      7351.0000        12.9865       1168.246         0.0765       127.4467        59.4879        67.6621       86.08925         0.6952        38.0862         2.3034         0.7854       -53.7833      -5.830082              1      0.8542479
      7351.5000        13.0795       1179.861         0.0773       126.0741          59.77        68.9982       87.75938         0.6605        38.7753         2.3118         0.7766        -56.269      -8.315784              1      0.7921054
      7352.0000        13.1721       1204.203         0.0822       124.2424        59.9271        69.4027         88.265         0.6261        39.0306         2.3192         0.8248       -58.9275      -10.97429              1      0.7256429
      7352.5000        13.0788        1228.52         0.0872       119.7903        59.9246        68.3438       86.94138         0.5966        39.1877         2.3212         0.8756       -61.7144      -13.76118              1      0.6559704
      7353.0000        12.9631       1260.652         0.0743       118.5045        59.6841        66.7802       84.98688         0.5761         39.499         2.3087         0.8398       -64.7654      -16.81219              1      0.5796953
      7353.5000        12.8576       1293.318         0.0771       118.2767        59.0244        65.2355       83.05599         0.5605         40.022         2.3008         0.7981       -67.5325      -19.57928              1      0.5105179
      7354.0000        13.0276       1330.969         0.0677       119.0039        57.8922        63.9996       81.51112          0.548         39.978         2.2921         0.7903       -69.5787      -21.62548              1       0.459363
      7354.5000        13.2304       1380.717         0.0424       121.3337        55.7144        62.7625       79.96475         0.5424        39.1088         2.2758         0.8153       -68.8037      -20.85049      0.9992501      0.4787378
      7355.0000        13.2765       1429.691           0.02       124.9629        53.1497        61.5265       78.41975         0.5426         37.818         2.2598         0.8875       -64.5481      -16.59489      0.9663777      0.5851278
      7355.5000        12.9635       1478.084         0.0053        129.271        52.0984        59.3073       75.64575         0.5536        36.6242         2.2662         0.9128       -60.8702      -12.91698      0.9073564      0.6770754
      7356.0000        12.4291       1658.541         0.0015       133.5986         51.329        57.0619         72.839         0.5793        36.4673         2.2709         0.8792       -56.4566      -8.503384      0.8476384      0.7874154
      7356.5000        12.3049       1866.633         0.0069       136.7783        49.9595        55.1001       70.38675         0.6132        36.9704         2.2622         0.8107       -51.8876      -3.934383      0.7954627      0.9016404
      7357.0000        12.2899       1899.008         0.0091       139.2598        48.6678        52.8046       67.51738         0.6455        36.8988         2.2589         0.7486       -50.5435      -2.590282      0.7344123       0.935243
      7357.5000        12.2725        1862.18         0.0202       140.1958        48.4738        50.7821       64.98925         0.6771        35.1678         2.2568         0.6968       -49.4907      -1.537483      0.6806223      0.9615629
      7358.0000        12.2678       1739.455         0.0342       139.8604           50.8        51.3637       65.71626         0.7087        33.1175          2.248         0.6938       -48.9384     -0.9851837      0.6960905      0.9753704
      7358.5000         12.263       1641.314         0.0551       139.6931        54.3696          52.04       66.56162          0.737        32.5012         2.2625         0.7124       -48.6811     -0.7278824      0.7140771      0.9818029
      7359.0000        12.6182       1571.822         0.0927       140.6711        56.4733         52.717       67.40788         0.7586        33.9009         2.2792         0.7401       -48.4169     -0.4636841      0.7320824      0.9884079
      7359.5000        13.0301       1517.428         0.0949       141.0591        57.4299        52.9205       67.66226         0.7715        35.3917         2.2877         0.7799       -48.0769     -0.1236839      0.7374949      0.9969079
      7360.0000        13.2086       1466.953         0.0885       141.2229        57.8962        52.9838       67.74138         0.7761        39.7706         2.2818          0.852       -47.7258       0.227417      0.7391783              1
      7360.5000        13.2831       1420.932         0.0764       142.2759        58.2766        53.1688       67.97263         0.7682        39.4072         2.2843         0.9433       -47.4166      0.5366173      0.7440984              1
      7361.0000        13.5615       1378.104         0.0707       144.3003        59.0516        53.3737       68.22875          0.752        39.0677         2.2752         1.0473       -46.9587      0.9945183      0.7495479              1
      7361.5000        13.7867       1337.719         0.0701       146.0698        59.8024        53.8248       68.79263         0.7328        38.7372         2.2557         1.1009       -46.4015       1.551716      0.7615454              1
