#------------------------------------------------------------------------------
# Created by    : vladimir.rabinovich
# Created on    : 09/19/2023 17:20:10
#------------------------------------------------------------------------------
~Version Information Section
VERS.           2.0     :   CWLS log ASCII Standard - VERSION 2.0
WRAP.           NO      :   One line per depth step
~Well Information Section
#MNEM       .UNIT                                         VALUE :DESCRIPTION
#------------------------------------------------------------------------------
STRT        .FT                                             613 :START DEPTH
STOP        .FT                                           12130 :STOP DEPTH
STEP        .FT                                             0.5 :STEP      
NULL        .                                           -999.25 :NULL      
COMP        .                                 CITIES SERVICE CO :COMPANY   
WELL        .                               OCS G03060 ST00BP00 :WELL      
FLD         .                                           WILDCAT :FIELD     
LOC         .                                                   :LOCATION  
CNTY        .                               MUSTANG ISLAND EAST :LOCATION  
STAT        .                                             TEXAS :STATE     
CTRY        .                                     UNITED STATES :COUNTRY   
SRVC        .                                                   :SERVICE COMPANY
DATE        .                             9/13/2023 11:12:08 AM :LOG DATE  
API         .                                    42712400440000 :API NUMBER
UWI         .                                    42712400440000 :UNIQUE WELL ID
XCOORD      .                                  632657.308411808 :SURFACE X 
YCOORD      .                                  10083439.8406154 :SURFACE Y 
LAT         .                                        27.7518805 :LATITUDE  
LON         .                                       -96.1160164 :LONGITUDE 
ELEV        .FT                                             103 :ELEVATION VALUE
ELEV_TYPE   .                                                KB :ELEVATION REFERENCE TYPE
~Curve Information Section
#MNEM       .UNIT                                      API CODE :CURVE DESCRIPTION
#------------------------------------------------------------------------------
DEPT        .FT                                                 :DEPTH     
ASFL        .OHMM                                               :          
CILD        .MMHO                                               :          
GR          .GAPI                                               :          
GR_NORM     .GAPI                                               :GammaRay Normalized
ILD         .OHMM                                               :          
SP          .MV                                                 :          
SP_NORM     .MV                                                 :SP Normalized
VSH_GR      .V/V                                                :Volume of Shale from GR
VSH_SP      .V/V                                                :Volume of Shale from SP
~A        DEPTH           ASFL           CILD             GR        GR_NORM            ILD             SP        SP_NORM         VSH_GR         VSH_SP
# ...
      9808.5000         0.7793       2303.691        44.7387       61.75602         0.4752       -89.7573      -21.02305      0.6118301      0.5795391
      9809.0000         0.7657       2194.121        44.1299       60.96084         0.4821       -89.2208      -20.49216      0.5949115      0.5901567
      9809.5000         0.8623       2115.719        43.5212       60.16579          0.489       -88.6844      -19.96138      0.5779955      0.6007724
      9810.0000         0.9362       2046.445        42.9111       59.36892         0.4959       -88.1467      -19.42929      0.5610408      0.6114142
      9810.5000         0.9503       1977.074        42.3024       58.57387         0.5029       -87.9353      -19.22352      0.5441248      0.6155297
      9811.0000         0.9354       1954.271        41.9312       58.08888         0.5098       -87.7516      -19.04543       0.533806      0.6190913
      9811.5000         0.9205       1936.184        41.6107        57.6701         0.5196       -87.5679      -18.86735      0.5248958      0.6226531
      9812.0000         0.9064       1918.096        42.5818       58.93756         0.5298       -87.3843      -18.68936      0.5518631      0.6262128
      9812.5000         0.8942        1900.01        43.8143       60.54631         0.5399       -87.2006      -18.51128      0.5860917      0.6297745
      9813.0000         0.8819       1871.773        45.0469       62.15519           0.55       -87.0168      -18.33309      0.6203231      0.6333382
      9813.5000         0.8697       1836.492        45.9612       63.34849         0.5601       -86.5786      -17.90051      0.6457126      0.6419898
      9814.0000         0.8681       1801.061        46.8707       64.53554         0.5702       -85.9063      -17.23383      0.6709689      0.6553233
      9814.5000         0.8937       1762.305        47.7801       65.72247         0.5803       -87.8998      -19.23295      0.6962227       0.615341
      9815.0000         0.9161       1723.551         47.429       65.26372         0.5811        -90.255      -21.59376      0.6864621      0.5681248
      9815.5000         0.9232       1690.451        46.5214       64.07844         0.5797       -91.5299      -22.87428      0.6612434      0.5425145
      9816.0000         0.9156       1699.781        45.5671       62.83219         0.5699       -92.7875       -24.1375      0.6347275      0.5172501
      9816.5000         0.9081       1738.189         44.614       61.58751         0.5316       -94.0424      -25.39801      0.6082448      0.4920398
      9817.0000         0.9005       1862.842        43.6596       60.34113         0.4933       -95.6492      -27.01043      0.5817261      0.4597914
      9817.5000         0.8929       1987.494        42.7065       59.09645          0.455       -97.2959      -28.66274      0.5552436      0.4267451
      9818.0000         0.8879       2156.805         41.751       57.84863         0.4166       -98.9451      -30.31756      0.5286942      0.3936488
      9818.5000         0.8622       2335.848        40.4062       56.09257         0.3783      -100.9111      -32.28918      0.4913312      0.3542163
      9819.0000         0.8119       2471.813        39.0614        54.3365         0.3527      -102.9719       -34.3556       0.453968       0.312888
      9819.5000          0.768       2599.641        37.7166       52.58043         0.3445      -105.2798      -36.66911      0.4166049      0.2666177
      9820.0000         0.7407       2757.441        36.5776       51.09304         0.3362      -108.3735      -39.76842      0.3849584      0.2046315
      9820.5000         0.7221       2938.664        35.9377       50.25726          0.328      -111.7094      -43.10994      0.3671757      0.1378012
      9821.0000         0.7036       3086.738        35.2964       49.41965         0.3198      -112.6948      -44.10097      0.3493543      0.1179807
      9821.5000         0.6936       3423.184        34.6553       48.58231         0.3116      -112.6948      -44.10658      0.3315384      0.1178683
      9822.0000         0.6969       3532.352        34.1051       47.86363         0.3022      -112.6948       -44.1122      0.3162474       0.117756
      9822.5000         0.7113       3473.004        33.5687       47.16298         0.2938      -108.7229      -40.14591      0.3013399      0.1970818
      9823.0000         0.7256        3385.07        34.5555       48.45094         0.3054      -104.7509      -36.17953      0.3287434      0.2764094
      9823.5000           0.74       3297.141        36.3318       50.76965          0.317      -101.7269      -33.16115      0.3780776       0.336777
      9824.0000         0.7543       3159.387        38.1058       53.08534         0.3285       -99.9705      -31.41036      0.4273477      0.3717928
      9824.5000         0.7687       2992.457        39.7051       55.17296         0.3401       -98.4336      -29.87908      0.4717652      0.4024184
      9825.0000         0.7873        2532.75        40.8828       56.71016         0.3573       -96.8966      -28.34769      0.5044715      0.4330461
      9825.5000         0.8129       2295.352        42.0604       58.24722         0.3751       -95.7166      -27.17331      0.5371748      0.4565338
      9826.0000         0.8385        2140.43        43.2405       59.78755         0.3929       -94.6038      -26.06612      0.5699479      0.4786775
      9826.5000         0.8657       2058.355        44.3557       61.24315         0.4107       -94.0598      -25.52775      0.6009181       0.489445
      9827.0000         0.8967       2020.344        45.3213       62.50344         0.4285       -94.5245      -25.99806      0.6277327      0.4800388
      9827.5000         0.9255       1984.715        46.0837       63.49844         0.4539       -94.9893      -26.46848      0.6489029      0.4706303
      9828.0000         0.9296       1953.875        45.9578       63.33371         0.4794        -95.454       -26.9388      0.6453981       0.461224
      9828.5000         0.9127       1967.148        45.5758       62.83463         0.5049       -95.2799      -26.77031      0.6347793      0.4645938
      9829.0000         0.8873       2015.084        45.0256       62.11596         0.5304       -91.4875      -22.98354      0.6194885      0.5403293
      9829.5000          0.849       2063.117        44.4755       61.39741         0.5411       -89.2021      -20.70375      0.6042002       0.585925
      9830.0000         0.8107        2102.32        43.9241       60.67717         0.5341       -87.4507      -18.95796       0.588876      0.6208408
      9830.5000         0.7713       2141.422         43.374       59.95863         0.5271       -85.7391      -17.25198       0.573588      0.6549605
      9831.0000         0.7192       2180.527        42.8238       59.23996         0.5201       -86.8668      -18.38529      0.5582969      0.6322942
      9831.5000          0.757       2219.629        42.2724       58.51971         0.5129       -89.9806      -21.50471      0.5429726      0.5699057
      9832.0000         0.7891       2258.781        41.6786       57.74412         0.5058       -93.0394      -24.56913      0.5264707      0.5086174
      9832.5000         0.8099       2282.996        41.0511       56.92453         0.4987       -96.0409      -27.57625      0.5090325       0.448475
      9833.0000         0.8306        2301.68        40.4236       56.10494         0.4916       -98.0892      -29.63017      0.4915944      0.4073967
      9833.5000         0.8514       2320.387        39.7961       55.28534         0.4844      -100.1377      -31.68428      0.4741562      0.3663144
      9834.0000         0.8645        2339.07        39.1687       54.46588         0.4773      -101.2102       -32.7624      0.4567209       0.344752
      9834.5000         0.8647       2357.777         38.938       54.16434         0.4702      -101.3861      -32.94392       0.450305      0.3411217
