#------------------------------------------------------------------------------
# Created by    : vladimir.rabinovich
# Created on    : 09/19/2023 17:21:48
#------------------------------------------------------------------------------
~Version Information Section
VERS.           2.0     :   CWLS log ASCII Standard - VERSION 2.0
WRAP.           NO      :   One line per depth step
~Well Information Section
#MNEM       .UNIT                                         VALUE :DESCRIPTION
#------------------------------------------------------------------------------
STRT        .FT                                            1142 :START DEPTH
STOP        .FT                                            9163 :STOP DEPTH
STEP        .FT                                             0.5 :STEP      
NULL        .                                           -999.25 :NULL      
COMP        .                                    ORYX ENERGY CO :COMPANY   
WELL        .                               OCS G06199 ST00BP00 :WELL      
FLD         .                            HIGH ISLAND BLOCK 0129 :FIELD     
LOC         .                                                   :LOCATION  
CNTY        .                                  HIGH ISLAND EAST :LOCATION  
STAT        .                                             TEXAS :STATE     
CTRY        .                                     UNITED STATES :COUNTRY   
SRVC        .                                                   :SERVICE COMPANY
DATE        .                             9/13/2023 11:20:11 AM :LOG DATE  
API         .                                    42710400360000 :API NUMBER
UWI         .                                    42710400360000 :UNIQUE WELL ID
XCOORD      .                                  1376484.19293712 :SURFACE X 
YCOORD      .                                  10620179.8267869 :SURFACE Y 
LAT         .                                        29.2612476 :LATITUDE  
LON         .                                        -93.828002 :LONGITUDE 
ELEV        .FT                                              93 :ELEVATION VALUE
ELEV_TYPE   .                                                KB :ELEVATION REFERENCE TYPE
~Curve Information Section
#MNEM       .UNIT                                      API CODE :CURVE DESCRIPTION
#------------------------------------------------------------------------------
DEPT        .FT                                                 :DEPTH     
CALI        .IN                                                 :          
DRHO        .G/C3                                               :          
DT          .US/F                                               :          
GR          .GAPI                                               :          
GR_1        .GAPI                                               :          
GR_NORM     .GAPI                                               :GammaRay Normalized
ILD         .OHMM                                               :          
ILM         .OHMM                                               :          
NPHI        .%                                                  :          
RFOC        .OHMM                                               :          
RHOB        .G/C3                                               :          
SP          .MV                                                 :          
SP_NORM     .MV                                                 :SP Normalized
VSH_GR      .V/V                                                :Volume of Shale from GR
VSH_SP      .V/V                                                :Volume of Shale from SP
~A        DEPTH           CALI           DRHO             DT             GR           GR_1        GR_NORM            ILD            ILM           NPHI           RFOC           RHOB             SP        SP_NORM         VSH_GR         VSH_SP
# ...
      1669.0000        -999.25        -999.25       155.5776        63.2941        -999.25       61.69566         0.5813         0.6965        -999.25         1.2112        -999.25      -108.1929      -19.73137      0.6105459      0.7181233
      1669.5000        -999.25        -999.25       155.8269        63.9789        -999.25       62.31039         0.5947         0.7113        -999.25         1.2052        -999.25       -106.838       -18.1726      0.6236254      0.7403914
      1670.0000        -999.25        -999.25       156.2617        66.4644        -999.25       64.54576         0.6085         0.7261        -999.25         1.2016        -999.25      -104.0494      -14.94119      0.6711864      0.7865545
      1670.5000        -999.25        -999.25       156.6489        68.0396        -999.25       65.96185         0.6215         0.7412        -999.25         1.1824        -999.25        -100.11      -10.36718       0.701316      0.8518974
      1671.0000        -999.25        -999.25       156.8301        67.5154        -999.25        65.4885         0.6344         0.7567        -999.25         1.1518        -999.25       -95.7117       -5.25778      0.6912447      0.9248888
      1671.5000        -999.25        -999.25       156.7817        67.9978        -999.25       65.92108         0.6475         0.7697        -999.25         1.1155        -999.25       -92.0538      -1.012182      0.7004486      0.9855403
      1672.0000        -999.25        -999.25       155.7615        69.7759        -999.25       67.51979         0.6586         0.7825        -999.25         1.0815        -999.25        -90.458       0.827638      0.7344636              1
      1672.5000        -999.25        -999.25       154.5386        72.0415        -999.25       69.55725         0.6692         0.7955        -999.25         1.0606        -999.25       -94.1122      -3.457542      0.7778139      0.9506065
      1673.0000        -999.25        -999.25       152.7114        71.5311        -999.25       69.09631         0.6799          0.801        -999.25         1.1271        -999.25       -98.0082       -8.02483      0.7680065      0.8853596
      1673.5000        -999.25        -999.25       151.6086        69.3169        -999.25       67.10194         0.6863         0.8042        -999.25         1.2444        -999.25      -101.5547      -12.18436      0.7255733      0.8259376
      1674.0000        -999.25        -999.25        152.438        68.0906        -999.25        65.9967         0.6923         0.8019        -999.25         1.3616        -999.25      -104.3451      -15.46178      0.7020574      0.7791175
      1674.5000        -999.25        -999.25       153.3079        67.9873        -999.25       65.90215         0.6983         0.7991        -999.25         1.3664        -999.25        -105.75      -17.12278      0.7000456      0.7553889
      1675.0000        -999.25        -999.25       153.6233        68.7139        -999.25        66.5545         0.7009         0.7989        -999.25         1.3289        -999.25      -105.7065      -17.09397      0.7139256      0.7558004
      1675.5000        -999.25        -999.25       153.8601        69.8665        -999.25       67.59027         0.7024         0.7989        -999.25          1.309        -999.25      -105.1787      -16.50016      0.7359632      0.7642834
      1676.0000        -999.25        -999.25        153.335        71.0485        -999.25       68.65248         0.7038         0.8068        -999.25         1.2942        -999.25      -103.6487      -14.73711      0.7585634      0.7894698
      1676.5000        -999.25        -999.25       152.7109        71.1815        -999.25       68.77061         0.7043         0.8176        -999.25         1.2875        -999.25      -101.7651      -12.56153      0.7610767      0.8205495
      1677.0000        -999.25        -999.25       152.3052         69.283        -999.25       67.06037         0.7047         0.8184        -999.25         1.2919        -999.25      -100.2318      -10.79463      0.7246888       0.845791
      1677.5000        -999.25        -999.25       151.8997         67.406        -999.25       65.36949         0.7051         0.8168        -999.25         1.3039        -999.25       -99.0264      -9.410282      0.6887126      0.8655674
      1678.0000        -999.25        -999.25       151.5862        67.2126        -999.25       65.19386          0.704         0.8153        -999.25         1.3069        -999.25       -98.3235      -8.612186      0.6849756      0.8769687
      1678.5000        -999.25        -999.25       151.5415        68.4448        -999.25       66.30125         0.7026         0.8129        -999.25         1.3043        -999.25       -99.2217      -9.682037      0.7085373      0.8616852
      1679.0000        -999.25        -999.25       151.4968        69.6329        -999.25       67.36897         0.7011         0.8105        -999.25         1.2647        -999.25      -101.2684       -12.0918      0.7312546        0.82726
      1679.5000        -999.25        -999.25       151.8347        69.4856        -999.25       67.23482         0.6989         0.8082        -999.25         1.2402        -999.25       -103.702      -14.95295      0.7284003      0.7863864
      1680.0000        -999.25        -999.25       152.4026        66.9705        -999.25       64.96964         0.6958         0.7958        -999.25         1.2753        -999.25      -106.0095      -17.66698       0.680205      0.7476146
      1680.5000        -999.25        -999.25       153.2065        62.1329        -999.25       60.61422         0.6928         0.7833        -999.25         1.3095        -999.25       -107.059      -18.91335      0.5875367      0.7298093
      1681.0000        -999.25        -999.25       154.2859        58.0429        -999.25       56.93164         0.6894         0.7718        -999.25         1.2146        -999.25       -104.953      -16.47831      0.5091839      0.7645956
      1681.5000        -999.25        -999.25       156.5327        61.1481        -999.25       59.72475         0.6843         0.7627        -999.25         1.1197        -999.25      -101.4185      -12.37668      0.5686116      0.8231903
      1682.0000        -999.25        -999.25       158.8313        65.2986        -999.25       63.45861         0.6792         0.7537        -999.25         1.0496        -999.25       -97.4883      -7.813387      0.6480556      0.8883802
      1682.5000        -999.25        -999.25       161.0564        69.3391        -999.25       67.09348         0.6745          0.752        -999.25         1.0095        -999.25       -96.4401      -6.612443      0.7253932      0.9055365
      1683.0000        -999.25        -999.25       162.0857        70.8318        -999.25       68.43533         0.6745          0.752        -999.25         1.0045        -999.25       -95.3665      -5.381859      0.7539433      0.9231163
      1683.5000        -999.25        -999.25       162.9763        70.9718        -999.25       68.55975         0.6746         0.7534        -999.25         1.0112        -999.25       -94.9788      -4.951488      0.7565905      0.9292644
      1684.0000        -999.25        -999.25       163.1941        71.4264        -999.25       68.96731         0.6786         0.7638        -999.25         1.0124        -999.25       -94.8409      -4.812553      0.7652619      0.9312493
      1684.5000        -999.25        -999.25       163.2798        72.6438        -999.25       70.06139         0.6872         0.7743        -999.25         0.9964        -999.25         -95.49      -5.591788      0.7885401      0.9201173
      1685.0000        -999.25        -999.25       162.0962        73.3895        -999.25       70.73094         0.6959         0.7916        -999.25         0.9821        -999.25       -96.2166      -6.461439       0.802786      0.9076937
      1685.5000        -999.25        -999.25       160.4966        70.7589        -999.25       68.36182         0.7202         0.8168        -999.25         0.9834        -999.25       -97.9331       -8.48597      0.7523791      0.8787718
