#------------------------------------------------------------------------------
# Created by    : vladimir.rabinovich
# Created on    : 09/19/2023 17:20:40
#------------------------------------------------------------------------------
~Version Information Section
VERS.           2.0     :   CWLS log ASCII Standard - VERSION 2.0
WRAP.           NO      :   One line per depth step
~Well Information Section
#MNEM       .UNIT                                         VALUE :DESCRIPTION
#------------------------------------------------------------------------------
STRT        .FT                                             769 :START DEPTH
STOP        .FT                                           10573 :STOP DEPTH
STEP        .FT                                             0.5 :STEP      
NULL        .                                           -999.25 :NULL      
COMP        .                                        TEXACO INC :COMPANY   
WELL        .                               OCS G01846 ST00BP00 :WELL      
FLD         .                            HIGH ISLAND BLOCK 0129 :FIELD     
LOC         .                                                   :LOCATION  
CNTY        .                                  HIGH ISLAND EAST :LOCATION  
STAT        .                                             TEXAS :STATE     
CTRY        .                                     UNITED STATES :COUNTRY   
SRVC        .                                                   :SERVICE COMPANY
DATE        .                             9/13/2023 11:19:51 AM :LOG DATE  
API         .                                    42710300030000 :API NUMBER
UWI         .                                    42710300030000 :UNIQUE WELL ID
XCOORD      .                                   1386052.0565626 :SURFACE X 
YCOORD      .                                   10637380.600337 :SURFACE Y 
LAT         .                                        29.3087467 :LATITUDE  
LON         .                                       -93.7983562 :LONGITUDE 
ELEV        .FT                                              81 :ELEVATION VALUE
ELEV_TYPE   .                                                KB :ELEVATION REFERENCE TYPE
~Curve Information Section
#MNEM       .UNIT                                      API CODE :CURVE DESCRIPTION
#------------------------------------------------------------------------------
DEPT        .FT                                                 :DEPTH     
ASN         .OHMM                                               :          
CALI        .IN                                                 :          
DRHO        .G/C3                                               :          
GR          .GAPI                                               :          
GR_1        .GAPI                                               :          
GR_NORM     .GAPI                                               :GammaRay Normalized
ILD         .OHMM                                               :          
RHOB        .G/C3                                               :          
SP          .MV                                                 :          
SP_NORM     .MV                                                 :SP Normalized
VSH_GR      .V/V                                                :Volume of Shale from GR
VSH_SP      .V/V                                                :Volume of Shale from SP
~A        DEPTH            ASN           CALI           DRHO             GR           GR_1        GR_NORM            ILD           RHOB             SP        SP_NORM         VSH_GR         VSH_SP
# ...
      2716.5000         0.5133        -999.25        -999.25        -999.25        -999.25        40.2196         0.1996        -999.25       -40.3197      -13.46798      0.1536085      0.1178476
      2717.0000         0.5047        -999.25        -999.25        46.8508        -999.25       40.08929         0.1937        -999.25       -40.4965      -13.64634      0.1508359      0.1041274
      2717.5000         0.4954        -999.25        -999.25        47.9836        -999.25       41.45315         0.1892        -999.25       -40.4396      -13.59101      0.1798542      0.1083838
      2718.0000         0.4849        -999.25        -999.25        49.5805        -999.25       43.37577         0.1888        -999.25        -40.272      -13.42497      0.2207612       0.121156
      2718.5000         0.4754        -999.25        -999.25        51.1936        -999.25        45.3179         0.2061        -999.25       -39.9789      -13.13344      0.2620829      0.1435817
      2719.0000         0.4695        -999.25        -999.25        52.7437        -999.25       47.18417          0.214        -999.25       -39.5629        -12.719      0.3017909      0.1754615
      2719.5000         0.4689        -999.25        -999.25        54.0662        -999.25       48.77643         0.2185        -999.25       -39.1446      -12.30226      0.3356687      0.2075182
      2720.0000         0.4719        -999.25        -999.25        55.0418        -999.25       49.95102         0.2221        -999.25       -38.7888      -11.94803      0.3606601      0.2347672
      2720.5000         0.4771        -999.25        -999.25        55.5006        -999.25        50.5034         0.2185        -999.25        -38.596      -11.75679      0.3724128      0.2494775
      2721.0000         0.4774        -999.25        -999.25        55.0867        -999.25       50.00508          0.215        -999.25       -38.5737      -11.73605      0.3618102      0.2510728
      2721.5000         0.4762        -999.25        -999.25        53.6249        -999.25       48.24512         0.2115        -999.25       -38.7902      -11.95412      0.3243642      0.2342987
      2722.0000         0.4729        -999.25        -999.25        51.8085        -999.25       46.05822         0.2081        -999.25       -39.1928      -12.35828      0.2778344      0.2032092
      2722.5000         0.4695        -999.25        -999.25        50.2428        -999.25       44.17316         0.2046        -999.25       -39.8378      -13.00484      0.2377269      0.1534735
      2723.0000         0.4661        -999.25        -999.25         48.775        -999.25       42.40597         0.1976        -999.25       -40.4255      -13.59411      0.2001271      0.1081456
      2723.5000         0.4618        -999.25        -999.25        47.3577        -999.25       40.69958         0.1901        -999.25       -40.7307      -13.90087      0.1638209     0.08454822
      2724.0000         0.4597        -999.25        -999.25        46.2474        -999.25        39.3628         0.1826        -999.25       -40.7043      -13.87604      0.1353788     0.08645879
      2724.5000         0.4577        -999.25        -999.25        46.2228        -999.25       39.33319         0.1762        -999.25       -40.4683       -13.6416      0.1347487      0.1044923
      2725.0000         0.4549        -999.25        -999.25        -999.25        -999.25       39.47124         0.1698        -999.25       -40.2798      -13.45466      0.1376859      0.1188721
      2725.5000         0.4527        -999.25        -999.25        -999.25        -999.25       39.60928         0.1669        -999.25       -40.1132      -13.28963       0.140623      0.1315672
      2726.0000         0.4509        -999.25        -999.25        -999.25        -999.25       39.74732         0.1692        -999.25       -39.9269      -13.10489        0.14356      0.1457778
      2726.5000         0.4493        -999.25        -999.25        -999.25        -999.25       39.88536         0.1715        -999.25       -39.7337      -12.91325      0.1464971      0.1605189
      2727.0000         0.4485        -999.25        -999.25        -999.25        -999.25       40.02341          0.176        -999.25       -39.6311      -12.81222      0.1494343      0.1682911
      2727.5000         0.4476        -999.25        -999.25        -999.25        -999.25       40.16145         0.1824        -999.25        -39.659      -12.84168      0.1523713      0.1660246
      2728.0000         0.4468        -999.25        -999.25        47.0254        -999.25        40.2995         0.1889        -999.25       -39.8237      -13.00794      0.1553084      0.1532351
      2728.5000         0.4459        -999.25        -999.25        47.8672        -999.25         41.313         0.1956        -999.25       -40.0775      -13.26331      0.1768724      0.1335917
      2729.0000         0.4445        -999.25        -999.25        48.4917        -999.25       42.06488         0.2022        -999.25       -40.3417      -13.52907      0.1928698      0.1131483
      2729.5000         0.4429        -999.25        -999.25        48.7369        -999.25        42.3601         0.2037        -999.25       -40.6388      -13.82774      0.1991511     0.09017416
      2730.0000         0.4407        -999.25        -999.25        48.9551        -999.25       42.62281         0.2043        -999.25       -40.9352       -14.1257      0.2047406     0.06725399
      2730.5000           0.44        -999.25        -999.25        49.2354        -999.25       42.96028         0.1954        -999.25       -41.1768      -14.36886      0.2119209     0.04854906
      2731.0000          0.442        -999.25        -999.25        49.9932        -999.25       43.87265         0.1914        -999.25       -40.8542      -14.04782      0.2313329     0.07324439
      2731.5000         0.4471        -999.25        -999.25        51.3931        -999.25       45.55809         0.1878        -999.25       -39.9808      -13.17599      0.2671934      0.1403085
      2732.0000         0.4524        -999.25        -999.25        53.1049        -999.25       47.61905         0.1873        -999.25       -39.9414      -13.13815      0.3110436      0.1432191
      2732.5000         0.4557        -999.25        -999.25        54.8315        -999.25       49.69783         0.1869        -999.25       -40.1376      -13.33592       0.355273      0.1280064
      2733.0000         0.4561        -999.25        -999.25        55.9089        -999.25       50.99499         0.1857        -999.25       -40.2933      -13.49318      0.3828721      0.1159093
      2733.5000         0.4537        -999.25        -999.25        56.2903        -999.25       51.45418         0.1826        -999.25       -40.3674      -13.56884      0.3926421      0.1100889
      2734.0000          0.452        -999.25        -999.25        55.9713        -999.25       51.07011         0.1795        -999.25       -40.3195      -13.52251      0.3844704      0.1136533
      2734.5000         0.4513        -999.25        -999.25        55.4453        -999.25       50.43682         0.1756        -999.25       -40.1786      -13.38317      0.3709963      0.1243715
      2735.0000         0.4517        -999.25        -999.25        54.8944        -999.25       49.77356         0.1692        -999.25        -40.091      -13.29713      0.3568842      0.1309898
      2735.5000         0.4532        -999.25        -999.25        54.3524        -999.25         49.121         0.1627        -999.25        -40.009       -13.2167      0.3430001      0.1371772
      2736.0000         0.4551        -999.25        -999.25        54.1274        -999.25       48.85011          0.159        -999.25       -40.2834      -13.49266      0.3372364       0.115949
      2736.5000          0.458        -999.25        -999.25        54.3691        -999.25       49.14111         0.1572        -999.25       -40.6253      -13.83613      0.3434279     0.08952875
