#------------------------------------------------------------------------------
# Created by    : vladimir.rabinovich
# Created on    : 09/19/2023 17:21:28
#------------------------------------------------------------------------------
~Version Information Section
VERS.           2.0     :   CWLS log ASCII Standard - VERSION 2.0
WRAP.           NO      :   One line per depth step
~Well Information Section
#MNEM       .UNIT                                         VALUE :DESCRIPTION
#------------------------------------------------------------------------------
STRT        .FT                                             999 :START DEPTH
STOP        .FT                                           14605 :STOP DEPTH
STEP        .FT                                             0.5 :STEP      
NULL        .                                           -999.25 :NULL      
COMP        .                                      GETTY OIL CO :COMPANY   
WELL        .                               OCS G03116 ST00BP00 :WELL      
FLD         .                                           WILDCAT :FIELD     
LOC         .                                                   :LOCATION  
CNTY        .                                  HIGH ISLAND EAST :LOCATION  
STAT        .                                             TEXAS :STATE     
CTRY        .                                     UNITED STATES :COUNTRY   
SRVC        .                                                   :SERVICE COMPANY
DATE        .                             9/13/2023 11:19:51 AM :LOG DATE  
API         .                                    42710400090000 :API NUMBER
UWI         .                                    42710400090000 :UNIQUE WELL ID
XCOORD      .                                  1371379.55461592 :SURFACE X 
YCOORD      .                                  10664640.0845049 :SURFACE Y 
LAT         .                                        29.3834483 :LATITUDE  
LON         .                                       -93.8450221 :LONGITUDE 
ELEV        .FT                                              80 :ELEVATION VALUE
ELEV_TYPE   .                                                KB :ELEVATION REFERENCE TYPE
~Curve Information Section
#MNEM       .UNIT                                      API CODE :CURVE DESCRIPTION
#------------------------------------------------------------------------------
DEPT        .FT                                                 :DEPTH     
CALI        .IN                                                 :          
DRHO        .G/C3                                               :          
GR          .GAPI                                               :          
GR_NORM     .GAPI                                               :GammaRay Normalized
NPHI        .%                                                  :          
RHOB        .G/C3                                               :          
VSH_GR      .V/V                                                :Volume of Shale from GR
~A        DEPTH           CALI           DRHO             GR        GR_NORM           NPHI           RHOB         VSH_GR
# ...
     13662.0000        11.2295        -0.0237        59.4547       78.35197         25.866         2.4934      0.9649356
     13662.5000        11.2595        -0.0227        58.7471       77.28775        25.1094         2.4938      0.9422926
     13663.0000        11.2775        -0.0223        58.5602       77.00666        24.9187         2.4962      0.9363119
     13663.5000        11.2883        -0.0243        59.0473       77.73925        24.8931         2.5002      0.9518989
     13664.0000        11.3127        -0.0295        59.5885       78.55322        24.9723         2.4958      0.9692174
     13664.5000        11.3809        -0.0372         60.623        80.1091        25.4713         2.4671              1
     13665.0000         11.465        -0.0535        62.4068       82.79193        26.2682         2.4242              1
     13665.5000        11.5061        -0.0757        64.2777       85.60578        28.5203         2.4188              1
     13666.0000        11.5452          -0.08        65.1982       86.99019        30.7784         2.4144              1
     13666.5000        11.6251        -0.0627        65.4149       87.31612        32.7683         2.4309              1
     13667.0000         11.682         -0.041        64.8059       86.40019        33.3135         2.4531              1
     13667.5000          11.67        -0.0448        63.8617       84.98011        32.9188         2.4325              1
     13668.0000         11.634         -0.047        62.7257       83.27158         32.565         2.4576              1
     13668.5000        11.6505        -0.0343        61.2708        81.0834        32.4354         2.4916              1
     13669.0000        11.7134        -0.0225        55.3514       72.18061        32.1591         2.5136        0.83363
     13669.5000        11.7313        -0.0179        51.8138       66.86007        31.5499         2.5097       0.720427
     13670.0000        11.7663        -0.0164        49.0385       62.68602         29.843         2.4957      0.6316174
     13670.5000         11.862        -0.0159        44.3948       55.70189        27.1321         2.4992      0.4830189
     13671.0000        11.8805        -0.0187         40.765       50.24267        25.5324         2.5196      0.3668654
     13671.5000        11.9098        -0.0229        41.6394       51.55777        25.8035         2.5009      0.3948462
     13672.0000        11.9901        -0.0254        45.6105        57.5303        26.7865         2.4921      0.5219213
     13672.5000        12.0694        -0.0261        48.2612       61.51695        24.8025         2.4832      0.6067437
     13673.0000        12.1319        -0.0281        50.8572       65.42135        22.4506         2.4761      0.6898159
     13673.5000        12.1918         -0.033        53.4581       69.33309        22.4015         2.4596      0.7730445
     13674.0000        12.2718        -0.0493        56.4626       73.85185        23.9088          2.456      0.8691884
     13674.5000        12.3497        -0.0556        57.8104       75.87895        26.1013         2.4689      0.9123181
     13675.0000        12.3715        -0.0444        58.2773       76.58118        28.2939         2.4769      0.9272591
     13675.5000        12.4462        -0.0416        58.1078       76.32624        30.4864         2.4688      0.9218349
     13676.0000        12.5047        -0.0416        58.0794       76.28354        32.4734         2.4635      0.9209263
     13676.5000        12.5292        -0.0381        55.6703       72.66024        33.9424         2.4725      0.8438349
     13677.0000        12.6014         -0.037           55.6       72.55452         33.589         2.4777      0.8415855
     13677.5000        12.6915        -0.0396        56.0534       73.23643        33.1776         2.4639      0.8560942
     13678.0000         12.707        -0.0401        56.0236        73.1916        33.5607         2.4568      0.8551405
     13678.5000        12.7047        -0.0354        56.2857       73.58581        34.2891         2.4688      0.8635278
     13679.0000        12.7115        -0.0318        57.3395       75.17073        32.9083         2.4748      0.8972496
     13679.5000        12.7442        -0.0347        60.2493       79.54705        32.3393         2.4774      0.9903628
     13680.0000        12.7041        -0.0376        61.7752       81.84202        31.9796         2.4749              1
     13680.5000         12.683        -0.0347        61.6769       81.69417        31.5395         2.4889              1
     13681.0000        12.7037        -0.0295        60.8248       80.41261        30.7605         2.4957              1
     13681.5000        12.7535        -0.0306        59.6913       78.70782        30.0128         2.5011      0.9725068
     13682.0000        12.8108         -0.038        59.6888       78.70407        29.4125         2.5021      0.9724271
     13682.5000        12.8449        -0.0463        60.9967       80.67115        29.4073         2.4859              1
     13683.0000        12.8665        -0.0515        62.0463       82.24975        30.0902         2.4698              1
     13683.5000        12.8724        -0.0484          61.85       81.95452        30.5735         2.4786              1
     13684.0000        12.8682        -0.0424        61.0914       80.81358        30.8752         2.4678              1
     13684.5000        12.8668        -0.0462        59.7361        78.7752         31.538         2.4779      0.9739404
     13685.0000        12.8687          -0.05        57.7606       75.80405        32.3706         2.4733      0.9107246
     13685.5000        12.8705        -0.0499        57.3669       75.21193        32.6595         2.4683      0.8981262
     13686.0000        12.8828        -0.0425        58.7396       77.27647        31.8046         2.4778      0.9420527
     13686.5000        12.9065        -0.0436         59.303       78.12383        31.1738         2.4857      0.9600815
     13687.0000          12.93        -0.0443        59.2402       78.02937        30.8729         2.4894      0.9580718
     13687.5000        12.9586        -0.0349         59.832       78.91943        30.7722         2.4908      0.9770092
     13688.0000        12.9777        -0.0365         59.487       78.40055        30.6454         2.5027      0.9659691
     13688.5000        12.9939        -0.0276        60.4686       79.87688         30.454         2.5065      0.9973805
     13689.0000        13.0092        -0.0331        61.1043       80.83299        30.1654         2.4955              1
     13689.5000         13.019        -0.0363        60.9581       80.61309         29.799         2.5136              1
     13690.0000        13.0271        -0.0367        60.2842       79.59955        29.3127         2.5108      0.9914798
     13690.5000        13.0343        -0.0489        57.0206       74.69109        28.8904          2.514      0.8870445
     13691.0000        13.0694        -0.0379        55.3157       72.12692        28.4443         2.5048      0.8324877
     13691.5000        13.1655         -0.046        55.5931       72.54414        27.7383          2.484      0.8413647
     13692.0000        13.2807        -0.0485        55.7792       72.82403        26.7314          2.487      0.8473197
     13692.5000        13.3026        -0.0471        55.4063       72.26318         26.343          2.508      0.8353869
     13693.0000        13.3129        -0.0418        54.9006       71.50262         26.349         2.5291      0.8192046
     13693.5000        13.3227        -0.0369        54.6477       71.12225        26.1133         2.5285      0.8111117
     13694.0000        13.3636        -0.0367        55.0002        71.6524        25.0528         2.5117      0.8223916
     13694.5000        13.4684        -0.0453        54.3724       70.70821        24.2477         2.4979      0.8023022
     13695.0000        13.4874        -0.0497        53.3809         69.217        25.0006           2.51      0.7705744
