#------------------------------------------------------------------------------
# Created by    : vladimir.rabinovich
# Created on    : 09/19/2023 17:21:39
#------------------------------------------------------------------------------
~Version Information Section
VERS.           2.0     :   CWLS log ASCII Standard - VERSION 2.0
WRAP.           NO      :   One line per depth step
~Well Information Section
#MNEM       .UNIT                                         VALUE :DESCRIPTION
#------------------------------------------------------------------------------
STRT        .FT                                            3004 :START DEPTH
STOP        .FT                                           10487 :STOP DEPTH
STEP        .FT                                             0.5 :STEP      
NULL        .                                           -999.25 :NULL      
COMP        .                                    TENNECO OIL CO :COMPANY   
WELL        .                               OCS G04082 ST00BP00 :WELL      
FLD         .                            SABINE PASS BLOCK 0017 :FIELD     
LOC         .                                                   :LOCATION  
CNTY        .                                       SABINE PASS :LOCATION  
STAT        .                                             TEXAS :STATE     
CTRY        .                                     UNITED STATES :COUNTRY   
SRVC        .                                                   :SERVICE COMPANY
DATE        .                             9/13/2023 11:20:07 AM :LOG DATE  
API         .                                    42715400130000 :API NUMBER
UWI         .                                    42715400130000 :UNIQUE WELL ID
XCOORD      .                                  1369313.82013612 :SURFACE X 
YCOORD      .                                  10714127.2468036 :SURFACE Y 
LAT         .                                        29.5195329 :LATITUDE  
LON         .                                       -93.8526471 :LONGITUDE 
ELEV        .FT                                             111 :ELEVATION VALUE
ELEV_TYPE   .                                                KB :ELEVATION REFERENCE TYPE
~Curve Information Section
#MNEM       .UNIT                                      API CODE :CURVE DESCRIPTION
#------------------------------------------------------------------------------
DEPT        .FT                                                 :DEPTH     
CALI        .IN                                                 :          
DPHI        .%                                                  :          
DRHO        .G/C3                                               :          
GR          .GAPI                                               :          
GR_NORM     .GAPI                                               :GammaRay Normalized
ILD         .OHMM                                               :          
ILM         .OHMM                                               :          
NPHI        .%                                                  :          
SFL         .OHMM                                               :          
SP          .MV                                                 :          
SP_NORM     .MV                                                 :SP Normalized
VSH_GR      .V/V                                                :Volume of Shale from GR
VSH_SP      .V/V                                                :Volume of Shale from SP
~A        DEPTH           CALI           DPHI           DRHO             GR        GR_NORM            ILD            ILM           NPHI            SFL             SP        SP_NORM         VSH_GR         VSH_SP
# ...
      7488.0000        12.3069        24.4825         0.0171         39.549       44.95774         0.4572         0.3645        32.5294         0.4663       -84.8588      -59.90353      0.2544201      0.1442352
      7488.5000        12.3069        28.0604         0.0072        38.9706       44.27442         0.3447         0.3262        35.0441         0.3201       -86.2941      -62.30437      0.2398812      0.1099376
      7489.0000        12.3168        30.1758        -0.0001        39.8832       45.35188         0.2968         0.3042        36.6765         0.2923       -87.1666      -63.76241      0.2628058     0.08910839
      7489.5000        12.3267        30.3088        -0.0022             41       46.67048         0.2724         0.2856        36.8118         0.2855       -87.4264      -64.19403      0.2908612     0.08294242
      7490.0000        12.3267        30.2473        -0.0006        41.8603       47.68616         0.2539         0.2719        36.1689         0.3522       -87.2947      -63.96981      0.3124714     0.08614556
      7490.5000        12.3267         30.059         0.0029        41.8019       47.61692         0.2379         0.2591        35.6255         0.4123       -86.7252      -63.01218      0.3109984     0.09982599
      7491.0000        12.3347        30.1182         0.0029        40.9503       46.61096         0.2234          0.247        35.6512         0.4589       -86.3135      -62.31891      0.2895949      0.1097299
      7491.5000        12.3287        30.1185         0.0051        39.9808       45.46577         0.2133         0.2319        36.0673         0.4145       -86.2549      -62.21714      0.2652293      0.1111837
      7492.0000        12.3267        30.2259         0.0051        39.4302       44.81527         0.2083         0.2172        36.7446          0.347       -86.4513      -62.54258      0.2513888      0.1065346
      7492.5000        12.3351        30.7188         0.0044        39.3578        44.7295         0.2082         0.2117        37.9588          0.284       -86.5538      -62.71069      0.2495637       0.104133
      7493.0000        12.3465        31.2831         0.0043        39.6078       45.02446         0.2116         0.2098        37.9176         0.2493       -86.6666      -62.89607      0.2558396      0.1014847
      7493.5000        12.3465        31.7138        -0.0007        40.1633        45.6802         0.2163         0.2097        37.6176         0.2268       -86.8578      -63.21277      0.2697915     0.09696045
      7494.0000        12.3267        31.0099        -0.0069        40.2784       45.81586         0.2248         0.2225        38.0588         0.2153       -86.9607      -63.38155      0.2726779     0.09454923
      7494.5000        12.3366        28.8386        -0.0086        39.8633       45.32537         0.2381         0.2479        38.2529         0.2234       -86.8627      -63.21379      0.2622419     0.09694584
      7495.0000        12.3366        24.3282        -0.0037        39.6078       45.02337         0.2707         0.2713        35.6428         0.2868       -86.7646      -63.04586      0.2558164      0.0993448
      7495.5000        12.3366        20.6147         0.0053        40.4948        46.0706         0.2963         0.3019        31.8356         0.3752       -86.6666      -62.87811      0.2780978      0.1017414
      7496.0000        12.3366        19.7529         0.0147        41.5869       47.36003         0.3208         0.3236        28.9901         0.4495       -86.8627      -63.20302      0.3055326     0.09709974
      7496.5000        12.3366        22.1176         0.0221        41.9158       47.74816         0.3453         0.3199        29.9168         0.5043       -87.0607      -63.53111      0.3137906     0.09241273
      7497.0000        12.3366        25.0752         0.0218        41.3069       47.02881         0.3656         0.3113        32.5425         0.4461       -87.5565      -64.35809      0.2984854     0.08059867
      7497.5000        12.3366        26.5426         0.0206        40.6188       46.21594          0.359         0.3016        33.6683         0.4233       -88.1465      -65.34287      0.2811903     0.06653039
      7498.0000        12.3366        27.2572         0.0172        40.8317       46.46709         0.3366         0.2875        34.4672         0.4191       -88.6564      -66.19348      0.2865339     0.05437884
      7498.5000        12.3366        28.1228         0.0129        40.9368       46.59094         0.2997         0.2695        35.0148         0.4191        -88.834       -66.4874      0.2891689     0.05017994
      7499.0000        12.3366        29.0495         0.0096        40.4166       45.97633         0.2581         0.2561        34.3959            0.4       -88.8235      -66.46622      0.2760922      0.0504825
      7499.5000        12.3465           29.7         0.0062        40.2916       45.82845         0.2414         0.2452        32.9704         0.3476       -88.9048      -66.59882      0.2729456     0.04858823
      7500.0000        12.3465        30.0446         0.0028        40.5917       46.18258         0.2355          0.237        32.4718         0.2955       -88.7053      -66.26102      0.2804803     0.05341394
      7500.5000        12.3465        30.2731        -0.0005        41.7963       47.60486         0.2359         0.2379        32.2337         0.2707       -88.3431      -65.65067      0.3107418     0.06213335
      7501.0000        12.3465        30.4932        -0.0015        42.6876       48.65716         0.2424         0.2418         33.158         0.2774       -87.7256      -64.61263       0.333131     0.07696239
      7501.5000        12.3465        30.8371        -0.0043        42.8445       48.84218         0.2496         0.2479        34.0345         0.3023       -87.2058      -63.73827      0.3370676     0.08945329
      7502.0000        12.3465        30.8351        -0.0045        41.9978         47.842         0.2568         0.2568         33.964         0.3406       -86.9019      -63.22558      0.3157873     0.09677745
      7502.5000        12.3465        30.7118        -0.0036        40.1303       45.63633         0.2653         0.2652        33.0822           0.39       -86.7646      -62.99198      0.2688581      0.1001145
      7503.0000        12.3465        30.7647        -0.0036        38.5298       43.74596         0.2743         0.2702        31.9298         0.4339       -86.7646      -62.98839      0.2286375      0.1001658
      7503.5000        12.3376        31.3236         -0.002        37.0098       41.95066         0.2778         0.2626         31.253         0.4717       -87.0391      -63.44464      0.1904395     0.09364804
      7504.0000        12.3366        32.0002          0.001        37.2919       42.28353         0.2732         0.2464        31.5294         0.4617       -87.3529      -63.96672      0.1975219     0.08618976
      7504.5000        12.3267        32.4647         0.0018        38.1617       43.31044         0.2637         0.2318        33.0595         0.3569       -87.9558      -64.97312      0.2193711     0.07181255
      7505.0000        12.3366         32.847        -0.0021        39.6372       45.05265          0.241         0.2189        36.6953         0.2731        -88.549      -65.96327      0.2564394     0.05766754
      7505.5000        12.3381        33.2646        -0.0045        40.0247       45.50999         0.2209         0.2085        38.9763         0.2278       -88.9363      -66.60849      0.2661699     0.04845014
      7506.0000        12.3683        33.2588        -0.0045        39.5676       44.96991         0.2081         0.2004        39.6588         0.2066       -89.1576      -66.97562      0.2546789     0.04320548
      7506.5000        12.3436        33.0764        -0.0037        39.3137        44.6698         0.1971         0.1929        39.5588         0.2005       -89.5392      -67.61129      0.2482935     0.03412443
