#------------------------------------------------------------------------------
# Created by    : vladimir.rabinovich
# Created on    : 09/19/2023 17:21:28
#------------------------------------------------------------------------------
~Version Information Section
VERS.           2.0     :   CWLS log ASCII Standard - VERSION 2.0
WRAP.           NO      :   One line per depth step
~Well Information Section
#MNEM       .UNIT                                         VALUE :DESCRIPTION
#------------------------------------------------------------------------------
STRT        .FT                                             999 :START DEPTH
STOP        .FT                                           14605 :STOP DEPTH
STEP        .FT                                             0.5 :STEP      
NULL        .                                           -999.25 :NULL      
COMP        .                                      GETTY OIL CO :COMPANY   
WELL        .                               OCS G03116 ST00BP00 :WELL      
FLD         .                                           WILDCAT :FIELD     
LOC         .                                                   :LOCATION  
CNTY        .                                  HIGH ISLAND EAST :LOCATION  
STAT        .                                             TEXAS :STATE     
CTRY        .                                     UNITED STATES :COUNTRY   
SRVC        .                                                   :SERVICE COMPANY
DATE        .                             9/13/2023 11:19:51 AM :LOG DATE  
API         .                                    42710400090000 :API NUMBER
UWI         .                                    42710400090000 :UNIQUE WELL ID
XCOORD      .                                  1371379.55461592 :SURFACE X 
YCOORD      .                                  10664640.0845049 :SURFACE Y 
LAT         .                                        29.3834483 :LATITUDE  
LON         .                                       -93.8450221 :LONGITUDE 
ELEV        .FT                                              80 :ELEVATION VALUE
ELEV_TYPE   .                                                KB :ELEVATION REFERENCE TYPE
~Curve Information Section
#MNEM       .UNIT                                      API CODE :CURVE DESCRIPTION
#------------------------------------------------------------------------------
DEPT        .FT                                                 :DEPTH     
CALI        .IN                                                 :          
DRHO        .G/C3                                               :          
GR          .GAPI                                               :          
GR_NORM     .GAPI                                               :GammaRay Normalized
NPHI        .%                                                  :          
RHOB        .G/C3                                               :          
VSH_GR      .V/V                                                :Volume of Shale from GR
~A        DEPTH           CALI           DRHO             GR        GR_NORM           NPHI           RHOB         VSH_GR
# ...
      1903.5000        16.4544         0.0826        25.6005       39.85361        52.1581         3.0026      0.1458216
      1904.0000        16.4018         0.0897        25.9197       40.33369        51.6943         3.0101       0.156036
      1904.5000        16.3852          0.095        26.2594        40.8446        51.8209         3.0121      0.1669063
      1905.0000        16.4283         0.0848          26.41        41.0711        51.5338         2.9915      0.1717255
      1905.5000        16.4956          0.078        26.3445       40.97259        50.9496         2.9755      0.1696296
      1906.0000        16.5244         0.0816        26.1392       40.66382        51.4312         2.9773        0.16306
      1906.5000        16.5353         0.0795        25.8726       40.26286        53.3738          2.971      0.1545288
      1907.0000        16.5359         0.0863        25.6151       39.87558        55.1244          2.979      0.1462889
      1907.5000        16.5264           0.09        25.4184       39.57974        55.9101         2.9826      0.1399944
      1908.0000        16.5164         0.0937        25.2729        39.3609        55.7386         2.9989      0.1353384
      1908.5000        16.4995         0.0963        25.1471        39.1717        55.5178         2.9957      0.1313128
      1909.0000        16.4832         0.0866        25.0925       39.08959        55.2108         2.9863      0.1295657
      1909.5000        16.4747         0.0772        25.0938       39.09154        53.8036          2.982      0.1296072
      1910.0000        16.4506         0.0856        25.1646       39.19802        53.0685         2.9906      0.1318728
      1910.5000        16.4039         0.0934         25.351       39.47837        52.9011         3.0091      0.1378376
      1911.0000        16.3482          0.088        25.7722       40.11185        52.9056         3.0137      0.1513159
      1911.5000        16.2985         0.0805        26.2831       40.88025        52.7309         3.0049      0.1676648
      1912.0000        16.3029          0.072        26.4347       41.10825        52.5917         2.9841       0.172516
      1912.5000         16.418          0.068        26.2345       40.80715        51.6349         2.9735      0.1661096
      1913.0000        16.6476         0.0728        26.1696       40.70954        50.7018         2.9666      0.1640327
      1913.5000        16.7957         0.0796        26.3489       40.97921         50.632         2.9549      0.1697703
      1914.0000        16.9055         0.0831        26.5404       41.26723        50.7825         2.9349      0.1758984
      1914.5000        16.9778          0.086        26.5817       41.32934        51.8033         2.8995        0.17722
      1915.0000        17.0628         0.0902        26.5657       41.30528        53.1507         2.8708      0.1767081
      1915.5000        17.1335          0.097        26.4841       41.18255        54.0059         2.8613      0.1740968
      1916.0000        17.1666         0.1068        26.2881       40.88776        54.0443         2.8866      0.1678247
      1916.5000        17.0847         0.1181        26.0338        40.5053        53.2369         2.9367      0.1596872
      1917.0000        16.9866          0.118        25.8908       40.29023        52.2626         2.9867      0.1551113
      1917.5000        17.0081         0.1055         25.867       40.25443        51.4185         3.0199      0.1543496
      1918.0000        17.0867          0.105        26.0698       40.55944        50.5538         3.0257      0.1608392
      1918.5000        17.1582         0.1118        26.3199       40.93559        49.8868          3.034      0.1688424
      1919.0000        17.1298         0.1114        26.3717        41.0135        49.6735         3.0378         0.1705
      1919.5000        17.0557         0.0845        26.3304       40.95139        49.2033          3.025      0.1691785
      1920.0000        17.0281         0.0572        26.2206       40.78624        49.1927         3.0061      0.1656647
      1920.5000        17.0963         0.0631        26.1631       40.69976        49.4166         3.0439      0.1638247
      1921.0000        17.1587          0.078        26.2329       40.80474         49.482         3.0576      0.1660584
      1921.5000        17.1642         0.0895        26.2857       40.88416        49.1866         3.0673      0.1677481
      1922.0000        17.1545         0.0945        26.4255       41.09442          47.79         3.0662      0.1722217
      1922.5000        17.1506         0.0855         26.569       41.31024         47.272         3.0497      0.1768136
      1923.0000          17.17         0.0756        26.6627       41.45116        47.6689         3.0179       0.179812
      1923.5000        17.2237         0.0709        26.7442       41.57374        48.7657         3.0005        0.18242
      1924.0000        17.2823         0.0838        26.8225        41.6915        49.3202         3.0099      0.1849256
      1924.5000         17.341         0.0943        26.6777       41.47372        48.4009         3.0259       0.180292
      1925.0000        17.4179         0.1022        26.3729        41.0153        47.2493         3.0308      0.1705383
      1925.5000         17.459         0.1033        25.8159       40.17757        47.0512         3.0311      0.1527143
      1926.0000        17.4342         0.1022        25.2672       39.35233         47.557         3.0355       0.135156
      1926.5000        17.3103         0.0998        25.1344        39.1526        48.1592         3.0436      0.1309064
      1927.0000        16.9796         0.0974        25.2348        39.3036        48.5074          3.053      0.1341192
      1927.5000        16.8549         0.0972         25.218       39.27833         48.412         3.0598      0.1335815
      1928.0000         16.784         0.1002        25.0523       39.02912        47.9655         3.0611      0.1282792
      1928.5000        16.7117         0.1055        24.6303       38.39443        45.5682         3.0666      0.1147752
      1929.0000        16.5946         0.1093        23.9602        37.3866        44.0483         3.0692     0.09333201
      1929.5000        16.4352         0.1104        23.3049       36.40103        43.0511         3.0668     0.07236229
      1930.0000        16.3624         0.1103        23.2004       36.24386        42.8386         3.0601     0.06901834
      1930.5000        16.4006         0.1091        23.7495       37.06971        43.2927         3.0482     0.08658957
      1931.0000        16.5378         0.1056        24.3954       38.04114        44.4465         3.0428      0.1072583
      1931.5000        16.7566         0.0969        24.9673       38.90128        45.2769         3.0356      0.1255592
      1932.0000        17.0176         0.0802        25.2986       39.39956        45.5911         3.0364      0.1361607
      1932.5000        17.2482         0.0686        25.5492       39.77645        45.7295         3.0289      0.1441799
      1933.0000        17.2684         0.0636        25.7998       40.15336          47.34         3.0298      0.1521992
      1933.5000        17.1859         0.0614        26.1057       40.61343        49.0328         3.0111       0.161988
      1934.0000        17.1064         0.0623        26.5013       41.20842        50.7036         2.9804      0.1746472
      1934.5000        17.0616         0.0635        26.8466       41.72775        52.1341          2.969      0.1856968
      1935.0000        17.0387         0.0623        27.1747       42.22121        52.5205         2.9521       0.196196
      1935.5000        17.0291         0.0585        27.4325       42.60894        51.7943         2.9027      0.2044455
      1936.0000        17.0347         0.0531        27.6388       42.91921        51.4221         2.8469      0.2110471
      1936.5000        17.0513         0.0474        27.6892       42.99501        51.9099         2.7911      0.2126599
