#------------------------------------------------------------------------------
# Created by    : vladimir.rabinovich
# Created on    : 09/19/2023 17:20:21
#------------------------------------------------------------------------------
~Version Information Section
VERS.           2.0     :   CWLS log ASCII Standard - VERSION 2.0
WRAP.           NO      :   One line per depth step
~Well Information Section
#MNEM       .UNIT                                         VALUE :DESCRIPTION
#------------------------------------------------------------------------------
STRT        .FT                                            1439 :START DEPTH
STOP        .FT                                           13833 :STOP DEPTH
STEP        .FT                                             0.5 :STEP      
NULL        .                                           -999.25 :NULL      
COMP        .                                        EXXON CORP :COMPANY   
WELL        .                               OCS G04992 ST00BP00 :WELL      
FLD         .                                           WILDCAT :FIELD     
LOC         .                                                   :LOCATION  
CNTY        .                               MUSTANG ISLAND EAST :LOCATION  
STAT        .                                             TEXAS :STATE     
CTRY        .                                     UNITED STATES :COUNTRY   
SRVC        .                                                   :SERVICE COMPANY
DATE        .                             9/13/2023 11:20:08 AM :LOG DATE  
API         .                                    42712400640000 :API NUMBER
UWI         .                                    42712400640000 :UNIQUE WELL ID
XCOORD      .                                  530427.861923906 :SURFACE X 
YCOORD      .                                  9963308.63528926 :SURFACE Y 
LAT         .                                        27.4144168 :LATITUDE  
LON         .                                       -96.4214066 :LONGITUDE 
ELEV        .FT                                              73 :ELEVATION VALUE
ELEV_TYPE   .                                                KB :ELEVATION REFERENCE TYPE
~Curve Information Section
#MNEM       .UNIT                                      API CODE :CURVE DESCRIPTION
#------------------------------------------------------------------------------
DEPT        .FT                                                 :DEPTH     
ASFL        .OHMM                                               :          
CILD        .MMHO                                               :          
DT          .US/F                                               :          
GR          .GAPI                                               :          
GR_NORM     .GAPI                                               :GammaRay Normalized
ILD         .OHMM                                               :          
SP          .MV                                                 :          
SP_NORM     .MV                                                 :SP Normalized
VSH_GR      .V/V                                                :Volume of Shale from GR
VSH_SP      .V/V                                                :Volume of Shale from SP
~A        DEPTH           ASFL           CILD             DT             GR        GR_NORM            ILD             SP        SP_NORM         VSH_GR         VSH_SP
# ...
      6388.0000         0.7789       1291.033       111.1022         62.915        69.2504         0.7132       -63.1578      -5.243183      0.7712852      0.8951364
      6388.5000         0.8458       1260.539       110.9513        63.0752       69.45175         0.7423       -63.3423       -5.43087      0.7755692      0.8913826
      6389.0000         0.8668       1232.322       110.5254        63.8294       70.39561         0.7661       -63.5511      -5.642857      0.7956514      0.8871429
      6389.5000         0.8768       1208.912        109.769         64.339       71.03372         0.7869       -63.7601      -5.855042      0.8092281      0.8828992
      6390.0000         0.8845       1190.961       109.2141        64.5505       71.29921         0.8077       -64.0768      -6.174919      0.8148768      0.8765016
      6390.5000         0.8911       1180.682       109.3115        64.4521       71.17732         0.8107       -64.1733      -6.274609      0.8122835      0.8745078
      6391.0000         0.8966       1170.393       109.6705        64.3538       71.05556         0.8089       -62.6276      -4.732094      0.8096927      0.9053581
      6391.5000         0.9005       1171.318       109.8197        66.4285       73.65004          0.807       -62.7974      -4.905079      0.8648944      0.9018984
      6392.0000         0.9044       1172.719       109.8478        68.4171        76.1369         0.7917       -62.9672       -5.07806      0.9178064      0.8984388
      6392.5000         0.9003       1182.121       110.3265        69.9719       78.08151         0.7763       -63.1368      -5.250843      0.9591811      0.8949831
      6393.0000         0.8907       1204.881       111.2234        69.2026       77.12099         0.7608       -62.9005      -5.017731      0.9387444      0.8996454
      6393.5000         0.8751       1227.664       112.1768        67.8506       75.43211         0.7447       -62.6003      -4.720715      0.9028109      0.9055857
      6394.0000         0.8529       1259.887       113.0432        66.4509       73.68359         0.7265       -62.1925      -4.316101      0.8656082       0.913678
      6394.5000         0.8307       1300.246        114.188        65.2002       72.12132         0.7083       -61.7845      -3.911282      0.8323686      0.9217744
      6395.0000         0.8075       1334.748       116.1495        68.4547       76.19056         0.6901       -61.3767      -3.506668      0.9189481      0.9298666
      6395.5000         0.7904       1371.803       117.6288        69.5841       77.60342         0.6719       -60.9686      -3.101753      0.9490089      0.9379649
      6396.0000           0.78       1413.264       118.3705        70.4153       78.64353         0.6585       -61.5919      -3.728237       0.971139      0.9254352
      6396.5000         0.7697       1479.963       118.6173        72.2571       80.94689          0.647       -62.6337       -4.77322              1      0.9045356
      6397.0000         0.7597       1544.459        118.864        71.6292       80.16312         0.6354       -63.0652      -5.207905              1      0.8958419
      6397.5000           0.75       1603.496       120.2888        69.8781       77.97536         0.6238       -62.9697      -5.115589      0.9569225      0.8976882
      6398.0000         0.7403       1633.592        121.829        68.4685       76.21446          0.615        -62.859      -5.008076      0.9194567      0.8998385
      6398.5000           0.73       1654.447       123.0334        67.3816       74.85696         0.6069       -62.7308       -4.88306      0.8905736      0.9023388
      6399.0000         0.7194       1671.322       123.8533        66.5717       73.84569         0.5989       -62.6953      -4.850742      0.8690572      0.9029852
      6399.5000         0.7103       1688.197       124.3116        66.6536       73.94917         0.5909       -62.7106      -4.869228       0.871259      0.9026154
      6400.0000         0.7032       1714.211       124.4235        67.5823       75.11116         0.5832       -62.7259      -4.887711      0.8959821      0.9022458
      6400.5000         0.7031       1706.225       123.4001        68.3378       76.05664         0.5896       -62.7694      -4.934399      0.9160987      0.9013121
      6401.0000         0.7056       1681.762       121.8278        69.0482       76.94576         0.5961       -62.8588      -5.026978       0.935016      0.8994604
      6401.5000         0.7082       1643.055       120.7972        69.6492       77.69812         0.6024       -62.9481      -5.119465      0.9510238      0.8976107
      6402.0000         0.7167       1611.408       120.1074        70.2501       78.45035         0.6082       -62.8232      -4.997749      0.9670287       0.900045
      6402.5000         0.7281       1580.387       118.5859         71.025       79.42009         0.6141       -62.6975      -4.875233      0.9876615      0.9024953
      6403.0000         0.7452       1559.883       115.0308        67.5066       75.02319         0.6199       -62.6078      -4.788719      0.8941105      0.9042256
      6403.5000         0.7664       1539.402       113.5503        65.0701       71.97868         0.6202       -62.5472        -4.7313      0.8293335       0.905374
      6404.0000         0.7813       1524.455       113.4907        63.9957       70.63679         0.6198       -62.4467      -4.633987      0.8007827      0.9073203
      6404.5000         0.7834       1509.908       116.4553        63.6843       70.24864         0.6193       -62.0552       -4.24567      0.7925243      0.9150866
      6405.0000         0.7746       1498.354       119.1018        64.7725       71.61002         0.6189       -61.4574      -3.651058      0.8214897      0.9269788
      6405.5000         0.7658         1488.1       120.1826        65.2302       72.18324         0.6189       -60.9371      -3.133938       0.833686      0.9373212
      6406.0000         0.7571       1515.742        120.095        65.6886       72.75735         0.6192       -60.6169      -2.816925       0.845901      0.9436615
      6406.5000         0.7493       1541.504       118.3652         67.354       74.84021         0.6195       -60.8736      -3.076809      0.8902172      0.9384638
      6407.0000          0.744       1565.439        117.556        68.3722       76.11407         0.6197       -61.0023      -3.208694      0.9173207      0.9358261
      6407.5000         0.7395       1584.936       118.0725        65.2477       72.20956           0.62       -60.8767      -3.086281      0.8342459      0.9382744
      6408.0000         0.7405       1587.793       119.0197        62.3359       68.57092         0.6202       -60.7512      -2.963963      0.7568281      0.9407207
      6408.5000         0.7415       1586.246       119.6517        61.0239       66.93203         0.6212       -60.6145      -2.830444      0.7219581      0.9433911
      6409.0000         0.7429       1578.559       119.7988        60.2628       65.98177         0.6222        -60.449      -2.668133      0.7017397      0.9466373
      6409.5000         0.7445       1570.873       119.1067        59.7275       65.31375         0.6233       -60.5496      -2.771915      0.6875266      0.9445617
      6410.0000          0.746        1563.18          118.6        60.5186       66.30373         0.6243       -60.8013      -3.026798      0.7085899       0.939464
      6410.5000         0.7447       1561.389       118.7112        61.9633       68.11072         0.6254       -61.0872      -3.315884      0.7470366      0.9336823
      6411.0000          0.743       1561.566       119.2198        64.3021       71.03532         0.6252       -61.2482      -3.480068      0.8092622      0.9303986
      6411.5000         0.7402       1563.699       119.7126        65.7343       72.82669         0.6234       -61.1284      -3.363453      0.8473764      0.9327309
      6412.0000         0.7343        1577.57       119.7814        66.9763        74.3803         0.6216       -61.0135       -3.25174       0.880432      0.9349652
