#------------------------------------------------------------------------------
# Created by    : vladimir.rabinovich
# Created on    : 09/19/2023 17:19:33
#------------------------------------------------------------------------------
~Version Information Section
VERS.           2.0     :   CWLS log ASCII Standard - VERSION 2.0
WRAP.           NO      :   One line per depth step
~Well Information Section
#MNEM       .UNIT                                         VALUE :DESCRIPTION
#------------------------------------------------------------------------------
STRT        .FT                                          3947.5 :START DEPTH
STOP        .FT                                           10890 :STOP DEPTH
STEP        .FT                                             0.5 :STEP      
NULL        .                                           -999.25 :NULL      
COMP        .                          PALM ENERGY OFFSHORE LLC :COMPANY   
WELL        .                               OCS G21349 ST00BP00 :WELL      
FLD         .                            HIGH ISLAND BLOCK 0074 :FIELD     
LOC         .                                                   :LOCATION  
CNTY        .                                  HIGH ISLAND EAST :LOCATION  
STAT        .                                             TEXAS :STATE     
CTRY        .                                     UNITED STATES :COUNTRY   
SRVC        .                                                   :SERVICE COMPANY
DATE        .                             9/13/2023 11:20:11 AM :LOG DATE  
API         .                                    42710401490000 :API NUMBER
UWI         .                                    42710401490000 :UNIQUE WELL ID
XCOORD      .                                  1378068.78051204 :SURFACE X 
YCOORD      .                                  10648064.4011202 :SURFACE Y 
LAT         .                                        29.3379836 :LATITUDE  
LON         .                                       -93.8236467 :LONGITUDE 
ELEV        .FT                                             104 :ELEVATION VALUE
ELEV_TYPE   .                                                KB :ELEVATION REFERENCE TYPE
~Curve Information Section
#MNEM       .UNIT                                      API CODE :CURVE DESCRIPTION
#------------------------------------------------------------------------------
DEPT        .FT                                                 :DEPTH     
AHFCO90     .MMHO                                               :          
AHT10       .OHMM                                               :          
AHT20       .OHMM                                               :          
AHT30       .OHMM                                               :          
AHT60       .OHMM                                               :          
AHT90       .OHMM                                               :          
DCAL        .IN                                                 :          
DPHZ        .V/V                                                :          
DTLF        .US/F                                               :          
DTLN        .US/F                                               :          
GR          .GAPI                                               :          
GR_NORM     .GAPI                                               :GammaRay Normalized
HDRA        .G/CC                                               :          
NPOR        .V/V                                                :          
RWA         .OHMM                                               :          
SP          .MV                                                 :          
SPHI        .V/V                                                :          
TENS        .LB/F                                               :          
VSH_GR      .V/V                                                :Volume of Shale from GR
~A        DEPTH        AHFCO90          AHT10          AHT20          AHT30          AHT60          AHT90           DCAL           DPHZ           DTLF           DTLN             GR        GR_NORM           HDRA           NPOR            RWA             SP           SPHI           TENS         VSH_GR
# ...
      8564.5000       2232.641         0.5986         0.5222         0.4928         0.4592         0.4479          0.188          0.292       104.9828        105.635        31.9187       26.11568        -0.0061         0.2902         0.0472         -67.25         0.2937           4100              0
      8565.0000       2272.727         0.5968         0.5157         0.4892          0.457           0.44         0.1732          0.296       105.2797       105.2209        33.3181       27.43952        -0.0067         0.2871         0.0476            -68         0.2924           3903              0
      8565.5000       2259.887         0.6023         0.5174         0.4912         0.4591         0.4425         0.0364         0.3032       105.1725        104.948        32.4467       26.61517        -0.0096         0.3091         0.0502       -68.9375         0.2915           4027              0
      8566.0000        2307.87         0.5768         0.5018         0.4772         0.4468         0.4333         0.0475         0.3067       105.8139       105.1631        33.4386       27.55351          -0.01         0.3073         0.0503       -70.5625         0.2922           4109              0
      8566.5000       2363.508         0.5402         0.4767          0.459         0.4312         0.4231        -0.0191         0.3072       106.2301       105.1202        32.0482       26.23819        -0.0079          0.297         0.0493         -67.25          0.292           3910              0
      8567.0000       2502.502         0.4971         0.4433         0.4264         0.4059         0.3996         0.0031         0.3092       107.6618       106.6747         30.959        25.2078        -0.0067         0.3011         0.0472         -67.25         0.2969           4171              0
      8567.5000       2446.782         0.4998         0.4477         0.4327         0.4118         0.4087          0.151         0.3127       108.0003       107.1978        32.3749       26.54725         -0.005         0.3199         0.0493       -67.0625         0.2985           4165              0
      8568.0000       2342.469          0.524         0.4688         0.4482         0.4273         0.4269         0.3063         0.3182       107.5495       107.1203        31.9632       26.15778        -0.0063          0.297         0.0534       -68.8125         0.2983           3957              0
      8568.5000       2222.222         0.5413         0.4837         0.4647         0.4466           0.45         0.4025         0.3213       107.8802       107.0145        33.3791       27.49722        -0.0079         0.2934         0.0573            -72         0.2979           4132              0
      8569.0000       2188.184         0.5489         0.4953         0.4728         0.4533          0.457          0.469         0.3247       107.6387       107.2975         33.329       27.44983        -0.0136         0.3081         0.0595         -69.25         0.2988           4149              0
      8569.5000       2217.295         0.5336         0.4829         0.4629         0.4453          0.451         0.2989         0.3294       108.3219       107.7453        34.5968       28.64917         -0.021         0.3227         0.0604       -69.3125         0.3002           3975              0
      8570.0000       2254.791         0.5263         0.4691         0.4526         0.4365         0.4435         0.2102         0.3298        108.331       107.6105        36.6663       30.60691        -0.0254         0.3181         0.0596       -70.1875         0.2998           4160              0
      8570.5000       2306.273          0.513         0.4579         0.4408         0.4246         0.4336         0.1362         0.3184       107.4016       106.8705        35.7406        29.7312        -0.0211          0.316         0.0543       -71.3125         0.2975           4099              0
      8571.0000       2345.766          0.515         0.4533         0.4343         0.4172         0.4263         0.1732          0.305       105.6182       105.7916        35.0768       29.10324        -0.0117          0.322          0.049       -70.6875         0.2942           3974              0
      8571.5000       2352.388         0.5183         0.4565          0.434         0.4147         0.4251         0.2102         0.3022       104.6752       104.2872        32.2918       26.46864        -0.0062         0.2916         0.0479       -70.6875         0.2894           4160              0
      8572.0000       2369.107         0.5196         0.4591         0.4338         0.4128         0.4221         0.2472           0.31       103.7031       103.1589        33.4855       27.59788        -0.0092         0.2957         0.0501        -71.375         0.2857           4093              0
      8572.5000       2402.114         0.5199         0.4598         0.4335         0.4111         0.4163         0.2472         0.3193       102.4646       102.3402         32.832       26.97967         -0.017         0.3375         0.0524       -70.5625          0.283           4051              0
      8573.0000       2431.907         0.5327         0.4672          0.437         0.4106         0.4112         0.1806         0.3196       100.7816       101.3497        34.6934       28.74055        -0.0228         0.3257         0.0519       -70.1875         0.2797           4192              0
      8573.5000       2423.655         0.5536         0.4864         0.4506         0.4168         0.4126          0.053         0.3194         98.325       100.1741        34.2295        28.3017        -0.0256         0.3153          0.052       -68.6875         0.2756           4081              0
      8574.0000        2383.79         0.5762         0.5045         0.4661         0.4286         0.4195         0.0031         0.3151        88.5446        93.0532        35.4276        29.4351        -0.0218         0.3193         0.0514        -71.625         0.2489           4102              0
      8574.5000       2355.158         0.6088          0.528          0.484         0.4401         0.4246         0.0475          0.311        84.3784         83.991        34.6084       28.66014        -0.0127         0.2996         0.0507        -72.125         0.2083           4118              0
      8575.0000       2335.357         0.6191         0.5364         0.4927         0.4499         0.4282         0.1141         0.3077        86.5639        82.1225        33.7759       27.87259        -0.0047         0.2749           0.05        -70.375         0.1988           4032              0
      8575.5000       2312.139         0.6251         0.5375         0.4936         0.4578         0.4325         0.2028         0.3093        89.2105        84.5077        34.7561       28.79986        -0.0034         0.2806         0.0511       -70.6875         0.2108           4062              0
      8576.0000       2304.147         0.6117         0.5293         0.4963         0.4612          0.434         0.2324         0.3164        92.6002        92.6993        35.5652       29.56527        -0.0087         0.2792         0.0536       -70.3125         0.2474           4126              0
      8576.5000       2262.955         0.6373         0.5467         0.5165         0.4809         0.4419          0.103         0.3195        97.4188        99.5866        38.2777        32.1313        -0.0122         0.2731         0.0557        -70.875         0.2735           3987              0
      8577.0000       2176.752          0.659         0.5538         0.5261         0.4909         0.4594        -0.0708         0.3209       103.1071       103.0561        38.2076       32.06498        -0.0147         0.3111         0.0584       -70.3125         0.2854           4116              0
      8577.5000       2181.025          0.644         0.5335          0.514         0.4844         0.4585        -0.0634          0.319       103.4435       105.3841        35.8736       29.85702        -0.0145         0.3092         0.0576         -70.25         0.2929           4136              0
