#------------------------------------------------------------------------------
# Created by    : vladimir.rabinovich
# Created on    : 09/19/2023 17:22:52
#------------------------------------------------------------------------------
~Version Information Section
VERS.           2.0     :   CWLS log ASCII Standard - VERSION 2.0
WRAP.           NO      :   One line per depth step
~Well Information Section
#MNEM       .UNIT                                         VALUE :DESCRIPTION
#------------------------------------------------------------------------------
STRT        .FT                                            2993 :START DEPTH
STOP        .FT                                           15023 :STOP DEPTH
STEP        .FT                                             0.5 :STEP      
NULL        .                                           -999.25 :NULL      
COMP        .                                        TEXACO INC :COMPANY   
WELL        .                                     ST TR 00018-L :WELL      
FLD         .                                           WILDCAT :FIELD     
LOC         .                                                   :LOCATION  
CNTY        .                                       SABINE PASS :LOCATION  
STAT        .                                             TEXAS :STATE     
CTRY        .                                     UNITED STATES :COUNTRY   
SRVC        .                                                   :SERVICE COMPANY
DATE        .                             9/13/2023 11:20:07 AM :LOG DATE  
API         .                                    42715000300000 :API NUMBER
UWI         .                                    42715000300000 :UNIQUE WELL ID
XCOORD      .                                  1367853.58567514 :SURFACE X 
YCOORD      .                                  10716828.2466652 :SURFACE Y 
LAT         .                                         29.526933 :LATITUDE  
LON         .                                       -93.8573019 :LONGITUDE 
ELEV        .FT                                              75 :ELEVATION VALUE
ELEV_TYPE   .                                                KB :ELEVATION REFERENCE TYPE
~Curve Information Section
#MNEM       .UNIT                                      API CODE :CURVE DESCRIPTION
#------------------------------------------------------------------------------
DEPT        .FT                                                 :DEPTH     
ILD         .OHMM                                               :          
SFLA        .OHMM                                               :          
SP          .MV                                                 :          
SP_NORM     .MV                                                 :SP Normalized
VSH_SP      .V/V                                                :Volume of Shale from SP
~A        DEPTH            ILD           SFLA             SP        SP_NORM         VSH_SP
# ...
      9373.0000         0.6493         0.5458       -19.3745      -2.097563      0.9851681
      9373.5000         0.6496          0.542       -19.5645      -2.290222      0.9825646
      9374.0000         0.6498         0.5391       -19.7859      -2.514282      0.9795367
      9374.5000           0.65         0.5407       -19.7838      -2.514843      0.9795291
      9375.0000         0.6502         0.5452       -19.7814      -2.515102      0.9795256
      9375.5000         0.6504         0.5515       -19.7789      -2.515263      0.9795235
      9376.0000         0.6507         0.5613       -19.6565      -2.395523      0.9811416
      9376.5000         0.6509         0.5667       -19.4616      -2.203281      0.9837394
      9377.0000         0.6511         0.5758       -19.2666      -2.010942      0.9863386
      9377.5000         0.6513         0.5789       -19.1507      -1.897703      0.9878689
      9378.0000         0.6515         0.5827       -18.8386      -1.588264      0.9920505
      9378.5000         0.6518         0.5865       -18.8362      -1.588524       0.992047
      9379.0000          0.652         0.5881       -18.6411      -1.396084      0.9946475
      9379.5000         0.6522         0.5881       -18.5224      -1.280045      0.9962156
      9380.0000         0.6524         0.5881         -18.52      -1.280304      0.9962121
      9380.5000         0.6526         0.5881       -18.5175      -1.280464      0.9962099
      9381.0000         0.6529         0.5858        -18.515      -1.280624      0.9962078
      9381.5000         0.6531         0.5819       -18.5125      -1.280785      0.9962056
      9382.0000         0.6533         0.5744         -18.51      -1.280945      0.9962034
      9382.5000         0.6535         0.5668       -18.5074      -1.281006      0.9962026
      9383.0000         0.6537         0.5569       -18.8461      -1.622366      0.9915897
      9383.5000          0.654         0.5514       -19.0361      -1.815025      0.9889861
      9384.0000         0.6542         0.5476       -19.0103      -1.791885      0.9892988
      9384.5000         0.6544         0.5452       -18.8065      -1.590746       0.992017
      9385.0000         0.6546         0.5452       -18.4661      -1.253006       0.996581
      9385.5000         0.6549         0.5452        -18.271      -1.060566      0.9991816
      9386.0000         0.6551         0.5489       -17.9711     -0.7633266              1
      9386.5000         0.6553         0.5513       -17.8693     -0.6641865              1
      9387.0000         0.6555         0.5556       -17.8405     -0.6380463              1
      9387.5000         0.6557         0.5632       -17.7098     -0.5100079              1
      9388.0000          0.656         0.5708       -17.7073     -0.5101681              1
      9388.5000         0.6562         0.5771       -17.8592     -0.6647263              1
      9389.0000         0.6564          0.581       -18.4225      -1.230688      0.9968826
      9389.5000         0.6566         0.5881       -20.1701      -2.980947      0.9732304
      9390.0000         0.6568         0.5881       -20.8325      -3.646008      0.9642431
      9390.5000         0.6571         0.5893       -20.9406      -3.756767      0.9627464
      9391.0000         0.6573         0.5932       -20.4135      -3.232328      0.9698334
      9391.5000         0.6575         0.5942       -19.8917      -2.713188      0.9768488
      9392.0000         0.6577         0.5942       -19.5041      -2.328249      0.9820507
      9392.5000         0.6579         0.5942       -19.2509      -2.077709      0.9854364
      9393.0000         0.6582         0.5942       -19.0734       -1.90287       0.987799
      9393.5000         0.6584         0.5942       -19.0709      -1.903028      0.9877969
      9394.0000         0.6586         0.5937       -19.0684      -1.903189      0.9877948
      9394.5000         0.6481         0.5899       -19.0656      -1.903049      0.9877966
      9395.0000         0.6438         0.5881       -19.5418      -2.381908      0.9813256
      9395.5000          0.644         0.5881       -19.7315       -2.57427      0.9787261
      9396.0000         0.6442         0.5846       -19.9212       -2.76663      0.9761266
      9396.5000         0.6445         0.5808       -20.2921       -3.14019      0.9710785
      9397.0000         0.6295          0.577       -20.3125       -3.16325      0.9707669
      9397.5000         0.6297         0.5727       -20.6458       -3.49921      0.9662269
      9398.0000         0.6232         0.5663       -20.8357      -3.691769      0.9636248
      9398.5000         0.6044         0.5591       -21.0549       -3.91363      0.9606266
      9399.0000         0.5998         0.5299       -21.6227      -4.484091      0.9529177
      9399.5000         0.6001         0.4809       -22.7104      -5.574451      0.9381831
      9400.0000         0.6003         0.4907       -25.1147      -7.981411      0.9056566
      9400.5000         0.6005         0.4983       -26.1453      -9.014671      0.8916937
      9401.0000         0.6007         0.5078       -26.1327      -9.004732      0.8918279
      9401.5000         0.6009         0.5207       -25.7452       -8.61989      0.8970285
      9402.0000         0.6012         0.5276       -25.3576      -8.234951      0.9022304
      9402.5000         0.6014          0.537       -24.7443      -7.624313      0.9104822
      9403.0000         0.6016         0.5106       -24.4248      -7.307472      0.9147639
      9403.5000         0.6018         0.4778       -23.8129      -6.698233      0.9229969
      9404.0000          0.602         0.4747       -23.2009      -6.088892      0.9312312
      9404.5000         0.6023         0.4757       -22.5889      -5.479553      0.9394655
      9405.0000         0.6025         0.4778        -21.977      -4.870312      0.9476985
      9405.5000         0.6027         0.4828       -21.4088      -4.304773      0.9553409
      9406.0000         0.5967         0.4904       -20.9307      -3.829334      0.9617658
      9406.5000         0.5879          0.498       -20.3124      -3.213694      0.9700852
      9407.0000         0.5729         0.5074        -19.694      -2.597954       0.978406
      9407.5000         0.5683         0.5139       -19.0757      -1.982315      0.9867254
      9408.0000         0.5428         0.5177        -18.617      -1.526274      0.9928882
      9408.5000         0.5232         0.5198       -18.4222      -1.334133      0.9954847
      9409.0000         0.4976          0.516       -18.5299      -1.444494      0.9939933
      9409.5000         0.4627         0.5145       -20.8444      -3.761656      0.9626803
      9410.0000          0.431         0.5093       -32.2737      -15.19361      0.8081944
      9410.5000         0.4023         0.4234       -43.7031      -26.62567      0.6537071
      9411.0000         0.3917         0.3769       -55.1325      -38.05774      0.4992198
      9411.5000         0.3919         0.3859       -66.5618      -49.48969      0.3447339
      9412.0000         0.3922         0.3953       -78.6385      -61.56905      0.1814993
      9412.5000         0.3924         0.4067       -77.3955      -60.32872      0.1982606
      9413.0000         0.3926         0.4166       -76.0779      -59.01378        0.21603
      9413.5000         0.4102         0.4257       -74.7602      -57.69874      0.2338008
      9414.0000         0.4235         0.4288       -73.4425      -56.38369      0.2515717
      9414.5000         0.4334         0.4257       -72.2896      -55.23345      0.2671155
      9415.0000         0.4526         0.4105       -75.3781      -58.32462       0.225343
      9415.5000         0.4719         0.3997       -81.6109      -64.56007      0.1410801
      9416.0000         0.4854         0.3982       -86.3069      -69.25874     0.07758465
      9416.5000         0.4856         0.4057       -87.1595        -70.114     0.06602705
