#------------------------------------------------------------------------------
# Created by    : vladimir.rabinovich
# Created on    : 09/19/2023 17:20:22
#------------------------------------------------------------------------------
~Version Information Section
VERS.           2.0     :   CWLS log ASCII Standard - VERSION 2.0
WRAP.           NO      :   One line per depth step
~Well Information Section
#MNEM       .UNIT                                         VALUE :DESCRIPTION
#------------------------------------------------------------------------------
STRT        .FT                                             538 :START DEPTH
STOP        .FT                                           11949 :STOP DEPTH
STEP        .FT                                             0.5 :STEP      
NULL        .                                           -999.25 :NULL      
COMP        .                                 CITIES SERVICE CO :COMPANY   
WELL        .                               OCS G03070 ST00BP00 :WELL      
FLD         .                                           WILDCAT :FIELD     
LOC         .                                                   :LOCATION  
CNTY        .                               MUSTANG ISLAND EAST :LOCATION  
STAT        .                                             TEXAS :STATE     
CTRY        .                                     UNITED STATES :COUNTRY   
SRVC        .                                                   :SERVICE COMPANY
DATE        .                             9/13/2023 11:20:11 AM :LOG DATE  
API         .                                    42712400020000 :API NUMBER
UWI         .                                    42712400020000 :UNIQUE WELL ID
XCOORD      .                                  546520.538281646 :SURFACE X 
YCOORD      .                                  9992103.69354039 :SURFACE Y 
LAT         .                                        27.4947268 :LATITUDE  
LON         .                                       -96.3742825 :LONGITUDE 
ELEV        .FT                                              65 :ELEVATION VALUE
ELEV_TYPE   .                                                KB :ELEVATION REFERENCE TYPE
~Curve Information Section
#MNEM       .UNIT                                      API CODE :CURVE DESCRIPTION
#------------------------------------------------------------------------------
DEPT        .FT                                                 :DEPTH     
ASFL        .OHMM                                               :          
CILD        .MMHO                                               :          
DT          .US/F                                               :          
GR          .GAPI                                               :          
GR_NORM     .GAPI                                               :GammaRay Normalized
ILD         .OHMM                                               :          
SFL         .OHMM                                               :          
SP          .MV                                                 :          
SP_NORM     .MV                                                 :SP Normalized
VSH_GR      .V/V                                                :Volume of Shale from GR
VSH_SP      .V/V                                                :Volume of Shale from SP
~A        DEPTH           ASFL           CILD             DT             GR        GR_NORM            ILD            SFL             SP        SP_NORM         VSH_GR         VSH_SP
# ...
      1303.0000         0.8388       1070.629       199.1765       111.3654       112.5888         0.8975         0.7534      -159.3447      -5.480408              1      0.8903918
      1303.5000         0.8338        1076.18        200.095       104.2413       103.3126         0.8894         0.7472      -158.6873      -4.826172              1      0.9034765
      1304.0000         0.8272       1081.734       200.9917       100.1804       98.02499         0.8819         0.7548      -158.2407      -4.382736              1      0.9123453
      1304.5000         0.8194       1087.285       201.8289        93.8632       89.79946         0.8745         0.7764      -158.1594      -4.304581              1      0.9139084
      1305.0000         0.8115       1092.836       202.3831        90.8459       85.87069         0.8674         0.7882      -157.8445      -3.992844              1      0.9201431
      1305.5000         0.8037       1099.895        202.719        86.8561       80.67564         0.8603         0.7929      -157.4695      -3.621002              1      0.9275799
      1306.0000         0.7959       1107.137       202.6475         83.402       76.17811         0.8533         0.7862      -157.5032      -3.657867      0.9186832      0.9268426
      1306.5000         0.7995       1114.379       201.8621        81.5093       73.71365         0.8463         0.7731      -157.5535      -3.711319       0.866248      0.9257736
      1307.0000         0.8053       1121.621       200.5271        83.2073       75.92459         0.8405          0.767      -157.5698      -3.730774      0.9132892      0.9253845
      1307.5000         0.8009       1128.863       198.6021        86.1285       79.72824         0.8369         0.7613      -157.5334       -3.69754      0.9942179      0.9260492
      1308.0000         0.7965       1134.238       196.8865        90.4769       85.39021         0.8332         0.7578       -157.522      -3.689301              1       0.926214
      1308.5000         0.7922       1127.609       195.5886        96.2101       92.85532         0.8363         0.7583      -157.5066      -3.677063              1      0.9264587
      1309.0000         0.7853        1120.98       194.5151        94.8849       91.12981         0.8395         0.7589       -157.429      -3.602615              1      0.9279477
      1309.5000         0.7778       1114.352       193.5591        91.0573       86.14594         0.8465         0.7523      -157.2974      -3.474167              1      0.9305167
      1310.0000         0.7839       1107.719       192.4038        89.1265        83.6319         0.8564         0.7477      -157.1111      -3.291031              1      0.9341794
      1310.5000          0.792        1101.09       191.1721        88.1827       82.40298         0.8661         0.7508      -157.0073      -3.190384              1      0.9361923
      1311.0000         0.8001       1094.461       189.7803        87.2479        81.1858         0.8751         0.7646      -157.1187      -3.304932              1      0.9339014
      1311.5000         0.8083       1087.832       188.3203        86.2903       79.93892         0.8842         0.7818      -157.2642      -3.453598      0.9987004      0.9309281
      1312.0000         0.8155       1081.203       186.6467        85.2843       78.62902         0.8933         0.8022       -157.417      -3.609558      0.9708302      0.9278088
      1312.5000         0.8224        1074.57       184.9202        84.9086       78.13982         0.9027         0.8267      -157.5769      -3.772614      0.9604218      0.9245477
      1313.0000         0.8293       1065.891       183.3325        87.2756       81.22186         0.9122         0.8265      -157.7114      -3.910263              1      0.9217947
      1313.5000         0.8363       1057.137       182.5823        92.9108       88.55936         0.9182         0.8066      -157.6316      -3.833633              1      0.9233273
      1314.0000         0.8381       1048.387       182.9958        91.2308       86.37186         0.9222         0.7994       -157.522      -3.727188              1      0.9254562
      1314.5000         0.8394       1039.633       183.6326        86.9617       80.81313         0.9245         0.8031      -157.3799      -3.588242              1      0.9282352
      1315.0000         0.8407       1037.512       184.2097        84.9244        78.1604         0.9248         0.8098      -157.2427      -3.454208      0.9608596      0.9309158
      1315.5000         0.8419       1040.207       184.8743          86.65       80.40728         0.9243          0.817      -157.1282      -3.342865              1      0.9331427
      1316.0000         0.8438       1044.461       185.8931        90.3102       85.17316         0.9222         0.8259      -157.1699      -3.387726              1      0.9322455
      1316.5000         0.8458       1055.168       187.0305        88.5496       82.88071         0.9198         0.8342      -157.7214      -3.942383              1      0.9211524
      1317.0000         0.8479       1065.879       187.8333         85.595       79.03358         0.9149         0.8381      -158.0586       -4.28273      0.9794378      0.9143454
      1317.5000         0.8441       1076.586       188.8872        89.3751       83.95559         0.9101         0.8378      -158.1909      -4.418198              1      0.9116361
      1318.0000         0.8378       1087.297       190.0095        94.8267       91.05402         0.9035         0.8217      -158.1587       -4.38916              1      0.9122168
      1318.5000         0.8316       1098.004       190.5771        94.7681       90.97771         0.8967         0.8125      -158.1145      -4.348114              1      0.9130377
      1319.0000         0.8253       1108.715       191.0076        91.3523       86.53006          0.889         0.8132      -158.0527      -4.289474              1      0.9142105
      1319.5000          0.819       1119.422       191.2063        88.6506       83.01222         0.8785         0.8058       -157.949      -4.188934              1      0.9162213
      1320.0000         0.8127       1128.824       191.4053        92.2217       87.66209         0.8681         0.7881      -157.8203      -4.063385              1      0.9187323
      1320.5000         0.8064       1134.566       191.5176        97.2749       94.24178         0.8558         0.7702      -157.6418      -3.888046              1      0.9222391
      1321.0000         0.8007       1140.309       191.6162        96.0502       92.64712         0.8421         0.7584      -157.5432      -3.792603              1       0.924148
      1321.5000         0.7951       1146.051       191.7361         93.005       88.68201         0.8287         0.7553      -157.5127      -3.765259              1      0.9246948
      1322.0000         0.7894       1151.797       191.9221        88.3926       82.67628         0.8169         0.7542      -157.5693      -3.825012              1      0.9234998
      1322.5000         0.7838       1157.539       192.1082        85.7108       79.18436         0.8071         0.7577      -157.6697      -3.928558       0.982646      0.9214289
      1323.0000         0.7783       1163.281       192.6177        86.6089       80.35377         0.7974         0.7572       -157.738      -4.000031              1      0.9199994
      1323.5000         0.7758       1169.023       193.2168        92.7756       88.38332         0.7889         0.7502      -157.5684      -3.833588              1      0.9233282
      1324.0000         0.7733       1174.766       193.5659        91.5297       86.76105         0.7872         0.7367      -157.2642      -3.532547              1      0.9293491
      1324.5000         0.7707       1178.906        193.915        88.7917       83.19595         0.7856         0.7236      -157.2786      -3.550095              1      0.9289981
      1325.0000         0.7711       1179.754       193.9946        89.4193       84.01313         0.7839          0.721       -157.344      -3.618652              1       0.927627
