#------------------------------------------------------------------------------
# Created by    : vladimir.rabinovich
# Created on    : 09/19/2023 17:19:33
#------------------------------------------------------------------------------
~Version Information Section
VERS.           2.0     :   CWLS log ASCII Standard - VERSION 2.0
WRAP.           NO      :   One line per depth step
~Well Information Section
#MNEM       .UNIT                                         VALUE :DESCRIPTION
#------------------------------------------------------------------------------
STRT        .FT                                          3947.5 :START DEPTH
STOP        .FT                                           10890 :STOP DEPTH
STEP        .FT                                             0.5 :STEP      
NULL        .                                           -999.25 :NULL      
COMP        .                          PALM ENERGY OFFSHORE LLC :COMPANY   
WELL        .                               OCS G21349 ST00BP00 :WELL      
FLD         .                            HIGH ISLAND BLOCK 0074 :FIELD     
LOC         .                                                   :LOCATION  
CNTY        .                                  HIGH ISLAND EAST :LOCATION  
STAT        .                                             TEXAS :STATE     
CTRY        .                                     UNITED STATES :COUNTRY   
SRVC        .                                                   :SERVICE COMPANY
DATE        .                             9/13/2023 11:20:11 AM :LOG DATE  
API         .                                    42710401490000 :API NUMBER
UWI         .                                    42710401490000 :UNIQUE WELL ID
XCOORD      .                                  1378068.78051204 :SURFACE X 
YCOORD      .                                  10648064.4011202 :SURFACE Y 
LAT         .                                        29.3379836 :LATITUDE  
LON         .                                       -93.8236467 :LONGITUDE 
ELEV        .FT                                             104 :ELEVATION VALUE
ELEV_TYPE   .                                                KB :ELEVATION REFERENCE TYPE
~Curve Information Section
#MNEM       .UNIT                                      API CODE :CURVE DESCRIPTION
#------------------------------------------------------------------------------
DEPT        .FT                                                 :DEPTH     
AHFCO90     .MMHO                                               :          
AHT10       .OHMM                                               :          
AHT20       .OHMM                                               :          
AHT30       .OHMM                                               :          
AHT60       .OHMM                                               :          
AHT90       .OHMM                                               :          
DCAL        .IN                                                 :          
DPHZ        .V/V                                                :          
DTLF        .US/F                                               :          
DTLN        .US/F                                               :          
GR          .GAPI                                               :          
GR_NORM     .GAPI                                               :GammaRay Normalized
HDRA        .G/CC                                               :          
NPOR        .V/V                                                :          
RWA         .OHMM                                               :          
SP          .MV                                                 :          
SPHI        .V/V                                                :          
TENS        .LB/F                                               :          
VSH_GR      .V/V                                                :Volume of Shale from GR
~A        DEPTH        AHFCO90          AHT10          AHT20          AHT30          AHT60          AHT90           DCAL           DPHZ           DTLF           DTLN             GR        GR_NORM           HDRA           NPOR            RWA             SP           SPHI           TENS         VSH_GR
# ...
      6715.0000       1093.733         0.7798         0.8566          0.883         0.9135         0.9143         0.9349          0.231       119.7738       119.5556       104.7357       95.00057        -0.0015         0.4986         0.0602      -142.4375         0.3322           3764              1
      6715.5000       1088.258         0.7885         0.8648         0.8901         0.9209         0.9189         0.8684         0.2256       118.2327       118.0862        96.3514       87.06902        -0.0017         0.4369         0.0577      -142.9375         0.3286           3729              1
      6716.0000         1075.5         0.8013         0.8798         0.9051         0.9354         0.9298         0.8684         0.2183       117.1084       117.1815        95.1161       85.90042        -0.0007         0.4218         0.0547      -141.9375         0.3263           3679              1
      6716.5000       1076.774         0.8073         0.8816         0.9086         0.9395         0.9287         0.8906         0.2188        117.706       117.6424        94.4407       85.26149        -0.0022         0.4477         0.0549         -141.5         0.3275           3738              1
      6717.0000       1091.584         0.8005         0.8711         0.8978         0.9244         0.9161         1.2234         0.2204       118.9503       118.8814       101.2348       91.68872        -0.0034          0.477          0.055      -142.3125         0.3306           3690              1
      6717.5000       1108.647         0.7952         0.8628         0.8854         0.9113          0.902         1.5229         0.2235       120.8192       121.0291         97.323       87.98814        -0.0064         0.4776         0.0556      -142.8125         0.3358           3653              1
      6718.0000       1096.611         0.7998         0.8655           0.89         0.9191         0.9119         1.2677         0.2231       122.0596       122.0925        93.6041       84.47007        -0.0073         0.4431          0.056       -143.875         0.3383           3733              1
      6718.5000       1092.419         0.8065         0.8692         0.8933         0.9211         0.9154         1.1346         0.2266       122.1314        122.082        89.8983       80.96439        -0.0067         0.4571          0.058       -145.375         0.3383           3703              1
      6719.0000       1088.969          0.807         0.8661         0.8946         0.9217         0.9183         1.2012         0.2265       122.3959       122.7881        93.5484       84.41738        -0.0047         0.4165         0.0581       -145.875           0.34           3684              1
      6719.5000       1093.972         0.8057         0.8686         0.8888         0.9133         0.9141         1.1568         0.2259       121.6699        121.875        91.9725       82.92657        -0.0039         0.4213         0.0576       -144.875         0.3378           3770              1
      6720.0000       1088.613         0.8079         0.8727         0.8939         0.9192         0.9186         1.0237         0.2212       118.9741       118.9114        90.9431       81.95277        -0.0047         0.4786         0.0555      -144.1875         0.3307           3705              1
      6720.5000       1078.981         0.8194         0.8859         0.9035          0.929         0.9268         1.0237         0.2152       115.7719       115.7636        89.5044       80.59176        -0.0048         0.4351          0.053        -144.25         0.3227           3686              1
      6721.0000       1055.075         0.8387         0.9024          0.922         0.9486         0.9478         1.0459         0.2134       117.3308       117.6527        86.2727       77.53456        -0.0013         0.3954         0.0533      -143.4375         0.3275           3737      0.9475439
      6721.5000       1054.074         0.8496         0.9122         0.9282         0.9507         0.9487         1.0902         0.2138       119.1522       119.4339         91.365       82.35188         0.0008         0.4213         0.0535       -143.125          0.332           3655              1
      6722.0000       1077.702         0.8416         0.8919         0.9094         0.9302         0.9279         1.3232         0.2194       122.4525       122.5947        87.3475       78.55133         0.0015         0.4106         0.0551         -142.5         0.3395           3743      0.9691772
      6722.5000       1102.779          0.828         0.8804         0.8932         0.9129         0.9068         1.6671          0.219        122.772       123.2134         94.024       84.86729        -0.0001         0.4233         0.0537           -143         0.3409           3748              1
      6723.0000       1098.298           0.83         0.8812         0.8955          0.912         0.9105         1.3121         0.2133       120.6248       120.7541        94.6406       85.45061        -0.0003         0.4317         0.0511      -143.9375         0.3352           3609              1
      6723.5000       1084.599          0.845         0.8984         0.9102         0.9231          0.922         1.2899         0.2059       118.4942       118.9892       100.4241       90.92179        -0.0005         0.4458         0.0483       -144.125         0.3309           3711              1
      6724.0000       1072.386         0.8599         0.9089         0.9199         0.9308         0.9325          1.179         0.1989       117.4957       117.3452        98.2145        88.8315         0.0022         0.4265         0.0456      -144.5625         0.3267           3756              1
      6724.5000       1080.731         0.8621         0.9066         0.9171         0.9241         0.9253         1.2455          0.202       117.7413       117.8411        89.2115       80.31467         0.0041         0.3712         0.0466      -144.5625          0.328           3617              1
      6725.0000       1093.135         0.8622         0.9031         0.9121         0.9171         0.9148         1.5561         0.1992       117.8393       117.6888        79.4296         71.061         0.0104         0.3796         0.0448       -142.625         0.3276           3744      0.8098084
      6725.5000       1100.837         0.8623         0.8994         0.9084         0.9106         0.9084         1.5783         0.2031       118.2271       118.5512        75.9296          67.75          0.008         0.3731         0.0462        -143.25         0.3298           3680      0.7393617
      6726.0000       1106.562         0.8595         0.8978         0.9063         0.9093         0.9037         1.5894         0.1954       118.8617       118.8074        81.6943       73.20339         0.0118         0.3557         0.0426      -144.1875         0.3304           3629      0.8553913
      6726.5000       1118.443         0.8577         0.8967          0.905         0.9099         0.8941         1.7447         0.2013       117.6378       117.7248        82.9275          74.37         0.0075         0.4026         0.0447      -143.3125         0.3277           3718      0.8802128
      6727.0000       1109.508         0.8664         0.9067         0.9166         0.9209         0.9013         1.6449         0.2068       116.3068       116.3197        84.7804       76.12286         0.0077         0.3707         0.0476      -142.9375         0.3241           3709      0.9175076
      6727.5000        1086.72         0.8879         0.9328         0.9409         0.9443         0.9202         1.7004         0.2136       115.0695       115.0378        84.1197       75.49783         0.0002         0.3591         0.0518      -143.3125         0.3208           3645      0.9042091
      6728.0000       1071.008         0.9063         0.9554         0.9637         0.9691         0.9337         1.6893         0.2121       114.4644       114.3538        85.6029       76.90093        -0.0033         0.3391         0.0519      -143.1875         0.3189           3725      0.9340624
