#------------------------------------------------------------------------------
# Created by    : vladimir.rabinovich
# Created on    : 09/19/2023 17:20:10
#------------------------------------------------------------------------------
~Version Information Section
VERS.           2.0     :   CWLS log ASCII Standard - VERSION 2.0
WRAP.           NO      :   One line per depth step
~Well Information Section
#MNEM       .UNIT                                         VALUE :DESCRIPTION
#------------------------------------------------------------------------------
STRT        .FT                                             613 :START DEPTH
STOP        .FT                                           12130 :STOP DEPTH
STEP        .FT                                             0.5 :STEP      
NULL        .                                           -999.25 :NULL      
COMP        .                                 CITIES SERVICE CO :COMPANY   
WELL        .                               OCS G03060 ST00BP00 :WELL      
FLD         .                                           WILDCAT :FIELD     
LOC         .                                                   :LOCATION  
CNTY        .                               MUSTANG ISLAND EAST :LOCATION  
STAT        .                                             TEXAS :STATE     
CTRY        .                                     UNITED STATES :COUNTRY   
SRVC        .                                                   :SERVICE COMPANY
DATE        .                             9/13/2023 11:12:08 AM :LOG DATE  
API         .                                    42712400440000 :API NUMBER
UWI         .                                    42712400440000 :UNIQUE WELL ID
XCOORD      .                                  632657.308411808 :SURFACE X 
YCOORD      .                                  10083439.8406154 :SURFACE Y 
LAT         .                                        27.7518805 :LATITUDE  
LON         .                                       -96.1160164 :LONGITUDE 
ELEV        .FT                                             103 :ELEVATION VALUE
ELEV_TYPE   .                                                KB :ELEVATION REFERENCE TYPE
~Curve Information Section
#MNEM       .UNIT                                      API CODE :CURVE DESCRIPTION
#------------------------------------------------------------------------------
DEPT        .FT                                                 :DEPTH     
ASFL        .OHMM                                               :          
CILD        .MMHO                                               :          
GR          .GAPI                                               :          
GR_NORM     .GAPI                                               :GammaRay Normalized
ILD         .OHMM                                               :          
SP          .MV                                                 :          
SP_NORM     .MV                                                 :SP Normalized
VSH_GR      .V/V                                                :Volume of Shale from GR
VSH_SP      .V/V                                                :Volume of Shale from SP
~A        DEPTH           ASFL           CILD             GR        GR_NORM            ILD             SP        SP_NORM         VSH_GR         VSH_SP
# ...
      5992.5000         0.8756       1795.193        58.1395       81.32822         0.5735      -102.5165      -5.190552              1       0.896189
      5993.0000         0.8816       1828.873         58.249       81.46516         0.5663       -102.562       -5.25177              1      0.8949646
      5993.5000         0.8895        1835.57        58.3421       81.58064           0.57      -102.6075      -5.312996              1      0.8937401
      5994.0000         0.8974       1841.279        58.4763       81.74983         0.5742       -102.653      -5.374214              1      0.8925157
      5994.5000         0.9102       1846.984        57.8243       80.89256         0.5784      -102.6985       -5.43544              1      0.8912912
      5995.0000          0.931       1757.545        55.9733       78.46994         0.5967      -102.7439      -5.496559      0.9674456      0.8900688
      5995.5000         0.9512       1557.346        54.1198       76.04406         0.6155      -102.7894      -5.557777       0.915831      0.8888444
      5996.0000         0.9649        1465.48        52.7247       74.21664         0.6343      -102.8348      -5.618904      0.8769497      0.8876219
      5996.5000         0.9785       1424.607        51.5125         72.628          0.653      -102.9321      -5.731918      0.8431489      0.8853616
      5997.0000         0.9918       1385.273        50.3002       71.03924         0.6718      -103.0366      -5.852142      0.8093455      0.8829572
      5997.5000         1.0028        1352.51        49.2648       69.68143         0.7016      -103.1412      -5.972466      0.7804559      0.8805507
      5998.0000         1.0138       1323.715        48.4121       68.56214         0.7339      -103.2457      -6.092682      0.7566413      0.8781464
      5998.5000         1.0247       1294.922        47.4656        67.3204         0.7662      -103.3502      -6.212906      0.7302212      0.8757419
      5999.0000         1.0438       1266.746        46.0891       65.51726         0.7984      -103.4547       -6.33313      0.6918566      0.8733374
      5999.5000         1.0733       1245.193        44.8187       63.85264         0.8307      -103.5892      -6.483353      0.6564392       0.870333
      6000.0000         1.1039       1223.641        43.6016       62.25761          0.863      -103.8176       -6.72747      0.6225023      0.8654506
      6000.5000         1.1217        1202.09        42.6241       60.97538         0.8908      -104.0455        -6.9711      0.5952209       0.860578
      6001.0000         1.1315       1180.537        41.7296       59.80154         0.9103      -104.2738      -7.215118      0.5702454      0.8556976
      6001.5000         1.1413       1159.826        40.9875       58.82664         0.9298      -104.5424      -7.499435      0.5495029      0.8500113
      6002.0000         1.1511        1139.59        40.3357       57.96965         0.9493      -104.8203       -7.79306      0.5312691      0.8441388
      6002.5000         1.1594       1119.352        40.6014       58.31049         0.9688      -105.0984      -8.086876       0.538521      0.8382625
      6003.0000         1.1645        1115.26        41.1605       59.03438         0.9822      -105.3785      -8.382706       0.553923      0.8323459
      6003.5000         1.1604       1128.168        41.7197       59.75842         0.9676      -105.6671      -8.687019       0.569328      0.8262596
      6004.0000         1.1526       1141.078        42.6934       61.02359         0.9439       -106.028      -9.063644      0.5962467      0.8187271
      6004.5000         1.1443       1153.986        43.2093       61.69109         0.9132      -106.4558      -9.507172      0.6104487      0.8098566
      6005.0000         1.1299       1166.896        42.6619       60.97039         0.8826      -106.8833      -9.950386      0.5951148      0.8009923
      6005.5000         1.1154       1186.961        41.9507       60.03584         0.8519      -107.3134      -10.39621      0.5752305      0.7920758
      6006.0000          1.101       1228.924        41.1624       59.00063         0.8212      -107.8478      -10.94633       0.553205      0.7810733
      6006.5000         1.0865       1270.838        41.4626       59.38652         0.7906      -108.3822      -11.49645      0.5614153       0.770071
      6007.0000         1.0721       1312.803        42.5587        60.8115         0.7599      -108.9166      -12.04658      0.5917341      0.7590684
      6007.5000         1.0463       1352.238        43.6547       62.23635         0.7366       -109.451      -12.59669      0.6220501      0.7480661
      6008.0000         0.9887       1389.588        44.7508       63.66133         0.7144      -109.9855      -13.14691      0.6523688      0.7370617
      6008.5000         0.9724       1428.924        43.9414       62.59857         0.6921      -110.6343      -13.81144      0.6297569      0.7237712
      6009.0000         0.9561       1488.051        43.0245       61.39548         0.6699      -111.3447      -14.53757      0.6041591      0.7092487
      6009.5000         0.9402       1543.109        42.1077        60.1925         0.6477      -112.0547      -15.26328      0.5785637      0.6947343
      6010.0000         0.9329       1592.961        44.0143       62.67564         0.6287      -112.5663       -15.7906      0.6313967      0.6841879
      6010.5000         0.9257       1633.363        46.8069       66.31549          0.622      -113.0624      -16.30243      0.7088403      0.6739514
      6011.0000         0.9184       1657.371        49.0547       69.24407         0.6152      -113.3583      -16.61404      0.7711505      0.6677191
      6011.5000         0.9111       1681.354        50.3694       70.95446         0.6085      -113.4368      -16.70827      0.8075417      0.6658347
      6012.0000          0.908       1614.389         51.725       72.71823         0.6092      -112.9159      -16.20309      0.8450688      0.6759382
      6012.5000         0.9165       1566.102        53.1522       74.57548         0.6117      -112.3951      -15.69801      0.8845846      0.6860397
      6013.0000         0.9326       1542.242        53.9703        75.6375         0.6143      -111.8749      -15.19353       0.907181      0.6961293
      6013.5000         0.9488       1522.748        54.2469       75.99258         0.6168      -111.2719      -14.60625      0.9147357      0.7078751
      6014.0000         0.9649       1503.229        54.2805       76.03043         0.6194      -110.5144      -13.86447       0.915541      0.7227105
      6014.5000          0.981       1483.734         54.314       76.06812         0.6287      -109.7235       -13.0893      0.9163429       0.738214
      6015.0000         0.9968       1466.684        54.3477       76.10606         0.6429      -108.4557      -11.83722      0.9171501      0.7632556
      6015.5000         0.9918       1456.168        54.0932       75.76636         0.6571      -107.4314      -10.82864      0.9099225      0.7834273
      6016.0000         0.9797       1445.652        53.7287       75.27872         0.6712      -106.8932      -10.30617      0.8995473      0.7938766
      6016.5000         0.9676       1435.137        53.1992        74.5757         0.6854      -106.4869      -9.915581      0.8845893      0.8016884
      6017.0000         0.9728       1424.621        52.5906       73.76939         0.6995      -106.0807      -9.525108      0.8674337      0.8094978
      6017.5000         0.9808       1414.105        51.9821       72.96321         0.7137       -105.801      -9.261131      0.8502811      0.8147774
      6018.0000         0.9888       1402.387        51.3735       72.15691         0.7278      -105.6709      -9.146744      0.8331257      0.8170651
      6018.5000         0.9967       1388.088        50.7649        71.3506          0.742      -105.5408      -9.032372      0.8159702      0.8193526
