#------------------------------------------------------------------------------
# Created by    : vladimir.rabinovich
# Created on    : 09/19/2023 17:20:10
#------------------------------------------------------------------------------
~Version Information Section
VERS.           2.0     :   CWLS log ASCII Standard - VERSION 2.0
WRAP.           NO      :   One line per depth step
~Well Information Section
#MNEM       .UNIT                                         VALUE :DESCRIPTION
#------------------------------------------------------------------------------
STRT        .FT                                             613 :START DEPTH
STOP        .FT                                           12130 :STOP DEPTH
STEP        .FT                                             0.5 :STEP      
NULL        .                                           -999.25 :NULL      
COMP        .                                 CITIES SERVICE CO :COMPANY   
WELL        .                               OCS G03060 ST00BP00 :WELL      
FLD         .                                           WILDCAT :FIELD     
LOC         .                                                   :LOCATION  
CNTY        .                               MUSTANG ISLAND EAST :LOCATION  
STAT        .                                             TEXAS :STATE     
CTRY        .                                     UNITED STATES :COUNTRY   
SRVC        .                                                   :SERVICE COMPANY
DATE        .                             9/13/2023 11:12:08 AM :LOG DATE  
API         .                                    42712400440000 :API NUMBER
UWI         .                                    42712400440000 :UNIQUE WELL ID
XCOORD      .                                  632657.308411808 :SURFACE X 
YCOORD      .                                  10083439.8406154 :SURFACE Y 
LAT         .                                        27.7518805 :LATITUDE  
LON         .                                       -96.1160164 :LONGITUDE 
ELEV        .FT                                             103 :ELEVATION VALUE
ELEV_TYPE   .                                                KB :ELEVATION REFERENCE TYPE
~Curve Information Section
#MNEM       .UNIT                                      API CODE :CURVE DESCRIPTION
#------------------------------------------------------------------------------
DEPT        .FT                                                 :DEPTH     
ASFL        .OHMM                                               :          
CILD        .MMHO                                               :          
GR          .GAPI                                               :          
GR_NORM     .GAPI                                               :GammaRay Normalized
ILD         .OHMM                                               :          
SP          .MV                                                 :          
SP_NORM     .MV                                                 :SP Normalized
VSH_GR      .V/V                                                :Volume of Shale from GR
VSH_SP      .V/V                                                :Volume of Shale from SP
~A        DEPTH           ASFL           CILD             GR        GR_NORM            ILD             SP        SP_NORM         VSH_GR         VSH_SP
# ...
      8271.5000         0.8149        1776.35        53.7718       75.26433         0.5272       -73.7408     -0.9261093       0.899241      0.9814778
      8272.0000         0.8137       1758.113        54.6775       76.44434         0.5354       -73.3491      -0.540062      0.9243478      0.9891987
      8272.5000         0.8039       1740.695        55.5831       77.62421         0.5398       -74.0303      -1.226913      0.9494514      0.9754617
      8273.0000         0.7942       1742.729        57.8511        80.5828         0.5416       -74.1825      -1.384773              1      0.9723045
      8273.5000         0.7844       1755.855        59.5976       82.86053         0.5433       -73.8566      -1.064529              1      0.9787094
      8274.0000         0.7705       1770.592        60.7827       84.40531         0.5451       -73.5634     -0.7769852              1      0.9844603
      8274.5000         0.7343        1785.33        60.0654       83.46641         0.5468       -73.2703     -0.4895401              1      0.9902092
      8275.0000         0.7394       1800.043        58.5946       81.54377         0.5486       -73.1345     -0.3593903              1      0.9928122
      8275.5000         0.7445       1814.781        56.6735       79.03325         0.5503       -73.8295      -1.060043      0.9794309      0.9787991
      8276.0000         0.7495        1829.52        54.7523       76.52259         0.5521        -74.402      -1.638206      0.9260126      0.9672359
      8276.5000         0.7785       1816.295        53.7531       75.21564         0.5538       -74.9279      -2.169762      0.8982052      0.9566048
      8277.0000         0.8093       1797.637        53.5401       74.93514         0.5556       -75.4543      -2.701813      0.8922371      0.9459637
      8277.5000         0.8401       1757.195        53.2703       74.58047         0.5572       -75.5316      -2.784767      0.8846909      0.9443046
      8278.0000         0.8625       1716.752        52.6241        73.7344         0.5586       -75.0994      -2.358223      0.8666893      0.9528356
      8278.5000         0.8835       1676.309        51.9779       72.88833           0.56       -74.6422      -1.906677      0.8486878      0.9618664
      8279.0000         0.9045       1632.393        51.3317       72.04224         0.5614       -74.1855      -1.455635       0.830686      0.9708873
      8279.5000         0.9235        1615.67        50.7372       71.26368         0.5628       -74.5367      -1.812485      0.8141208      0.9637503
      8280.0000          0.858       1639.861        52.2474       73.23289         0.5642       -75.1425      -2.423943      0.8560189      0.9515212
      8280.5000         0.8161       1660.307        54.1286       75.68649         0.5656       -75.7605      -3.047592      0.9082231      0.9390482
      8281.0000         0.7822        1680.75        55.8826         77.974          0.567       -76.3787      -3.671455      0.9568936      0.9265709
      8281.5000         0.7764       1701.195        57.2299       79.73055         0.5684       -76.9774       -4.27581      0.9942669      0.9144838
      8282.0000         0.7725       1721.639        57.4095       79.96259         0.5698       -77.1166      -4.420662      0.9992041      0.9115868
      8282.5000         0.7768       1739.627        56.1183       78.27444         0.5707        -76.075      -3.384712       0.963286      0.9323058
      8283.0000         0.8093        1753.77        54.9133       76.69882         0.5714       -74.9946      -2.309967      0.9297622      0.9538007
      8283.5000         0.8396       1767.889        53.7094       75.12464         0.5721       -73.8345      -1.155533       0.896269      0.9768894
      8284.0000         0.8543       1755.855        53.0361       74.24317         0.5728        -72.944     -0.2706833      0.8775143      0.9945863
      8284.5000         0.8651       1725.535        53.2909        74.5734         0.5735       -72.9418     -0.2741394      0.8845405      0.9945172
      8285.0000         0.8555       1695.215        53.4564       74.78706         0.5742        -72.905     -0.2429886      0.8890865      0.9951403
      8285.5000          0.839       1660.877         53.597       74.96819         0.5749       -72.0618      0.5945587      0.8929401              1
      8286.0000         0.8202       1624.156        53.7377       75.14946         0.5756       -71.2172       1.433495       0.896797              1
      8286.5000         0.8014       1611.576        53.6333       75.01073         0.5766       -70.4724       2.172646      0.8938454              1
      8287.0000         0.7827       1621.736        53.3751        74.6712         0.5777       -69.8175       2.821892      0.8866212              1
      8287.5000         0.7692       1631.896        53.1166        74.3313         0.5788       -69.3844       3.249336      0.8793893              1
      8288.0000         0.7581       1643.781        53.0298       74.21554         0.5799        -69.302        3.32608      0.8769264              1
      8288.5000         0.7514        1662.24        53.2154       74.45544          0.581       -69.2194       3.403023      0.8820305              1
      8289.0000         0.7494       1680.725        54.2358       75.78519         0.5821       -69.1368       3.479965      0.9103233              1
      8289.5000         0.7475       1699.186        55.2563       77.11509         0.5832       -69.0819       3.529213      0.9386189              1
      8290.0000         0.7331        1717.67        56.2767       78.44485         0.5842       -69.0663       3.539162      0.9669118              1
      8290.5000         0.6942       1740.547        57.2972       79.77475         0.5816       -69.0508       3.549011      0.9952074              1
      8291.0000         0.6582       1763.396        58.7842       81.71368         0.5646       -69.1763       3.417847              1              1
      8291.5000         0.6366       1786.248        60.2812       83.66567         0.5477       -69.6404        2.94809              1              1
      8292.0000         0.6248       1823.541        61.6634        85.4678         0.5307       -70.3115       2.271339              1              1
      8292.5000         0.6198       1882.492        62.9434       87.13647         0.5137       -71.3606       1.216583              1              1
      8293.0000         0.6262       1941.443        61.4364       85.16659         0.4968       -72.6854     -0.1138687              1      0.9977226
      8293.5000         0.6686       2015.879        55.8776       77.90682         0.4798       -74.0078      -1.441925      0.9554643      0.9711615
      8294.0000         0.7107       2114.824        50.5932       71.00533         0.4628         -75.45      -2.889778       0.808624      0.9422044
      8294.5000         0.7993       2213.871        48.0957       67.74226         0.4459       -80.9388      -8.384232      0.7391971      0.8323154
      8295.0000         0.8592       2251.387        45.5983       64.47935          0.438       -84.9458      -12.39689      0.6697733      0.7520622
      8295.5000         0.8992       2286.719        42.2949       60.16415         0.4355       -90.3899      -17.84664      0.5779607      0.6430672
      8296.0000         0.9177       2322.051        39.3483       56.31478         0.4331       -99.7111       -27.1735      0.4960591        0.45653
      8296.5000         0.9286       2345.695         38.041        54.6056         0.4306      -103.6956      -31.16366      0.4596936      0.3767268
      8297.0000          0.876       2368.871        36.7361       52.89956         0.4282      -104.5215      -31.99521      0.4233948      0.3600958
      8297.5000         0.7927       2392.242        35.8672       51.76273         0.4257      -101.9916      -29.47096       0.399207      0.4105808
