#------------------------------------------------------------------------------
# Created by    : vladimir.rabinovich
# Created on    : 09/19/2023 17:19:33
#------------------------------------------------------------------------------
~Version Information Section
VERS.           2.0     :   CWLS log ASCII Standard - VERSION 2.0
WRAP.           NO      :   One line per depth step
~Well Information Section
#MNEM       .UNIT                                         VALUE :DESCRIPTION
#------------------------------------------------------------------------------
STRT        .FT                                          3947.5 :START DEPTH
STOP        .FT                                           10890 :STOP DEPTH
STEP        .FT                                             0.5 :STEP      
NULL        .                                           -999.25 :NULL      
COMP        .                          PALM ENERGY OFFSHORE LLC :COMPANY   
WELL        .                               OCS G21349 ST00BP00 :WELL      
FLD         .                            HIGH ISLAND BLOCK 0074 :FIELD     
LOC         .                                                   :LOCATION  
CNTY        .                                  HIGH ISLAND EAST :LOCATION  
STAT        .                                             TEXAS :STATE     
CTRY        .                                     UNITED STATES :COUNTRY   
SRVC        .                                                   :SERVICE COMPANY
DATE        .                             9/13/2023 11:20:11 AM :LOG DATE  
API         .                                    42710401490000 :API NUMBER
UWI         .                                    42710401490000 :UNIQUE WELL ID
XCOORD      .                                  1378068.78051204 :SURFACE X 
YCOORD      .                                  10648064.4011202 :SURFACE Y 
LAT         .                                        29.3379836 :LATITUDE  
LON         .                                       -93.8236467 :LONGITUDE 
ELEV        .FT                                             104 :ELEVATION VALUE
ELEV_TYPE   .                                                KB :ELEVATION REFERENCE TYPE
~Curve Information Section
#MNEM       .UNIT                                      API CODE :CURVE DESCRIPTION
#------------------------------------------------------------------------------
DEPT        .FT                                                 :DEPTH     
AHFCO90     .MMHO                                               :          
AHT10       .OHMM                                               :          
AHT20       .OHMM                                               :          
AHT30       .OHMM                                               :          
AHT60       .OHMM                                               :          
AHT90       .OHMM                                               :          
DCAL        .IN                                                 :          
DPHZ        .V/V                                                :          
DTLF        .US/F                                               :          
DTLN        .US/F                                               :          
GR          .GAPI                                               :          
GR_NORM     .GAPI                                               :GammaRay Normalized
HDRA        .G/CC                                               :          
NPOR        .V/V                                                :          
RWA         .OHMM                                               :          
SP          .MV                                                 :          
SPHI        .V/V                                                :          
TENS        .LB/F                                               :          
VSH_GR      .V/V                                                :Volume of Shale from GR
~A        DEPTH        AHFCO90          AHT10          AHT20          AHT30          AHT60          AHT90           DCAL           DPHZ           DTLF           DTLN             GR        GR_NORM           HDRA           NPOR            RWA             SP           SPHI           TENS         VSH_GR
# ...
      7174.0000       791.8911         1.0904         1.1844         1.2288         1.2568         1.2628         1.6893         0.1896       108.3784       108.4302        79.8371       71.44649         -0.004         0.3373          0.056      -146.4375         0.3022           3888      0.8180104
      7174.5000       795.4817         1.0786         1.1798         1.2268          1.255         1.2571         1.6227          0.187       105.8866       105.9446        79.6855       71.30308        -0.0049         0.3379         0.0543      -146.3125         0.2946           3820      0.8149591
      7175.0000       793.7138         1.0872         1.1883         1.2326         1.2613         1.2599         1.4452         0.1851       104.5129       104.4581        79.8026       71.41385        -0.0055         0.3279         0.0533      -147.0625         0.2899           3748      0.8173159
      7175.5000       791.5776          1.089         1.1928         1.2407         1.2702         1.2633         1.4674         0.1835       103.8596       103.6687        80.4654       72.04086        -0.0072         0.3083         0.0525           -148         0.2874           3843      0.8306566
      7176.0000       792.5814         1.0833         1.1916         1.2425          1.275         1.2617         1.4008         0.1822        102.356       102.6343        81.8958       73.39402        -0.0112         0.3391         0.0517        -147.25          0.284           3804      0.8594472
      7176.5000       792.3303         1.0806         1.1879         1.2419         1.2735         1.2621         1.2899         0.1809       101.7908       101.5526        83.9512       75.33843        -0.0135         0.3473          0.051       -146.625         0.2804           3748      0.9008177
      7177.0000       782.9628         1.0901         1.2077         1.2672         1.2928         1.2772         1.2012         0.1809       101.7639       101.9004        79.7919       71.40372        -0.0116         0.3289         0.0516      -145.1875         0.2815           3872      0.8171005
      7177.5000       768.2852          1.098         1.2238         1.2871         1.3153         1.3016         1.1901         0.1845       102.2058       102.3152        80.1575        71.7496        -0.0052         0.3139         0.0547       -145.375         0.2829           3843      0.8244595
      7178.0000       775.8553         1.0853         1.2061          1.265         1.3037         1.2889         1.1568         0.1945        105.114       105.4317        79.7936       71.40534        -0.0004         0.3325         0.0602        -146.25          0.293           3843      0.8171349
      7178.5000       788.1462         1.0563          1.179         1.2391          1.284         1.2688         1.1346         0.2015       106.2684       105.8448         85.394       76.70332         0.0035         0.3487         0.0636        -146.25         0.2943           3910      0.9298578
      7179.0000        802.697         1.0344         1.1543         1.2117         1.2602         1.2458         1.0015         0.2039        106.674       106.7252        91.5602       82.53654         0.0091         0.3514         0.0639      -147.3125         0.2971           3767              1
      7179.5000       808.0156         1.0115         1.1295         1.1858         1.2411         1.2376         1.0126         0.2028       107.5295       107.1793        89.5014       80.58892         0.0163         0.3365         0.0628           -147         0.2984           3835              1
      7180.0000       822.5037         0.9897          1.102          1.154         1.2133         1.2158         0.9682         0.2031       108.6874       109.4025        92.6454       83.56315         0.0219          0.352         0.0619      -146.8125         0.3051           3871              1
      7180.5000       837.3807         0.9689         1.0755         1.1202         1.1828         1.1942         0.8129         0.2121       111.7121       112.1077        83.4372       74.85219          0.018         0.3894         0.0663       -146.125         0.3128           3750      0.8904721
      7181.0000       841.3967         0.9594         1.0577          1.097         1.1545         1.1885         0.7353         0.2171       112.2536       112.3388        86.3195       77.57883         0.0115         0.4128         0.0692      -144.6875         0.3134           3826      0.9484859
      7181.5000       835.1428         0.9637         1.0578          1.097         1.1542         1.1974         0.6687          0.218       111.3812       111.4979        82.5103       73.97533         0.0073         0.3743         0.0703       -144.875         0.3111           3858      0.8718156
      7182.0000       824.4703         0.9762          1.059         1.0975         1.1603         1.2129           0.58         0.2147       111.4164       111.9175         90.476       81.51089         0.0084         0.3304          0.069       -144.875         0.3123           3751              1
      7182.5000       845.5944         0.9626         1.0349         1.0689         1.1253         1.1826         0.5911         0.2128       113.2069       114.4832         90.476       81.51089         0.0126         0.3767         0.0661      -146.0625         0.3193           3896              1
      7183.0000       871.8396         0.9672         1.0136         1.0418         1.0879          1.147         0.5356         0.2187       117.4372         118.64        92.3765       83.30876         0.0123         0.4428         0.0677        -147.75           0.33           3911              1
      7183.5000       892.6977         0.9483         1.0048         1.0223         1.0613         1.1202         0.5134         0.2172       117.6204        118.166         90.947       81.95646         0.0134         0.4261         0.0652      -148.4375         0.3288           3737              1
      7184.0000       915.3318         0.9534         1.0039          1.009         1.0392         1.0925         0.5134         0.2121       116.6975        117.642        92.5296        83.4536          0.013         0.4013         0.0607      -148.0625         0.3275           3846              1
      7184.5000       934.7542         0.9749         1.0142         1.0121         1.0281         1.0698         0.5134         0.2024       111.7202       112.3027        86.1393       77.40836         0.0131         0.3831         0.0541           -147         0.3133           3854      0.9448588
      7185.0000        907.441         1.0322         1.0991         1.0912         1.0889          1.102         0.5356         0.1957       106.1039       104.7964        78.7192       70.38895         0.0089         0.3423         0.0521        -146.75          0.291           3797      0.7955096
      7185.5000       873.9731         1.1516         1.2049         1.1801         1.1454         1.1442         0.6021         0.1837       101.5247       101.8228        73.8425        65.7756         0.0041         0.2684         0.0477        -145.75         0.2813           3894      0.6973531
      7186.0000       819.6721         1.2772         1.3395         1.3041         1.2504           1.22         0.8018         0.1668        97.9519        97.4672        69.4942       61.66211         0.0021         0.2277         0.0419       -146.625         0.2659           3870       0.609832
      7186.5000        817.929         1.3465         1.3993         1.3513         1.2866         1.2226         0.8573         0.1591        97.8878        97.6268        69.3487       61.52446         0.0019         0.2857         0.0382        -147.25         0.2665           3794      0.6069035
      7187.0000       848.8965         1.3109         1.3561         1.3166         1.2623          1.178         0.8906         0.1652        97.8474        97.7597        63.2978       55.80031          0.002         0.2938         0.0397       -147.375          0.267           3897      0.4851129
