#------------------------------------------------------------------------------
# Created by    : vladimir.rabinovich
# Created on    : 09/19/2023 17:21:38
#------------------------------------------------------------------------------
~Version Information Section
VERS.           2.0     :   CWLS log ASCII Standard - VERSION 2.0
WRAP.           NO      :   One line per depth step
~Well Information Section
#MNEM       .UNIT                                         VALUE :DESCRIPTION
#------------------------------------------------------------------------------
STRT        .FT                                            1242 :START DEPTH
STOP        .FT                                            7802 :STOP DEPTH
STEP        .FT                                             0.5 :STEP      
NULL        .                                           -999.25 :NULL      
COMP        .                                    CITIES SERVICE :COMPANY   
WELL        .                               OCS G03070 ST00BP00 :WELL      
FLD         .                                           WILDCAT :FIELD     
LOC         .                                                   :LOCATION  
CNTY        .                               MUSTANG ISLAND EAST :LOCATION  
STAT        .                                             TEXAS :STATE     
CTRY        .                                     UNITED STATES :COUNTRY   
SRVC        .                                                   :SERVICE COMPANY
DATE        .                             9/13/2023 11:20:08 AM :LOG DATE  
API         .                                    42712400230000 :API NUMBER
UWI         .                                    42712400230000 :UNIQUE WELL ID
XCOORD      .                                  541821.370048326 :SURFACE X 
YCOORD      .                                   9995115.4612029 :SURFACE Y 
LAT         .                                         27.502648 :LATITUDE  
LON         .                                       -96.3890109 :LONGITUDE 
ELEV        .FT                                              64 :ELEVATION VALUE
ELEV_TYPE   .                                                KB :ELEVATION REFERENCE TYPE
~Curve Information Section
#MNEM       .UNIT                                      API CODE :CURVE DESCRIPTION
#------------------------------------------------------------------------------
DEPT        .FT                                                 :DEPTH     
CALI        .IN                                                 :          
CILD        .MMHO                                               :          
DRHO        .G/C3                                               :          
DT          .US/F                                               :          
GR          .GAPI                                               :          
GR_1        .GAPI                                               :          
GR_NORM     .GAPI                                               :GammaRay Normalized
ILD         .OHMM                                               :          
NPHI        .%                                                  :          
RHOB        .G/C3                                               :          
SFL         .OHMM                                               :          
SP          .MV                                                 :          
SP_NORM     .MV                                                 :SP Normalized
VSH_GR      .V/V                                                :Volume of Shale from GR
VSH_SP      .V/V                                                :Volume of Shale from SP
~A        DEPTH           CALI           CILD           DRHO             DT             GR           GR_1        GR_NORM            ILD           NPHI           RHOB            SFL             SP        SP_NORM         VSH_GR         VSH_SP
# ...
      5611.0000        13.3169       1186.199         0.0472       144.4954        64.3502        53.6544       68.81676         0.8607        37.3066         2.3372         0.9006       -46.3776       1.612926      0.7620587              1
      5611.5000        13.3083       1186.365         0.0438       143.7861         63.478        54.5441        69.9286          0.863        37.6924         2.3437         0.8991       -46.1126       1.869366       0.785715              1
      5612.0000        13.2921       1186.916         0.0505       143.1479        63.5751        55.4338       71.04046         0.8682         37.436         2.3539         0.8979       -45.9628       2.010605      0.8093715              1
      5612.5000        13.2567       1185.582         0.0586       142.1245        64.4003         56.314       72.14044         0.8745        37.3349         2.3516         0.8966       -45.8299       2.134941      0.8327754              1
      5613.0000         13.215       1181.869         0.0761       140.8506        64.4825        57.1393       73.17178         0.8807        38.0333         2.3537         0.8995       -45.7346        2.22168      0.8547188              1
      5613.5000        13.1748       1178.158         0.0911       139.8208        62.7593        57.9641       74.20251         0.8846        38.6772         2.3546         0.9046       -45.8791       2.074116      0.8766493              1
      5614.0000        13.1533       1172.766         0.0728       139.0886        60.3023        58.7894       75.23387         0.8882        38.7529         2.3351         0.9241       -46.2141       1.739117       0.898593              1
      5614.5000        13.1518       1165.348         0.0686       139.0596        58.4788        59.6094       76.25861         0.8884        38.3588         2.3266         0.9537       -46.7885       1.164715      0.9203959              1
      5615.0000        13.1592       1157.932          0.068       139.3447        59.3881        60.4181        77.2692         0.8863        37.9449         2.3378          0.989       -47.3325      0.6207161      0.9418977              1
      5615.5000        13.1758       1150.232         0.0621       139.5215        60.3994        61.0712       78.08531         0.8835        37.5634         2.3393         1.0297       -47.6102      0.3430176       0.959262              1
      5616.0000        13.1911       1141.836         0.0578        139.657        60.6738        60.7253       77.65265         0.8796        37.5857         2.3422         1.0639       -47.5259      0.4273148      0.9500564              1
      5616.5000        13.2049       1133.439         0.0725       139.7551        60.2281        60.2864       77.10374         0.8755        38.0133         2.3461         1.0429       -47.7273      0.2259178      0.9383776              1
      5617.0000        13.2163        1129.15         0.0751       139.6006         59.393        59.7567       76.44135         0.8713        38.6418         2.3262         1.0054       -48.1505     -0.1972847      0.9242841      0.9950679
      5617.5000        13.2165        1130.76         0.0863       138.9934        58.3025        58.9164        75.3907         0.8671        39.8314         2.3211         0.9656       -48.6403     -0.6870842      0.9019298      0.9828229
      5618.0000        13.2094       1136.555         0.0886       138.1812        57.7656        58.1095       74.38181         0.8619        40.5314         2.3282         0.9269       -49.1448      -1.191582       0.880464      0.9702104
      5618.5000        13.1992       1142.355         0.0683       137.4097        58.0133        57.3902       73.48242         0.8566        41.1763         2.3181         0.8995       -49.4371      -1.483883      0.8613281      0.9629029
      5619.0000         13.216       1151.309         0.0678       136.7734         58.554        56.6513       72.55852         0.8513        41.7399         2.3256         0.9019       -48.8436     -0.8903847      0.8416706      0.9777404
      5619.5000        13.2434       1160.539         0.0695       136.5669        58.8079         55.764       71.44911         0.8468        41.9212         2.3381         0.9213       -47.6807      0.2725182      0.8180662              1
      5620.0000        13.2722       1169.463          0.072       136.8054        58.8858        54.2634        69.5731         0.8423        41.2388         2.3573           0.94       -46.8181       1.135117       0.778151              1
      5620.5000        13.2731       1175.432         0.0754       137.2161        59.3795        52.6521       67.55869         0.8377         40.095         2.3733         0.9631       -46.8259       1.127316      0.7352912              1
      5621.0000        13.2701       1181.402         0.0843       138.0693        60.8788        50.8035       65.24767         0.8321        39.6918         2.3675         0.9782       -47.9502    0.003017426      0.6861206              1
      5621.5000        13.2471       1187.373         0.0646       138.6843        62.5629        49.8107       64.00639         0.8265        39.5516          2.367         0.9816        -48.852     -0.8987846      0.6597105      0.9775304
      5622.0000        13.2237       1193.344         0.0346       139.3171        61.9675        48.7571       62.68913         0.8192        39.5093         2.3213         0.9731       -48.6276     -0.6743851      0.6316835      0.9831403
      5622.5000        13.2088        1199.32         0.0308       140.2324        61.5515        50.3054       64.62422          0.812         39.632         2.2998         0.9543       -48.3246     -0.3713837      0.6728558      0.9907154
      5623.0000        13.1976       1205.291         0.0308       140.9287        62.0306         51.869       66.57845         0.8052         40.012         2.3107         0.9286       -48.1697     -0.2164841       0.714435      0.9945879
      5623.5000        13.1917        1210.48         0.0269       141.4861        63.1477        53.4149       68.51055         0.8004        40.6688         2.3194         0.9018        -48.205     -0.2517853      0.7555436      0.9937054
      5624.0000        13.1917       1215.338         0.0364       141.6313        62.1543        54.8999       70.36652          0.797        41.4512         2.3019         0.8768       -48.5756     -0.6223831      0.7950324      0.9844404
      5624.5000         13.188       1220.203         0.0546       141.2017        61.5258         56.249       72.05263         0.7944        41.8997         2.3136         0.8457       -49.1002      -1.146984       0.830907      0.9713254
      5625.0000        13.1835       1233.383         0.0688       140.3057        61.6879         57.016       73.01111         0.7925        41.5986         2.3355         0.8253       -49.7396      -1.786385      0.8513002      0.9553404
      5625.5000        13.1741       1247.635         0.0727       139.2493        62.5162        57.7823        73.9687         0.7922        41.3552         2.3477         0.8231       -50.4556      -2.502384      0.8716745      0.9374404
      5626.0000        13.1698       1270.598         0.0381       138.1829        63.0849        58.5493       74.92719         0.7955        41.5286         2.3261          0.836       -50.9143      -2.961082      0.8920678      0.9259729
      5626.5000        13.1695       1280.652         0.0362        137.406        63.2765        59.3162       75.88554         0.8146        41.7693         2.3125         0.8617       -50.5233      -2.570084      0.9124584      0.9357479
      5627.0000          13.18        1269.34         0.0434       136.6685        62.8768        60.3049       77.12114         0.8476        40.2244         2.3136         0.8998        -50.113      -2.159782      0.9387476      0.9460055
      5627.5000        13.2592       1242.699         0.0575       136.2378        60.7477        61.4443       78.54511         0.8902         38.631         2.3211         0.9431       -49.9598      -2.006584      0.9690449      0.9498354
