#------------------------------------------------------------------------------
# Created by    : vladimir.rabinovich
# Created on    : 09/19/2023 17:20:45
#------------------------------------------------------------------------------
~Version Information Section
VERS.           2.0     :   CWLS log ASCII Standard - VERSION 2.0
WRAP.           NO      :   One line per depth step
~Well Information Section
#MNEM       .UNIT                                         VALUE :DESCRIPTION
#------------------------------------------------------------------------------
STRT        .FT                                             565 :START DEPTH
STOP        .FT                                           11656 :STOP DEPTH
STEP        .FT                                             0.5 :STEP      
NULL        .                                           -999.25 :NULL      
COMP        .                     MITCHELL ENERGY OFFSHORE CORP :COMPANY   
WELL        .                               OCS G02394 ST00BP00 :WELL      
FLD         .                            HIGH ISLAND BLOCK 0047 :FIELD     
LOC         .                                                   :LOCATION  
CNTY        .                                  HIGH ISLAND EAST :LOCATION  
STAT        .                                             TEXAS :STATE     
CTRY        .                                     UNITED STATES :COUNTRY   
SRVC        .                                                   :SERVICE COMPANY
DATE        .                             9/13/2023 11:11:59 AM :LOG DATE  
API         .                                    42710400050000 :API NUMBER
UWI         .                                    42710400050000 :UNIQUE WELL ID
XCOORD      .                                  1370895.90844183 :SURFACE X 
YCOORD      .                                  10676661.5178287 :SURFACE Y 
LAT         .                                        29.4165067 :LATITUDE  
LON         .                                        -93.846815 :LONGITUDE 
ELEV        .FT                                              96 :ELEVATION VALUE
ELEV_TYPE   .                                                KB :ELEVATION REFERENCE TYPE
~Curve Information Section
#MNEM       .UNIT                                      API CODE :CURVE DESCRIPTION
#------------------------------------------------------------------------------
DEPT        .FT                                                 :DEPTH     
ASN         .OHMM                                               :          
CILD        .MMHO                                               :          
GR          .GAPI                                               :          
GR_NORM     .GAPI                                               :GammaRay Normalized
ILD         .OHMM                                               :          
SP          .MV                                                 :          
SP_NORM     .MV                                                 :SP Normalized
VSH_GR      .V/V                                                :Volume of Shale from GR
VSH_SP      .V/V                                                :Volume of Shale from SP
~A        DEPTH            ASN           CILD             GR        GR_NORM            ILD             SP        SP_NORM         VSH_GR         VSH_SP
# ...
      6474.5000         0.4753       5616.328        -999.25        -999.25         0.1703       -105.167       -62.4537        -999.25      0.1078042
      6475.0000         0.4686       5661.047        -999.25        -999.25         0.1646      -107.9819      -65.26938        -999.25     0.06758031
      6475.5000         0.4654       5689.672        -999.25        -999.25         0.1626       -115.181      -72.46925        -999.25              0
      6476.0000         0.4611       5718.297        -999.25        -999.25         0.1625      -116.1376      -73.42663        -999.25              0
      6476.5000         0.4568       5742.313        -999.25        -999.25         0.1625      -117.0952      -74.38499        -999.25              0
      6477.0000         0.4323        5702.18        -999.25        -999.25         0.1625      -118.0516      -75.34216        -999.25              0
      6477.5000         0.4183       5607.789        -999.25        -999.25         0.1627      -118.6707      -75.96204        -999.25              0
      6478.0000         0.4143       5519.875        -999.25        -999.25         0.1636      -119.1971      -76.48921        -999.25              0
      6478.5000         0.4089           5440        -999.25        -999.25         0.1645      -119.3384      -76.63129        -999.25              0
      6479.0000         0.4022       5396.438        -999.25        -999.25         0.1654      -119.2362      -76.52986        -999.25              0
      6479.5000          0.395        5465.07        -999.25        -999.25         0.1665      -119.1339      -76.42834        -999.25              0
      6480.0000         0.3867       5488.328        -999.25        -999.25         0.1688      -119.0316      -76.32681        -999.25              0
      6480.5000         0.3748        5510.75        -999.25        -999.25         0.1711      -118.7041      -76.00008        -999.25              0
      6481.0000         0.3681       5533.164        -999.25        -999.25         0.1734      -118.2617      -75.55846        -999.25              0
      6481.5000         0.3685       5548.156        -999.25        -999.25         0.1739      -117.8193      -75.11683        -999.25              0
      6482.0000          0.369       5560.336        -999.25        -999.25         0.1738      -118.3148       -75.6131        -999.25              0
      6482.5000         0.3688       5571.211        -999.25        -999.25         0.1738      -119.2157      -76.51477        -999.25              0
      6483.0000         0.3662       5574.406        -999.25        -999.25         0.1733      -119.8057      -77.10555        -999.25              0
      6483.5000         0.3637       5577.594        -999.25        -999.25         0.1721      -120.2084      -77.50902        -999.25              0
      6484.0000         0.3712        5574.18        -999.25        -999.25          0.171      -120.2062       -77.5076        -999.25              0
      6484.5000         0.3897       5539.984        -999.25        -999.25         0.1699       -120.204      -77.50617        -999.25              0
      6485.0000         0.4082       5505.789        -999.25        -999.25         0.1683      -120.2672      -77.57014        -999.25              0
      6485.5000         0.4141       5467.281        -999.25        -999.25         0.1667      -120.4344      -77.73812        -999.25              0
      6486.0000         0.4013       5427.883        -999.25        -999.25         0.1651      -120.6018       -77.9063        -999.25              0
      6486.5000         0.3744       5388.539        -999.25        -999.25         0.1634      -121.0648      -78.37006        -999.25              0
      6487.0000         0.3498        5365.75        -999.25        -999.25         0.1618      -121.5931      -78.89914        -999.25              0
      6487.5000         0.3297       5357.797        -999.25        -999.25         0.1603      -122.1219      -79.42871        -999.25              0
      6488.0000         0.3095       5349.836        -999.25        -999.25         0.1589      -122.5978      -79.90538        -999.25              0
      6488.5000         0.2946       5350.047        -999.25        -999.25         0.1574      -123.0154      -80.32376        -999.25              0
      6489.0000          0.307       5352.711        -999.25        -999.25          0.156      -122.0936      -79.40273        -999.25              0
      6489.5000         0.3193       5355.367        -999.25        -999.25         0.1545      -118.9055      -76.21541        -999.25              0
      6490.0000         0.3316       5377.445        -999.25        -999.25         0.1543      -116.6985      -74.00918        -999.25              0
      6490.5000         0.3437       5404.336        -999.25        -999.25         0.1562      -114.5953      -71.90675        -999.25              0
      6491.0000         0.3556       5418.695        -999.25        -999.25          0.158      -112.4946      -69.80682        -999.25    0.002759661
      6491.5000         0.3675       5414.734        -999.25        -999.25         0.1599      -113.6797      -70.99271        -999.25              0
      6492.0000         0.3287       5362.289        -999.25        -999.25         0.1619      -114.6349      -71.94867        -999.25              0
      6492.5000         0.2944       5299.641        -999.25        -999.25         0.1648       -115.663      -72.97755        -999.25              0
      6493.0000         0.2879       5268.609        -999.25        -999.25         0.1677      -117.0371      -74.35242        -999.25              0
      6493.5000         0.2815       5241.227        -999.25        -999.25         0.1706       -116.402      -73.71809        -999.25              0
      6494.0000         0.2751       5213.852        -999.25        -999.25         0.1735      -115.2454      -72.56226        -999.25              0
      6494.5000         0.2777       5203.336        -999.25        -999.25         0.1764      -114.1307      -71.44833        -999.25              0
      6495.0000         0.2813       5205.336        -999.25        -999.25         0.1783      -113.4208      -70.73921        -999.25              0
      6495.5000          0.286       5170.211        -999.25        -999.25         0.1801      -112.9513      -70.27049        -999.25              0
      6496.0000         0.2972       5134.938        -999.25        -999.25         0.1818      -112.5255      -69.84546        -999.25    0.002207729
      6496.5000         0.3085       5102.805        -999.25        -999.25         0.1836      -112.1079      -69.42863        -999.25    0.008162363
      6497.0000         0.3082       5084.461        -999.25        -999.25         0.1872      -111.9923      -69.31381        -999.25    0.009802682
      6497.5000         0.3042       5079.133        -999.25        -999.25         0.1923      -112.6541      -69.97638        -999.25   0.0003374372
      6498.0000         0.3024        5056.25        -999.25        -999.25         0.1975      -113.3164      -70.63945        -999.25              0
      6498.5000         0.3021        5002.57        -999.25        -999.25         0.2027      -113.7242      -71.04802        -999.25              0
      6499.0000         0.3018        4890.32        -999.25        -999.25         0.2156      -112.3464        -69.671        -999.25    0.004700034
      6499.5000         0.3066       4563.477        -999.25        -999.25         0.2308      -110.7079      -68.03327        -999.25     0.02809612
      6500.0000         0.3145       4475.859        -999.25        -999.25         0.2468      -108.5923      -65.91844        -999.25     0.05830798
      6500.5000         0.3256       4343.781        -999.25        -999.25         0.2658      -104.6925      -62.01942        -999.25      0.1140083
