#------------------------------------------------------------------------------
# Created by    : vladimir.rabinovich
# Created on    : 09/19/2023 17:20:47
#------------------------------------------------------------------------------
~Version Information Section
VERS.           2.0     :   CWLS log ASCII Standard - VERSION 2.0
WRAP.           NO      :   One line per depth step
~Well Information Section
#MNEM       .UNIT                                         VALUE :DESCRIPTION
#------------------------------------------------------------------------------
STRT        .FT                                            1960 :START DEPTH
STOP        .FT                                           13420 :STOP DEPTH
STEP        .FT                                             0.5 :STEP      
NULL        .                                           -999.25 :NULL      
COMP        .                                 CALIFORNIA CO THE :COMPANY   
WELL        .                                     ST TR 00002-L :WELL      
FLD         .                                           WILDCAT :FIELD     
LOC         .                                                   :LOCATION  
CNTY        .                                       SABINE PASS :LOCATION  
STAT        .                                             TEXAS :STATE     
CTRY        .                                     UNITED STATES :COUNTRY   
SRVC        .                                                   :SERVICE COMPANY
DATE        .                             9/13/2023 11:12:08 AM :LOG DATE  
API         .                                    42715000310000 :API NUMBER
UWI         .                                    42715000310000 :UNIQUE WELL ID
XCOORD      .                                  1372392.72802961 :SURFACE X 
YCOORD      .                                   10750257.969662 :SURFACE Y 
LAT         .                                         29.618979 :LATITUDE  
LON         .                                       -93.8437903 :LONGITUDE 
ELEV        .FT                                              11 :ELEVATION VALUE
ELEV_TYPE   .                                                KB :ELEVATION REFERENCE TYPE
~Curve Information Section
#MNEM       .UNIT                                      API CODE :CURVE DESCRIPTION
#------------------------------------------------------------------------------
DEPT        .FT                                                 :DEPTH     
ASN         .OHMM                                               :          
IL          .OHMM                                               :          
SP          .MV                                                 :          
SP_NORM     .MV                                                 :SP Normalized
VSH_SP      .V/V                                                :Volume of Shale from SP
~A        DEPTH            ASN             IL             SP        SP_NORM         VSH_SP
# ...
     13356.0000         1.2891          1.065       -41.1956      -1.321357      0.9811234
     13356.5000         1.3174         1.0742       -41.2469      -1.370605      0.9804199
     13357.0000         1.3458         1.0833       -41.2733      -1.395951      0.9800578
     13357.5000         1.3713         1.0923       -41.1996      -1.325199      0.9810686
     13358.0000          1.394         1.1013       -41.1259      -1.254447      0.9820793
     13358.5000         1.4166         1.1103       -41.0522      -1.183695        0.98309
     13359.0000         1.4392         1.1194       -40.9786      -1.113038      0.9840994
     13359.5000         1.4445         1.1284       -40.9048      -1.042191      0.9851115
     13360.0000          1.421         1.1354       -40.8641       -1.00312      0.9856697
     13360.5000         1.3976         1.1251       -40.8236     -0.9642396      0.9862251
     13361.0000         1.3741         1.1148        -40.783     -0.9252636       0.986782
     13361.5000         1.3561         1.1045       -40.7423     -0.8861891      0.9873402
     13362.0000         1.3393         1.0942       -40.7018      -0.847312      0.9878955
     13362.5000         1.3224          1.084       -40.6611     -0.8082374      0.9884537
     13363.0000         1.3057         1.0737       -40.6177     -0.7665735       0.989049
     13363.5000         1.2889         1.0634       -40.5629     -0.7139673      0.9898005
     13364.0000         1.2877         1.0535       -40.5081     -0.6613573      0.9905521
     13364.5000         1.2904         1.0504       -40.4534     -0.6088464      0.9913022
     13365.0000          1.293         1.0473       -40.4496      -0.605199      0.9913543
     13365.5000         1.2996         1.0442       -40.5232     -0.6758558      0.9903449
     13366.0000          1.309         1.0411       -40.5966     -0.7463184      0.9893383
     13366.5000         1.3184          1.038       -40.6702     -0.8169752      0.9883289
     13367.0000         1.3278         1.0349       -40.7297     -0.8740931      0.9875129
     13367.5000         1.3372         1.0319       -40.7894     -0.9314049      0.9866942
     13368.0000         1.3549         1.0288       -40.8491      -0.988717      0.9858755
     13368.5000         1.3808         1.0421       -40.9087      -1.045934      0.9850581
     13369.0000         1.4067         1.0817       -40.9214      -1.058125      0.9848839
     13369.5000         1.4325         1.1214       -40.9223      -1.058989      0.9848716
     13370.0000         1.4689         1.1609       -40.9232      -1.059854      0.9848592
     13370.5000         1.5077         1.2005       -40.8368     -0.9769104      0.9860441
     13371.0000         1.5464         1.2402       -40.7288     -0.8732323      0.9875252
     13371.5000         1.5853         1.2753       -40.6205     -0.7692614      0.9890106
     13372.0000         1.6157         1.3086       -40.5123     -0.6653894      0.9904944
     13372.5000         1.6374         1.3419       -40.4464     -0.6021265      0.9913982
     13373.0000          1.659         1.3753       -40.4089     -0.5661279      0.9919125
     13373.5000         1.6807         1.4086       -40.3715      -0.530221      0.9924254
     13374.0000         1.6316         1.3996        -40.334     -0.4942224      0.9929397
     13374.5000         1.5405         1.3678       -40.2966     -0.4583192      0.9934526
     13375.0000         1.4997          1.336       -40.3693     -0.5281115      0.9924555
     13375.5000          1.459         1.3042       -40.4423     -0.5981896      0.9914544
     13376.0000         1.4209         1.2724       -40.5153     -0.6682716      0.9904532
     13376.5000          1.401         1.2489       -40.5883     -0.7383496      0.9894521
     13377.0000         1.3812         1.2273       -40.6309     -0.7792479      0.9888679
     13377.5000         1.3664         1.2056       -40.6529     -0.8003675      0.9885662
     13378.0000         1.3535         1.1838       -40.6749     -0.8214867      0.9882645
     13378.5000         1.3405         1.1621        -40.697     -0.8427014      0.9879614
     13379.0000         1.3276         1.1404        -40.719     -0.8638245      0.9876596
     13379.5000         1.3147         1.1188       -40.7332     -0.8774549      0.9874649
     13380.0000          1.304         1.0971       -40.7421     -0.8859985      0.9873429
     13380.5000         1.2977         1.0754        -40.751     -0.8945421      0.9872208
     13381.0000         1.2914         1.0537       -40.7598     -0.9029908      0.9871001
     13381.5000         1.2851         1.0438       -40.7625     -0.9055834      0.9870631
     13382.0000         1.2788         1.0425       -40.7393     -0.8833106      0.9873813
     13382.5000          1.284         1.0413       -40.7161     -0.8610375      0.9876994
     13383.0000         1.2904         1.0401       -40.6929     -0.8387684      0.9880176
     13383.5000         1.2967         1.0389       -40.6697     -0.8164953      0.9883358
     13384.0000          1.303         1.0376       -40.6489      -0.796526      0.9886211
     13384.5000         1.3015         1.0364       -40.6286     -0.7770399      0.9888994
     13385.0000         1.2911         1.0352       -40.6083     -0.7575499      0.9891779
     13385.5000         1.2806          1.034       -40.5881     -0.7381591      0.9894549
     13386.0000         1.2702         1.0328       -40.5678     -0.7186694      0.9897333
     13386.5000         1.2583         1.0333       -40.5711      -0.721837       0.989688
     13387.0000         1.2448         1.0382       -40.5804     -0.7307654      0.9895605
     13387.5000         1.2313         1.0431       -40.5897     -0.7396935      0.9894329
     13388.0000         1.2178         1.0479       -40.5989     -0.7485267      0.9893067
     13388.5000         1.2044         1.0528       -40.6032     -0.7526537      0.9892478
     13389.0000         1.1909         1.0577       -40.6041     -0.7535181      0.9892355
     13389.5000         1.1959         1.0626        -40.605     -0.7543823      0.9892231
     13390.0000         1.2105         1.0674       -40.6058     -0.7551514      0.9892121
     13390.5000         1.2251         1.0723       -40.6068      -0.756111      0.9891984
     13391.0000         1.2373         1.0747       -40.6119      -0.761007      0.9891285
     13391.5000         1.2401         1.0735       -40.6234     -0.7720482      0.9889708
     13392.0000         1.2409         1.0724        -40.635     -0.7831812      0.9888117
     13392.5000         1.2328         1.0713       -40.6465     -0.7942225       0.988654
     13393.0000         1.2247         1.0702       -40.6581     -0.8053589      0.9884949
     13393.5000         1.2166          1.069       -40.6697     -0.8164953      0.9883358
     13394.0000         1.2085         1.0679       -40.6813      -0.827632      0.9881767
     13394.5000         1.2087         1.0668       -40.6715      -0.818224      0.9883111
     13395.0000         1.2232         1.0657       -40.6564     -0.8037257      0.9885182
     13395.5000         1.2376         1.0646       -40.6412     -0.7891356      0.9887266
     13396.0000         1.2521         1.0634       -40.6261     -0.7746374      0.9889337
     13396.5000         1.2717         1.0629       -40.5977     -0.7473732      0.9893233
     13397.0000         1.3032         1.0635       -40.5492     -0.7008129      0.9899884
     13397.5000         1.3348         1.0641       -40.5007     -0.6542566      0.9906535
     13398.0000         1.3663         1.0647       -40.4523     -0.6077918      0.9913173
     13398.5000         1.3909         1.0654       -40.4037     -0.5611365      0.9919838
     13399.0000         1.4047          1.066       -40.3818     -0.5401124      0.9922841
     13399.5000         1.4185         1.0666       -40.4001     -0.5576795      0.9920331
