#------------------------------------------------------------------------------
# Created by    : vladimir.rabinovich
# Created on    : 09/19/2023 17:21:39
#------------------------------------------------------------------------------
~Version Information Section
VERS.           2.0     :   CWLS log ASCII Standard - VERSION 2.0
WRAP.           NO      :   One line per depth step
~Well Information Section
#MNEM       .UNIT                                         VALUE :DESCRIPTION
#------------------------------------------------------------------------------
STRT        .FT                                            3004 :START DEPTH
STOP        .FT                                           10487 :STOP DEPTH
STEP        .FT                                             0.5 :STEP      
NULL        .                                           -999.25 :NULL      
COMP        .                                    TENNECO OIL CO :COMPANY   
WELL        .                               OCS G04082 ST00BP00 :WELL      
FLD         .                            SABINE PASS BLOCK 0017 :FIELD     
LOC         .                                                   :LOCATION  
CNTY        .                                       SABINE PASS :LOCATION  
STAT        .                                             TEXAS :STATE     
CTRY        .                                     UNITED STATES :COUNTRY   
SRVC        .                                                   :SERVICE COMPANY
DATE        .                             9/13/2023 11:20:07 AM :LOG DATE  
API         .                                    42715400130000 :API NUMBER
UWI         .                                    42715400130000 :UNIQUE WELL ID
XCOORD      .                                  1369313.82013612 :SURFACE X 
YCOORD      .                                  10714127.2468036 :SURFACE Y 
LAT         .                                        29.5195329 :LATITUDE  
LON         .                                       -93.8526471 :LONGITUDE 
ELEV        .FT                                             111 :ELEVATION VALUE
ELEV_TYPE   .                                                KB :ELEVATION REFERENCE TYPE
~Curve Information Section
#MNEM       .UNIT                                      API CODE :CURVE DESCRIPTION
#------------------------------------------------------------------------------
DEPT        .FT                                                 :DEPTH     
CALI        .IN                                                 :          
DPHI        .%                                                  :          
DRHO        .G/C3                                               :          
GR          .GAPI                                               :          
GR_NORM     .GAPI                                               :GammaRay Normalized
ILD         .OHMM                                               :          
ILM         .OHMM                                               :          
NPHI        .%                                                  :          
SFL         .OHMM                                               :          
SP          .MV                                                 :          
SP_NORM     .MV                                                 :SP Normalized
VSH_GR      .V/V                                                :Volume of Shale from GR
VSH_SP      .V/V                                                :Volume of Shale from SP
~A        DEPTH           CALI           DPHI           DRHO             GR        GR_NORM            ILD            ILM           NPHI            SFL             SP        SP_NORM         VSH_GR         VSH_SP
# ...
      4011.0000        22.9742        31.4855        -0.0104        38.6274       49.15857         0.3786         0.3978        36.7587         0.4271       -69.6335      -54.18083      0.3437994      0.1664487
      4011.5000        22.7856        30.4331        -0.0106        38.8236       49.36705         0.3698          0.402         33.498          0.466       -69.8317      -54.63277      0.3482352      0.1594959
      4012.0000        22.9789        30.2331        -0.0054        39.7064       50.30596         0.3685         0.4111        30.6524         0.5025       -70.1088       -55.2646       0.368212      0.1497755
      4012.5000        23.2392        30.4428        -0.0043        40.5367       51.18901         0.3943          0.424         30.606         0.5272       -70.3464      -55.80635      0.3870003      0.1414408
      4013.0000        23.2372        30.9671        -0.0044        40.5731       51.22749         0.4229          0.436        32.3536         0.5316       -70.3464      -55.80635      0.3878189      0.1414408
      4013.5000         23.202        31.6196        -0.0057        40.0394       50.65947         0.4401         0.4448        33.9962         0.5072       -70.3464      -55.80635      0.3757335      0.1414408
      4014.0000        23.1273         32.321        -0.0065        38.9554       49.50604         0.4527         0.4497        34.6486         0.4747        -70.426      -55.98786      0.3511923      0.1386483
      4014.5000        23.1867        32.7698        -0.0077        37.1077       47.54016         0.4579         0.4549        35.4612         0.4393       -70.5446      -56.25828      0.3093651       0.134488
      4015.0000        23.2804        32.1553        -0.0047        35.7351        46.0797         0.4606         0.4627        36.1463         0.4134       -70.2673        -55.626      0.2782914      0.1442153
      4015.5000        23.2274        30.6003        -0.0013        35.1324       45.43828          0.458         0.4712        37.0159         0.4368       -69.5742      -54.04563      0.2646443      0.1685288
      4016.0000        23.2157        28.7574          0.006        35.2347       45.54687         0.4478         0.4706        36.9821         0.4685       -68.9603      -52.64583      0.2669546      0.1900641
      4016.5000        23.2157        27.1012         0.0197        35.5099       45.83939         0.4358         0.4565        35.7596         0.5033       -68.8613      -52.42009      0.2731785       0.193537
      4017.0000        23.2353        27.1008         0.0229        36.5493       46.94489         0.4241         0.4428        33.4016         0.5074       -69.1583      -53.09731      0.2966997      0.1831183
      4017.5000        23.2451        28.4314          0.014        39.2358       49.80262         0.4137         0.4303        32.0388         0.4764       -69.3563      -53.54877      0.3575025      0.1761727
      4018.0000        22.8985        29.8345          0.007        40.3989       51.03971         0.4041         0.4206         32.783         0.4518       -69.3563      -53.54877      0.3838237      0.1761727
      4018.5000        22.3732        30.4489         0.0039        39.3868       49.96277         0.3941         0.4132        34.9669         0.4441       -69.3407       -53.5132        0.36091        0.17672
      4019.0000        22.0029         30.655         0.0029           37.5       47.95529         0.3837         0.4058        36.3144         0.4519       -69.2462      -53.29773      0.3181977      0.1800349
      4019.5000        21.9868        30.7188         0.0047        37.0979       47.52728         0.3731         0.3986        36.4966         0.4572       -69.4373      -53.73347       0.309091      0.1733312
      4020.0000        22.2549        30.4633         0.0065         38.232       48.73352         0.3647         0.3916        35.0748         0.4543       -69.7648      -54.48023      0.3347557      0.1618426
      4020.5000        22.3062        29.8663         0.0101        39.8626       50.46796          0.362         0.3858         33.519         0.4502       -70.3071      -55.71674      0.3716587      0.1428194
      4021.0000        22.1773        29.2574         0.0148        39.3826       49.95708         0.3615         0.3812        32.8414         0.4463       -70.5664      -56.30799      0.3607889      0.1337233
      4021.5000        22.3159        28.5356         0.0214        37.5981       48.05842         0.3632         0.3815        34.0278          0.443       -70.6888      -56.58707      0.3203919      0.1294297
      4022.0000        22.6109        28.7525          0.014         36.353        46.7336         0.3696         0.3847        35.5886         0.4402       -70.7438      -56.71248      0.2922044      0.1275003
      4022.5000        22.9355        29.1208         0.0048        35.8676       46.21698         0.3758         0.3915        36.1765          0.439       -70.8861      -57.03696      0.2812123      0.1225083
      4023.0000        23.1372        29.1327         0.0037        37.1862        47.6195         0.3818         0.3988        35.8235         0.4406         -70.99      -57.27386      0.3110532      0.1188637
      4023.5000        23.2505        28.6633         0.0045        39.1568       49.71563         0.3877         0.4036        36.1155         0.4459       -71.0396      -57.38695      0.3556517      0.1171239
      4024.0000        23.2133        28.2297         0.0095        40.9105       51.58102         0.3921         0.4088        37.5257         0.4534       -70.7816      -56.79868      0.3953409      0.1261741
      4024.5000        23.1402         28.099         0.0126        41.2131        51.9027         0.3966         0.4142        38.5213         0.4616       -70.4059      -55.94202      0.4021851      0.1393535
      4025.0000        23.0843        28.2891          0.013        39.8616       50.46469         0.3994          0.419        38.5731         0.4632       -70.2672      -55.62576      0.3715891      0.1442191
      4025.5000        23.0774         28.598         0.0111        37.5685       48.02497         0.4021          0.421        38.2189         0.4583       -70.0594      -55.15196      0.3196803      0.1515083
      4026.0000         23.098        28.8475         0.0037        36.9608       47.37823         0.4037         0.4214        37.2337          0.447       -69.8514      -54.67768      0.3059199      0.1588048
      4026.5000        23.1495        29.0376        -0.0107        37.2893       47.72746         0.4052         0.4249        36.0436         0.4373       -69.5494      -53.98907      0.3133502      0.1693988
      4027.0000        23.2755        28.9901        -0.0156        37.7451       48.21211         0.4076         0.4302        34.5176         0.4397       -69.3464       -53.5262      0.3236619        0.17652
      4027.5000        23.2843        28.8713        -0.0128        37.2893       47.72697         0.4125         0.4373        32.9473         0.4532       -69.2573      -53.32305      0.3133398      0.1796454
      4028.0000        23.2941        28.8831        -0.0096        36.5272       46.91597         0.4172          0.443             32         0.4692        -69.495      -53.86504      0.2960846      0.1713071
      4028.5000        23.2941        28.9901        -0.0054         36.843       47.25169         0.4205         0.4441        31.4013         0.4878        -69.642      -54.20021      0.3032275      0.1661506
      4029.0000        23.2941        28.7643        -0.0022        38.7255        49.2541         0.4237         0.4444        31.3841         0.5036        -69.532      -53.94939       0.345832      0.1700093
      4029.5000        23.2843        28.4257        -0.0018        40.0403       50.65258         0.4266          0.447        31.9562         0.5041       -69.3734      -53.58776      0.3755869      0.1755729
