#------------------------------------------------------------------------------
# Created by    : vladimir.rabinovich
# Created on    : 09/19/2023 17:20:10
#------------------------------------------------------------------------------
~Version Information Section
VERS.           2.0     :   CWLS log ASCII Standard - VERSION 2.0
WRAP.           NO      :   One line per depth step
~Well Information Section
#MNEM       .UNIT                                         VALUE :DESCRIPTION
#------------------------------------------------------------------------------
STRT        .FT                                             613 :START DEPTH
STOP        .FT                                           12130 :STOP DEPTH
STEP        .FT                                             0.5 :STEP      
NULL        .                                           -999.25 :NULL      
COMP        .                                 CITIES SERVICE CO :COMPANY   
WELL        .                               OCS G03060 ST00BP00 :WELL      
FLD         .                                           WILDCAT :FIELD     
LOC         .                                                   :LOCATION  
CNTY        .                               MUSTANG ISLAND EAST :LOCATION  
STAT        .                                             TEXAS :STATE     
CTRY        .                                     UNITED STATES :COUNTRY   
SRVC        .                                                   :SERVICE COMPANY
DATE        .                             9/13/2023 11:12:08 AM :LOG DATE  
API         .                                    42712400440000 :API NUMBER
UWI         .                                    42712400440000 :UNIQUE WELL ID
XCOORD      .                                  632657.308411808 :SURFACE X 
YCOORD      .                                  10083439.8406154 :SURFACE Y 
LAT         .                                        27.7518805 :LATITUDE  
LON         .                                       -96.1160164 :LONGITUDE 
ELEV        .FT                                             103 :ELEVATION VALUE
ELEV_TYPE   .                                                KB :ELEVATION REFERENCE TYPE
~Curve Information Section
#MNEM       .UNIT                                      API CODE :CURVE DESCRIPTION
#------------------------------------------------------------------------------
DEPT        .FT                                                 :DEPTH     
ASFL        .OHMM                                               :          
CILD        .MMHO                                               :          
GR          .GAPI                                               :          
GR_NORM     .GAPI                                               :GammaRay Normalized
ILD         .OHMM                                               :          
SP          .MV                                                 :          
SP_NORM     .MV                                                 :SP Normalized
VSH_GR      .V/V                                                :Volume of Shale from GR
VSH_SP      .V/V                                                :Volume of Shale from SP
~A        DEPTH           ASFL           CILD             GR        GR_NORM            ILD             SP        SP_NORM         VSH_GR         VSH_SP
# ...
      9040.0000         0.7021       1789.846        60.0641       82.31247         0.5697       -72.9275      -6.260834              1      0.8747833
      9040.5000         0.6883       1813.615           60.9       83.40343         0.5734       -72.2401      -5.573433              1      0.8885313
      9041.0000         0.6746       1837.436        61.7358       84.49426         0.5772       -71.5527      -4.886032              1      0.9022794
      9041.5000         0.6609       1861.203        62.2098       85.11273         0.5809       -70.8342      -4.167534              1      0.9166493
      9042.0000         0.6538       1880.531        62.3623       85.31149         0.5846         -71.08      -4.413338              1      0.9117333
      9042.5000         0.6502        1861.65         62.387       85.34338         0.5884       -71.4629      -4.796234              1      0.9040753
      9043.0000         0.6467       1829.197        61.6509         84.382         0.5921       -71.8453      -5.178635              1      0.8964273
      9043.5000         0.6432       1796.793        60.9149       83.42075          0.596       -72.2283      -5.561638              1      0.8887672
      9044.0000         0.6617       1764.391        60.1789       82.45951         0.5999       -72.6106      -5.943939              1      0.8811212
      9044.5000         0.6839       1731.986        59.4442       81.49995         0.6038       -72.6704      -6.003738              1      0.8799253
      9045.0000         0.7061        1702.98        58.7081       80.53858         0.6077       -72.7289      -6.062233              1      0.8787553
      9045.5000         0.7283       1683.008        57.9721       79.57734         0.6116       -72.7876      -6.120934      0.9910072      0.8775814
      9046.0000         0.7444        1663.01        57.2036       78.57366         0.6155       -72.8461      -6.179436      0.9696524      0.8764113
      9046.5000         0.7586       1643.037        56.3703       77.48539         0.6194       -72.9047      -6.238037      0.9464977      0.8752393
      9047.0000         0.7724       1623.039        55.5358       76.39554         0.6234       -72.9633      -6.296638      0.9233093      0.8740672
      9047.5000         0.7688       1605.578        54.7012       75.30557         0.6273       -73.0219      -6.355232      0.9001186      0.8728954
      9048.0000         0.7652       1600.102        53.8679       74.21729         0.6312       -73.0804      -6.413734      0.8769637      0.8717253
      9048.5000         0.7616       1594.623        53.0333        73.1273         0.6348       -73.1138      -6.447136      0.8537724      0.8710573
      9049.0000         0.7579       1589.141        53.5834       73.84515         0.6379       -73.1051      -6.438438      0.8690457      0.8712313
      9049.5000         0.7555       1583.664        54.2458       74.70959          0.641       -73.0963      -6.429634       0.887438      0.8714073
      9050.0000         0.7572       1578.186        54.9083       75.57416          0.644       -73.0876      -6.420937      0.9058331      0.8715813
      9050.5000          0.759       1572.709        55.5707       76.43861         0.6471       -73.0789      -6.412239      0.9242257      0.8717552
      9051.0000         0.7607       1567.227         56.248        77.3225         0.6502       -73.0702      -6.403534       0.943032      0.8719293
      9051.5000         0.7624       1564.516        56.9417       78.22781         0.6533       -73.0614      -6.394737      0.9622939      0.8721052
      9052.0000         0.7641       1562.359        57.1038       78.43909         0.6554       -73.0527      -6.386032      0.9667891      0.8722793
      9052.5000         0.7659       1560.203         56.142       77.18304         0.6567       -73.0439      -6.377235      0.9400648      0.8724553
      9053.0000          0.768       1558.051         55.179       75.92544         0.6581       -73.0353      -6.368637      0.9133072      0.8726273
      9053.5000         0.7703       1555.896        54.2172        74.6694         0.6594       -73.0265      -6.359833      0.8865829      0.8728033
      9054.0000         0.7726        1553.74        53.2553       73.41322         0.6607       -73.0021      -6.335434      0.8598557      0.8732913
      9054.5000         0.7749       1551.588        52.6818       72.66414         0.6621       -72.9058      -6.239136      0.8439178      0.8752173
      9055.0000         0.7772       1549.434        52.4728       72.39091         0.6634       -72.8096      -6.142937      0.8381045      0.8771412
      9055.5000         0.7792       1547.277        52.2639       72.11783         0.6647       -72.7134      -6.046738      0.8322942      0.8790653
      9056.0000         0.7776       1547.131        52.0549       71.84461         0.6661       -72.6171      -5.950439      0.8264811      0.8809912
      9056.5000         0.7761       1547.912        51.8456       71.57101         0.6674       -72.5209      -5.854233      0.8206597      0.8829153
      9057.0000         0.7746       1548.695        51.6367       71.29791          0.669       -72.4246      -5.757935      0.8148492      0.8848413
      9057.5000         0.7731       1549.477        51.6336        71.2935         0.6708        -72.329      -5.662338      0.8147552      0.8867533
      9058.0000          0.774       1550.258        52.2162       72.05377         0.6725       -72.3002      -5.633537      0.8309313      0.8873293
      9058.5000         0.7775       1551.248           52.8       72.81561         0.6743       -72.2712      -5.604538      0.8471406      0.8879092
      9059.0000         0.7809        1554.07        53.3839       73.57755          0.676       -72.2424      -5.575737      0.8633522      0.8884853
      9059.5000         0.7754       1556.893        53.9677       74.33939         0.6778       -72.2136      -5.546936      0.8795614      0.8890613
      9060.0000         0.7692       1559.715        54.5515        75.1012         0.6795       -72.2828      -5.616135      0.8957703      0.8876773
      9060.5000         0.7632       1562.537        55.1328       75.85977         0.6812       -72.4136      -5.746933      0.9119101      0.8850613
      9061.0000         0.7593       1547.563        55.5401       76.39117          0.683       -72.5442      -5.877533      0.9232163      0.8824493
      9061.5000         0.7553       1525.381        55.1216       75.84444         0.6847       -72.6749      -6.008232      0.9115838      0.8798354
      9062.0000         0.7538       1503.176        54.2433       74.69741         0.6865       -72.8055      -6.138832       0.887179      0.8772234
      9062.5000         0.7696       1480.969        53.3651       73.55051         0.6882       -72.9364      -6.269737      0.8627769      0.8746052
      9063.0000         0.7854       1458.787        52.4869       72.40361         0.6912        -73.067      -6.400337      0.8383747      0.8719932
      9063.5000         0.8012       1438.764        51.6099       71.25828         0.6975       -73.1898      -6.523132      0.8140059      0.8695374
      9064.0000          0.817       1420.057        51.3361       70.90047         0.7038       -73.3124      -6.645737      0.8063931      0.8670853
      9064.5000         0.8329        1401.35        51.3877       70.96748         0.7102       -73.4348      -6.768135      0.8078187      0.8646373
      9065.0000         0.8464       1382.641        51.7609       71.45435         0.7165       -73.5571      -6.890434      0.8181778      0.8621913
      9065.5000         0.8593        1365.23        53.0632       73.15421         0.7229       -73.6797      -7.013039       0.854345      0.8597392
      9066.0000         0.8723        1359.82        54.3681       74.85748         0.7278       -73.8021      -7.135437      0.8905846      0.8572913
