#------------------------------------------------------------------------------
# Created by    : vladimir.rabinovich
# Created on    : 09/19/2023 17:21:28
#------------------------------------------------------------------------------
~Version Information Section
VERS.           2.0     :   CWLS log ASCII Standard - VERSION 2.0
WRAP.           NO      :   One line per depth step
~Well Information Section
#MNEM       .UNIT                                         VALUE :DESCRIPTION
#------------------------------------------------------------------------------
STRT        .FT                                             999 :START DEPTH
STOP        .FT                                           14605 :STOP DEPTH
STEP        .FT                                             0.5 :STEP      
NULL        .                                           -999.25 :NULL      
COMP        .                                      GETTY OIL CO :COMPANY   
WELL        .                               OCS G03116 ST00BP00 :WELL      
FLD         .                                           WILDCAT :FIELD     
LOC         .                                                   :LOCATION  
CNTY        .                                  HIGH ISLAND EAST :LOCATION  
STAT        .                                             TEXAS :STATE     
CTRY        .                                     UNITED STATES :COUNTRY   
SRVC        .                                                   :SERVICE COMPANY
DATE        .                             9/13/2023 11:19:51 AM :LOG DATE  
API         .                                    42710400090000 :API NUMBER
UWI         .                                    42710400090000 :UNIQUE WELL ID
XCOORD      .                                  1371379.55461592 :SURFACE X 
YCOORD      .                                  10664640.0845049 :SURFACE Y 
LAT         .                                        29.3834483 :LATITUDE  
LON         .                                       -93.8450221 :LONGITUDE 
ELEV        .FT                                              80 :ELEVATION VALUE
ELEV_TYPE   .                                                KB :ELEVATION REFERENCE TYPE
~Curve Information Section
#MNEM       .UNIT                                      API CODE :CURVE DESCRIPTION
#------------------------------------------------------------------------------
DEPT        .FT                                                 :DEPTH     
CALI        .IN                                                 :          
DRHO        .G/C3                                               :          
GR          .GAPI                                               :          
GR_NORM     .GAPI                                               :GammaRay Normalized
NPHI        .%                                                  :          
RHOB        .G/C3                                               :          
VSH_GR      .V/V                                                :Volume of Shale from GR
~A        DEPTH           CALI           DRHO             GR        GR_NORM           NPHI           RHOB         VSH_GR
# ...
     12757.5000         9.1603        -0.0549        57.6158       75.58627        37.1266         2.3463      0.9060907
     12758.0000         9.1532          -0.06        57.2637       75.05672        37.8861         2.3394      0.8948238
     12758.5000         9.1539        -0.0652        56.1237       73.34216        38.5504         2.3421      0.8583437
     12759.0000         9.1878        -0.0702        53.8188       69.87559        39.0396         2.3401       0.784587
     12759.5000         9.1301        -0.0606         47.861       60.91506        39.2309         2.3431      0.5939374
     12760.0000         8.2842         -0.048        39.7123       48.65941        36.8333         2.3641       0.333179
     12760.5000         8.1924        -0.0517        32.4756       37.77542        33.1876         2.3385      0.1016046
     12761.0000         8.1645        -0.0494          28.55       31.87131        29.3036         2.3063              0
     12761.5000         8.1495        -0.0429        26.6198       28.96829        27.1323         2.2869              0
     12762.0000         8.1371        -0.0385        27.2068       29.85114         27.314         2.2809              0
     12762.5000         8.1309         -0.056        29.3629       33.09391        28.7079         2.2528    0.001998171
     12763.0000          8.119        -0.0624        32.4658       37.76068        30.1316         2.2269       0.101291
     12763.5000         8.1126         -0.064        34.3617       40.61211        31.5554          2.213      0.1619598
     12764.0000         8.1121        -0.0632        34.6281       41.01278        32.9791         2.2038      0.1704846
     12764.5000         8.1191        -0.0608        33.4769       39.28137        34.3268         2.1961      0.1336461
     12765.0000          8.126        -0.0603        30.0965       34.19725        35.1623         2.1993     0.02547341
     12765.5000         8.1302        -0.0629        26.8351       29.29211        33.7237         2.1937              0
     12766.0000          8.127         -0.067        24.6852       26.05865        30.6678         2.2037              0
     12766.5000         8.1264        -0.0726        24.3368       25.53466        30.2419         2.2105              0
     12767.0000         8.1246        -0.0778        24.5067       25.79019        30.2439         2.2094              0
     12767.5000         8.1214        -0.0827        24.6913       26.06783        30.3062          2.212              0
     12768.0000         8.1148        -0.0783        25.1263       26.72207        30.1219         2.2182              0
     12768.5000         8.1265        -0.0687        26.0916       28.17388        29.8308         2.2294              0
     12769.0000         8.1996        -0.0643        27.4076       30.15314        29.5084         2.2407              0
     12769.5000         8.2329        -0.0683        28.5451       31.86394        29.1711         2.2385              0
     12770.0000         8.2444         -0.071        29.4968        33.2953        29.1577         2.2426    0.006282969
     12770.5000           8.23        -0.0719        29.8512       33.82832        29.9306         2.2491     0.01762374
     12771.0000          8.182        -0.0729        29.3741       33.11076        30.7422         2.2507     0.00235659
     12771.5000         8.1171        -0.0743        28.5624       31.88996        31.5583         2.2414              0
     12772.0000         8.0657        -0.0728        26.5179       28.81504        32.3699         2.2202              0
     12772.5000         8.0384        -0.0752        25.0755       26.64566        32.4027         2.2167              0
     12773.0000         8.0281        -0.0666        24.5972       25.92631        31.6119         2.2132              0
     12773.5000         8.0229        -0.0598        24.6257       25.96916        30.9939         2.2153              0
     12774.0000         8.0207        -0.0636        24.8766       26.34652        30.8468         2.2075              0
     12774.5000         8.0215         -0.067        25.3729       27.09295        31.0207         2.2059              0
     12775.0000          8.024        -0.0683        26.2353       28.39001          31.53         2.2081              0
     12775.5000         8.0276        -0.0753        27.4794       30.26113        32.1823         2.2132              0
     12776.0000         8.0312        -0.0757         29.985       34.02956        32.6284         2.2206     0.02190545
     12776.5000         8.0348        -0.0672        30.8313       35.30239         32.886         2.2279     0.04898704
     12777.0000         8.0384        -0.0807        30.9636       35.50137        33.2255          2.223     0.05322063
     12777.5000         8.0419        -0.0863        30.6622       35.04806        33.5822         2.2047     0.04357577
     12778.0000         8.0455        -0.0781        29.3704       33.10519        32.8495         2.1964    0.002238172
     12778.5000         8.0491        -0.0724        27.3109       30.00771        32.2679         2.1959              0
     12779.0000         8.0527        -0.0671        24.9887       26.51512        31.7906         2.1963              0
     12779.5000         8.0563        -0.0617        24.0197       25.05774        30.9463         2.1989              0
     12780.0000         8.0598        -0.0696        24.0188       25.05639        30.2448         2.1995              0
     12780.5000         8.0634        -0.0772        24.5017       25.78267        30.2165         2.1958              0
     12781.0000          8.067        -0.0783         25.814       27.75637        30.3655         2.1981              0
     12781.5000         8.0643        -0.0706        27.0829       29.66479        29.9146          2.228              0
     12782.0000         8.0608        -0.0614        27.1003       29.69097        29.9581         2.2338              0
     12782.5000         8.0549        -0.0576        26.3803       28.60808        30.0927         2.2276              0
     12783.0000         8.0539        -0.0559        25.5389       27.34262        30.0687         2.2162              0
     12783.5000         8.0536         -0.059        24.5377       25.83681        29.8744         2.2178              0
     12784.0000         8.0534        -0.0661        23.6777       24.54337        29.6491         2.2238              0
     12784.5000         8.0531        -0.0619        23.2942       23.96659        29.4149         2.2305              0
     12785.0000         8.0528        -0.0555        23.2366       23.87996        29.0996         2.2436              0
     12785.5000         8.0526        -0.0519        23.4361       24.18001          28.69         2.2436              0
     12786.0000         8.0523         -0.051        23.9032       24.88253        28.4391         2.2302              0
     12786.5000          8.052        -0.0518        24.4832       25.75484        28.9849         2.2246              0
     12787.0000         8.0518         -0.053        25.4398       27.19357        30.0408          2.223              0
     12787.5000         8.0515        -0.0555        27.0383       29.59772        31.1428         2.2238              0
     12788.0000         8.0512        -0.0625         29.011       32.56465        31.4615         2.2253              0
     12788.5000          8.051        -0.0689        30.9838       35.53175         31.504         2.2272     0.05386693
     12789.0000         8.0507        -0.0721        32.9515       38.49117        31.5126         2.2293      0.1168334
     12789.5000         8.0504        -0.0756         35.747        42.6956        31.4288           2.23      0.2062894
     12790.0000         8.0502         -0.082        38.0717       46.19195        31.2262         2.2315      0.2806798
     12790.5000         8.0499        -0.0932        39.1943       47.88034        31.0674         2.2344       0.316603
