#------------------------------------------------------------------------------
# Created by    : vladimir.rabinovich
# Created on    : 09/19/2023 17:20:45
#------------------------------------------------------------------------------
~Version Information Section
VERS.           2.0     :   CWLS log ASCII Standard - VERSION 2.0
WRAP.           NO      :   One line per depth step
~Well Information Section
#MNEM       .UNIT                                         VALUE :DESCRIPTION
#------------------------------------------------------------------------------
STRT        .FT                                             565 :START DEPTH
STOP        .FT                                           11656 :STOP DEPTH
STEP        .FT                                             0.5 :STEP      
NULL        .                                           -999.25 :NULL      
COMP        .                     MITCHELL ENERGY OFFSHORE CORP :COMPANY   
WELL        .                               OCS G02394 ST00BP00 :WELL      
FLD         .                            HIGH ISLAND BLOCK 0047 :FIELD     
LOC         .                                                   :LOCATION  
CNTY        .                                  HIGH ISLAND EAST :LOCATION  
STAT        .                                             TEXAS :STATE     
CTRY        .                                     UNITED STATES :COUNTRY   
SRVC        .                                                   :SERVICE COMPANY
DATE        .                             9/13/2023 11:11:59 AM :LOG DATE  
API         .                                    42710400050000 :API NUMBER
UWI         .                                    42710400050000 :UNIQUE WELL ID
XCOORD      .                                  1370895.90844183 :SURFACE X 
YCOORD      .                                  10676661.5178287 :SURFACE Y 
LAT         .                                        29.4165067 :LATITUDE  
LON         .                                        -93.846815 :LONGITUDE 
ELEV        .FT                                              96 :ELEVATION VALUE
ELEV_TYPE   .                                                KB :ELEVATION REFERENCE TYPE
~Curve Information Section
#MNEM       .UNIT                                      API CODE :CURVE DESCRIPTION
#------------------------------------------------------------------------------
DEPT        .FT                                                 :DEPTH     
ASN         .OHMM                                               :          
CILD        .MMHO                                               :          
GR          .GAPI                                               :          
GR_NORM     .GAPI                                               :GammaRay Normalized
ILD         .OHMM                                               :          
SP          .MV                                                 :          
SP_NORM     .MV                                                 :SP Normalized
VSH_GR      .V/V                                                :Volume of Shale from GR
VSH_SP      .V/V                                                :Volume of Shale from SP
~A        DEPTH            ASN           CILD             GR        GR_NORM            ILD             SP        SP_NORM         VSH_GR         VSH_SP
# ...
      8700.5000         0.2715       4939.008        -999.25        -999.25         0.2096      -108.1415      -66.61168        -999.25     0.04840459
      8701.0000         0.2626       4898.289        -999.25        -999.25         0.2089      -105.3965      -63.86445        -999.25     0.08765068
      8701.5000         0.2589        4863.25        -999.25        -999.25         0.2083      -103.7708      -62.23653        -999.25      0.1109068
      8702.0000         0.2665       4829.836        -999.25        -999.25         0.2076      -102.3846      -60.84811        -999.25      0.1307413
      8702.5000         0.2735         4796.5        -999.25        -999.25         0.2094      -101.3467      -59.80799        -999.25      0.1456002
      8703.0000         0.2773        4806.75        -999.25        -999.25         0.2127       -100.278      -58.73706        -999.25      0.1608991
      8703.5000          0.281       4816.969        -999.25        -999.25          0.216       -99.0211      -57.47794        -999.25      0.1788865
      8704.0000         0.2848       4797.883        -999.25        -999.25         0.2193       -97.7692      -56.22382        -999.25      0.1968025
      8704.5000         0.2972       4717.969        -999.25        -999.25         0.2225       -96.5897       -55.0421        -999.25      0.2136844
      8705.0000         0.3096       4618.008        -999.25        -999.25         0.2258       -95.5801      -54.03027        -999.25       0.228139
      8705.5000          0.322       4562.148        -999.25        -999.25         0.2291       -97.9536      -56.40155        -999.25      0.1942636
      8706.0000         0.3338       4508.047        -999.25        -999.25         0.2301       -100.433      -58.87873        -999.25      0.1588753
      8706.5000         0.3447       4521.961        -999.25        -999.25         0.2282      -102.3589      -60.80241        -999.25      0.1313941
      8707.0000         0.3417       4561.313        -999.25        -999.25         0.2263       -103.842      -62.28329        -999.25      0.1102388
      8707.5000         0.3282       4600.656        -999.25        -999.25         0.2243      -104.8124      -63.25146        -999.25     0.09640764
      8708.0000         0.3136       4663.477        -999.25        -999.25         0.2224      -105.7827      -64.21954        -999.25     0.08257795
      8708.5000         0.2984       4749.031        -999.25        -999.25         0.2205      -106.9535      -65.38812        -999.25     0.06588396
      8709.0000         0.2831       4808.422        -999.25        -999.25         0.2171      -108.1882       -66.6206        -999.25     0.04827717
      8709.5000         0.2759       4996.484        -999.25        -999.25         0.2118      -110.4832      -68.91338        -999.25      0.0155232
      8710.0000         0.2695       5186.602        -999.25        -999.25         0.2064      -111.4805      -69.90845        -999.25    0.001307896
      8710.5000         0.2637        5283.82        -999.25        -999.25         0.2011      -112.3291      -70.75483        -999.25              0
      8711.0000         0.2602       5179.352        -999.25        -999.25         0.1957      -112.7275      -71.15101        -999.25              0
      8711.5000         0.2567       5085.078        -999.25        -999.25         0.1903      -112.4988      -70.92009        -999.25              0
      8712.0000         0.2571       4991.383        -999.25        -999.25         0.1893      -111.7695      -70.18857        -999.25              0
      8712.5000         0.2611        4910.93        -999.25        -999.25         0.1911      -110.7942      -69.21104        -999.25      0.0112709
      8713.0000         0.2684       4849.383        -999.25        -999.25          0.193      -109.7133      -68.12792        -999.25     0.02674397
      8713.5000         0.2813       4789.117        -999.25        -999.25         0.1948      -108.1514       -66.5638        -999.25     0.04908862
      8714.0000         0.2943       4771.961        -999.25        -999.25         0.1964      -106.2968      -64.70697        -999.25     0.07561471
      8714.5000         0.3298        4844.68        -999.25        -999.25         0.1973      -103.6797      -62.08765        -999.25      0.1130335
      8715.0000         0.3718       4919.945        -999.25        -999.25         0.1982      -101.5127      -59.91843        -999.25      0.1440224
      8715.5000         0.4042       4945.719        -999.25        -999.25         0.1992       -99.8623       -58.2658        -999.25      0.1676314
      8716.0000         0.3904         4698.5        -999.25        -999.25         0.2002       -96.6747      -55.07598        -999.25      0.2132002
      8716.5000          0.365           4369        -999.25        -999.25         0.2043       -95.4301      -53.82916        -999.25       0.231012
      8717.0000          0.346           4040        -999.25        -999.25         0.2083      -103.8666      -62.26344        -999.25      0.1105223
      8717.5000         0.3274       3784.398        -999.25        -999.25         0.2139      -110.1866      -68.58122        -999.25     0.02026825
      8718.0000         0.3181       3530.379        -999.25        -999.25         0.2308      -110.1117       -68.5041        -999.25     0.02137004
      8718.5000          0.324       2907.883        -999.25        -999.25         0.2477      -107.1921      -65.58228        -999.25     0.06311035
      8719.0000         0.4009       2737.066        -999.25        -999.25         0.2477        -98.849      -57.23695        -999.25      0.1823293
      8719.5000         0.4549       2710.707        -999.25        -999.25         0.2351       -95.7056      -54.09133        -999.25      0.2272667
      8720.0000         0.5036       2757.551        -999.25        -999.25         0.2225       -93.1229      -51.50641        -999.25      0.2641942
      8720.5000         0.5383       3389.262        -999.25        -999.25         0.2108       -88.0461      -46.42738        -999.25      0.3367517
      8721.0000          0.537       3590.555        -999.25        -999.25         0.2002       -59.0236      -17.40266        -999.25      0.7513905
      8721.5000         0.5286       4266.383        -999.25        -999.25         0.1895       -58.7764      -17.15324        -999.25      0.7549537
      8722.0000         0.5202       4355.367        -999.25        -999.25         0.1789       -63.2923      -21.66692        -999.25      0.6904726
      8722.5000         0.5031       4481.586        -999.25        -999.25          0.186       -81.6315      -40.00389        -999.25      0.4285158
      8723.0000         0.4831       4621.531        -999.25        -999.25         0.1975       -98.3964      -56.76657        -999.25      0.1890489
      8723.5000         0.4632       4512.164        -999.25        -999.25         0.2096      -103.9257      -62.29365        -999.25      0.1100907
      8724.0000         0.4416       4223.453        -999.25        -999.25         0.2309      -103.9318      -62.29753        -999.25      0.1100353
      8724.5000         0.4188        4133.25        -999.25        -999.25         0.2522      -102.8754       -61.2389        -999.25      0.1251585
      8725.0000         0.4058        4069.25        -999.25        -999.25         0.2752      -101.6874      -60.04869        -999.25      0.1421616
      8725.5000         0.4296       4005.375        -999.25        -999.25         0.3093      -100.4698      -58.82887        -999.25      0.1595876
      8726.0000         0.4555       3465.309        -999.25        -999.25         0.3435       -99.2056      -57.56244        -999.25      0.1776794
      8726.5000          0.485       2892.398        -999.25        -999.25         0.3776       -95.2284      -53.58302        -999.25      0.2345283
