#------------------------------------------------------------------------------
# Created by    : vladimir.rabinovich
# Created on    : 09/19/2023 17:20:22
#------------------------------------------------------------------------------
~Version Information Section
VERS.           2.0     :   CWLS log ASCII Standard - VERSION 2.0
WRAP.           NO      :   One line per depth step
~Well Information Section
#MNEM       .UNIT                                         VALUE :DESCRIPTION
#------------------------------------------------------------------------------
STRT        .FT                                             538 :START DEPTH
STOP        .FT                                           11949 :STOP DEPTH
STEP        .FT                                             0.5 :STEP      
NULL        .                                           -999.25 :NULL      
COMP        .                                 CITIES SERVICE CO :COMPANY   
WELL        .                               OCS G03070 ST00BP00 :WELL      
FLD         .                                           WILDCAT :FIELD     
LOC         .                                                   :LOCATION  
CNTY        .                               MUSTANG ISLAND EAST :LOCATION  
STAT        .                                             TEXAS :STATE     
CTRY        .                                     UNITED STATES :COUNTRY   
SRVC        .                                                   :SERVICE COMPANY
DATE        .                             9/13/2023 11:20:11 AM :LOG DATE  
API         .                                    42712400020000 :API NUMBER
UWI         .                                    42712400020000 :UNIQUE WELL ID
XCOORD      .                                  546520.538281646 :SURFACE X 
YCOORD      .                                  9992103.69354039 :SURFACE Y 
LAT         .                                        27.4947268 :LATITUDE  
LON         .                                       -96.3742825 :LONGITUDE 
ELEV        .FT                                              65 :ELEVATION VALUE
ELEV_TYPE   .                                                KB :ELEVATION REFERENCE TYPE
~Curve Information Section
#MNEM       .UNIT                                      API CODE :CURVE DESCRIPTION
#------------------------------------------------------------------------------
DEPT        .FT                                                 :DEPTH     
ASFL        .OHMM                                               :          
CILD        .MMHO                                               :          
DT          .US/F                                               :          
GR          .GAPI                                               :          
GR_NORM     .GAPI                                               :GammaRay Normalized
ILD         .OHMM                                               :          
SFL         .OHMM                                               :          
SP          .MV                                                 :          
SP_NORM     .MV                                                 :SP Normalized
VSH_GR      .V/V                                                :Volume of Shale from GR
VSH_SP      .V/V                                                :Volume of Shale from SP
~A        DEPTH           ASFL           CILD             DT             GR        GR_NORM            ILD            SFL             SP        SP_NORM         VSH_GR         VSH_SP
# ...
      2045.5000         0.7007       1342.254       193.4851        85.2152       78.53905          0.715         0.6966      -152.5913      -3.416443      0.9689159      0.9316711
      2046.0000         0.6991       1345.953       193.4521        84.3883       77.46235         0.7142         0.6908      -152.5776      -3.405914      0.9460074      0.9318817
      2046.5000         0.6982       1349.652       193.7124        83.6371       76.48423         0.7135         0.6859      -152.5815      -3.412964      0.9251964      0.9317407
      2047.0000         0.7021       1353.352       193.9858        83.4645       76.25949         0.7158         0.6863      -152.5737      -3.408325      0.9204147      0.9318335
      2047.5000          0.706       1352.527       194.2595        83.8689       76.78605         0.7182         0.6866      -152.7139      -3.551682       0.931618      0.9289663
      2048.0000         0.7098        1350.68       194.4053        84.6761        77.8371         0.7206         0.6884      -153.1648      -4.005722      0.9539808      0.9198856
      2048.5000         0.7157       1348.832       194.2354        85.2734       78.61483         0.7232         0.6905      -153.1667      -4.010788      0.9705283      0.9197842
      2049.0000         0.7235       1339.387       193.8818        85.0298       78.29765          0.726         0.6929      -153.1243      -3.971542      0.9637797      0.9205692
      2049.5000         0.7314        1320.16       193.2981        84.2131       77.23422         0.7308         0.6976      -152.9849      -3.835297      0.9411536      0.9232941
      2050.0000         0.7392        1300.93       191.5449        83.6632       76.51821         0.7356         0.7024      -152.8169      -3.670456      0.9259194      0.9265909
      2050.5000          0.747       1281.699       190.0991        83.2233       75.94542         0.7432           0.71      -152.6221      -3.478821      0.9137323      0.9304236
      2051.0000         0.7549       1262.473       188.4133        82.6172       75.15624         0.7517         0.7198      -152.4385      -3.298386      0.8969413      0.9340323
      2051.5000         0.7655       1243.242       186.7446        81.9801       74.32668         0.7655          0.731      -152.3096      -3.172638      0.8792909      0.9365472
      2052.0000         0.7771       1222.738       185.4683        81.3254       73.47421         0.7795         0.7499       -152.865      -3.731201      0.8611533       0.925376
      2052.5000         0.7888       1197.328       184.2568        80.8555       72.86235         0.7985         0.7796      -152.9075      -3.776855      0.8481351      0.9244629
      2053.0000         0.8004       1171.922       183.0422         80.797       72.78618         0.8185         0.8095       -152.739      -3.611511      0.8465145      0.9277698
      2053.5000         0.8073       1146.508       181.7642        81.0045       73.05637         0.8369         0.8136      -152.5803      -3.455978      0.8522631      0.9308804
      2054.0000         0.8142       1121.098       180.0979        81.3295       73.47954         0.8539         0.8136      -152.4216       -3.30043      0.8612668      0.9339914
      2054.5000         0.8208       1102.305       178.2051        81.8441        74.1496         0.8721         0.8143      -152.2827      -3.164688      0.8755233      0.9367062
      2055.0000         0.8251       1095.125       176.3308        82.6791       75.23683         0.8851         0.8165      -152.1567       -3.04184       0.898656      0.9391632
      2055.5000         0.8266        1091.41       174.7585        83.6007       76.43684         0.8864         0.8193        -152.04      -2.928299       0.924188       0.941434
      2056.0000         0.8218       1093.613       174.0071        83.4553       76.24751         0.8858         0.8241      -152.0505      -2.941971      0.9201599      0.9411606
      2056.5000         0.8171       1095.813       174.8113        82.0898       74.46951         0.8823         0.8282      -152.1487       -3.04332      0.8823301      0.9391336
      2057.0000         0.8124       1101.602       175.7388        81.0851       73.16132         0.8791         0.8297      -152.3711      -3.268875      0.8544961      0.9346225
      2057.5000         0.8078       1112.883       176.4963        80.1482       71.94139         0.8765         0.8278      -152.4636      -3.364532      0.8285402      0.9327093
      2058.0000         0.8032        1124.16       177.1968        80.4631       72.35141         0.8752         0.8236      -152.4431      -3.347198      0.8372641      0.9330561
      2058.5000         0.7986       1135.445       177.7651        81.0459       73.11027         0.8728         0.8165      -152.4229      -3.330154      0.8534099      0.9333969
      2059.0000          0.794       1146.723       178.3264        81.7882       74.07681         0.8686         0.8101      -152.3662      -3.276596      0.8739746      0.9344681
      2059.5000         0.7894       1158.004       178.8228         82.608       75.14426          0.863         0.8055      -152.2974      -3.210953      0.8966863      0.9357809
      2060.0000         0.7847       1169.281       179.3193        83.5992       76.43488         0.8552         0.8001      -152.2842      -3.200912      0.9241463      0.9359818
      2060.5000         0.7801       1180.285       179.6724        84.1605       77.16574         0.8473          0.795      -152.2776      -3.197479      0.9396966      0.9360504
      2061.0000         0.7755       1191.164       179.9919        83.8604       76.77499         0.8394         0.7907      -152.3545      -3.277542      0.9313827      0.9344491
      2061.5000         0.7719       1202.039       180.1765        83.6506        76.5018         0.8317         0.7855      -152.6274      -3.553589      0.9255702      0.9289282
      2062.0000         0.7686       1212.918       180.3169        83.4832       76.28384         0.8242         0.7804      -152.7952      -3.724548      0.9209328       0.925509
      2062.5000         0.7653       1223.801       180.5535        83.3583       76.12121          0.816         0.7754      -152.8884      -3.820908      0.9174725      0.9235818
      2063.0000          0.762       1234.676       180.8511        83.8195       76.72173          0.807         0.7689      -152.8733      -3.808975      0.9302496      0.9238205
      2063.5000         0.7586       1245.555       181.4902        84.6758        77.8367         0.7981         0.7614      -152.8293      -3.768127      0.9539723      0.9246374
      2064.0000         0.7553       1256.426       184.0376        85.8033        79.3048         0.7898         0.7533      -152.7173      -3.659286      0.9852086      0.9268143
      2064.5000          0.752       1266.316       185.8113        87.1118       81.00858         0.7817         0.7454      -152.5798      -3.524948              1      0.9295011
      2065.0000         0.7433       1276.203        187.261        85.5649       78.99439         0.7731         0.7417      -152.4956      -3.443909      0.9786041      0.9311218
      2065.5000         0.7343       1286.094       188.4153        83.3884       76.16039         0.7639          0.738      -152.4517      -3.403168      0.9183062      0.9319366
      2066.0000         0.7253        1295.98       189.5933        84.0344       77.00156         0.7549         0.7346      -152.5312      -3.485825      0.9362033      0.9302835
      2066.5000         0.7163       1305.867       190.9678        84.6705        77.8298         0.7462           0.73      -152.6763      -3.634079      0.9538256      0.9273184
      2067.0000         0.7071       1315.754       192.5422        79.6949       71.35116         0.7376         0.7242      -152.8494      -3.810333      0.8159821      0.9237933
      2067.5000          0.698       1325.313       193.8164        79.1642       70.66014         0.7297         0.7179      -152.9592      -3.923294      0.8012796      0.9215341
