#------------------------------------------------------------------------------
# Created by    : vladimir.rabinovich
# Created on    : 09/19/2023 17:22:52
#------------------------------------------------------------------------------
~Version Information Section
VERS.           2.0     :   CWLS log ASCII Standard - VERSION 2.0
WRAP.           NO      :   One line per depth step
~Well Information Section
#MNEM       .UNIT                                         VALUE :DESCRIPTION
#------------------------------------------------------------------------------
STRT        .FT                                            2993 :START DEPTH
STOP        .FT                                           15023 :STOP DEPTH
STEP        .FT                                             0.5 :STEP      
NULL        .                                           -999.25 :NULL      
COMP        .                                        TEXACO INC :COMPANY   
WELL        .                                     ST TR 00018-L :WELL      
FLD         .                                           WILDCAT :FIELD     
LOC         .                                                   :LOCATION  
CNTY        .                                       SABINE PASS :LOCATION  
STAT        .                                             TEXAS :STATE     
CTRY        .                                     UNITED STATES :COUNTRY   
SRVC        .                                                   :SERVICE COMPANY
DATE        .                             9/13/2023 11:20:07 AM :LOG DATE  
API         .                                    42715000300000 :API NUMBER
UWI         .                                    42715000300000 :UNIQUE WELL ID
XCOORD      .                                  1367853.58567514 :SURFACE X 
YCOORD      .                                  10716828.2466652 :SURFACE Y 
LAT         .                                         29.526933 :LATITUDE  
LON         .                                       -93.8573019 :LONGITUDE 
ELEV        .FT                                              75 :ELEVATION VALUE
ELEV_TYPE   .                                                KB :ELEVATION REFERENCE TYPE
~Curve Information Section
#MNEM       .UNIT                                      API CODE :CURVE DESCRIPTION
#------------------------------------------------------------------------------
DEPT        .FT                                                 :DEPTH     
ILD         .OHMM                                               :          
SFLA        .OHMM                                               :          
SP          .MV                                                 :          
SP_NORM     .MV                                                 :SP Normalized
VSH_SP      .V/V                                                :Volume of Shale from SP
~A        DEPTH            ILD           SFLA             SP        SP_NORM         VSH_SP
# ...
      6205.0000         0.6588         0.5354       -30.9006      -15.74977      0.8006788
      6205.5000         0.6465         0.5354       -30.5139      -15.37016      0.8058087
      6206.0000         0.6273         0.5323       -29.9699      -14.83325      0.8130642
      6206.5000         0.6124         0.5262        -29.193      -14.06345      0.8234669
      6207.0000         0.5961         0.5169       -28.4161      -13.29364      0.8338697
      6207.5000         0.5696         0.5113       -27.6392      -12.52384      0.8442725
      6208.0000         0.5501         0.5014       -27.1834      -12.07513      0.8503361
      6208.5000         0.5119         0.4924       -27.6455      -12.54432      0.8439956
      6209.0000         0.4737         0.4922       -33.0984      -18.00432      0.7702119
      6209.5000          0.428         0.4893       -39.7536      -24.66661      0.6801809
      6210.0000         0.4126         0.4893       -43.8934       -28.8135      0.6241419
      6210.5000         0.3971         0.4893       -44.7965       -29.7237      0.6118419
      6211.0000         0.3968         0.4853       -47.5212      -32.45549      0.5749258
      6211.5000         0.3966         0.4639       -50.7884      -35.72978      0.5306786
      6212.0000         0.3963         0.4397       -54.0555      -39.00398      0.4864327
      6212.5000         0.3621         0.4371       -57.3226      -42.27818      0.4421868
      6213.0000         0.3662         0.4337       -60.5897      -45.55236       0.397941
      6213.5000         0.3811         0.4309       -60.3826      -45.35236      0.4006438
      6214.0000         0.3811         0.4309       -49.9667      -34.94355      0.5413033
      6214.5000         0.3659         0.4309       -39.5508      -24.53475      0.6819628
      6215.0000         0.3642         0.4309       -38.3543      -23.34534       0.698036
      6215.5000         0.3506         0.4309       -47.8135      -32.81163      0.5701131
      6216.0000         0.3506         0.4309       -57.2727      -42.27793      0.4421901
      6216.5000         0.3506         0.4363       -66.7318      -51.74412      0.3142687
      6217.0000         0.3659         0.4431       -69.7418      -54.76122      0.2734971
      6217.5000           0.38         0.4431       -65.6958      -50.72231      0.3280769
      6218.0000         0.4075         0.4492       -61.6498       -46.6834      0.3826567
      6218.5000         0.4268         0.4553       -57.6038       -42.6445      0.4372365
      6219.0000          0.431          0.462       -53.5579      -38.60569       0.491815
      6219.5000         0.4337         0.4658        -49.101      -34.15588      0.5519475
      6220.0000         0.3659         0.4718       -52.3786      -37.44058      0.5075598
      6220.5000          0.334         0.4766       -56.0266      -41.09567      0.4581666
      6221.0000         0.3201         0.4798       -59.6747      -44.75087      0.4087721
      6221.5000         0.3201         0.4452       -63.3228      -48.40606      0.3593776
      6222.0000         0.3201         0.4108       -66.9709      -52.06125      0.3099831
      6222.5000         0.3354         0.3969        -70.619      -55.71645      0.2605885
      6223.0000         0.3421         0.3939       -73.8217      -58.92624       0.217213
      6223.5000         0.3724         0.3939       -68.0908      -53.20243      0.2945617
      6224.0000         0.4112         0.3938       -62.9834      -48.10213      0.3634848
      6224.5000         0.4538            0.4        -57.876      -43.00182      0.4324079
      6225.0000         0.4959         0.4038       -52.7685      -37.90142      0.5013322
      6225.5000         0.5335         0.4107       -47.6611      -32.80111      0.5702553
      6226.0000         0.5509         0.4309       -42.5537       -27.7008      0.6391783
      6226.5000         0.5897         0.4568       -37.1819       -22.3361      0.7116744
      6227.0000         0.6098         0.4827       -36.4078      -21.56909      0.7220393
      6227.5000         0.6367         0.5085       -36.4065      -21.57488       0.721961
      6228.0000         0.6754         0.5344       -36.1895      -21.36497      0.7247976
      6228.5000         0.7077         0.5596       -35.7857      -20.96827      0.7301584
      6229.0000         0.7271         0.5682       -31.6809      -16.87056       0.785533
      6229.5000          0.747         0.5781       -27.4136      -12.61036      0.8431033
      6230.0000         0.7506         0.5895       -23.1463      -8.350151      0.9006736
      6230.5000         0.7466         0.6027        -18.779      -3.989944      0.9595953
      6231.0000         0.7165         0.6104       -19.5036      -4.721638      0.9497076
      6231.5000          0.663         0.6181       -20.4007      -5.625833      0.9374887
      6232.0000         0.5984         0.6232       -21.7959      -7.028127      0.9185388
      6232.5000         0.5459         0.6268       -27.1972      -12.43652      0.8454524
      6233.0000         0.4878         0.6246       -32.5984      -17.84481      0.7723674
      6233.5000         0.4857         0.6057       -37.9997      -23.25321       0.699281
      6234.0000         0.4663         0.5749        -43.401       -28.6616      0.6261946
      6234.5000         0.4573          0.544       -48.8022      -34.06989      0.5531095
      6235.0000         0.4421         0.5132       -49.9721      -35.24689      0.5372042
      6235.5000         0.4421         0.4823       -48.8675      -34.14938      0.5520353
      6236.0000         0.4346         0.4641       -45.8646      -31.15358      0.5925192
      6236.5000         0.4268          0.468       -37.7426      -23.03867      0.7021801
      6237.0000         0.4421         0.4779       -28.7403      -14.04346       0.823737
      6237.5000         0.4467         0.4923       -27.8125      -13.12276       0.836179
      6238.0000         0.4573         0.5067       -30.9435      -16.26085      0.7937723
      6238.5000         0.4878         0.5198       -38.1547      -23.47915      0.6962278
      6239.0000         0.4878         0.5236       -39.8948      -25.22634      0.6726171
      6239.5000         0.4997         0.5253        -35.472      -20.81063      0.7322888
      6240.0000         0.5284         0.5284       -30.7305      -16.07623      0.7962672
      6240.5000         0.5488         0.5284       -28.2615      -13.61432      0.8295363
      6241.0000         0.5855         0.5284       -27.9702      -13.33011      0.8333769
      6241.5000         0.6243          0.537        -30.077      -15.44401      0.8048107
      6242.0000         0.6707         0.6174       -38.3985       -23.7726      0.6922622
      6242.5000         0.7167         0.7021        -37.862      -23.24319      0.6994163
      6243.0000         0.7405         0.7108       -37.3885      -22.77679      0.7057191
      6243.5000         0.7793         0.7169       -34.5404      -19.93578      0.7441111
      6244.0000         0.8079         0.7215       -31.6811      -17.08358      0.7826544
      6244.5000           0.84         0.7254       -29.8132      -15.22277      0.8078004
      6245.0000          0.848         0.7292       -30.0973      -15.51396      0.8038654
      6245.5000         0.8286         0.7338        -40.553      -25.97676      0.6624762
      6246.0000         0.7767         0.7111       -38.4675      -23.89835      0.6905628
      6246.5000         0.7121          0.683       -34.9975      -20.43544      0.7373589
      6247.0000         0.6568         0.6549       -31.5274      -16.97243      0.7841563
      6247.5000          0.618         0.6268       -28.0574      -13.50953      0.8309523
      6248.0000         0.5793         0.5987       -26.2543      -11.71352      0.8552226
      6248.5000         0.5405          0.551       -26.7173      -12.18362        0.84887
