#------------------------------------------------------------------------------
# Created by    : vladimir.rabinovich
# Created on    : 09/19/2023 17:20:21
#------------------------------------------------------------------------------
~Version Information Section
VERS.           2.0     :   CWLS log ASCII Standard - VERSION 2.0
WRAP.           NO      :   One line per depth step
~Well Information Section
#MNEM       .UNIT                                         VALUE :DESCRIPTION
#------------------------------------------------------------------------------
STRT        .FT                                            1439 :START DEPTH
STOP        .FT                                           13833 :STOP DEPTH
STEP        .FT                                             0.5 :STEP      
NULL        .                                           -999.25 :NULL      
COMP        .                                        EXXON CORP :COMPANY   
WELL        .                               OCS G04992 ST00BP00 :WELL      
FLD         .                                           WILDCAT :FIELD     
LOC         .                                                   :LOCATION  
CNTY        .                               MUSTANG ISLAND EAST :LOCATION  
STAT        .                                             TEXAS :STATE     
CTRY        .                                     UNITED STATES :COUNTRY   
SRVC        .                                                   :SERVICE COMPANY
DATE        .                             9/13/2023 11:20:08 AM :LOG DATE  
API         .                                    42712400640000 :API NUMBER
UWI         .                                    42712400640000 :UNIQUE WELL ID
XCOORD      .                                  530427.861923906 :SURFACE X 
YCOORD      .                                  9963308.63528926 :SURFACE Y 
LAT         .                                        27.4144168 :LATITUDE  
LON         .                                       -96.4214066 :LONGITUDE 
ELEV        .FT                                              73 :ELEVATION VALUE
ELEV_TYPE   .                                                KB :ELEVATION REFERENCE TYPE
~Curve Information Section
#MNEM       .UNIT                                      API CODE :CURVE DESCRIPTION
#------------------------------------------------------------------------------
DEPT        .FT                                                 :DEPTH     
ASFL        .OHMM                                               :          
CILD        .MMHO                                               :          
DT          .US/F                                               :          
GR          .GAPI                                               :          
GR_NORM     .GAPI                                               :GammaRay Normalized
ILD         .OHMM                                               :          
SP          .MV                                                 :          
SP_NORM     .MV                                                 :SP Normalized
VSH_GR      .V/V                                                :Volume of Shale from GR
VSH_SP      .V/V                                                :Volume of Shale from SP
~A        DEPTH           ASFL           CILD             DT             GR        GR_NORM            ILD             SP        SP_NORM         VSH_GR         VSH_SP
# ...
     10504.0000          2.245       1359.596       122.1095         29.817        35.0203         0.7539       -99.0607      -48.74618     0.04298515     0.02507637
     10504.5000         2.2592       1388.707       121.4626        29.7407       34.92074          0.688       -98.5042      -48.19331     0.04086677     0.03613388
     10505.0000         2.2766       1424.275       119.7126        29.5608       34.69169         0.6221        -97.944      -47.63672     0.03599337     0.04726555
     10505.5000         2.0674       1473.805         118.08        29.3354       34.40575         0.5845        -97.756      -47.45234     0.02990958     0.05095322
     10506.0000         1.8268       1560.938       116.7861        29.0821       34.08494         0.5593       -98.1021      -47.80206     0.02308379     0.04395882
     10506.5000          1.529       1681.455       115.9747        28.8088       33.73913         0.5342       -98.8466      -48.55019     0.01572613     0.02899628
     10507.0000         1.3658       1979.918       115.6281        28.2449       33.03008           0.51       -99.6757       -49.3829   0.0006398952     0.01234199
     10507.5000         1.0601       2282.551       115.7559        27.6822       32.32251         0.4912      -100.5918      -50.30262              0              0
     10508.0000         0.9898       2391.742       114.6274        26.9714       31.42982         0.4723       -101.472      -51.18644              0              0
     10508.5000         0.9386        2464.07       113.4839         31.321       36.86264         0.4535       -94.9437      -44.66177     0.08218384      0.1067647
     10509.0000         0.8763        2612.41       114.4904        33.0714       39.04646         0.4346       -92.0955      -41.81718      0.1286481      0.1636564
     10509.5000         0.7989       2654.438       116.5519         39.968       47.66302         0.4174         -88.55       -38.2753      0.3119793      0.2344939
     10510.0000         0.7313       2685.633       117.2499        42.3134       50.59059         0.4025       -85.5026      -35.23152      0.3742679      0.2953696
     10510.5000         0.6923       2712.508       116.4596        44.3451       53.12604         0.3876       -82.4202      -32.15274      0.4282136      0.3569453
     10511.0000         0.6659       2739.336       114.9016        46.2124       55.45597         0.3727       -80.0598      -29.79596      0.4777867      0.4040808
     10511.5000         0.6813       2763.129       113.2216        43.9816       52.66329          0.377       -84.1182      -33.85798      0.4183679      0.3228403
     10512.0000         0.7626       2751.309       111.1824        34.5801       40.90723         0.3843        -87.106       -36.8494      0.1682389      0.2630119
     10512.5000         0.8194       2708.684        106.855        28.3669       33.13655         0.3951       -95.7804      -45.52742    0.002905338     0.08945152
     10513.0000         0.8739       2614.793        98.3496        27.4731       32.01511         0.4165       -98.2477      -47.99834              0     0.04003311
     10513.5000         0.9203       2471.523        87.7803        26.7087       31.05543         0.4379      -100.0129      -49.76716              0    0.004656754
     10514.0000         1.0163       2159.352        84.1594         26.916       31.31037         0.4592      -100.3092      -50.06708              0              0
     10514.5000         1.0792       2029.793         84.744        28.4677       33.24581         0.4866      -100.4633       -50.2248    0.005230031              0
     10515.0000           1.13       1880.563        90.7915        29.8396        34.9565         0.5239      -100.1375      -49.90261     0.04162776    0.001947708
     10515.5000         1.1876       1711.658        94.8098         30.711       36.04156         0.5611       -99.4602      -49.22894     0.06471415      0.0154213
     10516.0000         1.2544       1653.338        94.5806        31.5812       37.12513         0.5972        -97.807      -47.57936     0.08776872     0.04841286
     10516.5000         1.4225       1602.469        87.6506        32.4526        38.2102         0.6197       -96.1538      -45.92978      0.1108553     0.08140442
     10517.0000         1.4792         1551.5        80.3418        33.1859       39.12264         0.6423       -95.4386       -45.2182       0.130269     0.09563606
     10517.5000         1.8253       1513.545        73.8307        33.0016       38.88808         0.6648       -95.0614      -44.84462      0.1252782      0.1031076
     10518.0000         2.0077       1486.123        73.3322        31.6372       37.17839         0.6784       -94.6842      -44.47104     0.08890192      0.1105793
     10518.5000         2.0277       1483.391        78.9359        30.4695       35.71459         0.6788       -95.0409      -44.83136      0.0577572      0.1033728
     10519.0000          2.092       1518.514        82.4457        29.7039        34.7534         0.6793       -95.7019      -45.49598     0.03730644     0.09008049
     10519.5000         2.1941       1628.002        82.8517        29.7531       34.81071         0.6797       -97.2418       -47.0395     0.03852585     0.05921005
     10520.0000          2.117       1728.152        84.2405        30.2286       35.40092         0.6802       -98.7556      -48.55692     0.05108334     0.02886162
     10520.5000         2.0149       1808.629        89.9041        30.7048       35.99198          0.673       -99.7765      -49.58143      0.0636591    0.008371353
     10521.0000         1.7401       1889.902        96.5847        31.1804       36.58229         0.6357      -101.6882      -51.49676     0.07621903              0
     10521.5000         1.4165       1982.699       100.8524        31.6565       37.17323         0.5985      -101.8252      -51.63738     0.08879219              0
     10522.0000         1.0938       2318.121       104.5466        32.1321       37.76355         0.5612      -101.8374       -51.6532      0.1013522              0
     10522.5000         0.8101       2653.543        105.874        32.6008       38.34524         0.5242      -101.8253      -51.64472      0.1137285              0
     10523.0000         0.6838       2986.578       106.1957        32.9948       38.83356         0.4877      -101.7732      -51.59624      0.1241182              0
     10523.5000         0.6453        3170.98       106.5022        33.3882       39.32112         0.4512      -100.8695      -50.69616      0.1344919              0
     10524.0000         0.6201       3367.902        107.533        34.7469       41.01532         0.4146       -95.7131      -45.54337      0.1705386     0.08913254
     10524.5000         0.6041       3420.563       105.6685         36.572        43.2925         0.3886        -94.391       -44.2249      0.2189894      0.1155021
     10525.0000          0.592       3465.668       103.1707        40.4012       48.07482         0.3626        -93.069      -42.90652      0.3207408      0.1418697
     10525.5000         0.6012       3502.031       106.0273        44.3401       52.99426         0.3366       -90.8157      -40.65683      0.4254097      0.1868633
     10526.0000         0.6104       3525.332        111.671        49.4093       59.32658         0.3112       -80.6624      -30.50715      0.5601401      0.3898569
     10526.5000         0.6027        3379.23       113.9893        53.9308       64.97427         0.2877       -78.4066      -28.25497      0.6803037      0.4349005
     10527.0000         0.5942       3167.008       111.0529        51.7995       62.30595         0.3036       -74.7765      -24.62849      0.6235309      0.5074302
     10527.5000         0.5857       2872.121        98.0305        48.8914       58.66665         0.3242       -67.6857      -17.54131       0.546099      0.6491737
     10528.0000         0.5746       2820.211        82.3361        46.2373       55.34484         0.3447       -62.5965      -12.45573      0.4754222      0.7508853
