#------------------------------------------------------------------------------
# Created by    : vladimir.rabinovich
# Created on    : 09/19/2023 17:21:38
#------------------------------------------------------------------------------
~Version Information Section
VERS.           2.0     :   CWLS log ASCII Standard - VERSION 2.0
WRAP.           NO      :   One line per depth step
~Well Information Section
#MNEM       .UNIT                                         VALUE :DESCRIPTION
#------------------------------------------------------------------------------
STRT        .FT                                            1242 :START DEPTH
STOP        .FT                                            7802 :STOP DEPTH
STEP        .FT                                             0.5 :STEP      
NULL        .                                           -999.25 :NULL      
COMP        .                                    CITIES SERVICE :COMPANY   
WELL        .                               OCS G03070 ST00BP00 :WELL      
FLD         .                                           WILDCAT :FIELD     
LOC         .                                                   :LOCATION  
CNTY        .                               MUSTANG ISLAND EAST :LOCATION  
STAT        .                                             TEXAS :STATE     
CTRY        .                                     UNITED STATES :COUNTRY   
SRVC        .                                                   :SERVICE COMPANY
DATE        .                             9/13/2023 11:20:08 AM :LOG DATE  
API         .                                    42712400230000 :API NUMBER
UWI         .                                    42712400230000 :UNIQUE WELL ID
XCOORD      .                                  541821.370048326 :SURFACE X 
YCOORD      .                                   9995115.4612029 :SURFACE Y 
LAT         .                                         27.502648 :LATITUDE  
LON         .                                       -96.3890109 :LONGITUDE 
ELEV        .FT                                              64 :ELEVATION VALUE
ELEV_TYPE   .                                                KB :ELEVATION REFERENCE TYPE
~Curve Information Section
#MNEM       .UNIT                                      API CODE :CURVE DESCRIPTION
#------------------------------------------------------------------------------
DEPT        .FT                                                 :DEPTH     
CALI        .IN                                                 :          
CILD        .MMHO                                               :          
DRHO        .G/C3                                               :          
DT          .US/F                                               :          
GR          .GAPI                                               :          
GR_1        .GAPI                                               :          
GR_NORM     .GAPI                                               :GammaRay Normalized
ILD         .OHMM                                               :          
NPHI        .%                                                  :          
RHOB        .G/C3                                               :          
SFL         .OHMM                                               :          
SP          .MV                                                 :          
SP_NORM     .MV                                                 :SP Normalized
VSH_GR      .V/V                                                :Volume of Shale from GR
VSH_SP      .V/V                                                :Volume of Shale from SP
~A        DEPTH           CALI           CILD           DRHO             DT             GR           GR_1        GR_NORM            ILD           NPHI           RHOB            SFL             SP        SP_NORM         VSH_GR         VSH_SP
# ...
      7787.0000        13.2414       1441.729         0.0317       120.2092        68.6155        59.4564       75.83213         0.6682        31.0369         2.3915          0.765        -53.136      -5.182785      0.9113219      0.8704304
      7787.5000        13.2426       1453.174         0.0438       120.2751         68.564        59.5176       75.90862         0.6634        31.0088         2.4136         0.7588       -53.1531      -5.199883      0.9129494      0.8700029
      7788.0000        13.2478       1464.619         0.0468       120.3818        66.6617        59.7614       76.21338         0.6591        30.9598          2.426          0.777       -53.1407      -5.187485      0.9194336      0.8703129
      7788.5000        13.2387       1476.027          0.032       120.5216        62.7222        60.1642       76.71688         0.6578        30.6146         2.4182         0.7917       -53.1557      -5.202484      0.9301464      0.8699379
      7789.0000        13.0808       1487.314         0.0236       121.5936         58.229        60.5665       77.21976         0.6573        30.2992         2.3952         0.7912       -53.1906      -5.237385      0.9408459      0.8690654
      7789.5000        13.0409       1498.506         0.0242       124.8816        54.4476        60.9693       77.72325         0.6584        30.1657         2.3644         0.7663       -53.2516      -5.298382      0.9515585      0.8675405
      7790.0000          13.28       1507.482         0.0262       128.1938        41.9466        61.9019       78.88901         0.6613        30.3167         2.3415         0.7405       -53.3877      -5.434483      0.9763619      0.8641379
      7790.5000        13.2817       1511.914         0.0221       128.7449        34.4381        62.8852       80.11812         0.6653        30.8187         2.3421         0.7181         -53.68      -5.726784              1      0.8568304
      7791.0000        13.2593       1511.822         0.0278       128.7358        45.5748        64.0806       81.61238         0.6693        30.9184         2.3535         0.7006       -54.1022      -6.148983              1      0.8462754
      7791.5000        13.5106       1511.602          0.022       128.0757        61.5112        65.3118       83.15138         0.6742        30.8567         2.3466         0.6838       -54.6559      -6.702682              1      0.8324329
      7792.0000        13.5468        1507.41         0.0416        127.887        67.2599        66.3492       84.44813         0.6812        30.9768         2.3637         0.6721       -55.1593      -7.206085              1      0.8198479
      7792.5000        13.3157       1503.176         0.0366       128.6274        67.9087        66.0256       84.04362         0.6893        31.1406          2.388         0.6814       -55.5443      -7.591084              1      0.8102229
      7793.0000        13.3465       1498.645         0.0457        128.936        67.9828        65.4607       83.33749         0.6979         30.888          2.378         0.7123       -56.0638      -8.110584              1      0.7972354
      7793.5000        13.6712       1494.119         0.0228       128.6064        67.8036        64.8964       82.63213         0.7048        30.2266         2.3659         0.7528        -56.824      -8.870785              1      0.7782304
      7794.0000        13.8073       1489.596         0.0256       128.1208        67.7314        64.3314       81.92587         0.7107        29.5794         2.3763         0.8121       -57.8915      -9.938282              1      0.7515429
      7794.5000        13.8448        -999.25         0.0445        -999.25        67.6853        -999.25        -999.25        -999.25        29.1832          2.371        -999.25        -999.25        -999.25        -999.25        -999.25
      7795.0000        13.8908        -999.25         0.0421        -999.25        67.6392        -999.25        -999.25        -999.25        28.9536          2.355        -999.25        -999.25        -999.25        -999.25        -999.25
      7795.5000        13.9339        -999.25         0.0577        -999.25         67.593        -999.25        -999.25        -999.25        28.8315         2.3144        -999.25        -999.25        -999.25        -999.25        -999.25
      7796.0000        13.6818        -999.25         0.0515        -999.25        67.5469        -999.25        -999.25        -999.25        27.9327         2.2871        -999.25        -999.25        -999.25        -999.25        -999.25
      7796.5000        13.8674        -999.25         0.0308        -999.25        67.5009        -999.25        -999.25        -999.25        25.3825         2.2862        -999.25        -999.25        -999.25        -999.25        -999.25
      7797.0000        13.8836        -999.25         0.0317        -999.25        67.4546        -999.25        -999.25        -999.25        22.6254         2.2995        -999.25        -999.25        -999.25        -999.25        -999.25
      7797.5000        13.7588        -999.25         0.0434        -999.25        67.4084        -999.25        -999.25        -999.25        18.4471         2.3071        -999.25        -999.25        -999.25        -999.25        -999.25
      7798.0000        13.6553        -999.25         0.0583        -999.25        67.3624        -999.25        -999.25        -999.25         6.3519         2.3017        -999.25        -999.25        -999.25        -999.25        -999.25
      7798.5000        13.4386        -999.25         0.0412        -999.25        67.3163        -999.25        -999.25        -999.25        -999.25         2.2791        -999.25        -999.25        -999.25        -999.25        -999.25
      7799.0000        13.0247        -999.25         0.0178        -999.25        67.2701        -999.25        -999.25        -999.25        -999.25         2.2912        -999.25        -999.25        -999.25        -999.25        -999.25
      7799.5000        12.6613        -999.25         0.0184        -999.25         67.224        -999.25        -999.25        -999.25        -999.25         2.2981        -999.25        -999.25        -999.25        -999.25        -999.25
      7800.0000        12.3331        -999.25         0.0262        -999.25        67.3848        -999.25        -999.25        -999.25        -999.25         2.3105        -999.25        -999.25        -999.25        -999.25        -999.25
      7800.5000        11.9295        -999.25         0.0368        -999.25        67.2712        -999.25        -999.25        -999.25        -999.25         2.3261        -999.25        -999.25        -999.25        -999.25        -999.25
      7801.0000        11.4412        -999.25         0.0364        -999.25        66.4789        -999.25        -999.25        -999.25        -999.25         2.3042        -999.25        -999.25        -999.25        -999.25        -999.25
      7801.5000         10.947        -999.25         0.0249        -999.25        63.7108        -999.25        -999.25        -999.25        -999.25         2.2721        -999.25        -999.25        -999.25        -999.25        -999.25
      7802.0000        10.6075        -999.25          0.009        -999.25        60.6659        -999.25        -999.25        -999.25        -999.25         2.2224        -999.25        -999.25        -999.25        -999.25        -999.25
