#------------------------------------------------------------------------------
# Created by    : vladimir.rabinovich
# Created on    : 09/19/2023 17:20:45
#------------------------------------------------------------------------------
~Version Information Section
VERS.           2.0     :   CWLS log ASCII Standard - VERSION 2.0
WRAP.           NO      :   One line per depth step
~Well Information Section
#MNEM       .UNIT                                         VALUE :DESCRIPTION
#------------------------------------------------------------------------------
STRT        .FT                                             565 :START DEPTH
STOP        .FT                                           11656 :STOP DEPTH
STEP        .FT                                             0.5 :STEP      
NULL        .                                           -999.25 :NULL      
COMP        .                     MITCHELL ENERGY OFFSHORE CORP :COMPANY   
WELL        .                               OCS G02394 ST00BP00 :WELL      
FLD         .                            HIGH ISLAND BLOCK 0047 :FIELD     
LOC         .                                                   :LOCATION  
CNTY        .                                  HIGH ISLAND EAST :LOCATION  
STAT        .                                             TEXAS :STATE     
CTRY        .                                     UNITED STATES :COUNTRY   
SRVC        .                                                   :SERVICE COMPANY
DATE        .                             9/13/2023 11:11:59 AM :LOG DATE  
API         .                                    42710400050000 :API NUMBER
UWI         .                                    42710400050000 :UNIQUE WELL ID
XCOORD      .                                  1370895.90844183 :SURFACE X 
YCOORD      .                                  10676661.5178287 :SURFACE Y 
LAT         .                                        29.4165067 :LATITUDE  
LON         .                                        -93.846815 :LONGITUDE 
ELEV        .FT                                              96 :ELEVATION VALUE
ELEV_TYPE   .                                                KB :ELEVATION REFERENCE TYPE
~Curve Information Section
#MNEM       .UNIT                                      API CODE :CURVE DESCRIPTION
#------------------------------------------------------------------------------
DEPT        .FT                                                 :DEPTH     
ASN         .OHMM                                               :          
CILD        .MMHO                                               :          
GR          .GAPI                                               :          
GR_NORM     .GAPI                                               :GammaRay Normalized
ILD         .OHMM                                               :          
SP          .MV                                                 :          
SP_NORM     .MV                                                 :SP Normalized
VSH_GR      .V/V                                                :Volume of Shale from GR
VSH_SP      .V/V                                                :Volume of Shale from SP
~A        DEPTH            ASN           CILD             GR        GR_NORM            ILD             SP        SP_NORM         VSH_GR         VSH_SP
# ...
      2049.0000         0.8527       1263.303        86.3887       80.11096          0.722       -69.0188      -6.537147              1      0.8811428
      2049.5000          0.845       1328.324        87.2683       80.81464         0.6989        -69.286       -7.00934              1      0.8725575
      2050.0000         0.8359       1386.098         86.135         79.908         0.6783       -69.7904      -7.898744      0.9980426      0.8563865
      2050.5000         0.8277       1439.299        84.3127       78.45016         0.6575       -70.2627      -8.731705      0.9670246      0.8412417
      2051.0000         0.8196       1482.617        80.9227       75.73816         0.6352       -70.3385      -8.867218      0.9093226      0.8387778
      2051.5000         0.8117       1519.699        77.7054       73.16432         0.6137       -69.7611      -7.853774        0.85456      0.8572041
      2052.0000         0.8049       1566.602        76.2555        72.0044         0.5935       -69.2687       -6.98984      0.8298809       0.872912
      2052.5000          0.798       1609.748        74.6061       70.68488         0.5798       -70.0646      -8.391993       0.801806      0.8474183
      2053.0000         0.7912       1648.199        72.5006       69.00048         0.5705       -70.9855      -10.01402      0.7659677      0.8179269
      2053.5000         0.7853       1685.453        70.6228       67.49825         0.5614       -71.9449      -11.70377      0.7340052      0.7872041
      2054.0000           0.78       1710.279        70.6987       67.55896         0.5572       -72.7681      -13.15394       0.735297      0.7608374
      2054.5000         0.7746       1699.211        71.5303       68.22424          0.554       -73.6366       -14.6838      0.7494518      0.7330219
      2055.0000         0.7683       1648.408        72.4867       68.98936         0.5636        -74.356       -15.9514      0.7657312      0.7099745
      2055.5000          0.762       1604.588        73.8956       70.11648         0.5733        -74.421      -16.06791      0.7897123      0.7078561
      2056.0000         0.7536       1561.428        75.5913       71.47304         0.5829        -73.937      -15.21875      0.8185753      0.7232954
      2056.5000         0.7451       1513.438        77.4209       72.93672         0.5931       -73.4531      -14.36978      0.8497175      0.7387312
      2057.0000         0.7363        1470.73        79.9177       74.93416         0.6111       -72.5746      -12.82671      0.8922161      0.7667871
      2057.5000         0.7335       1432.609        82.4344       76.94753          0.629       -71.6345      -11.17528      0.9350537      0.7968131
      2058.0000         0.7374       1392.336        84.6523       78.72184         0.6486       -70.7469      -9.616211      0.9728051      0.8251598
      2058.5000          0.747       1352.049        86.2449       79.99593         0.6731       -71.1207      -10.27589      0.9999133      0.8131656
      2059.0000         0.7634        1314.65        87.6251       81.10008         0.6975       -71.5347       -11.0063              1      0.7998855
      2059.5000         0.7823       1263.162        86.7029       80.36232         0.7233       -72.0132      -11.85016              1      0.7845426
      2060.0000         0.8027         1224.1        85.6566       79.52528         0.7537       -72.2157      -12.20852      0.9898996      0.7780269
      2060.5000         0.8237       1192.484          84.61         78.688         0.7842       -71.9308      -11.70958      0.9720852      0.7870985
      2061.0000         0.8415       1164.195        83.4434       77.75471         0.8142       -71.6177      -11.16103       0.952228      0.7970722
      2061.5000         0.8599       1145.424        82.2489       76.79912         0.8441       -71.1527       -10.3453      0.9318962      0.8119037
      2062.0000          0.874       1133.107        81.1586       75.92688          0.861       -70.6876      -9.529383      0.9133379      0.8267385
      2062.5000         0.8858       1113.754        80.4177       75.33416         0.8673       -70.2308      -8.728067      0.9007268      0.8413079
      2063.0000         0.8955       1094.748        79.6505        74.7204         0.8654       -69.8412      -8.044968       0.887668      0.8537279
      2063.5000         0.9045       1094.367        78.7292       73.98336         0.8618       -69.4517      -7.362028      0.8719864       0.866145
      2064.0000         0.9096       1093.986        77.7931       73.23448         0.8506       -69.0621      -6.678927      0.8560528       0.878565
      2064.5000         0.9147       1095.439        76.6974       72.35793         0.8394       -68.6814      -6.011461      0.8374026      0.8907007
      2065.0000         0.9197       1137.926        75.8234       71.65872         0.8281       -68.2806      -5.308661       0.822526      0.9034789
      2065.5000         0.9137       1185.832         74.621        70.6968          0.812       -67.9683      -4.761518      0.8020596      0.9134269
      2066.0000         0.9066       1240.193        72.7953       69.23624         0.7932       -68.9923      -6.564898      0.7709839      0.8806382
      2066.5000         0.8995       1290.238        71.5531       68.24248         0.7745       -70.4923      -9.205548        0.74984      0.8326264
      2067.0000         0.8886       1353.174        70.5293       67.42344         0.7519       -71.7295      -11.38393      0.7324136      0.7930194
      2067.5000         0.8776       1394.207        70.4908       67.39264          0.729       -73.1688      -13.91781      0.7317583      0.7469488
      2068.0000         0.8663       1425.209        70.9972       67.79776          0.706       -74.7869       -16.7662      0.7403778      0.6951599
      2068.5000         0.8532       1462.988        72.6036       69.08288         0.6781       -75.8715      -18.67616      0.7677208      0.6604334
      2069.0000         0.8402       1511.139        75.6771       71.54168           0.65       -75.6176      -18.23175      0.8200358      0.6685137
      2069.5000         0.8267       1587.063        77.0043       72.60344         0.6247       -74.9789      -17.11048      0.8426264      0.6889004
      2070.0000         0.8127       1649.582        78.3141       73.65128         0.6029       -74.2195       -15.7769      0.8649209      0.7131472
      2070.5000         0.7984       1697.939        79.5992       74.67936         0.5811       -73.4459      -14.41835      0.8867949      0.7378482
      2071.0000         0.7838       1731.389        81.2646       76.01168         0.5607       -72.5253      -12.80123      0.9151421      0.7672504
      2071.5000         0.7739       1761.572        82.0819       76.66552         0.5405        -71.634      -11.23563      0.9290536      0.7957158
      2072.0000         0.7645       1793.285        79.1487       74.31895         0.5207       -72.1125      -12.07949      0.8791267       0.780373
      2072.5000         0.7595       1826.686        76.8329       72.46632          0.503       -73.1768      -13.95375       0.839709      0.7462954
      2073.0000         0.7545       1858.777        75.8888       71.71104         0.4853       -75.5864      -18.19436      0.8236392      0.6691934
      2073.5000         0.7496       1890.881        74.9447       70.95576         0.4679       -78.6145       -23.5229      0.8075694      0.5723109
      2074.0000         0.7445       1921.188        73.7827       70.02616         0.4578       -79.2759      -24.68847      0.7877907      0.5511187
      2074.5000         0.7393       1950.258        72.3962       68.91696         0.4476       -79.6661      -25.37701      0.7641907      0.5385998
      2075.0000         0.7341       1976.613        70.8229       67.65832         0.4375       -80.0452      -26.04602       0.737411       0.526436
