#------------------------------------------------------------------------------
# Created by    : vladimir.rabinovich
# Created on    : 09/19/2023 17:21:38
#------------------------------------------------------------------------------
~Version Information Section
VERS.           2.0     :   CWLS log ASCII Standard - VERSION 2.0
WRAP.           NO      :   One line per depth step
~Well Information Section
#MNEM       .UNIT                                         VALUE :DESCRIPTION
#------------------------------------------------------------------------------
STRT        .FT                                            1242 :START DEPTH
STOP        .FT                                            7802 :STOP DEPTH
STEP        .FT                                             0.5 :STEP      
NULL        .                                           -999.25 :NULL      
COMP        .                                    CITIES SERVICE :COMPANY   
WELL        .                               OCS G03070 ST00BP00 :WELL      
FLD         .                                           WILDCAT :FIELD     
LOC         .                                                   :LOCATION  
CNTY        .                               MUSTANG ISLAND EAST :LOCATION  
STAT        .                                             TEXAS :STATE     
CTRY        .                                     UNITED STATES :COUNTRY   
SRVC        .                                                   :SERVICE COMPANY
DATE        .                             9/13/2023 11:20:08 AM :LOG DATE  
API         .                                    42712400230000 :API NUMBER
UWI         .                                    42712400230000 :UNIQUE WELL ID
XCOORD      .                                  541821.370048326 :SURFACE X 
YCOORD      .                                   9995115.4612029 :SURFACE Y 
LAT         .                                         27.502648 :LATITUDE  
LON         .                                       -96.3890109 :LONGITUDE 
ELEV        .FT                                              64 :ELEVATION VALUE
ELEV_TYPE   .                                                KB :ELEVATION REFERENCE TYPE
~Curve Information Section
#MNEM       .UNIT                                      API CODE :CURVE DESCRIPTION
#------------------------------------------------------------------------------
DEPT        .FT                                                 :DEPTH     
CALI        .IN                                                 :          
CILD        .MMHO                                               :          
DRHO        .G/C3                                               :          
DT          .US/F                                               :          
GR          .GAPI                                               :          
GR_1        .GAPI                                               :          
GR_NORM     .GAPI                                               :GammaRay Normalized
ILD         .OHMM                                               :          
NPHI        .%                                                  :          
RHOB        .G/C3                                               :          
SFL         .OHMM                                               :          
SP          .MV                                                 :          
SP_NORM     .MV                                                 :SP Normalized
VSH_GR      .V/V                                                :Volume of Shale from GR
VSH_SP      .V/V                                                :Volume of Shale from SP
~A        DEPTH           CALI           CILD           DRHO             DT             GR           GR_1        GR_NORM            ILD           NPHI           RHOB            SFL             SP        SP_NORM         VSH_GR         VSH_SP
      1242.0000        -999.25       1508.002        -999.25       195.8335        -999.25        68.5305       82.39456         0.7869        -999.25        -999.25         1.1322      -110.2216      -15.48476              1      0.6903047
      1242.5000        -999.25       1515.484        -999.25       200.8062        -999.25        69.0131       81.74818         0.6943        -999.25        -999.25          1.128      -109.9508      -15.21396              1      0.6957209
      1243.0000        -999.25       1522.342        -999.25       199.2827        -999.25        69.4487       84.07104         0.6724        -999.25        -999.25          1.124      -109.8646      -15.12776              1      0.6974447
      1243.5000        -999.25       1526.246        -999.25       190.4299        -999.25        69.7404       82.91928         0.6703        -999.25        -999.25         1.1226      -109.2274      -14.49056              1      0.7101887
      1244.0000        -999.25       1528.881        -999.25       156.8518        -999.25        70.0272       80.88749         0.6775        -999.25        -999.25         1.1224      -107.3191      -12.58226              1      0.7483548
      1244.5000        -999.25       1527.811        -999.25       165.1646        -999.25        70.3861        83.8401         0.6885        -999.25        -999.25         1.1246      -105.4836      -10.74676              1      0.7850649
      1245.0000        -999.25       1524.768        -999.25       189.2117        -999.25        70.1357       84.72499         0.6984        -999.25        -999.25         1.1434      -104.3175      -9.580658              1      0.8083869
      1245.5000        -999.25       1517.875        -999.25       203.8428        -999.25        69.6398       84.48904          0.705        -999.25        -999.25         1.1567      -103.7012      -8.964363              1      0.8207127
      1246.0000        -999.25       1494.324        -999.25       204.3545        -999.25        68.9969        84.5887          0.712        -999.25        -999.25         1.1682      -103.6658      -8.928963              1      0.8214207
      1246.5000        -999.25       1443.895        -999.25       203.9136        -999.25        68.2354         83.223         0.7194        -999.25        -999.25         1.1763      -103.0536      -8.316757              1      0.8336648
      1247.0000        -999.25       1418.182        -999.25       203.5796        -999.25        68.4045       83.33533          0.728        -999.25        -999.25         1.1685       -102.396      -7.659164              1      0.8468167
      1247.5000        -999.25       1402.975        -999.25       203.6687        -999.25        69.3477       83.86777         0.7377        -999.25        -999.25         1.1645      -103.5481      -8.811264              1      0.8237747
      1248.0000        -999.25       1381.125        -999.25       203.8044        -999.25        70.3285       82.37756         0.7554        -999.25        -999.25         1.1712      -105.3209      -10.58406              1      0.7883188
      1248.5000        -999.25       1359.277        -999.25       203.9253        -999.25        71.2467       85.26745         0.7789        -999.25        -999.25          1.184      -104.7881      -10.05126              1      0.7989748
      1249.0000        -999.25       1336.912        -999.25       204.0071        -999.25        72.1486       82.81559          0.808        -999.25        -999.25          1.206      -104.1285      -9.391663              1      0.8121668
      1249.5000        -999.25       1314.363        -999.25       203.9192        -999.25         72.853       82.01138         0.8385        -999.25        -999.25         1.2262      -104.0175      -9.280663              1      0.8143867
      1250.0000        -999.25       1286.605        -999.25       203.6663        -999.25        73.4752       81.74612          0.869        -999.25        -999.25         1.2401      -104.2174       -9.48056              1      0.8103888
      1250.5000        -999.25       1252.756        -999.25        203.324        -999.25        72.9691        82.6412         0.8871        -999.25        -999.25         1.2432       -104.484      -9.747162              1      0.8050568
      1251.0000        -999.25       1222.482        -999.25       203.6279        -999.25        72.0807       85.17188         0.8985        -999.25        -999.25         1.2419      -104.7333       -9.99646              1      0.8000708
      1251.5000        -999.25       1188.758        -999.25       203.5332        -999.25        71.1984       81.35363         0.9056        -999.25        -999.25         1.2385      -104.9194      -10.18256              1      0.7963488
      1252.0000        -999.25       1146.176        -999.25       203.8867        -999.25        70.5679       85.40764         0.9061        -999.25        -999.25         1.2376      -104.9081      -10.17126              1      0.7965748
      1252.5000        -999.25       1125.029        -999.25       204.3035        -999.25          69.96       84.64062         0.9044        -999.25        -999.25         1.2343      -104.6667      -9.929863              1      0.8014027
      1253.0000        -999.25       1104.764        -999.25       204.3918        -999.25        69.3892       82.23413         0.9009        -999.25        -999.25         1.2305      -103.6733      -8.936462              1      0.8212708
      1253.5000        -999.25       1087.826        -999.25       204.0371        -999.25        68.7754       83.05756         0.8975        -999.25        -999.25         1.2265      -103.3424       -8.60556              1      0.8278888
      1254.0000        -999.25       1072.814        -999.25       203.8228        -999.25        68.0215       84.11591          0.894        -999.25        -999.25         1.2208      -105.0135      -10.27666              1      0.7944669
      1254.5000        -999.25       1062.164        -999.25        203.697        -999.25        67.5375       83.71037         0.8904        -999.25        -999.25          1.214      -106.0326      -11.29576              1      0.7740848
      1255.0000        -999.25       1061.232        -999.25        203.772        -999.25        67.2216        81.4104         0.8874        -999.25        -999.25          1.207      -105.2583      -10.52146              1      0.7895707
      1255.5000        -999.25       1063.066        -999.25       203.9053        -999.25        67.1324       83.97913         0.8846        -999.25        -999.25         1.2029      -103.5249      -8.788063              1      0.8242387
      1256.0000        -999.25         1064.9        -999.25       203.9045        -999.25        67.0446        82.2752         0.8817        -999.25        -999.25         1.2003      -102.1327      -7.395859              1      0.8520828
      1256.5000        -999.25       1066.734        -999.25       203.9414        -999.25        66.9662       84.36857         0.8777        -999.25        -999.25         1.1984      -102.2424      -7.505562              1      0.8498887
      1257.0000        -999.25       1068.568        -999.25       203.8552        -999.25        66.9865       83.12873         0.8732        -999.25        -999.25         1.1977      -103.4155      -8.678658              1      0.8264269
      1257.5000        -999.25       1070.402        -999.25       203.8279        -999.25        67.0323       83.39692           0.87        -999.25        -999.25         1.2011      -104.9263      -10.18946              1      0.7962108
      1258.0000        -999.25       1073.729        -999.25       203.8237        -999.25        67.1984       84.52239         0.8667        -999.25        -999.25         1.2075      -104.6771      -9.940262              1      0.8011948
      1258.5000        -999.25       1077.891        -999.25       203.8828        -999.25         67.377       83.56293         0.8628        -999.25        -999.25         1.2169      -104.0468      -9.309959              1      0.8138008
