#------------------------------------------------------------------------------
# Created by    : vladimir.rabinovich
# Created on    : 09/19/2023 17:21:39
#------------------------------------------------------------------------------
~Version Information Section
VERS.           2.0     :   CWLS log ASCII Standard - VERSION 2.0
WRAP.           NO      :   One line per depth step
~Well Information Section
#MNEM       .UNIT                                         VALUE :DESCRIPTION
#------------------------------------------------------------------------------
STRT        .FT                                            3004 :START DEPTH
STOP        .FT                                           10487 :STOP DEPTH
STEP        .FT                                             0.5 :STEP      
NULL        .                                           -999.25 :NULL      
COMP        .                                    TENNECO OIL CO :COMPANY   
WELL        .                               OCS G04082 ST00BP00 :WELL      
FLD         .                            SABINE PASS BLOCK 0017 :FIELD     
LOC         .                                                   :LOCATION  
CNTY        .                                       SABINE PASS :LOCATION  
STAT        .                                             TEXAS :STATE     
CTRY        .                                     UNITED STATES :COUNTRY   
SRVC        .                                                   :SERVICE COMPANY
DATE        .                             9/13/2023 11:20:07 AM :LOG DATE  
API         .                                    42715400130000 :API NUMBER
UWI         .                                    42715400130000 :UNIQUE WELL ID
XCOORD      .                                  1369313.82013612 :SURFACE X 
YCOORD      .                                  10714127.2468036 :SURFACE Y 
LAT         .                                        29.5195329 :LATITUDE  
LON         .                                       -93.8526471 :LONGITUDE 
ELEV        .FT                                             111 :ELEVATION VALUE
ELEV_TYPE   .                                                KB :ELEVATION REFERENCE TYPE
~Curve Information Section
#MNEM       .UNIT                                      API CODE :CURVE DESCRIPTION
#------------------------------------------------------------------------------
DEPT        .FT                                                 :DEPTH     
CALI        .IN                                                 :          
DPHI        .%                                                  :          
DRHO        .G/C3                                               :          
GR          .GAPI                                               :          
GR_NORM     .GAPI                                               :GammaRay Normalized
ILD         .OHMM                                               :          
ILM         .OHMM                                               :          
NPHI        .%                                                  :          
SFL         .OHMM                                               :          
SP          .MV                                                 :          
SP_NORM     .MV                                                 :SP Normalized
VSH_GR      .V/V                                                :Volume of Shale from GR
VSH_SP      .V/V                                                :Volume of Shale from SP
~A        DEPTH           CALI           DPHI           DRHO             GR        GR_NORM            ILD            ILM           NPHI            SFL             SP        SP_NORM         VSH_GR         VSH_SP
# ...
      7982.0000        12.3366        29.7743        -0.0061        34.8826       40.87883         0.2098         0.1817        33.3664         0.2215        -87.902       -64.2624      0.1676347     0.08196574
      7982.5000        12.3366        29.6139        -0.0074        35.5882       41.67712         0.2219         0.1897        34.3215         0.2244       -88.1372      -64.65641      0.1846196     0.07633699
      7983.0000        12.3287        28.4789        -0.0022        34.9415       40.94496         0.2357         0.2004        34.2621         0.2369       -88.7644       -65.7071      0.1690417     0.06132714
      7983.5000        12.3356        27.0296         0.0042        33.9706       39.84591         0.2443          0.204        32.3304         0.2634       -89.5684      -67.05397      0.1456576     0.04208614
      7984.0000        12.3366        26.6019         0.0107         33.137       38.90223         0.2428         0.2049        31.3332         0.2916       -90.3921      -68.43385      0.1255794     0.02237364
      7984.5000        12.3366        27.0473         0.0287        32.6765       38.38081         0.2421          0.198        30.5454         0.2713        -91.402      -70.12564      0.1144852              0
      7985.0000        12.3366        28.1584         0.0287         32.549       38.23625           0.24         0.1907        31.3414         0.2344       -92.0001      -71.12759      0.1114096              0
      7985.5000        12.3366        28.7704         0.0219        32.8234       38.54653         0.2329         0.1836        32.4333         0.2019       -92.1862      -71.43935      0.1180113              0
      7986.0000        12.3406        28.9901          0.019         32.549       38.23573         0.2201         0.1778        33.4173         0.1929       -92.2157      -71.48876      0.1113984              0
      7986.5000        12.3465        28.9901         0.0174        32.0194        37.6361         0.2062         0.1734        34.2766         0.1879       -92.0587      -71.22576     0.09864052              0
      7987.0000        12.3624        29.1326         0.0144        30.4315       35.83876         0.1974         0.1698         35.126         0.1858        -91.745      -70.70025     0.06039924              0
      7987.5000        12.3733        29.4059         0.0077        30.9312       36.40402          0.194         0.1684        35.6536          0.186       -91.0979      -69.61622     0.07242601    0.005482592
      7988.0000        12.4039        29.3821         0.0032        32.7642       38.47823         0.1917           0.17        35.8475         0.1915       -90.2944      -68.27018      0.1165581     0.02471172
      7988.5000        12.3861        28.6039         0.0048        34.4117       40.34251         0.1886         0.1759        36.0764         0.2059       -89.4413      -66.84106      0.1562235     0.04512776
      7989.0000        12.3861        27.7903         0.0107        34.4509       40.38661         0.1849          0.183        36.1647         0.2249       -88.5293      -65.31326      0.1571619      0.0669535
      7989.5000        12.3861        27.8435         0.0174         34.147        40.0424         0.1806         0.1824        35.5848         0.2451       -87.6174      -63.78564      0.1498384     0.08877662
      7990.0000        12.3861        29.4059         0.0096        34.6246       40.58266         0.1752          0.177        35.0156         0.2646       -86.8851      -62.55888      0.1613333      0.1063018
      7990.5000         12.398        30.6441         0.0028         35.255       41.29585         0.1691         0.1704        34.6584         0.2408       -86.0983      -61.24081      0.1765074      0.1251313
      7991.0000        12.4178        31.4733         0.0004        35.3726       41.42868         0.1641         0.1668        35.3271         0.2045       -85.5686      -60.35346      0.1793337      0.1378077
      7991.5000        12.4257        31.3643         0.0009        35.4706       41.53933         0.1667          0.167        36.3235         0.1817       -85.0984      -59.56576      0.1816879      0.1490605
      7992.0000        12.4396        30.8911              0        37.0205       43.29314          0.177         0.1769        37.4576         0.1666       -83.5891      -57.03737       0.219003      0.1851804
      7992.5000        12.4792        30.1396              0        39.1969       45.75599         0.1913         0.1953        37.7147         0.1592       -81.5107       -53.5556      0.2714039        0.23492
      7993.0000        12.5188        28.2178         0.0007        44.8739       52.18058         0.2143         0.2142           36.9         0.1658       -78.5114      -48.53114      0.4080974      0.3066981
      7993.5000        12.5485        25.1614         0.0085        51.4119        59.5796         0.2365         0.2551        35.6167         0.1986       -74.8217      -42.35011      0.5655233      0.3949985
      7994.0000        12.6081        22.0353         0.0159        56.9512       65.84834         0.3041         0.3306        34.2772         0.3162       -70.2798      -34.74145      0.6989008      0.5036936
      7994.5000        12.7302        19.4117         0.0261        61.1813       70.63543         0.4204         0.4212        33.1514         0.4259       -66.1881      -27.88698      0.8007538      0.6016145
      7995.0000        12.7723        17.8412         0.0342        62.4215       72.03875         0.5521          0.468        33.6297         0.5475          -63.5      -23.38383      0.8306117      0.6659452
      7995.5000        12.7554        16.6382           0.04        62.6422       72.28826         0.7113         0.5249        35.3228         0.6254       -61.6225      -20.23862      0.8359205      0.7108768
      7996.0000         12.711        15.8706         0.0466        61.8627       71.40582         0.8337         0.5872        35.7861         0.6594       -60.5703      -18.47596       0.817145      0.7360577
      7996.5000        12.6673           15.7         0.0422        60.8823       70.29601         0.9079          0.636        37.0441         0.6793       -60.4706      -18.30894       0.793532      0.7384437
      7997.0000        12.6832        16.1765         0.0335        59.8039       69.07527         0.9269         0.6616        37.7353         0.6951        -60.647      -18.60445       0.767559      0.7342222
      7997.5000         12.697        16.7765         0.0282        58.8235       67.96547         0.8852         0.6717        38.1176         0.7055       -60.3331       -18.0786      0.7439461      0.7417343
      7998.0000        12.7209        16.9779         0.0269        58.1372       67.18849         0.8408         0.6766        38.1176         0.7042       -59.6049      -16.85871      0.7274147      0.7591613
      7998.5000        12.7827        17.1096         0.0289        58.6569       67.77639         0.8044         0.6795        38.0469         0.6924       -58.7892      -15.49224      0.7399232      0.7786824
      7999.0000        12.8713         17.604         0.0301        59.7646       69.02975          0.787         0.6827        37.5175         0.6834       -58.6274      -15.22119      0.7665904      0.7825544
      7999.5000        12.8277        18.0587         0.0287        59.8823        69.1627         0.7805         0.6894        36.5409         0.6801       -58.9853      -15.82074      0.7694193      0.7739894
      8000.0000        12.7386        17.8095         0.0294        57.8445        66.8562         0.7744         0.6918        35.0179         0.6861       -59.3322      -16.40188      0.7203447      0.7656875
      8000.5000        12.6896        17.2393         0.0306        55.9213       64.67937         0.7703         0.6886        33.8129         0.7031       -59.5098       -16.6994      0.6740292      0.7614372
