#------------------------------------------------------------------------------
# Created by    : vladimir.rabinovich
# Created on    : 09/19/2023 17:21:39
#------------------------------------------------------------------------------
~Version Information Section
VERS.           2.0     :   CWLS log ASCII Standard - VERSION 2.0
WRAP.           NO      :   One line per depth step
~Well Information Section
#MNEM       .UNIT                                         VALUE :DESCRIPTION
#------------------------------------------------------------------------------
STRT        .FT                                            3004 :START DEPTH
STOP        .FT                                           10487 :STOP DEPTH
STEP        .FT                                             0.5 :STEP      
NULL        .                                           -999.25 :NULL      
COMP        .                                    TENNECO OIL CO :COMPANY   
WELL        .                               OCS G04082 ST00BP00 :WELL      
FLD         .                            SABINE PASS BLOCK 0017 :FIELD     
LOC         .                                                   :LOCATION  
CNTY        .                                       SABINE PASS :LOCATION  
STAT        .                                             TEXAS :STATE     
CTRY        .                                     UNITED STATES :COUNTRY   
SRVC        .                                                   :SERVICE COMPANY
DATE        .                             9/13/2023 11:20:07 AM :LOG DATE  
API         .                                    42715400130000 :API NUMBER
UWI         .                                    42715400130000 :UNIQUE WELL ID
XCOORD      .                                  1369313.82013612 :SURFACE X 
YCOORD      .                                  10714127.2468036 :SURFACE Y 
LAT         .                                        29.5195329 :LATITUDE  
LON         .                                       -93.8526471 :LONGITUDE 
ELEV        .FT                                             111 :ELEVATION VALUE
ELEV_TYPE   .                                                KB :ELEVATION REFERENCE TYPE
~Curve Information Section
#MNEM       .UNIT                                      API CODE :CURVE DESCRIPTION
#------------------------------------------------------------------------------
DEPT        .FT                                                 :DEPTH     
CALI        .IN                                                 :          
DPHI        .%                                                  :          
DRHO        .G/C3                                               :          
GR          .GAPI                                               :          
GR_NORM     .GAPI                                               :GammaRay Normalized
ILD         .OHMM                                               :          
ILM         .OHMM                                               :          
NPHI        .%                                                  :          
SFL         .OHMM                                               :          
SP          .MV                                                 :          
SP_NORM     .MV                                                 :SP Normalized
VSH_GR      .V/V                                                :Volume of Shale from GR
VSH_SP      .V/V                                                :Volume of Shale from SP
~A        DEPTH           CALI           DPHI           DRHO             GR        GR_NORM            ILD            ILM           NPHI            SFL             SP        SP_NORM         VSH_GR         VSH_SP
# ...
      6994.0000        17.5804        23.2341         0.0318        62.9802         73.602         0.5914         0.5164        50.6503         0.5531       -45.1761       3.024209      0.8638723              1
      6994.5000        17.5824        22.7235         0.0326        62.3724       72.95515         0.5976         0.5198        51.6441         0.5537       -44.5488       4.078662      0.8501097              1
      6995.0000        17.7843        22.9823         0.0238        61.8823       72.43353         0.5975         0.5257        52.1882         0.5604       -44.5098       4.147589      0.8390112              1
      6995.5000        17.8824        23.2294         0.0186        61.5686       72.09955         0.5969         0.5325        53.9559         0.5726       -44.4117       4.315517      0.8319053              1
      6996.0000        17.9647        23.4706         0.0132        61.8629        72.4124         0.5951         0.5343        53.9318         0.5869       -44.4117       4.319108      0.8385617              1
      6996.5000        17.9804        24.1188         0.0066         62.706       73.30907          0.593         0.5316        52.4345         0.5888       -44.4902       4.191204      0.8576397              1
      6997.0000        17.7097        25.1287         0.0022          62.49       73.07903         0.5901         0.5301        49.7631         0.5617       -44.6863       3.866289      0.8527454              1
      6997.5000        17.4784        26.0792              0        61.2546       71.76453         0.5873         0.5307        48.0937         0.5407       -45.0394       3.278363      0.8247773              1
      6998.0000        17.3352        26.2574        -0.0007        60.2329       70.67737         0.5847         0.5327        46.9758          0.526        -45.196       3.019614      0.8016461              1
      6998.5000        17.2372        25.8891         0.0017         59.848       70.26766         0.5824         0.5368        45.9441         0.5305       -45.0294       3.302295       0.792929              1
      6999.0000        16.9059        25.1881         0.0097        60.8333       71.31561         0.5804         0.5392        44.4235         0.5592       -44.8137       3.667227      0.8152257              1
      6999.5000        16.5779        24.3386         0.0139         63.348       73.99057         0.5803         0.5403        43.4323         0.5892       -44.9019       3.523065      0.8721398              1
      7000.0000        16.7157        23.8117         0.0244        65.3743       76.14597         0.5801         0.5408        43.3529          0.594       -45.3922       2.705307      0.9179993              1
      7000.5000        16.9922        23.2059         0.0311         65.549       76.33157         0.5813         0.5414        43.5648         0.5773       -46.0493       1.608114      0.9219484              1
      7001.0000        17.1177        22.6882         0.0326        64.2559       74.95569         0.5871         0.5406        44.5532         0.5607       -47.0198    -0.01408451      0.8926742      0.9997988
      7001.5000        17.2127         22.747         0.0279        61.5985       72.12841         0.6055         0.5412        46.6998          0.549       -47.4117     -0.6670142      0.8325194      0.9904712
      7002.0000        17.0727        22.8824         0.0222        59.0196       69.38467         0.6394         0.5635        47.7762         0.5377       -47.7842      -1.287436      0.7741418       0.981608
      7002.5000        16.2155        22.4117         0.0143        57.0003       67.23624         0.6928         0.5974           48.5         0.5345       -48.1372      -1.875196      0.7284306      0.9732115
      7003.0000         14.996        20.8702         0.0088        54.2249       64.28343         0.7584         0.6738         48.141         0.5762       -48.6079       -2.66012      0.6656049      0.9619983
      7003.5000        14.2951        18.4115         0.0011        50.0594        59.8518         0.8302         0.7643         46.329          0.656       -48.9902      -3.296965      0.5713148      0.9529005
      7004.0000        14.2559        15.4602         0.0019        45.1806       54.66134         0.9089         0.8669        42.7316           0.77       -48.9412      -3.211288      0.4608795      0.9541245
      7004.5000        14.2065         11.777         0.0145        41.5939       50.84546         0.9776         0.9311        36.4543         0.9905       -48.8235      -3.010527      0.3796906      0.9569924
      7005.0000         14.227         9.5882         0.0368        41.8807       51.15032         1.0191         0.9288        32.9267         1.2027       -48.8235      -3.006935      0.3861771      0.9570438
      7005.5000        14.3016        12.5535         0.0426        45.1378       54.61508         1.0002         0.8704        33.0648         1.3286       -49.0196      -3.331851      0.4598953      0.9524021
      7006.0000        14.2775         16.649         0.0385        53.3333       63.33344         0.9451         0.7929        39.6877         1.1611       -48.8821      -3.097916      0.6453924      0.9557441
      7006.5000        14.2159        21.3526         0.0315        59.1801        69.5532         0.8824         0.7175        45.4822         0.7419          -48.5       -2.45422      0.7777277      0.9649397
      7007.0000        14.0813        24.1905         0.0207        61.3038       71.81222         0.8173         0.6372        48.3528         0.5688       -48.2353      -2.007197      0.8257919      0.9713258
      7007.5000        14.0159        25.5742         0.0125        61.9979       72.55037         0.7614          0.598           48.5         0.5119       -48.4313      -2.331952      0.8414972      0.9666864
      7008.0000        13.9608        25.3067         0.0047        61.4481       71.96523         0.6994         0.5925        47.6938          0.501       -48.9629      -3.218899      0.8290473      0.9540157
      7008.5000        13.8618        24.3029         0.0032          60.18       70.61594         0.6436         0.5865        46.2587         0.5481       -49.6323      -4.336701      0.8003392      0.9380471
      7009.0000        13.8529        23.6588         0.0081        58.8633       69.21496          0.605         0.5816        45.6354          0.601       -50.3625      -5.556347       0.770531      0.9206236
      7009.5000        13.8529        24.1901         0.0137        58.2549       68.56748          0.575          0.563        45.9705         0.6514       -50.5833      -5.922647      0.7567549      0.9153907
      7010.0000        13.8526        25.6039         0.0154        58.1372       68.44201          0.551         0.5301        46.5294          0.656       -50.3755      -5.570937      0.7540853      0.9204152
      7010.5000        13.8451        26.9703         0.0176        58.3333       68.65038         0.5306         0.4991        47.0588         0.5488       -50.2991      -5.439358      0.7585188      0.9222949
      7011.0000        13.9069         27.802         0.0191        59.3137       69.69312         0.5176         0.4824        47.5882            0.5       -50.2841      -5.410639      0.7807047      0.9227052
      7011.5000        14.0395        28.4554          0.014         60.388       70.83575         0.5168          0.469        48.5882         0.4708       -50.5833      -5.908275      0.8050159      0.9155961
      7012.0000        14.1191        28.5148         0.0044        61.1895       71.68816         0.5325         0.4695        50.7059         0.4485       -50.8019      -6.270881      0.8231524       0.910416
      7012.5000        14.1341        27.5168        -0.0015        60.5867       71.04664         0.5571         0.4824        50.8823         0.4394       -50.8823      -6.401981       0.809503      0.9085431
