#------------------------------------------------------------------------------
# Created by    : vladimir.rabinovich
# Created on    : 09/19/2023 17:20:22
#------------------------------------------------------------------------------
~Version Information Section
VERS.           2.0     :   CWLS log ASCII Standard - VERSION 2.0
WRAP.           NO      :   One line per depth step
~Well Information Section
#MNEM       .UNIT                                         VALUE :DESCRIPTION
#------------------------------------------------------------------------------
STRT        .FT                                             538 :START DEPTH
STOP        .FT                                           11949 :STOP DEPTH
STEP        .FT                                             0.5 :STEP      
NULL        .                                           -999.25 :NULL      
COMP        .                                 CITIES SERVICE CO :COMPANY   
WELL        .                               OCS G03070 ST00BP00 :WELL      
FLD         .                                           WILDCAT :FIELD     
LOC         .                                                   :LOCATION  
CNTY        .                               MUSTANG ISLAND EAST :LOCATION  
STAT        .                                             TEXAS :STATE     
CTRY        .                                     UNITED STATES :COUNTRY   
SRVC        .                                                   :SERVICE COMPANY
DATE        .                             9/13/2023 11:20:11 AM :LOG DATE  
API         .                                    42712400020000 :API NUMBER
UWI         .                                    42712400020000 :UNIQUE WELL ID
XCOORD      .                                  546520.538281646 :SURFACE X 
YCOORD      .                                  9992103.69354039 :SURFACE Y 
LAT         .                                        27.4947268 :LATITUDE  
LON         .                                       -96.3742825 :LONGITUDE 
ELEV        .FT                                              65 :ELEVATION VALUE
ELEV_TYPE   .                                                KB :ELEVATION REFERENCE TYPE
~Curve Information Section
#MNEM       .UNIT                                      API CODE :CURVE DESCRIPTION
#------------------------------------------------------------------------------
DEPT        .FT                                                 :DEPTH     
ASFL        .OHMM                                               :          
CILD        .MMHO                                               :          
DT          .US/F                                               :          
GR          .GAPI                                               :          
GR_NORM     .GAPI                                               :GammaRay Normalized
ILD         .OHMM                                               :          
SFL         .OHMM                                               :          
SP          .MV                                                 :          
SP_NORM     .MV                                                 :SP Normalized
VSH_GR      .V/V                                                :Volume of Shale from GR
VSH_SP      .V/V                                                :Volume of Shale from SP
~A        DEPTH           ASFL           CILD             DT             GR        GR_NORM            ILD            SFL             SP        SP_NORM         VSH_GR         VSH_SP
# ...
      5848.0000         0.8391       1262.354       113.0836         75.027       83.47258         0.8711         0.9117      -119.8481      -2.590965              1      0.9481807
      5848.5000          0.833       1261.658       111.9379        74.5082       82.79684         0.8665         0.9201      -120.7104      -3.450249              1       0.930995
      5849.0000         0.8322       1260.965       111.6656         74.416       82.67656         0.8605          0.932      -121.2556      -3.992416              1      0.9201517
      5849.5000         0.8326       1258.172       113.7795         74.303       82.52919          0.852         0.9173      -121.2069      -3.940697              1      0.9211861
      5850.0000         0.8366        1255.34       116.1085        73.3744       81.31985         0.8405         0.8614      -120.9376      -3.668373              1      0.9266325
      5850.5000         0.8427       1252.504        117.754        71.9039       79.40491         0.8324         0.8141      -120.6785       -3.40625      0.9873384       0.931875
      5851.0000         0.8487       1249.672       117.2407         70.322       77.34491         0.8297         0.8248      -121.4457      -4.170425      0.9435087      0.9165915
      5851.5000         0.8548        1246.84       115.3828        68.4122       74.85796         0.8309         0.8563      -121.9169      -4.638603       0.890595      0.9072279
      5852.0000         0.8609       1244.006       113.3844         66.552       72.43561         0.8327         0.8855      -122.1471      -4.865784      0.8390555      0.9026843
      5852.5000          0.867       1241.172       112.0111        65.7429       71.38184         0.8348         0.9157      -122.0687      -4.784355       0.816635      0.9043129
      5853.0000         0.8714        1238.34       111.2772        65.1105       70.55818         0.8414          0.933      -121.5922      -4.304832      0.7991102      0.9139034
      5853.5000         0.8745       1235.506       112.3057        65.6285       71.23244         0.8534         0.9353      -121.1428      -3.852409      0.8134561      0.9229518
      5854.0000         0.8766       1232.674       113.6193        68.6519       75.16892         0.8642         0.9246        -120.84      -3.546585      0.8972111      0.9290683
      5854.5000         0.8787        1228.67       114.8335        71.5154       78.89722         0.8707         0.9112      -120.6147       -3.31826      0.9765365      0.9336348
      5855.0000         0.8817       1223.094       115.8165        73.4857       81.46248         0.8763         0.9034       -120.498       -3.19854              1      0.9360292
      5855.5000         0.8874       1217.516       116.1608        75.2794        83.7978         0.8795         0.8976      -120.6693      -3.366814              1      0.9326637
      5856.0000         0.8872       1211.939       114.8621        76.0322       84.77778          0.882         0.8901      -121.4796      -4.174095              1      0.9165181
      5856.5000         0.8806       1206.367       113.4453        74.2361       82.43887         0.8805         0.9126      -122.9004      -5.591866              1      0.8881627
      5857.0000          0.875       1200.955        112.402        72.2948       79.91091         0.8787         0.9379      -121.8027      -4.491142      0.9981045      0.9101772
      5857.5000         0.8693       1200.568       112.0239         70.385       77.42397         0.8751         0.9291      -121.4905      -4.175926      0.9451907      0.9164815
      5858.0000         0.8636       1200.182       112.6077        69.0972       75.74692         0.8693          0.882       -122.167      -4.849403      0.9095089      0.9030119
      5858.5000         0.8579       1199.795       113.5696        69.4591        76.2179         0.8636         0.8526      -122.5055      -5.184875      0.9195299      0.8963025
      5859.0000         0.8522       1203.393       113.9333        70.9381       78.14346         0.8594         0.8473      -122.5361      -5.212456      0.9604992      0.8957509
      5859.5000         0.8466       1218.193       113.9769        71.7372       79.18372         0.8555         0.8733      -122.1573      -4.830635      0.9826324      0.9033873
      5860.0000         0.8409       1232.984       114.3376        71.4242       78.77595         0.8494         0.9001      -123.7839      -6.454201      0.9739563       0.870916
      5860.5000         0.8549       1239.098       115.3704        71.3453       78.67298         0.8416         0.9279      -124.6373      -7.304581      0.9717656      0.8539084
      5861.0000          0.869       1228.875       116.1328        71.7286       79.17184         0.8319         0.9547       -125.344      -8.008263      0.9823797      0.8398347
      5861.5000         0.8832       1218.668       117.2122        72.5344       80.22083         0.8214         0.8963       -126.406      -9.067238              1      0.8186553
      5862.0000         0.8989       1208.447       118.0605        72.8473       80.62801         0.8073           0.84      -125.8021      -8.460312              1      0.8307937
      5862.5000         0.9152       1198.238       118.9967        71.2588       78.55943         0.7925         0.8009      -125.2781      -7.933289      0.9693495      0.8413342
      5863.0000         0.9219       1188.018       120.9231         69.913       76.80686         0.7758         0.7823      -125.8173      -8.469467      0.9320609      0.8306106
      5863.5000         0.9177       1177.809       122.2273        68.7837       75.33618          0.756         0.7702      -127.1897      -9.838844      0.9007698      0.8032231
      5864.0000         0.9134       1170.227       122.7657        69.2799       75.98205         0.7398         0.7655      -125.9515      -8.597618      0.9145117      0.8280476
      5864.5000         0.9092       1165.223       122.4971        70.1901       77.16698         0.7244         0.7736       -125.085      -7.728096      0.9397231      0.8454381
      5865.0000          0.905       1160.217       121.8123        70.9762       78.19032         0.7077         0.7938      -125.3053      -7.945374      0.9614961      0.8410925
      5865.5000         0.9007       1155.213       120.9218        71.5205       78.89882         0.6955         0.8133       -124.302      -6.939056      0.9765706      0.8612189
      5866.0000          0.899       1155.303       119.8655        71.8512       79.32918         0.6875          0.809      -123.4432      -6.077225      0.9857272      0.8784555
      5866.5000         0.8992       1157.441       118.7855         72.526        80.2076         0.6873         0.7646      -123.2666      -5.897606              1      0.8820479
      5867.0000         0.8993        1159.58       120.1401        73.3853       81.32625          0.688         0.7291      -122.9985       -5.62648              1      0.8874704
      5867.5000         0.8995       1161.717       122.3149        74.5557       82.84998          0.691         0.7212      -122.9622      -5.587151              1       0.888257
      5868.0000         0.8979        1164.48        124.025        75.6224       84.23869         0.7063         0.7328      -124.4072      -7.029137              1      0.8594173
      5868.5000         0.8952       1170.408        124.432        74.7566       83.11111         0.7274         0.7582      -125.1866      -7.805511              1      0.8438898
      5869.0000         0.8925        1176.34       123.5988        72.2561       79.85503         0.7627         0.7976      -124.6699      -7.285789      0.9969156      0.8542842
      5869.5000         0.8785       1182.266       121.8191         70.489       77.55389         0.8083          0.861      -124.5991       -7.21196       0.947955      0.8557608
      5870.0000          0.861       1188.191       119.7722        69.4204       76.16225         0.8538         0.9314      -125.2908      -7.900642      0.9183458      0.8419871
