#------------------------------------------------------------------------------
# Created by    : vladimir.rabinovich
# Created on    : 09/19/2023 17:20:22
#------------------------------------------------------------------------------
~Version Information Section
VERS.           2.0     :   CWLS log ASCII Standard - VERSION 2.0
WRAP.           NO      :   One line per depth step
~Well Information Section
#MNEM       .UNIT                                         VALUE :DESCRIPTION
#------------------------------------------------------------------------------
STRT        .FT                                             538 :START DEPTH
STOP        .FT                                           11949 :STOP DEPTH
STEP        .FT                                             0.5 :STEP      
NULL        .                                           -999.25 :NULL      
COMP        .                                 CITIES SERVICE CO :COMPANY   
WELL        .                               OCS G03070 ST00BP00 :WELL      
FLD         .                                           WILDCAT :FIELD     
LOC         .                                                   :LOCATION  
CNTY        .                               MUSTANG ISLAND EAST :LOCATION  
STAT        .                                             TEXAS :STATE     
CTRY        .                                     UNITED STATES :COUNTRY   
SRVC        .                                                   :SERVICE COMPANY
DATE        .                             9/13/2023 11:20:11 AM :LOG DATE  
API         .                                    42712400020000 :API NUMBER
UWI         .                                    42712400020000 :UNIQUE WELL ID
XCOORD      .                                  546520.538281646 :SURFACE X 
YCOORD      .                                  9992103.69354039 :SURFACE Y 
LAT         .                                        27.4947268 :LATITUDE  
LON         .                                       -96.3742825 :LONGITUDE 
ELEV        .FT                                              65 :ELEVATION VALUE
ELEV_TYPE   .                                                KB :ELEVATION REFERENCE TYPE
~Curve Information Section
#MNEM       .UNIT                                      API CODE :CURVE DESCRIPTION
#------------------------------------------------------------------------------
DEPT        .FT                                                 :DEPTH     
ASFL        .OHMM                                               :          
CILD        .MMHO                                               :          
DT          .US/F                                               :          
GR          .GAPI                                               :          
GR_NORM     .GAPI                                               :GammaRay Normalized
ILD         .OHMM                                               :          
SFL         .OHMM                                               :          
SP          .MV                                                 :          
SP_NORM     .MV                                                 :SP Normalized
VSH_GR      .V/V                                                :Volume of Shale from GR
VSH_SP      .V/V                                                :Volume of Shale from SP
~A        DEPTH           ASFL           CILD             DT             GR        GR_NORM            ILD            SFL             SP        SP_NORM         VSH_GR         VSH_SP
# ...
      7378.0000         0.5554       1959.842       103.9631        59.5342       77.00338         0.7372         0.8083      -117.6432      0.8388901      0.9362421              1
      7378.5000         0.5599        1940.92       103.4044        60.0489         77.674         0.7356         0.8501       -123.454      -4.971001      0.9505107        0.90058
      7379.0000         0.5645       1921.996       103.9941        60.9174        78.8053         0.7335         0.8891      -120.6281       -2.14418      0.9745808      0.9571164
      7379.5000         0.5691       1903.049       105.1327        61.8666       80.04169         0.7304         0.8581      -117.9636      0.5212326              1              1
      7380.0000         0.5736       1885.221       106.3494        62.8218       81.28589         0.7266         0.7883        -115.74       2.745743              1              1
      7380.5000         0.5779       1867.766        107.257        63.6385       82.34973         0.7221         0.7527      -118.4116     0.07505798              1              1
      7381.0000         0.5821       1850.338       107.7269         64.136       82.99797         0.7161         0.7225      -119.5632       -1.07563              1      0.9784874
      7381.5000         0.5863       1832.459       107.8185        62.0123       80.23317         0.7103         0.7101      -120.1149      -1.626419              1      0.9674716
      7382.0000         0.5905       1814.508       107.5894        59.9333        77.5266         0.7088         0.7189      -117.1035       1.385895      0.9473744              1
      7382.5000         0.5947        1796.58       107.1465        58.5426       75.71624         0.7103         0.7594       -115.334       3.156311      0.9088562              1
      7383.0000          0.599       1779.375       106.2377         58.071       75.10262          0.713         0.8531      -116.3265       2.164719      0.8958004              1
      7383.5000         0.6037       1764.088       105.0383        58.1924       75.26113         0.7148         0.8941      -115.4604       3.031731       0.899173              1
      7384.0000         0.6088       1748.824       104.8248        58.4408       75.58501         0.7159         0.8692       -112.478       6.015053       0.906064              1
      7384.5000         0.6139       1733.537        105.597        58.8052       76.05994         0.7167         0.7792      -113.5718       4.922157      0.9161689              1
      7385.0000          0.619       1718.273       106.3705        59.1702       76.53564         0.7189         0.7437       -118.202      0.2928696      0.9262902              1
      7385.5000         0.6241       1702.986       106.8829        59.6099       77.10862         0.7225         0.7387      -120.2799      -1.784111      0.9384813      0.9643178
      7386.0000         0.6302        1688.42       107.0944        60.1224       77.77637         0.7257         0.7322      -119.5946        -1.0979      0.9526886       0.978042
      7386.5000         0.6369       1703.211       106.3717        60.8812       78.76483         0.7282         0.7348      -120.8762      -2.378586      0.9737198      0.9524283
      7387.0000         0.6434           1718       105.5287        61.6136       79.71892         0.7265          0.781      -123.9888      -5.490273      0.9940195      0.8901945
      7387.5000         0.6384       1732.404       104.5007        60.8969       78.78617         0.7135         0.8543      -126.3859      -7.886467      0.9741738      0.8422707
      7388.0000         0.6335       1743.459       103.7806         59.449       76.90134         0.6972         0.9386      -124.8054      -6.305046       0.934071      0.8738991
      7388.5000          0.629       1754.514       104.6907        59.3671       76.79514         0.6816          0.817      -123.7665      -5.265236      0.9318114      0.8946953
      7389.0000         0.6257       1765.568       106.8224        60.7138       78.54908         0.6546          0.732        -126.08      -7.577827      0.9691294      0.8484434
      7389.5000         0.6225       1771.895       109.2211        62.0172       80.24667          0.619         0.6823      -124.4706      -5.967506              1      0.8806499
      7390.0000         0.6193        1759.07       111.0411        63.2844       81.89711         0.5914         0.6393      -121.1509      -2.646896              1      0.9470621
      7390.5000         0.6161       1746.248       112.6726        62.9374       81.44574         0.5741         0.5981      -117.9852      0.5197144              1              1
      7391.0000         0.6145       1733.426       114.2692        61.3137       79.33199         0.5736         0.5605      -115.2292       3.276627      0.9857871              1
      7391.5000         0.6145       1720.602       113.5938        60.8419       78.71811         0.5782          0.555       -113.644       4.862747      0.9727257              1
      7392.0000         0.6145       1707.779        111.652        61.3835       79.42376         0.5832         0.6094      -116.0627       2.444954      0.9877396              1
      7392.5000         0.6162       1699.809       109.2484        61.7305       79.87602         0.5872         0.6641      -119.0062     -0.4976349      0.9973622      0.9900473
      7393.0000         0.6196       1699.852       107.8851        60.6801       78.50877         0.5913         0.7123      -118.4725     0.03697968      0.9682718              1
      7393.5000          0.623       1701.529       107.1191        59.6261       77.13682         0.5964         0.7263      -118.2117      0.2986908      0.9390813              1
      7394.0000         0.6263       1709.697       107.0447        59.7562       77.30666         0.6018         0.7356      -119.0693      -0.557991       0.942695      0.9888402
      7394.5000         0.6297       1717.875       108.0018        60.0369        77.6726         0.6072          0.748      -118.3623      0.1499252      0.9504808              1
      7395.0000         0.6305       1727.063       109.1329         60.023       77.65495         0.6133         0.6935      -118.0269      0.4862289      0.9501052              1
      7395.5000          0.626       1739.176        110.251        59.5719       77.06802         0.6196         0.6167      -117.6311      0.8829422      0.9376174              1
      7396.0000         0.6216       1751.289       110.7854        59.3458       76.77406         0.6259          0.624      -116.8541       1.660858      0.9313629              1
      7396.5000         0.6171       1763.402       109.6929        59.5195       77.00068         0.6322         0.6716      -117.9395      0.5763702      0.9361846              1
      7397.0000         0.6127       1775.516       108.3123        60.8632       78.75073         0.6386         0.7395      -117.5732      0.9435883      0.9734198              1
      7397.5000          0.609       1787.629       106.7256        62.1918       80.48112         0.6467         0.7456      -114.9883       3.529404              1              1
      7398.0000         0.6054       1799.742       105.9335        62.8444       81.33131         0.6562         0.7137      -113.4946        5.02401              1              1
      7398.5000         0.6018       1811.855       105.5194        62.1738       80.45857         0.6657         0.7184      -116.3711       2.148422              1              1
      7399.0000         0.5982       1823.969       105.3571        61.1089       79.07243         0.6685         0.7503       -116.011       2.509438      0.9802645              1
      7399.5000         0.5945        1836.07       105.4391        59.6345       77.15308         0.6702         0.7915      -116.3134       2.207947      0.9394273              1
      7400.0000         0.5909       1848.184       105.6393         57.541       74.42762         0.6686         0.7399      -115.4039       3.118362      0.8814387              1
