#------------------------------------------------------------------------------
# Created by    : vladimir.rabinovich
# Created on    : 09/19/2023 17:22:52
#------------------------------------------------------------------------------
~Version Information Section
VERS.           2.0     :   CWLS log ASCII Standard - VERSION 2.0
WRAP.           NO      :   One line per depth step
~Well Information Section
#MNEM       .UNIT                                         VALUE :DESCRIPTION
#------------------------------------------------------------------------------
STRT        .FT                                            2993 :START DEPTH
STOP        .FT                                           15023 :STOP DEPTH
STEP        .FT                                             0.5 :STEP      
NULL        .                                           -999.25 :NULL      
COMP        .                                        TEXACO INC :COMPANY   
WELL        .                                     ST TR 00018-L :WELL      
FLD         .                                           WILDCAT :FIELD     
LOC         .                                                   :LOCATION  
CNTY        .                                       SABINE PASS :LOCATION  
STAT        .                                             TEXAS :STATE     
CTRY        .                                     UNITED STATES :COUNTRY   
SRVC        .                                                   :SERVICE COMPANY
DATE        .                             9/13/2023 11:20:07 AM :LOG DATE  
API         .                                    42715000300000 :API NUMBER
UWI         .                                    42715000300000 :UNIQUE WELL ID
XCOORD      .                                  1367853.58567514 :SURFACE X 
YCOORD      .                                  10716828.2466652 :SURFACE Y 
LAT         .                                         29.526933 :LATITUDE  
LON         .                                       -93.8573019 :LONGITUDE 
ELEV        .FT                                              75 :ELEVATION VALUE
ELEV_TYPE   .                                                KB :ELEVATION REFERENCE TYPE
~Curve Information Section
#MNEM       .UNIT                                      API CODE :CURVE DESCRIPTION
#------------------------------------------------------------------------------
DEPT        .FT                                                 :DEPTH     
ILD         .OHMM                                               :          
SFLA        .OHMM                                               :          
SP          .MV                                                 :          
SP_NORM     .MV                                                 :SP Normalized
VSH_SP      .V/V                                                :Volume of Shale from SP
~A        DEPTH            ILD           SFLA             SP        SP_NORM         VSH_SP
# ...
      8581.0000         0.5964         0.6109       -32.8821       -12.8241      0.8402148
      8581.5000         0.6062         0.6134       -32.2042      -12.14455       0.849398
      8582.0000         0.6272         0.6171       -26.0262      -5.964903      0.9329067
      8582.5000         0.6295         0.6171       -18.9071       1.155844              1
      8583.0000         0.6487         0.6189       -17.7891       2.275492              1
      8583.5000         0.6581         0.6233       -17.1568       2.909441              1
      8584.0000         0.6582         0.6234       -16.8771       3.190788              1
      8584.5000         0.6607         0.6244       -16.7371       3.332436              1
      8585.0000         0.6737         0.6283       -16.7505       3.320684              1
      8585.5000         0.6839         0.6321       -17.1806       2.892233              1
      8586.0000         0.6893         0.6357       -18.1355        1.93898              1
      8586.5000         0.6894         0.6379       -19.8215      0.2546291              1
      8587.0000         0.6896         0.6419       -20.2959     -0.2181225              1
      8587.5000         0.6999         0.6446       -20.6358     -0.5563736              1
      8588.0000         0.7051         0.6481       -20.7443     -0.6632271              1
      8588.5000         0.7052         0.6481       -20.7424     -0.6596775              1
      8589.0000         0.7119         0.6501       -20.5689     -0.4845295              1
      8589.5000         0.7208         0.6512       -19.8731      0.2129173              1
      8590.0000         0.7209         0.6513       -19.1773      0.9103661              1
      8590.5000          0.721         0.6513       -18.4816       1.607714              1
      8591.0000         0.7146         0.6513        -17.798       2.292961              1
      8591.5000         0.7061         0.6514       -18.0345       2.058111              1
      8592.0000         0.7062         0.6509       -18.4186       1.675659              1
      8592.5000         0.6911         0.6483       -18.8748       1.221107              1
      8593.0000         0.6845         0.6442       -19.6571      0.4404545              1
      8593.5000         0.6656         0.6362       -20.6199     -0.5206966              1
      8594.0000         0.6611         0.6325       -21.5828      -1.481949      0.9934872
      8594.5000         0.6429         0.6287       -22.4231      -2.320601      0.9821541
      8595.0000         0.6309         0.6249       -22.5779      -2.473753      0.9800844
      8595.5000         0.6095          0.624       -22.8839      -2.778105      0.9759716
      8596.0000         0.6007          0.624       -22.5978      -2.490356      0.9798601
      8596.5000         0.5855         0.6241        -21.889      -1.779907      0.9894607
      8597.0000         0.5786         0.6241       -21.1803      -1.069559        0.99906
      8597.5000         0.5706         0.6241       -20.4715     -0.3591118              1
      8598.0000         0.5707         0.6242       -19.7628      0.3512363              1
      8598.5000         0.5709         0.6242        -19.245      0.8706837              1
      8599.0000          0.571         0.6242        -18.854       1.263332              1
      8599.5000         0.5712         0.6273       -19.9272      0.1917801              1
      8600.0000         0.5713         0.6304       -22.3353      -2.214672      0.9835855
      8600.5000         0.5715          0.632       -22.3425      -2.220224      0.9835105
      8601.0000         0.5716         0.6366       -20.6531     -0.5291729              1
      8601.5000         0.5717         0.6428       -18.9636       1.161974              1
      8602.0000         0.5719         0.6467         -17.77       2.357222              1
      8602.5000         0.5873         0.6489       -17.3824       2.746469              1
      8603.0000         0.5949          0.649       -17.1409       2.989618              1
      8603.5000         0.6028          0.649       -17.3277       2.804466              1
      8604.0000         0.6029          0.649       -17.5189       2.614914              1
      8604.5000         0.6069          0.649       -17.8207       2.314762              1
      8605.0000         0.6185          0.646       -18.2164        1.92071              1
      8605.5000         0.6339         0.6458       -19.0951       1.043657              1
      8606.0000         0.6341          0.643       -20.6357     -0.4952927              1
      8606.5000         0.6534          0.643       -21.5214      -1.379345      0.9948737
      8607.0000         0.6648         0.6461       -21.1675      -1.023796      0.9996784
      8607.5000         0.6649         0.6461       -20.6187     -0.4733486              1
      8608.0000         0.6653         0.6473       -20.2311    -0.08410072              1
      8608.5000         0.6846         0.6493       -19.7357      0.4129467              1
      8609.0000         0.6958         0.6554       -19.1557      0.9945946              1
      8609.5000         0.7078         0.6558       -18.5758       1.576143              1
      8610.0000         0.7266         0.6585       -18.0638        2.08979              1
      8610.5000         0.7267         0.6586       -17.6762       2.479038              1
      8611.0000          0.735         0.6617       -16.9605       3.196388              1
      8611.5000         0.7575         0.6626       -16.5928       3.565737              1
      8612.0000         0.7577         0.6691       -16.2055       3.954685              1
      8612.5000         0.7622         0.6729       -16.2387       3.923132              1
      8613.0000         0.7815         0.6796        -16.954        3.20948              1
      8613.5000         0.7886         0.6873       -17.3714       2.793728              1
      8614.0000         0.7887         0.6951       -18.0094       2.157377              1
      8614.5000         0.7934         0.7007       -18.3938       1.774624              1
      8615.0000         0.8127         0.7048       -18.6356       1.534473              1
      8615.5000         0.8196         0.7133        -18.801        1.37072              1
      8616.0000         0.8359         0.7287       -18.8636       1.309771              1
      8616.5000         0.8504         0.7441       -18.8494       1.325619              1
      8617.0000         0.8505         0.7595       -18.7958       1.380867              1
      8617.5000         0.8507          0.775       -18.4356       1.742714              1
      8618.0000         0.8508         0.7904       -18.0482       2.131762              1
      8618.5000         0.8412          0.759       -17.6608       2.520809              1
      8619.0000         0.8206         0.7343       -17.4133       2.769958              1
      8619.5000         0.7903         0.7219       -17.2424       2.942507              1
      8620.0000         0.7892         0.7127       -17.7964       2.390154              1
      8620.5000         0.7703          0.699       -18.1664       2.021801              1
      8621.0000         0.7424         0.6959       -17.5464       2.643452              1
      8621.5000         0.7299         0.6882       -17.1917         2.9998              1
      8622.0000         0.7273         0.6805       -16.9251       3.268047              1
      8622.5000         0.6893         0.6657       -17.0006       3.194195              1
      8623.0000         0.6693         0.6466       -16.9979       3.198544              1
      8623.5000         0.6237           0.63       -16.9954       3.202692              1
      8624.0000         0.5889         0.6223       -16.9927       3.207039              1
      8624.5000         0.5425         0.6171        -17.169       3.032387              1
