#------------------------------------------------------------------------------
# Created by    : vladimir.rabinovich
# Created on    : 09/19/2023 17:19:33
#------------------------------------------------------------------------------
~Version Information Section
VERS.           2.0     :   CWLS log ASCII Standard - VERSION 2.0
WRAP.           NO      :   One line per depth step
~Well Information Section
#MNEM       .UNIT                                         VALUE :DESCRIPTION
#------------------------------------------------------------------------------
STRT        .FT                                          3947.5 :START DEPTH
STOP        .FT                                           10890 :STOP DEPTH
STEP        .FT                                             0.5 :STEP      
NULL        .                                           -999.25 :NULL      
COMP        .                          PALM ENERGY OFFSHORE LLC :COMPANY   
WELL        .                               OCS G21349 ST00BP00 :WELL      
FLD         .                            HIGH ISLAND BLOCK 0074 :FIELD     
LOC         .                                                   :LOCATION  
CNTY        .                                  HIGH ISLAND EAST :LOCATION  
STAT        .                                             TEXAS :STATE     
CTRY        .                                     UNITED STATES :COUNTRY   
SRVC        .                                                   :SERVICE COMPANY
DATE        .                             9/13/2023 11:20:11 AM :LOG DATE  
API         .                                    42710401490000 :API NUMBER
UWI         .                                    42710401490000 :UNIQUE WELL ID
XCOORD      .                                  1378068.78051204 :SURFACE X 
YCOORD      .                                  10648064.4011202 :SURFACE Y 
LAT         .                                        29.3379836 :LATITUDE  
LON         .                                       -93.8236467 :LONGITUDE 
ELEV        .FT                                             104 :ELEVATION VALUE
ELEV_TYPE   .                                                KB :ELEVATION REFERENCE TYPE
~Curve Information Section
#MNEM       .UNIT                                      API CODE :CURVE DESCRIPTION
#------------------------------------------------------------------------------
DEPT        .FT                                                 :DEPTH     
AHFCO90     .MMHO                                               :          
AHT10       .OHMM                                               :          
AHT20       .OHMM                                               :          
AHT30       .OHMM                                               :          
AHT60       .OHMM                                               :          
AHT90       .OHMM                                               :          
DCAL        .IN                                                 :          
DPHZ        .V/V                                                :          
DTLF        .US/F                                               :          
DTLN        .US/F                                               :          
GR          .GAPI                                               :          
GR_NORM     .GAPI                                               :GammaRay Normalized
HDRA        .G/CC                                               :          
NPOR        .V/V                                                :          
RWA         .OHMM                                               :          
SP          .MV                                                 :          
SPHI        .V/V                                                :          
TENS        .LB/F                                               :          
VSH_GR      .V/V                                                :Volume of Shale from GR
~A        DEPTH        AHFCO90          AHT10          AHT20          AHT30          AHT60          AHT90           DCAL           DPHZ           DTLF           DTLN             GR        GR_NORM           HDRA           NPOR            RWA             SP           SPHI           TENS         VSH_GR
# ...
      5797.0000       971.4397          0.982         1.0213         1.0374         1.0348         1.0294         1.6116         0.2276        119.742       120.1921        89.0494       80.16132         0.0064         0.3829         0.0658      -161.6875         0.3338           3231              1
      5797.5000       968.4291         0.9986         1.0391         1.0475         1.0396         1.0326         1.6227          0.225       117.6717       117.4618         81.226       72.76039         0.0019         0.3744         0.0645      -161.4375          0.327           3363      0.8459657
      5798.0000       955.1098          1.016         1.0624         1.0743         1.0693          1.047         1.8002         0.2179       117.4892       118.0021        85.0868       76.41271         0.0013         0.3524         0.0614      -161.1875         0.3284           3327      0.9236747
      5798.5000       954.2896         1.0176         1.0597         1.0702         1.0685         1.0479         1.6005         0.2211       118.0036       117.9984        83.1245       74.55637         0.0012          0.385         0.0633      -160.8125         0.3284           3212       0.884178
      5799.0000       959.5088         0.9962         1.0409         1.0592         1.0616         1.0422         1.5894         0.2265       118.2936       118.0375        88.8892       80.00977          0.003         0.3962          0.066      -161.5625         0.3285           3328              1
      5799.5000       958.9567          0.983         1.0283         1.0517         1.0588         1.0428         1.8224         0.2272       117.3757       117.4398        88.7928       79.91858         0.0039         0.4071         0.0664       -162.375          0.327           3297      0.9982677
      5800.0000       947.0594          0.981         1.0187         1.0518         1.0685         1.0559         1.5561          0.228       118.4772       118.7029        95.5868       86.34571         0.0039         0.3655         0.0677       -162.375         0.3301           3255              1
      5800.5000       955.2923         0.9673          1.002         1.0365         1.0529         1.0468         1.5561         0.2344       121.2451       121.3089        97.7992       88.43864          0.004         0.4175          0.071       -162.625         0.3365           3372              1
      5801.0000       974.6589         0.9312         0.9619         1.0035         1.0298          1.026         1.6005         0.2463       124.3402       124.6982       102.4759       92.86279         0.0058         0.4259         0.0768        -163.25         0.3443           3281              1
      5801.5000       1008.675         0.8856         0.9282         0.9615          0.989         0.9914         1.4008         0.2546       127.1639       127.9786        97.4128        88.0731         0.0092         0.4293         0.0794           -163         0.3515           3353              1
      5802.0000       1021.764         0.8716          0.917         0.9474         0.9716         0.9787         1.2677         0.2529       125.4341       125.8962       101.8483       92.26908          0.013         0.4204         0.0773      -163.5625          0.347           3398              1
      5802.5000       1005.733         0.8825         0.9377         0.9649         0.9824         0.9943         1.1124         0.2479       120.1425       120.3717         97.268       87.93612         0.0129         0.3964         0.0755      -163.9375         0.3342           3286              1
      5803.0000       971.5341         0.9059         0.9769         1.0051         1.0233         1.0293         1.0459         0.2442       116.4973       116.9712        96.1671       86.89466         0.0073         0.4465         0.0758      -164.1875         0.3258           3280              1
      5803.5000       937.5587         0.9463         1.0262         1.0496           1.06         1.0666         1.1124         0.2458       114.4146       113.8935        91.1149       82.11529        -0.0005         0.3989         0.0796      -164.0625         0.3177           3364              1
      5804.0000       882.1454         0.9985         1.0864         1.1203         1.1271         1.1336         1.3565         0.2415        114.265       114.5547        93.7869         84.643        -0.0031         0.3724         0.0816       -164.625         0.3195           3279              1
      5804.5000       856.8246         1.0112         1.1034         1.1394         1.1628         1.1671          1.423         0.2433       117.2643       117.3075        94.8551       85.65353        -0.0035          0.382         0.0853      -165.6875         0.3266           3307              1
      5805.0000       894.8546          0.971         1.0492          1.081         1.1153         1.1175          1.534         0.2453       118.6766       119.3568        98.0223       88.64969        -0.0033         0.4115          0.083           -166         0.3318           3312              1
      5805.5000       939.7613         0.9217         0.9902         1.0221         1.0657         1.0641         1.6005         0.2511       120.1903       121.1643        91.0778       82.08018        -0.0032         0.4254         0.0828           -165         0.3361           3207              1
      5806.0000       956.7547         0.8977         0.9587          0.994         1.0434         1.0452         1.4674         0.2505       123.1944       124.1624        88.5092       79.65029        -0.0028         0.4396         0.0809      -164.6875         0.3431           3331      0.9925594
      5806.5000       932.6619         0.9029         0.9647         1.0034         1.0589         1.0722         1.3898         0.2468       123.9164       124.5244        84.9816       76.31319        -0.0041         0.3989         0.0807      -164.4375         0.3439           3313      0.9215572
      5807.0000       909.4216         0.9159         0.9795         1.0189          1.072         1.0996         1.1124         0.2454       123.8452        124.171        86.3823       77.63824        -0.0059         0.3937         0.0818      -165.0625         0.3431           3120      0.9497499
      5807.5000       895.9771         0.9311         0.9975         1.0323         1.0769         1.1161          1.179         0.2392       122.1161       122.7939        90.9585       81.96733        -0.0036         0.4115         0.0789       -165.375           0.34           3248              1
      5808.0000       879.3528         0.9543         1.0272         1.0608         1.0986         1.1372         1.1124         0.2261       118.4513       118.4497        88.2821       79.43546         0.0039         0.4352         0.0717           -165         0.3295           3282      0.9879886
      5808.5000       851.1362         0.9901         1.0622         1.0905         1.1184         1.1749         1.1124         0.2142       115.4136       115.5871         86.632       77.87447         0.0081         0.3881         0.0665      -164.6875         0.3222           3212      0.9547759
      5809.0000       827.9516         1.0282         1.1024         1.1271         1.1525         1.2078         1.1346         0.2087       113.8743       113.7881        85.4099       76.71836         0.0129          0.373         0.0649       -165.375         0.3174           3313      0.9301779
      5809.5000       825.4911         1.0517         1.1271         1.1464         1.1717         1.2114         1.2012         0.2097       113.6054       113.6249        82.2806       73.75805         0.0174         0.3715         0.0657      -166.3125          0.317           3282      0.8671925
      5810.0000       837.5911         1.0535         1.1231         1.1419         1.1648         1.1939         1.3787         0.2075       114.8403       114.7064         84.177       75.55204         0.0228          0.377         0.0635      -166.4375         0.3199           3211      0.9053625
