#------------------------------------------------------------------------------
# Created by    : vladimir.rabinovich
# Created on    : 09/19/2023 17:21:28
#------------------------------------------------------------------------------
~Version Information Section
VERS.           2.0     :   CWLS log ASCII Standard - VERSION 2.0
WRAP.           NO      :   One line per depth step
~Well Information Section
#MNEM       .UNIT                                         VALUE :DESCRIPTION
#------------------------------------------------------------------------------
STRT        .FT                                             999 :START DEPTH
STOP        .FT                                           14605 :STOP DEPTH
STEP        .FT                                             0.5 :STEP      
NULL        .                                           -999.25 :NULL      
COMP        .                                      GETTY OIL CO :COMPANY   
WELL        .                               OCS G03116 ST00BP00 :WELL      
FLD         .                                           WILDCAT :FIELD     
LOC         .                                                   :LOCATION  
CNTY        .                                  HIGH ISLAND EAST :LOCATION  
STAT        .                                             TEXAS :STATE     
CTRY        .                                     UNITED STATES :COUNTRY   
SRVC        .                                                   :SERVICE COMPANY
DATE        .                             9/13/2023 11:19:51 AM :LOG DATE  
API         .                                    42710400090000 :API NUMBER
UWI         .                                    42710400090000 :UNIQUE WELL ID
XCOORD      .                                  1371379.55461592 :SURFACE X 
YCOORD      .                                  10664640.0845049 :SURFACE Y 
LAT         .                                        29.3834483 :LATITUDE  
LON         .                                       -93.8450221 :LONGITUDE 
ELEV        .FT                                              80 :ELEVATION VALUE
ELEV_TYPE   .                                                KB :ELEVATION REFERENCE TYPE
~Curve Information Section
#MNEM       .UNIT                                      API CODE :CURVE DESCRIPTION
#------------------------------------------------------------------------------
DEPT        .FT                                                 :DEPTH     
CALI        .IN                                                 :          
DRHO        .G/C3                                               :          
GR          .GAPI                                               :          
GR_NORM     .GAPI                                               :GammaRay Normalized
NPHI        .%                                                  :          
RHOB        .G/C3                                               :          
VSH_GR      .V/V                                                :Volume of Shale from GR
~A        DEPTH           CALI           DRHO             GR        GR_NORM           NPHI           RHOB         VSH_GR
# ...
      9139.5000        12.1469        -0.0248        52.9678       68.59568        35.2888           2.32      0.7573549
      9140.0000        12.6152        -0.0182        54.1483       70.37115        35.5814         2.3069      0.7951308
      9140.5000        13.0923        -0.0147        53.1781       68.91196        34.7502         2.3012      0.7640843
      9141.0000         12.635        -0.0171        52.2881       67.57341         33.282         2.3262      0.7356045
      9141.5000        12.1311        -0.0192        51.9957       67.13364        32.0414         2.3496      0.7262477
      9142.0000         11.897         -0.016        50.7502       65.26041        29.9165         2.3452      0.6863917
      9142.5000        11.8685        -0.0228        48.0278       61.16592        30.3687         2.3419      0.5992749
      9143.0000        11.9006        -0.0265        44.7659       56.26002         30.963         2.3301      0.4948941
      9143.5000        11.9371        -0.0263        41.6179       51.52544        31.5779          2.311      0.3941582
      9144.0000        11.9606        -0.0215        38.4302       46.73113        31.4029         2.2677      0.2921517
      9144.5000        11.9733        -0.0267        34.9406       41.48278        30.9667         2.2334      0.1804846
      9145.0000        11.9778         -0.033        34.9028       41.42593        30.3605         2.2139       0.179275
      9145.5000        11.9765        -0.0309        35.7845         42.752        29.5736         2.2107      0.2074893
      9146.0000        11.9634        -0.0261        38.0292       46.12803        29.5929         2.2008      0.2793198
      9146.5000        11.9644        -0.0291        40.4175       49.72003        30.2846         2.1836      0.3557453
      9147.0000        11.9799        -0.0378         43.182       53.87784        31.0775         2.1804      0.4442094
      9147.5000        11.9841        -0.0337        47.2012       59.92271        32.3047         2.1647      0.5728237
      9148.0000        12.0368        -0.0346        51.2031       65.94157        33.8607         2.1548      0.7008846
      9148.5000        12.1791        -0.0419        53.2004       68.94553        36.3836         2.1548      0.7647984
      9149.0000        12.6305        -0.0407        52.6732       68.15261        39.5402          2.161      0.7479279
      9149.5000        12.8113        -0.0347        50.7923       65.32374        40.2691         2.1668      0.6877391
      9150.0000        13.1567        -0.0329        49.2925       63.06803         38.731         2.1821      0.6397454
      9150.5000        13.4161        -0.0387        48.6874       62.15797        39.6108         2.2223      0.6203824
      9151.0000        13.2136         -0.053        48.0576       61.21074        38.0346         2.2558      0.6002285
      9151.5000        12.7904        -0.0699        47.6668       60.62299        35.6003          2.249      0.5877232
      9152.0000        12.3142        -0.0768        47.8599       60.91341        33.9526         2.2297      0.5939023
      9152.5000        11.6688        -0.0755        47.7779       60.79008        32.8144          2.242      0.5912784
      9153.0000        11.4854        -0.0742        47.3367       60.12651        32.7255         2.2674      0.5771597
      9153.5000        11.3895        -0.0685        46.7545       59.25088        33.7262         2.3264      0.5585293
      9154.0000        11.5441        -0.0524        46.7607        59.2602        34.6513         2.3684      0.5587277
      9154.5000        12.4132        -0.0393        49.3123       63.09781        35.2696         2.4319      0.6403789
      9155.0000        12.7647        -0.0422        50.9854       65.61416        35.2234         2.4712      0.6939183
      9155.5000        12.5078         -0.036        52.0013       67.14207        34.3846         2.4557       0.726427
      9156.0000        12.5036        -0.0279        53.2648       69.04237        32.8829         2.3959      0.7668589
      9156.5000        12.5623        -0.0421        55.8658       72.95427        31.7165         2.3023      0.8500909
      9157.0000        12.6684        -0.0638        57.3137       75.13192        33.6368         2.2195      0.8964238
      9157.5000        12.7916        -0.0599        58.0506        76.2402        39.9654         2.1906      0.9200043
      9158.0000        12.8275        -0.0516        58.2066       76.47484        43.5349         2.1969      0.9249966
      9158.5000        12.7623        -0.0461        58.1559       76.39858        44.6791          2.199      0.9233741
      9159.0000        12.6822        -0.0415        57.9312       76.06062        45.9319         2.1845      0.9161835
      9159.5000        12.6952        -0.0421        57.0489       74.73366         46.707         2.1853      0.8879502
      9160.0000        12.7233        -0.0494         55.111       71.81906        45.9901         2.1746      0.8259374
      9160.5000        12.7015        -0.0541         52.156       67.37474        43.5081         2.1997      0.7313775
      9161.0000        12.7657         -0.052        48.2061       61.43408        37.9869         2.2546      0.6049805
      9161.5000        12.7914        -0.0447        44.1224        55.2922        30.3235         2.3436      0.4743022
      9162.0000         12.438        -0.0344        40.3111       49.56001        21.1584         2.4326      0.3523406
      9162.5000         11.941        -0.0258        39.5621       48.43351        16.8276         2.4673      0.3283725
      9163.0000        11.7744        -0.0346        39.2655       47.98742        16.4488         2.4422      0.3188813
      9163.5000         11.847        -0.0307        38.6888       47.12007        17.0227         2.3779       0.300427
      9164.0000        12.4548        -0.0327        37.6085        45.4953        23.1517         2.3164      0.2658575
      9164.5000        12.6924        -0.0429        36.1236         43.262        25.1391         2.3232      0.2183405
      9165.0000        12.3118        -0.0316        34.5099         40.835        25.0497         2.4139      0.1667022
      9165.5000         12.139        -0.0194        33.5868       39.44666        19.4302         2.5648       0.137163
      9166.0000         12.126        -0.0305        33.3432       39.08028        12.4446         2.5738      0.1293678
      9166.5000        12.0074        -0.0304         33.598        39.4635        11.3884         2.5614      0.1375214
      9167.0000        12.1645         -0.022        33.6984       39.61451        10.9538         2.5973      0.1407342
      9167.5000        12.2574        -0.0203        33.8455       39.83575        11.1076         2.5675      0.1454414
      9168.0000        12.1916        -0.0291        34.5322       40.86854        11.7787         2.5112      0.1674158
      9168.5000        12.0947        -0.0378        36.7918       44.26698        15.3661         2.4375       0.239723
      9169.0000        11.9415        -0.0436        39.4548       48.27213        18.3457         2.3606       0.324939
      9169.5000        11.7608        -0.0419        41.6451       51.56634        21.3252         2.2966      0.3950285
      9170.0000        11.6644        -0.0482        42.5264       52.89182        24.3108         2.2892      0.4232303
      9170.5000        11.6736        -0.0555         42.627       53.04312        26.3562         2.2629      0.4264494
      9171.0000         11.668        -0.0575         43.776       54.77122        28.2378         2.2487      0.4632174
      9171.5000        11.6545        -0.0438        45.0369       56.66761        28.8074         2.2552      0.5035661
      9172.0000        11.7569        -0.0396        44.2722       55.51751        28.7399         2.2357      0.4790959
      9172.5000        11.8707        -0.0526        44.3403       55.61992        28.2818         2.2243       0.481275
