#------------------------------------------------------------------------------
# Created by    : vladimir.rabinovich
# Created on    : 09/19/2023 17:21:48
#------------------------------------------------------------------------------
~Version Information Section
VERS.           2.0     :   CWLS log ASCII Standard - VERSION 2.0
WRAP.           NO      :   One line per depth step
~Well Information Section
#MNEM       .UNIT                                         VALUE :DESCRIPTION
#------------------------------------------------------------------------------
STRT        .FT                                            1142 :START DEPTH
STOP        .FT                                            9163 :STOP DEPTH
STEP        .FT                                             0.5 :STEP      
NULL        .                                           -999.25 :NULL      
COMP        .                                    ORYX ENERGY CO :COMPANY   
WELL        .                               OCS G06199 ST00BP00 :WELL      
FLD         .                            HIGH ISLAND BLOCK 0129 :FIELD     
LOC         .                                                   :LOCATION  
CNTY        .                                  HIGH ISLAND EAST :LOCATION  
STAT        .                                             TEXAS :STATE     
CTRY        .                                     UNITED STATES :COUNTRY   
SRVC        .                                                   :SERVICE COMPANY
DATE        .                             9/13/2023 11:20:11 AM :LOG DATE  
API         .                                    42710400360000 :API NUMBER
UWI         .                                    42710400360000 :UNIQUE WELL ID
XCOORD      .                                  1376484.19293712 :SURFACE X 
YCOORD      .                                  10620179.8267869 :SURFACE Y 
LAT         .                                        29.2612476 :LATITUDE  
LON         .                                        -93.828002 :LONGITUDE 
ELEV        .FT                                              93 :ELEVATION VALUE
ELEV_TYPE   .                                                KB :ELEVATION REFERENCE TYPE
~Curve Information Section
#MNEM       .UNIT                                      API CODE :CURVE DESCRIPTION
#------------------------------------------------------------------------------
DEPT        .FT                                                 :DEPTH     
CALI        .IN                                                 :          
DRHO        .G/C3                                               :          
DT          .US/F                                               :          
GR          .GAPI                                               :          
GR_1        .GAPI                                               :          
GR_NORM     .GAPI                                               :GammaRay Normalized
ILD         .OHMM                                               :          
ILM         .OHMM                                               :          
NPHI        .%                                                  :          
RFOC        .OHMM                                               :          
RHOB        .G/C3                                               :          
SP          .MV                                                 :          
SP_NORM     .MV                                                 :SP Normalized
VSH_GR      .V/V                                                :Volume of Shale from GR
VSH_SP      .V/V                                                :Volume of Shale from SP
~A        DEPTH           CALI           DRHO             DT             GR           GR_1        GR_NORM            ILD            ILM           NPHI           RFOC           RHOB             SP        SP_NORM         VSH_GR         VSH_SP
# ...
      6480.0000        13.0748         0.0545       115.1144        83.1378        86.7861       74.04713         0.8723         0.8919        35.5706         1.0001         2.3272       -63.1875       -2.17934      0.8733433      0.9688666
      6480.5000        13.0752         0.0494       117.0665        84.3859         88.532       75.37453         0.8799         0.8928        37.2515          1.003         2.3251       -63.1139      -2.106525      0.9015858      0.9699068
      6481.0000        13.1517          0.041       118.1865        85.9452        91.2311       77.03298         0.8905         0.8937        36.6843         1.0059         2.3247       -62.8434      -1.836811      0.9368719      0.9737598
      6481.5000        13.2543         0.0334       117.2758        89.6018        92.2286       80.92262         0.9012         0.9012         34.793          1.005         2.3257       -62.5598      -1.553997              1      0.9778001
      6482.0000        13.3587         0.0425       115.3777        92.6761        91.4014       84.19277          0.912         0.9124        33.4498         1.0041         2.3258       -62.3855      -1.380486              1      0.9802788
      6482.5000        13.4813         0.0527       113.4698        91.4208        89.5543       82.85698         0.9323         0.9282        32.1628          1.006         2.3255       -62.3317      -1.327469              1      0.9810362
      6483.0000        13.6239         0.0659       111.9608        89.7421        87.5344       81.07076         0.9567         0.9534        31.1913         1.0109         2.3258       -62.8353      -1.831856              1      0.9738306
      6483.5000        13.6438         0.0559       110.6217        88.4744        86.9664       79.72177         0.9817         0.9778        31.0154         1.0162         2.3319       -63.2723      -2.269642      0.9940802      0.9675766
      6484.0000        13.6458         0.0505       109.5323        87.5464        89.5765       78.73416         1.0023         0.9985        32.3671          1.037         2.3381       -63.4976      -2.495724      0.9730673      0.9643468
      6484.5000        13.6946         0.0566       108.4443         88.283        90.9767        79.5174         1.0204         1.0088        34.5679         1.0583         2.3427       -63.6287      -2.627609       0.989732      0.9624627
      6485.0000        13.7784         0.0631       107.6965        89.0911        88.6283       80.37672         1.0144         1.0138        36.7184         1.0791         2.3422       -63.7457      -2.745396              1      0.9607801
      6485.5000        13.8573         0.0617       107.1174        89.5292        86.2158       80.84241         1.0075         1.0087        37.9328         1.0964          2.339       -63.7882      -2.788681              1      0.9601617
      6486.0000        13.9178         0.0643        106.871        87.8369         86.717       79.04172         0.9961         0.9983        37.3848         1.0947         2.3347       -63.7187      -2.719967       0.979611      0.9611433
      6486.5000        13.7429         0.0756       107.1187        86.4067        91.4977       77.51985          0.987         0.9865        34.3902         1.0631         2.3309       -63.2507      -2.252754      0.9472309      0.9678178
      6487.0000        13.5389         0.0691       108.5231         85.187        94.1992       76.22193         0.9852         0.9817        34.2821         1.0322         2.3276       -63.2223       -2.22514      0.9196156      0.9682123
      6487.5000        13.3192         0.0375       110.0703        85.7815        93.7572       76.85401         0.9835         0.9791         34.896         1.0147         2.3219       -63.4032      -2.406822      0.9330641      0.9656168
      6488.0000        13.1016         0.0118       110.2946        88.2615        91.2408       79.49193         0.9863         0.9765        33.9222         1.0217         2.3162       -63.9822       -2.98661        0.98919      0.9573342
      6488.5000        13.0051         0.0053       110.4381        86.6208        88.0455       77.74613         0.9898         0.9861        30.4478         1.0494         2.3098       -64.5771      -3.582298      0.9520454      0.9488243
      6489.0000        12.9727          0.009       110.3781        83.4824        85.0626       74.40704         0.9933         0.9994        28.6394         1.0806         2.3067       -65.0898      -4.095779      0.8810008      0.9414889
      6489.5000        12.9683         0.0236       110.2192        79.7902        81.7833        70.4788         1.0055         1.0128        28.2735         1.0889         2.3056       -65.5745      -4.581268      0.7974212      0.9345533
      6490.0000        12.9675         0.0344       109.3724        76.1028        79.6423       66.55566          1.018         1.0249        28.7068         1.0972           2.31       -65.7792      -4.786751      0.7139502      0.9316179
      6490.5000        12.9681         0.0303       108.5034        72.4155        77.3632       62.63263         1.0307         1.0367        29.2504           1.11         2.3136        -65.866      -4.874336      0.6304814      0.9303666
      6491.0000        12.9699         0.0273       107.3907        70.0167        75.2494       60.08034         1.0382         1.0459        29.8472         1.1266         2.3161       -65.6229      -4.632027      0.5761775      0.9338282
      6491.5000        12.9741         0.0469        106.278        68.4672        73.9381       58.43156         1.0454         1.0446         30.407         1.1623         2.3221       -66.0656      -5.075508      0.5410971      0.9274927
      6492.0000        12.9798         0.0826       105.2035        67.5497        75.8049       57.45513         1.0334         1.0319        30.9676         1.1963         2.3327       -66.6826      -5.693295       0.520322      0.9186672
      6492.5000        12.9925         0.0939       104.1917        68.0216         78.625       57.95678          1.001         1.0033        31.1392         1.2248         2.3394       -67.3998      -6.411282      0.5309953      0.9084103
      6493.0000        12.9956         0.0904       103.1799        71.3423        81.3252       61.48907         0.9619         0.9672         30.965         1.1972          2.345       -67.4802      -6.492466      0.6061504      0.9072505
      6493.5000        12.9884         0.0838       103.2439        77.2646        82.4982       67.78902         0.9233         0.9303        30.8999           1.13         2.3447       -67.3517       -6.36475      0.7401918       0.909075
      6494.0000        12.9358         0.0772       105.1394        80.7896        83.1377       71.53864         0.8806         0.8908        31.5111         1.0933         2.3382       -66.4786      -5.492435      0.8199711      0.9215366
      6494.5000        12.8105         0.0675       108.3199        82.5067        84.2539       73.36497         0.8333         0.8551        33.2913         1.0847         2.3306       -65.1199      -4.134525      0.8588293      0.9409354
      6495.0000        12.6502         0.0558       111.7368        82.6897        86.1565       73.55928          0.804         0.8224        34.7516         1.0345         2.3285       -63.7611      -2.776508      0.8629634      0.9603356
      6495.5000        12.5469          0.049       116.6603         84.467         89.863       75.44966         0.7877         0.8026        35.3479         0.9407         2.3269       -62.4171      -1.433292      0.9031843      0.9795244
      6496.0000         12.465         0.0432       122.5438        87.5931        91.7953       78.77493         0.7714         0.7948        35.4404         0.8489         2.3219       -61.0713    -0.08827972      0.9739346      0.9987389
      6496.5000        12.3925         0.0476       124.8953        89.6449        90.2334       80.95732         0.7539            0.8        35.0197         0.9095          2.309       -61.9778     -0.9955635              1      0.9857777
