#------------------------------------------------------------------------------
# Created by    : vladimir.rabinovich
# Created on    : 09/19/2023 17:20:22
#------------------------------------------------------------------------------
~Version Information Section
VERS.           2.0     :   CWLS log ASCII Standard - VERSION 2.0
WRAP.           NO      :   One line per depth step
~Well Information Section
#MNEM       .UNIT                                         VALUE :DESCRIPTION
#------------------------------------------------------------------------------
STRT        .FT                                             538 :START DEPTH
STOP        .FT                                           11949 :STOP DEPTH
STEP        .FT                                             0.5 :STEP      
NULL        .                                           -999.25 :NULL      
COMP        .                                 CITIES SERVICE CO :COMPANY   
WELL        .                               OCS G03070 ST00BP00 :WELL      
FLD         .                                           WILDCAT :FIELD     
LOC         .                                                   :LOCATION  
CNTY        .                               MUSTANG ISLAND EAST :LOCATION  
STAT        .                                             TEXAS :STATE     
CTRY        .                                     UNITED STATES :COUNTRY   
SRVC        .                                                   :SERVICE COMPANY
DATE        .                             9/13/2023 11:20:11 AM :LOG DATE  
API         .                                    42712400020000 :API NUMBER
UWI         .                                    42712400020000 :UNIQUE WELL ID
XCOORD      .                                  546520.538281646 :SURFACE X 
YCOORD      .                                  9992103.69354039 :SURFACE Y 
LAT         .                                        27.4947268 :LATITUDE  
LON         .                                       -96.3742825 :LONGITUDE 
ELEV        .FT                                              65 :ELEVATION VALUE
ELEV_TYPE   .                                                KB :ELEVATION REFERENCE TYPE
~Curve Information Section
#MNEM       .UNIT                                      API CODE :CURVE DESCRIPTION
#------------------------------------------------------------------------------
DEPT        .FT                                                 :DEPTH     
ASFL        .OHMM                                               :          
CILD        .MMHO                                               :          
DT          .US/F                                               :          
GR          .GAPI                                               :          
GR_NORM     .GAPI                                               :GammaRay Normalized
ILD         .OHMM                                               :          
SFL         .OHMM                                               :          
SP          .MV                                                 :          
SP_NORM     .MV                                                 :SP Normalized
VSH_GR      .V/V                                                :Volume of Shale from GR
VSH_SP      .V/V                                                :Volume of Shale from SP
~A        DEPTH           ASFL           CILD             DT             GR        GR_NORM            ILD            SFL             SP        SP_NORM         VSH_GR         VSH_SP
# ...
     11158.0000         0.5567        3329.48       111.0837         43.137       77.78359         0.4091         0.5631       -88.1873     -0.6847839      0.9528424      0.9863043
     11158.5000         0.5724       3177.008       111.0846        43.3923       78.11434         0.4093          0.545       -88.3446     -0.8473969      0.9598796      0.9830521
     11159.0000         0.5882        3116.68       111.0854        43.6292       78.42112         0.4094         0.5245       -88.7118      -1.219917      0.9664068      0.9756017
     11159.5000         0.6039       3122.262       111.1061        44.0197       78.92791         0.4104         0.5254       -88.8887      -1.402145      0.9771896      0.9719571
     11160.0000         0.6197       3197.453       111.1284        44.7945       79.93509         0.4114         0.5511       -88.7333       -1.25206      0.9986189      0.9749588
     11160.5000         0.6395       3247.313       111.1506        45.5239       80.88316         0.4123         0.5903       -88.3918     -0.9158783              1      0.9816824
     11161.0000         0.6426       3208.223       111.1771        45.3799       80.69398         0.4131         0.6178       -88.1194     -0.6487961              1      0.9870241
     11161.5000         0.6344       3050.266       111.2196        44.6277       79.71288         0.4139         0.6114       -88.0422     -0.5769196      0.9938911      0.9884616
     11162.0000         0.6263       2926.813        111.262        43.3503       78.04793         0.4148         0.5653       -88.1437     -0.6837387      0.9584665      0.9863252
     11162.5000         0.6193       2842.848       111.3042        42.0741       76.38454         0.4157         0.5267       -88.2819     -0.8272552      0.9230753      0.9834549
     11163.0000         0.6169       2758.883       111.3311        41.5846       75.74548         0.4167         0.5737       -88.3398       -0.89048      0.9094784      0.9821904
     11163.5000         0.6474       2674.918       111.3319        42.1084       76.42585         0.4176         0.6058       -88.1356      -0.691597      0.9239542      0.9861681
     11164.0000         0.6827       2563.633       111.3326        43.7083       78.50738         0.4185         0.5787       -87.7881     -0.3494186       0.968242      0.9930117
     11164.5000          0.732       2398.195       111.3335        45.3008       80.57926         0.4189         0.5509       -87.9009     -0.4675369              1      0.9906493
     11165.0000           0.77       2328.992       111.3401        45.5408       80.89009          0.419         0.5261       -88.1219     -0.6938629              1      0.9861227
     11165.5000         0.7904       2259.785        111.373         45.215        80.4642         0.4189         0.5038       -88.1871     -0.7643814              1      0.9847124
     11166.0000          0.779       2239.344        111.406        44.5162       79.55263         0.4187         0.4861       -88.0035     -0.5860977      0.9904814       0.988278
     11166.5000         0.7668        2332.68        111.439        44.1429       79.06488         0.4185         0.4763       -87.9697     -0.5576172      0.9801039      0.9888477
     11167.0000         0.7538       2476.277        111.479        45.3413       80.62363         0.4187         0.4879       -87.8694     -0.4626389              1      0.9907472
     11167.5000         0.7384       2863.191       111.5272        46.4226       82.02989         0.4188         0.5039       -87.6128     -0.2113571              1      0.9957728
     11168.0000         0.7229       2953.984       111.5754        47.2256       83.07379         0.4189         0.5198       -87.3108     0.08532715              1              1
     11168.5000         0.7075       2901.285        111.619        48.2714       84.43383          0.419         0.5301       -87.2996     0.09120178              1              1
     11169.0000         0.7162       2828.688       111.6199        49.7401       86.34454         0.4189         0.5286       -87.8015     -0.4160156              1      0.9916797
     11169.5000         0.7354       2756.191       111.6207        50.7944       87.71564         0.4183         0.5194       -89.2408      -1.860634              1      0.9627873
     11170.0000         0.7545       2683.594       111.6215         49.029       85.41527         0.4177         0.5082       -90.2773      -2.902451              1       0.941951
     11170.5000         0.7737       2606.113       111.5452        44.5346       79.56151          0.417         0.5385       -90.4823      -3.112778      0.9906704      0.9377444
     11171.0000         0.7928       2512.375       111.4631          43.75       78.53822         0.4163         0.6213       -91.0981      -3.733894      0.9688982      0.9253221
     11171.5000         0.8071       2418.641       111.2933        43.5351       78.25672         0.4155         0.6732       -91.8386      -4.479713       0.962909      0.9104058
     11172.0000         0.8205       2324.703       111.0415        42.8893       77.41418         0.4147         0.5724       -92.4271      -5.073532      0.9449825      0.8985294
     11172.5000          0.834       2257.293       110.6794        39.7509       73.32603         0.4171         0.5328       -92.9077      -5.559456      0.8580006      0.8888109
     11173.0000         0.8395       2201.148       110.0948        35.7885       68.16498         0.4155           0.52       -92.2898      -4.946877       0.748191      0.9010625
     11173.5000         0.8406       2145.008       108.2838         31.836       63.01683          0.413         0.5138       -92.4381      -5.100494       0.638656      0.8979901
     11174.0000         0.8416        2080.59        97.7289        29.6244       60.13546         0.4155         0.5074       -94.6547      -7.322418      0.5773502      0.8535516
     11174.5000         0.8432         2005.6        95.9534        27.2533       57.04641         0.4268         0.5027       -96.8174      -9.490433      0.5116258      0.8101913
     11175.0000         0.8451       1930.611        96.7765        25.9489       55.34631         0.4434         0.5197        -96.962       -9.64035      0.4754533       0.807193
     11175.5000         0.8451       1855.422        98.6412        25.1128       54.25596         0.4884         0.8077       -94.3948      -7.078468      0.4522544      0.8584306
     11176.0000         0.8216       1780.432       100.9098        23.3572       51.96835         0.5076         1.0283        -92.139      -4.827995      0.4035819      0.9034401
     11176.5000         0.7982       1705.443       102.1761        20.2334       47.89922         0.4963         1.4365       -90.7224       -3.41671      0.3170047      0.9316658
     11177.0000         0.7709       1630.254        102.949         17.372       44.17177         0.4807         1.4475       -90.3295      -3.029129      0.2376972      0.9394174
     11177.5000         0.7404       1555.264       101.9369        16.6349       43.21032         0.4625         1.1667       -90.1852      -2.890152      0.2172409       0.942197
     11178.0000           0.71       1487.504       100.7751        18.1787       45.21881         0.4358         0.8789       -90.0981      -2.808372      0.2599746      0.9438326
     11178.5000         0.7277       1451.605       100.2865        21.0671       48.97807         0.4187         0.6072        -90.069      -2.784592       0.339959      0.9443082
     11179.0000         0.7554       1415.656        99.9344        25.9023       55.27222         0.4121         0.4933       -90.0625      -2.783409      0.4738771      0.9443318
     11179.5000         0.8621       1379.758        99.6172        30.7375       61.56639         0.4135         0.4469       -90.0586      -2.784836      0.6077955      0.9443033
     11180.0000         0.9451       1345.953        99.2993        35.9945       68.40976          0.428          0.443       -90.0547      -2.786255      0.7533991      0.9442749
