#------------------------------------------------------------------------------
# Created by    : vladimir.rabinovich
# Created on    : 09/19/2023 17:21:38
#------------------------------------------------------------------------------
~Version Information Section
VERS.           2.0     :   CWLS log ASCII Standard - VERSION 2.0
WRAP.           NO      :   One line per depth step
~Well Information Section
#MNEM       .UNIT                                         VALUE :DESCRIPTION
#------------------------------------------------------------------------------
STRT        .FT                                            1242 :START DEPTH
STOP        .FT                                            7802 :STOP DEPTH
STEP        .FT                                             0.5 :STEP      
NULL        .                                           -999.25 :NULL      
COMP        .                                    CITIES SERVICE :COMPANY   
WELL        .                               OCS G03070 ST00BP00 :WELL      
FLD         .                                           WILDCAT :FIELD     
LOC         .                                                   :LOCATION  
CNTY        .                               MUSTANG ISLAND EAST :LOCATION  
STAT        .                                             TEXAS :STATE     
CTRY        .                                     UNITED STATES :COUNTRY   
SRVC        .                                                   :SERVICE COMPANY
DATE        .                             9/13/2023 11:20:08 AM :LOG DATE  
API         .                                    42712400230000 :API NUMBER
UWI         .                                    42712400230000 :UNIQUE WELL ID
XCOORD      .                                  541821.370048326 :SURFACE X 
YCOORD      .                                   9995115.4612029 :SURFACE Y 
LAT         .                                         27.502648 :LATITUDE  
LON         .                                       -96.3890109 :LONGITUDE 
ELEV        .FT                                              64 :ELEVATION VALUE
ELEV_TYPE   .                                                KB :ELEVATION REFERENCE TYPE
~Curve Information Section
#MNEM       .UNIT                                      API CODE :CURVE DESCRIPTION
#------------------------------------------------------------------------------
DEPT        .FT                                                 :DEPTH     
CALI        .IN                                                 :          
CILD        .MMHO                                               :          
DRHO        .G/C3                                               :          
DT          .US/F                                               :          
GR          .GAPI                                               :          
GR_1        .GAPI                                               :          
GR_NORM     .GAPI                                               :GammaRay Normalized
ILD         .OHMM                                               :          
NPHI        .%                                                  :          
RHOB        .G/C3                                               :          
SFL         .OHMM                                               :          
SP          .MV                                                 :          
SP_NORM     .MV                                                 :SP Normalized
VSH_GR      .V/V                                                :Volume of Shale from GR
VSH_SP      .V/V                                                :Volume of Shale from SP
~A        DEPTH           CALI           CILD           DRHO             DT             GR           GR_1        GR_NORM            ILD           NPHI           RHOB            SFL             SP        SP_NORM         VSH_GR         VSH_SP
# ...
      6036.0000        12.8552       1433.852         0.0555       138.6406        61.7042         62.957       80.21271         0.7063        43.7148         2.2446         0.6927       -49.7308      -1.777584              1      0.9555604
      6036.5000        12.8701       1384.637         0.0284       137.1196        60.8687        62.6701       79.85381         0.7218        44.7657         2.2512          0.699       -49.9506      -1.997383      0.9968895      0.9500654
      6037.0000        12.8927       1351.729         0.0332       135.2161         59.861        62.3453       79.44754         0.7299        45.8665         2.2567         0.7072       -50.2283      -2.275082      0.9882455       0.943123
      6037.5000         12.919       1314.467         0.0389       133.9895        58.8953        62.0205       79.04126         0.7507        45.8738         2.2673         0.7145       -50.4437      -2.490482      0.9796013      0.9377379
      6038.0000        12.9675       1272.752         0.0459       132.8389        57.2925        61.6957       78.63499         0.7857        44.9193         2.2694         0.7385        -50.486      -2.532784      0.9709572      0.9366804
      6038.5000        13.0201       1241.393         0.0346       132.5508        55.0018        61.3849       78.24622         0.8224        42.2314         2.2782         0.7665       -50.3762      -2.422985      0.9626855      0.9394253
      6039.0000        13.0323       1211.969         0.0409       132.9365        53.7561        61.1165       77.91045         0.8686        39.7746         2.2863         0.8152       -50.2333      -2.280083      0.9555414      0.9429979
      6039.5000        13.0378       1197.258         0.0293       134.0005        53.1695        60.8483       77.57492         0.8989        39.4113         2.2813          0.889        -50.089      -2.135784      0.9484026      0.9466054
      6040.0000        13.0767       1182.547         0.0207         135.54        53.0419        60.5799       77.23914          0.911        39.4283         2.2644         0.9617        -49.921      -1.967785      0.9412584      0.9508054
      6040.5000        13.2828       1166.734          0.016       137.8269        53.6247        60.4244       77.04449         0.9038        38.9885         2.2568         1.0176       -49.7398      -1.786583      0.9371169      0.9553354
      6041.0000        13.3186       1150.074         0.0203       139.4297        55.1977        60.3065       76.89684         0.8868        38.4866         2.2591         1.0735       -49.4509      -1.497684      0.9339752      0.9625579
      6041.5000        13.1819       1134.879         0.0312       141.1255        56.4075        60.2469       76.82207         0.8647        39.2242         2.2838         1.1317       -49.1695      -1.216282      0.9323844      0.9695929
      6042.0000        13.2747        1152.93         0.0593       142.6758        56.3567        60.3707       76.97655         0.8445        40.7121         2.2887         1.1697       -48.8936     -0.9403839      0.9356712      0.9764904
      6042.5000        13.3324       1173.037         0.0649       144.0881        56.1745        60.7006       77.38865         0.8268        41.0041         2.2751         1.1582         -48.46     -0.5067825      0.9444394      0.9873304
      6043.0000        13.2011       1193.145         0.0423       144.0723        57.0037        61.4395         78.312         0.8107        41.3349         2.2612         1.0887       -47.9626   -0.009384155       0.964085      0.9997654
      6043.5000        13.0529       1227.455         0.0477       143.4224        57.6189        62.6469       79.82098         0.7954           42.3         2.2645         0.9285       -47.4286      0.5246162       0.996191              1
      6044.0000        12.9774        1265.25         0.0665        142.446        58.1912        64.1628       81.71558          0.781         43.641         2.2701         0.8354       -46.9874      0.9658165              1              1
      6044.5000        12.9457       1298.447         0.0554       141.6602        59.5746        66.7825       84.98993         0.7709         43.978         2.2776         0.7874       -46.5979       1.355316              1              1
      6045.0000        12.8876       1324.436         0.0678       142.0352        61.0844        69.1733       87.97825         0.7613        43.8811          2.301         0.7856       -46.4272       1.526016              1              1
      6045.5000        12.8221        1336.84         0.0815       142.7327        62.8309        70.4832       89.61563         0.7524        43.3188         2.3181         0.8069       -46.3806       1.572617              1              1
      6046.0000        12.7695       1340.744          0.084       143.3301         62.345        70.8943       90.12951         0.7456        42.7471         2.3022         0.8344       -46.4067       1.546516              1              1
      6046.5000        12.7546       1342.898          0.043       143.7827        60.5594        70.1089       89.14776         0.7431        42.5401         2.2773          0.859       -46.4959       1.457317              1              1
      6047.0000        12.7466       1341.152         0.0449        144.283         60.966         69.103       87.89038         0.7415        41.9763         2.2779           0.87       -46.6083       1.344917              1              1
      6047.5000        12.7399       1339.404         0.0359       144.2449        62.0847         68.059       86.58537          0.743        40.6458         2.2809         0.8712       -46.8803       1.072918              1              1
      6048.0000        12.7249       1337.656         0.0301       144.1584         63.447        67.0887       85.37251         0.7448        40.6223         2.2926          0.848       -47.0224      0.9308167              1              1
      6048.5000        12.6855       1333.182         0.0318       144.0273        64.0612        66.4679        84.5965         0.7474        41.9778         2.2955         0.8196       -47.0284      0.9248161              1              1
      6049.0000         12.646       1325.904         0.0457        143.844        65.0466        66.9136       85.15362         0.7507        43.0622         2.2987         0.8076       -47.1531      0.8001175              1              1
      6049.5000        12.6137       1318.635         0.0371       143.7478        65.7272        68.1924       86.75213         0.7612        43.5131         2.2859         0.8033       -47.4136      0.5396156              1              1
      6050.0000        12.5944       1310.039         0.0261       143.8577        65.9778        69.5297       88.42375         0.7722        43.4761         2.2769         0.8037       -47.7188       0.234417              1              1
      6050.5000        12.5943       1299.889         0.0382       144.8772        64.9395         70.936       90.18162         0.7838        43.0685         2.2835         0.8107       -47.9928    -0.03958511              1      0.9990104
      6051.0000        12.6009       1289.736         0.0526       145.3379        63.3268         72.203       91.76538         0.7957        43.8766         2.2913         0.8203       -48.3045      -0.351284              1      0.9912179
      6051.5000        12.6196       1279.467         0.0615       145.5742        61.6385        71.4224       90.78963         0.8061        42.8877          2.296         0.8374       -48.5668     -0.6135826              1      0.9846604
      6052.0000         12.665       1267.393         0.0421        145.376        61.4197        70.0171       89.03299         0.8131        42.0994         2.2749          0.857       -48.7964     -0.8431816              1      0.9789205
      6052.5000        12.6978       1255.305         0.0298       145.6145        62.1721         68.339       86.93536         0.8151        41.7567         2.2531         0.8934       -48.4236     -0.4703827              1      0.9882404
