#------------------------------------------------------------------------------
# Created by    : vladimir.rabinovich
# Created on    : 09/19/2023 17:20:22
#------------------------------------------------------------------------------
~Version Information Section
VERS.           2.0     :   CWLS log ASCII Standard - VERSION 2.0
WRAP.           NO      :   One line per depth step
~Well Information Section
#MNEM       .UNIT                                         VALUE :DESCRIPTION
#------------------------------------------------------------------------------
STRT        .FT                                             538 :START DEPTH
STOP        .FT                                           11949 :STOP DEPTH
STEP        .FT                                             0.5 :STEP      
NULL        .                                           -999.25 :NULL      
COMP        .                                 CITIES SERVICE CO :COMPANY   
WELL        .                               OCS G03070 ST00BP00 :WELL      
FLD         .                                           WILDCAT :FIELD     
LOC         .                                                   :LOCATION  
CNTY        .                               MUSTANG ISLAND EAST :LOCATION  
STAT        .                                             TEXAS :STATE     
CTRY        .                                     UNITED STATES :COUNTRY   
SRVC        .                                                   :SERVICE COMPANY
DATE        .                             9/13/2023 11:20:11 AM :LOG DATE  
API         .                                    42712400020000 :API NUMBER
UWI         .                                    42712400020000 :UNIQUE WELL ID
XCOORD      .                                  546520.538281646 :SURFACE X 
YCOORD      .                                  9992103.69354039 :SURFACE Y 
LAT         .                                        27.4947268 :LATITUDE  
LON         .                                       -96.3742825 :LONGITUDE 
ELEV        .FT                                              65 :ELEVATION VALUE
ELEV_TYPE   .                                                KB :ELEVATION REFERENCE TYPE
~Curve Information Section
#MNEM       .UNIT                                      API CODE :CURVE DESCRIPTION
#------------------------------------------------------------------------------
DEPT        .FT                                                 :DEPTH     
ASFL        .OHMM                                               :          
CILD        .MMHO                                               :          
DT          .US/F                                               :          
GR          .GAPI                                               :          
GR_NORM     .GAPI                                               :GammaRay Normalized
ILD         .OHMM                                               :          
SFL         .OHMM                                               :          
SP          .MV                                                 :          
SP_NORM     .MV                                                 :SP Normalized
VSH_GR      .V/V                                                :Volume of Shale from GR
VSH_SP      .V/V                                                :Volume of Shale from SP
~A        DEPTH           ASFL           CILD             DT             GR        GR_NORM            ILD            SFL             SP        SP_NORM         VSH_GR         VSH_SP
# ...
      8120.5000         0.3475       3441.219       126.9292        62.3447       81.32282         0.2589         0.2966      -123.0627      -3.224854              1      0.9355029
      8121.0000          0.345       3464.973       126.5225        63.1625       82.38812         0.2587         0.3056      -121.2001      -1.361343              1      0.9727731
      8121.5000          0.343       3484.867       126.3848        63.6239       82.98936         0.2591         0.2929      -119.4219       0.417778              1              1
      8122.0000         0.3409       3498.535       126.2471        62.6104       81.67013         0.2614         0.2979       -122.913      -3.072418              1      0.9385517
      8122.5000         0.3392       3476.328       126.6886        61.2696       79.92474         0.2637         0.3165      -126.8461      -7.004601      0.9983987       0.859908
      8123.0000         0.3381       3432.902       126.9569        60.5013        78.9248         0.2653         0.3328      -125.8218      -5.979385      0.9771233      0.8804123
      8123.5000         0.3369       3389.531       127.0304        59.9348       78.18761         0.2665         0.2932      -123.2681      -3.424774      0.9614384      0.9315045
      8124.0000         0.3382       3346.105       127.0247        59.8774       78.11331         0.2677         0.2826      -124.0146      -4.170364      0.9598577      0.9165927
      8124.5000         0.3412       3302.535       127.0054        60.2754       78.63199         0.2686         0.3067      -125.7058      -5.860649      0.9708934       0.882787
      8125.0000         0.3442       3243.574       126.9739        60.9966       79.57149         0.2695         0.3322      -125.5632       -5.71714      0.9908827      0.8856572
      8125.5000         0.3478       3184.613       127.6716        61.7515       80.55488         0.2699         0.3284      -124.1667      -4.319725              1      0.9136055
      8126.0000         0.3541       3125.652       128.8157        62.4667       81.48658         0.2701         0.3046      -124.2925      -4.444611              1      0.9111078
      8126.5000         0.3604       3069.781       130.0107         63.154       82.38194         0.2693         0.2974      -125.6501        -5.8013              1       0.883974
      8127.0000         0.3667       3032.031       130.5278         63.633       83.00607         0.2678         0.3033      -125.4092      -5.559486              1      0.8888103
      8127.5000         0.3729       2994.285       130.6279        64.2642       83.82841         0.2643         0.3065      -125.4919      -5.641266              1      0.8871747
      8128.0000         0.3788       2956.539       129.9939        64.0865       83.59747         0.2608         0.2957      -126.3322      -6.480659              1      0.8703868
      8128.5000         0.3838       2919.738       129.1763          62.91       82.06602         0.2566         0.2858      -125.1887      -5.336243              1      0.8932751
      8129.0000          0.388       2883.387       128.3564        61.7612       80.57062         0.2542         0.2984       -122.193       -2.33963              1      0.9532074
      8129.5000         0.3861       2903.156       128.3889        60.7888       79.30492         0.2549         0.3088      -118.8638      0.9904785      0.9852111              1
      8130.0000         0.3842       2930.395       128.4944        60.0803       78.38284         0.2565         0.3093       -119.922    -0.06680298      0.9655923       0.998664
      8130.5000         0.3823       2960.227       128.4016         59.524       77.65893         0.2594         0.2834      -122.6399      -2.783791      0.9501899      0.9443242
      8131.0000         0.3804       2990.004       127.3036        59.1182       77.13099         0.2628         0.2801      -124.7708       -4.91378      0.9389572      0.9017244
      8131.5000         0.3785       3019.781       125.2853        59.2239       77.26907         0.2668         0.2994      -126.4836      -6.625664      0.9418952      0.8674867
      8132.0000         0.3754       3049.613       123.5046        59.6542        77.8298         0.2715         0.3209      -126.9886      -7.129753      0.9538254      0.8574049
      8132.5000         0.3713       3079.391       122.3021        59.6944       77.88259         0.2765         0.3418      -124.9858      -5.126045      0.9549487      0.8974791
      8133.0000         0.3672       3122.863       122.0323        59.0107        76.9928         0.2816         0.3535      -123.3478      -3.487129       0.936017      0.9302574
      8133.5000         0.3631       3168.578       122.4738        57.9102       75.56029         0.2878         0.3381      -126.9524      -7.090813       0.905538      0.8581837
      8134.0000         0.3591        3214.34       122.8984         57.291       74.75449         0.2953         0.3325      -129.0596      -9.197105      0.8883933      0.8160579
      8134.5000          0.355       3261.051       122.6255        57.1472        74.5677         0.3031         0.3338      -128.3777       -8.51429      0.8844191      0.8297142
      8135.0000         0.3509       3310.004       121.7128        57.4264       74.93168         0.3112         0.3122        -127.38      -7.515671      0.8921634      0.8496866
      8135.5000         0.3469       3364.781       118.8141        57.8244       75.45036          0.319         0.2914       -128.281      -8.415771      0.9031991      0.8316846
      8136.0000         0.3432       3471.645       115.3397        57.8522       75.48699         0.3247         0.3419      -131.3928      -11.52666      0.9039785      0.7694669
      8136.5000         0.3396       3524.828       113.9644        56.8846       74.22755         0.3257         0.3953      -134.2678      -14.40074       0.877182      0.7119852
      8137.0000          0.336       3568.551       113.6261        55.3287       72.20208         0.3261         0.4356      -135.8811      -16.01313      0.8340868      0.6797374
      8137.5000         0.3335        3562.34       116.9587        54.0858       70.58417         0.3277         0.3899      -131.8083      -11.93941      0.7996631      0.7612117
      8138.0000         0.3332       3554.422       120.3511        53.5494       69.88617         0.3289         0.3502      -127.9961      -8.126297      0.7848121       0.837474
      8138.5000         0.3329       3546.516       122.9376        53.6642       70.03609         0.3268          0.321      -130.9871      -11.11639      0.7880018      0.7776721
      8139.0000          0.333       3538.598       122.8207        54.0688       70.56338          0.318         0.3115      -132.3914      -12.51978      0.7992208      0.7496045
      8139.5000         0.3335        3530.68       122.3743        54.1909        70.7228         0.3073          0.315      -131.9358      -12.06326      0.8026128      0.7587348
      8140.0000         0.3339       3522.762       122.0615        53.7946       70.20723         0.2974         0.3278      -131.6077      -11.73425      0.7916432      0.7653151
      8140.5000         0.3343       3514.844       122.0402         52.831       68.95297         0.2878          0.341      -131.1936      -11.31924      0.7649568      0.7736152
      8141.0000         0.3347       3506.926       122.0757        53.2136        69.4516         0.2831         0.3425       -130.418      -10.54272      0.7755659      0.7891456
      8141.5000         0.3352       3499.008       122.1968        54.0229       70.50581         0.2796         0.3221      -129.4578      -9.581604       0.797996      0.8083679
      8142.0000         0.3356       3491.094       122.3127        54.9941       71.77084         0.2792         0.3305      -128.1555      -8.278397      0.8249115      0.8344321
      8142.5000         0.3365       3484.613       122.3828        54.5508       71.19408          0.279         0.3386      -128.0732      -8.195175      0.8126401      0.8360965
