#------------------------------------------------------------------------------
# Created by    : vladimir.rabinovich
# Created on    : 09/19/2023 17:20:21
#------------------------------------------------------------------------------
~Version Information Section
VERS.           2.0     :   CWLS log ASCII Standard - VERSION 2.0
WRAP.           NO      :   One line per depth step
~Well Information Section
#MNEM       .UNIT                                         VALUE :DESCRIPTION
#------------------------------------------------------------------------------
STRT        .FT                                            1439 :START DEPTH
STOP        .FT                                           13833 :STOP DEPTH
STEP        .FT                                             0.5 :STEP      
NULL        .                                           -999.25 :NULL      
COMP        .                                        EXXON CORP :COMPANY   
WELL        .                               OCS G04992 ST00BP00 :WELL      
FLD         .                                           WILDCAT :FIELD     
LOC         .                                                   :LOCATION  
CNTY        .                               MUSTANG ISLAND EAST :LOCATION  
STAT        .                                             TEXAS :STATE     
CTRY        .                                     UNITED STATES :COUNTRY   
SRVC        .                                                   :SERVICE COMPANY
DATE        .                             9/13/2023 11:20:08 AM :LOG DATE  
API         .                                    42712400640000 :API NUMBER
UWI         .                                    42712400640000 :UNIQUE WELL ID
XCOORD      .                                  530427.861923906 :SURFACE X 
YCOORD      .                                  9963308.63528926 :SURFACE Y 
LAT         .                                        27.4144168 :LATITUDE  
LON         .                                       -96.4214066 :LONGITUDE 
ELEV        .FT                                              73 :ELEVATION VALUE
ELEV_TYPE   .                                                KB :ELEVATION REFERENCE TYPE
~Curve Information Section
#MNEM       .UNIT                                      API CODE :CURVE DESCRIPTION
#------------------------------------------------------------------------------
DEPT        .FT                                                 :DEPTH     
ASFL        .OHMM                                               :          
CILD        .MMHO                                               :          
DT          .US/F                                               :          
GR          .GAPI                                               :          
GR_NORM     .GAPI                                               :GammaRay Normalized
ILD         .OHMM                                               :          
SP          .MV                                                 :          
SP_NORM     .MV                                                 :SP Normalized
VSH_GR      .V/V                                                :Volume of Shale from GR
VSH_SP      .V/V                                                :Volume of Shale from SP
~A        DEPTH           ASFL           CILD             DT             GR        GR_NORM            ILD             SP        SP_NORM         VSH_GR         VSH_SP
# ...
      4746.5000         0.8368       1626.631       112.1602        51.6618       52.52346         0.6522       -87.2892      -26.52971      0.4153928      0.4694058
      4747.0000         0.8291       1642.268       113.2681        48.9435        49.1244         0.6152       -89.6769      -28.91741      0.3430723      0.4216518
      4747.5000         0.8217       1657.902        114.129        47.5281       47.35395         0.5953       -91.7698      -31.01031      0.3054033      0.3797939
      4748.0000         0.8288       1668.766       114.8706        45.1448       44.37363         0.5873       -92.9474      -32.18791      0.2419922      0.3562418
      4748.5000         0.8402       1664.789       115.4828        46.1274        45.6007         0.6153       -91.1418      -30.38231      0.2680999      0.3923538
      4749.0000         0.8516       1627.229       115.8646        47.6612       47.51675         0.6431       -89.9802      -29.22071      0.3088671      0.4155858
      4749.5000         0.8641       1555.438       115.3414        48.2872       48.29805          0.671       -89.0637      -28.30421      0.3254905      0.4339159
      4750.0000         0.8771       1457.992       113.9584        49.0556       49.25736         0.6949       -88.8278      -28.06831      0.3459013      0.4386339
      4750.5000           0.89        1393.66       112.7585        49.9163       50.33205         0.7164       -88.5917      -27.83221      0.3687669      0.4433559
      4751.0000         0.9014       1363.406       112.3234        50.8296       51.47248         0.7294       -88.3472      -27.58771      0.3930314      0.4482459
      4751.5000         0.9118       1404.521       113.1655        51.7652       52.64079         0.7114       -88.0754      -27.31591      0.4178891      0.4536818
      4752.0000         0.8954       1445.662       114.2585        52.3231       53.33697         0.6933       -87.5852      -26.82571      0.4327014      0.4634859
      4752.5000          0.865       1500.998       114.7169        51.9429       52.86053         0.6753       -86.3208      -25.56131      0.4225644      0.4887738
      4753.0000         0.8303       1568.512       114.6517        51.8905       52.79383         0.6526       -85.3772      -24.61771      0.4211453      0.5076458
      4753.5000         0.8065       1624.643       113.8853        51.9485       52.86514         0.6292       -83.8986      -23.13911      0.4226624      0.5372179
      4754.0000         0.7857        1677.59       113.5985        51.7401       52.60344         0.6059       -83.6658      -22.90631      0.4170944      0.5418738
      4754.5000         0.7678       1729.445        114.111        51.4374       52.22387         0.5825        -85.241      -24.48151      0.4090186      0.5103699
      4755.0000         0.7534       1787.414       114.9387        51.1343        51.8438         0.5649       -85.5183      -24.75881       0.400932      0.5048237
      4755.5000           0.74       1886.102       115.6722         51.621       52.45098         0.5493       -85.7988      -25.03931      0.4138508      0.4992139
      4756.0000          0.727        1924.16       115.9839        52.8618        54.0008         0.5337       -86.0812      -25.32171      0.4468255      0.4935658
      4756.5000          0.712       1804.566       116.4962        54.1225       55.57548         0.5288       -88.0546      -27.29511      0.4803294      0.4540977
      4757.0000          0.738       1734.168       117.4022          54.44       55.97115         0.5407       -90.2478      -29.48831      0.4887479      0.4102338
      4757.5000         0.7637       1703.145        120.556        54.1982       55.66771         0.5626       -91.4252      -30.66571      0.4822917      0.3866858
      4758.0000         0.7895       1672.098       122.9545        53.8652       55.25027            0.6       -91.7833      -31.02381        0.47341      0.3795238
      4758.5000         0.8574       1639.061       123.5762        53.5033        54.7967         0.6464       -90.2551      -29.49561      0.4637596      0.4100879
      4759.0000         0.9214       1470.521       123.0896        55.6878       57.52613         0.7086       -88.3939      -27.63441      0.5218326      0.4473118
      4759.5000         0.9669        1288.26       120.6736        58.2042       60.67044         0.7707       -82.2045      -21.44501      0.5887328      0.5710999
      4760.0000         1.0193       1215.475        118.135        60.5745       63.63213         0.8344       -77.9865      -17.22701      0.6517473      0.6554598
      4760.5000         1.0521       1174.957       116.8364        62.2624       65.74081         0.9023       -74.4967      -13.73721      0.6966131      0.7252559
      4761.0000         1.0456       1135.879       116.3345        63.6569       67.48273         0.9325       -71.7994      -11.03991      0.7336751      0.7792018
      4761.5000         1.0242       1105.154       116.1636         64.746       68.84292         0.9402        -70.067       -9.30751      0.7626153      0.8138498
      4762.0000         1.0019        1092.83       115.9927        66.1255        70.5661          0.948       -66.9896       -6.23011      0.7992787      0.8753978
      4762.5000         0.9873       1096.074        114.286        67.0314       71.69728         0.9557       -65.7748      -5.015312      0.8233464      0.8996937
      4763.0000         0.9836       1105.713       111.2073        67.5878       72.39159         0.9632       -65.1196      -4.360107      0.8381189      0.9127979
      4763.5000         0.9811       1121.002       108.7606        68.0844       73.01114         0.9631       -64.5249      -3.765411      0.8513008      0.9246918
      4764.0000         0.9837        1120.67       108.0377        68.5809       73.63058          0.963       -64.2255      -3.466011      0.8644806      0.9306798
      4764.5000         0.9962       1120.209       109.8593        68.7295       73.81512         0.9629       -63.9258      -3.166309      0.8684069      0.9366738
      4765.0000         1.0086       1121.574       114.2834        68.2407       73.20293         0.9628       -63.8585       -3.09901      0.8553816      0.9380198
      4765.5000         1.0211       1122.939       117.7374        67.7518       72.59062         0.9683       -63.8416      -3.082108      0.8423536      0.9383578
      4766.0000         1.0342       1121.953       119.8307        65.5132       69.79118         0.9767        -63.881       -3.12151       0.782791      0.9375698
      4766.5000         1.0481       1120.379       120.1138        65.0752       69.24249          0.985       -63.9553      -3.195808      0.7711167      0.9360839
      4767.0000         1.0619       1118.807       119.7081        65.2421       69.44992         0.9934       -64.0295      -3.270012      0.7755302      0.9345998
      4767.5000         1.0799       1092.078       118.6615        65.6754       69.99035         0.9999       -64.1039      -3.344406      0.7870287      0.9331119
      4768.0000         1.0974       1053.971       116.9283        65.2695       69.48178         1.0062       -64.1312      -3.371712      0.7762081      0.9325657
      4768.5000         1.1133       1021.034       115.6791        63.9962       67.88895         1.0125       -64.1488      -3.389313      0.7423182      0.9322137
      4769.0000          1.128       1005.722        115.131         62.655       66.21126         1.0188       -64.1788      -3.419312      0.7066225      0.9316137
      4769.5000          1.141       990.4092       114.7837        61.8859        65.2487         1.0236       -64.2257      -3.466209      0.6861426      0.9306758
      4770.0000          1.153        975.084       114.2932        61.6644       64.97063         1.0267       -64.2726      -3.513107      0.6802261      0.9297379
      4770.5000         1.1593          964.5       113.1168          61.48       64.73894         1.0299       -64.5122      -3.752708      0.6752965      0.9249458
