#------------------------------------------------------------------------------
# Created by    : vladimir.rabinovich
# Created on    : 09/19/2023 17:21:48
#------------------------------------------------------------------------------
~Version Information Section
VERS.           2.0     :   CWLS log ASCII Standard - VERSION 2.0
WRAP.           NO      :   One line per depth step
~Well Information Section
#MNEM       .UNIT                                         VALUE :DESCRIPTION
#------------------------------------------------------------------------------
STRT        .FT                                            1142 :START DEPTH
STOP        .FT                                            9163 :STOP DEPTH
STEP        .FT                                             0.5 :STEP      
NULL        .                                           -999.25 :NULL      
COMP        .                                    ORYX ENERGY CO :COMPANY   
WELL        .                               OCS G06199 ST00BP00 :WELL      
FLD         .                            HIGH ISLAND BLOCK 0129 :FIELD     
LOC         .                                                   :LOCATION  
CNTY        .                                  HIGH ISLAND EAST :LOCATION  
STAT        .                                             TEXAS :STATE     
CTRY        .                                     UNITED STATES :COUNTRY   
SRVC        .                                                   :SERVICE COMPANY
DATE        .                             9/13/2023 11:20:11 AM :LOG DATE  
API         .                                    42710400360000 :API NUMBER
UWI         .                                    42710400360000 :UNIQUE WELL ID
XCOORD      .                                  1376484.19293712 :SURFACE X 
YCOORD      .                                  10620179.8267869 :SURFACE Y 
LAT         .                                        29.2612476 :LATITUDE  
LON         .                                        -93.828002 :LONGITUDE 
ELEV        .FT                                              93 :ELEVATION VALUE
ELEV_TYPE   .                                                KB :ELEVATION REFERENCE TYPE
~Curve Information Section
#MNEM       .UNIT                                      API CODE :CURVE DESCRIPTION
#------------------------------------------------------------------------------
DEPT        .FT                                                 :DEPTH     
CALI        .IN                                                 :          
DRHO        .G/C3                                               :          
DT          .US/F                                               :          
GR          .GAPI                                               :          
GR_1        .GAPI                                               :          
GR_NORM     .GAPI                                               :GammaRay Normalized
ILD         .OHMM                                               :          
ILM         .OHMM                                               :          
NPHI        .%                                                  :          
RFOC        .OHMM                                               :          
RHOB        .G/C3                                               :          
SP          .MV                                                 :          
SP_NORM     .MV                                                 :SP Normalized
VSH_GR      .V/V                                                :Volume of Shale from GR
VSH_SP      .V/V                                                :Volume of Shale from SP
~A        DEPTH           CALI           DRHO             DT             GR           GR_1        GR_NORM            ILD            ILM           NPHI           RFOC           RHOB             SP        SP_NORM         VSH_GR         VSH_SP
      1142.0000        -999.25        -999.25        -999.25        22.6103        -999.25       30.99147        -999.25        -999.25        -999.25        -999.25        -999.25        -999.25        -999.25              0        -999.25
      1142.5000        -999.25        -999.25        -999.25        24.9839        -999.25       33.12772        -999.25        -999.25        -999.25        -999.25        -999.25        -999.25        -999.25    0.002717363        -999.25
      1143.0000        -999.25        -999.25        -999.25        27.3953        -999.25       35.29797        -999.25        -999.25        -999.25        -999.25        -999.25        -999.25        -999.25     0.04889306        -999.25
      1143.5000        -999.25        -999.25        -999.25        29.0894        -999.25       36.82267        -999.25        -999.25        -999.25        -999.25        -999.25        -999.25        -999.25     0.08133332        -999.25
      1144.0000        -999.25        -999.25       117.9086        29.2949        -999.25       37.00761         3.0767         3.3377        -999.25         1.2321        -999.25       -170.605      -47.46485     0.08526839      0.1370028
      1144.5000        -999.25        -999.25       123.0228        29.1869        -999.25       36.91041         1.5831         0.9454        -999.25         1.4044        -999.25      -168.4187      -44.68063     0.08320025      0.1876248
      1145.0000        -999.25        -999.25        128.137        29.4926        -999.25       37.18554         0.8973         0.8147        -999.25         1.4966        -999.25      -167.2793      -43.22963     0.08905411      0.2140068
      1145.5000        -999.25        -999.25       129.9272        29.9044        -999.25       37.55616         0.6526         0.7891        -999.25         1.5636        -999.25       -166.772       -42.5836     0.09693965      0.2257528
      1146.0000        -999.25        -999.25       129.4253        31.2996        -999.25       38.81184         0.5011         0.8097        -999.25         1.5959        -999.25      -166.3682      -42.06935      0.1236563      0.2351028
      1146.5000        -999.25        -999.25        127.787        32.9749        -999.25       40.31961         0.4949         0.8598        -999.25         1.6065        -999.25      -166.1265      -41.76155      0.1557365      0.2406991
      1147.0000        -999.25        -999.25       126.3529        34.1638        -999.25       41.38963         0.5398         0.9234        -999.25         1.6002        -999.25      -166.0134      -41.61752      0.1785027      0.2433178
      1147.5000        -999.25        -999.25       125.6552        33.8143        -999.25       41.07421         0.5997         1.0027        -999.25         1.5749        -999.25      -166.1499      -41.79983      0.1717917      0.2400031
      1148.0000        -999.25        -999.25       126.6927        33.8075        -999.25       41.05449          0.652         1.0286        -999.25         1.5417        -999.25      -166.3552      -42.19397      0.1713722       0.232837
      1148.5000        -999.25        -999.25       130.8599        33.9531        -999.25       41.17194         0.6584         1.0243        -999.25         1.5047        -999.25      -166.6931        -42.757      0.1738711      0.2225999
      1149.0000        -999.25        -999.25       136.9578        34.3168        -999.25       41.48569         0.6412         0.9811        -999.25         1.4917        -999.25      -167.0212      -43.30753      0.1805465      0.2125904
      1149.5000        -999.25        -999.25       143.0544        33.0894        -999.25       40.36744          0.626         0.9589        -999.25         1.5002        -999.25      -167.2683      -43.75491       0.156754      0.2044563
      1150.0000        -999.25        -999.25       147.2205        31.8231        -999.25       39.21418         0.6213         0.9679        -999.25         1.5417        -999.25      -167.4456      -44.11341      0.1322165      0.1979381
      1150.5000        -999.25        -999.25       147.2415        31.9993        -999.25       39.35916         0.6348         0.9847        -999.25         1.5595        -999.25      -167.5947      -44.43597      0.1353013      0.1920733
      1151.0000        -999.25        -999.25       145.2163        32.4354        -999.25       39.73806          0.665           1.01        -999.25         1.5758        -999.25      -167.5508      -44.51276      0.1433631       0.190677
      1151.5000        -999.25        -999.25       142.6851        32.5973        -999.25       39.87019          0.724         1.0503        -999.25         1.5934        -999.25      -167.4744      -44.54819      0.1461742       0.190033
      1152.0000        -999.25        -999.25       139.5496        32.0461        -999.25       39.36052         0.7746         1.0778        -999.25          1.639        -999.25      -167.2888      -44.44454      0.1353302      0.1919175
      1152.5000        -999.25        -999.25       136.3374        31.7099        -999.25       39.04434         0.7995         1.0851        -999.25         1.6849        -999.25       -167.103      -44.34062       0.128603      0.1938069
      1153.0000        -999.25        -999.25       133.7593        32.6522        -999.25       39.87882         0.7761         1.0772        -999.25         1.7178        -999.25      -167.0042       -44.3475      0.1463579      0.1936818
      1153.5000        -999.25        -999.25       134.3188        33.2622        -999.25       40.41423         0.7475          1.065        -999.25         1.7352        -999.25      -166.9055      -44.35452      0.1577497      0.1935543
      1154.0000        -999.25        -999.25       136.4856        33.6502        -999.25       40.74985         0.7252         1.0401        -999.25         1.6955        -999.25       -166.833      -44.39489      0.1648904      0.1928201
      1154.5000        -999.25        -999.25        138.845        33.6954        -999.25       40.77694         0.7045         1.0019        -999.25         1.6398        -999.25      -166.7854      -44.46698      0.1654668      0.1915094
      1155.0000        -999.25        -999.25       141.5933        33.8269        -999.25       40.88169         0.6848         0.9489        -999.25          1.586        -999.25      -166.7375      -44.53869      0.1676956      0.1902057
      1155.5000        -999.25        -999.25       144.3416         34.001        -999.25       41.02479         0.6661         0.9005        -999.25         1.5375        -999.25      -166.9189      -44.90239      0.1707402      0.1835928
      1156.0000        -999.25        -999.25       147.7351        34.4747        -999.25       41.43753         0.6479         0.8699        -999.25         1.5132        -999.25      -167.1216      -45.29323       0.179522      0.1764868
      1156.5000        -999.25        -999.25       150.2034        35.0349        -999.25       41.92813         0.6356         0.8606        -999.25         1.4969        -999.25      -167.3599      -45.72941      0.1899602      0.1685561
      1157.0000        -999.25        -999.25       151.4297        34.8387        -999.25       41.73796         0.6259         0.8614        -999.25         1.4847        -999.25      -167.6187       -46.1917       0.185914       0.160151
      1157.5000        -999.25        -999.25       153.2544        33.5923        -999.25        40.6026         0.6166         0.8664        -999.25         1.4635        -999.25      -167.8916      -46.67193      0.1617575      0.1514194
      1158.0000        -999.25        -999.25         155.97        32.7874        -999.25        39.8646          0.609         0.8613        -999.25         1.4522        -999.25      -168.1865      -47.18017      0.1460553      0.1421788
      1158.5000        -999.25        -999.25       158.2021        32.5799        -999.25       39.66426         0.6015         0.8588        -999.25         1.4471        -999.25      -168.4719      -47.67632      0.1417928      0.1331578
