#------------------------------------------------------------------------------
# Created by    : vladimir.rabinovich
# Created on    : 09/19/2023 17:21:48
#------------------------------------------------------------------------------
~Version Information Section
VERS.           2.0     :   CWLS log ASCII Standard - VERSION 2.0
WRAP.           NO      :   One line per depth step
~Well Information Section
#MNEM       .UNIT                                         VALUE :DESCRIPTION
#------------------------------------------------------------------------------
STRT        .FT                                            1142 :START DEPTH
STOP        .FT                                            9163 :STOP DEPTH
STEP        .FT                                             0.5 :STEP      
NULL        .                                           -999.25 :NULL      
COMP        .                                    ORYX ENERGY CO :COMPANY   
WELL        .                               OCS G06199 ST00BP00 :WELL      
FLD         .                            HIGH ISLAND BLOCK 0129 :FIELD     
LOC         .                                                   :LOCATION  
CNTY        .                                  HIGH ISLAND EAST :LOCATION  
STAT        .                                             TEXAS :STATE     
CTRY        .                                     UNITED STATES :COUNTRY   
SRVC        .                                                   :SERVICE COMPANY
DATE        .                             9/13/2023 11:20:11 AM :LOG DATE  
API         .                                    42710400360000 :API NUMBER
UWI         .                                    42710400360000 :UNIQUE WELL ID
XCOORD      .                                  1376484.19293712 :SURFACE X 
YCOORD      .                                  10620179.8267869 :SURFACE Y 
LAT         .                                        29.2612476 :LATITUDE  
LON         .                                        -93.828002 :LONGITUDE 
ELEV        .FT                                              93 :ELEVATION VALUE
ELEV_TYPE   .                                                KB :ELEVATION REFERENCE TYPE
~Curve Information Section
#MNEM       .UNIT                                      API CODE :CURVE DESCRIPTION
#------------------------------------------------------------------------------
DEPT        .FT                                                 :DEPTH     
CALI        .IN                                                 :          
DRHO        .G/C3                                               :          
DT          .US/F                                               :          
GR          .GAPI                                               :          
GR_1        .GAPI                                               :          
GR_NORM     .GAPI                                               :GammaRay Normalized
ILD         .OHMM                                               :          
ILM         .OHMM                                               :          
NPHI        .%                                                  :          
RFOC        .OHMM                                               :          
RHOB        .G/C3                                               :          
SP          .MV                                                 :          
SP_NORM     .MV                                                 :SP Normalized
VSH_GR      .V/V                                                :Volume of Shale from GR
VSH_SP      .V/V                                                :Volume of Shale from SP
~A        DEPTH           CALI           DRHO             DT             GR           GR_1        GR_NORM            ILD            ILM           NPHI           RFOC           RHOB             SP        SP_NORM         VSH_GR         VSH_SP
# ...
      7551.0000        11.9602         0.0909         96.965        82.3148        81.3032       73.59919         1.1961          1.265         31.989         1.2736         2.2946       -63.5155      -4.190067      0.8638126      0.9401419
      7551.5000        11.9586         0.0885        97.4507        81.5255        82.6752       72.77242         1.1949         1.2387        32.7805         1.2393         2.3018       -63.1566      -3.831955      0.8462217      0.9452578
      7552.0000        11.9569         0.0856        98.6281        83.5228        86.7179       74.91013         1.1555         1.2002         33.589         1.1997         2.3066       -62.3302       -3.00634      0.8917048      0.9570523
      7552.5000        11.9552         0.0943       100.0114        86.6652        91.0477       78.26601         1.1161         1.1608        34.7843          1.158         2.3114       -61.4446      -2.121521      0.9631067      0.9696925
      7553.0000        11.9535         0.0865       102.9402        89.9705        92.5879        81.7952         1.0853         1.1182        35.7655         1.1167         2.3142       -60.7989      -1.476608              1      0.9789056
      7553.5000        11.9529          0.076        105.965        93.2561        93.1859       85.30344         1.0645         1.0775        36.7289         1.0758         2.3124        -60.269     -0.9474945              1      0.9864644
      7554.0000        11.9537         0.0683        108.863        94.0886        92.6002       86.20199         1.0519          1.041        37.6937         1.0365         2.3077       -60.0286     -0.7078781              1      0.9898875
      7554.5000        11.9545         0.0742       109.5243        92.3741        91.9186       84.39097         1.0424         1.0247         37.092          1.015         2.3035       -60.0518     -0.7318649              1      0.9895448
      7555.0000        11.9561         0.0727       107.5093         90.467        91.2706       82.37505         1.0378         1.0131        35.1237         1.0066         2.3019       -60.4033      -1.084152              1      0.9845121
      7555.5000        11.9586         0.0642       105.2051        88.5574        91.0062       80.35648         1.0346         1.0173        31.6422         1.0342         2.2977       -60.7456      -1.427238              1      0.9796109
      7556.0000        11.9607         0.0569       102.8934        87.6533        87.2969       79.40758         1.0374         1.0215        30.7803         1.0713         2.2926       -60.9659      -1.648323      0.9873953      0.9764525
      7556.5000        11.9599         0.0701       100.6188        86.8503        81.8141       78.56624         1.0401         1.0245        30.2253         1.1176         2.2884       -61.2176       -1.90081      0.9694945      0.9728456
      7557.0000        11.9591         0.0929       101.2888        84.9531         80.634       76.56085         1.0372         1.0272        29.7554         1.1578          2.289       -61.3648      -2.048794      0.9268267      0.9707315
      7557.5000        11.9583         0.1062       103.2303        82.9695        87.1484       74.46355         1.0332         1.0201        29.3349         1.1367         2.2892       -61.4824      -2.167179      0.8822033      0.9690403
      7558.0000        11.9576          0.099        105.655          82.92        92.8439       74.42381         1.0198         0.9994         30.701         1.0824         2.2834       -61.2968      -1.982365      0.8813576      0.9716805
      7558.5000         11.957          0.081       108.0651        86.9369        101.736       78.71001          1.004         0.9775        32.7078         1.0318         2.2727       -61.0775      -1.763851      0.9725535      0.9748021
      7559.0000        11.9578         0.0629       109.7816        92.7125       101.7434       84.86719         0.9802          0.953        34.2078         0.9951         2.2616       -60.8091      -1.496239              1      0.9786252
      7559.5000        11.9587         0.0519       111.2891        97.4309        99.7245       89.89967         0.9542         0.9291         35.057         0.9798         2.2514       -60.5214      -1.209324              1       0.982724
      7560.0000        11.9595         0.0605       111.8054       100.7412        97.5349       93.43419         0.9298         0.9086        36.9319         0.9795         2.2426       -60.1578      -0.846508              1      0.9879071
      7560.5000        11.9603         0.0684       111.0358        98.9429        95.0905       91.53401         0.9082         0.8887        38.6112         0.9831         2.2339       -59.7803     -0.4697914              1      0.9932887
      7561.0000        11.9611         0.0683        110.973        96.9888        93.5392       89.46809         0.8871         0.8711        39.4316         0.9877         2.2258       -59.3611    -0.05137634              1       0.999266
      7561.5000        11.9587         0.0475        111.589        95.1903        94.5022       87.56771         0.8745         0.8584        39.7634         0.9923         2.2216       -58.7312      0.5777359              1              1
      7562.0000        11.9558         0.0334        111.946        94.8322        95.1857       87.19966         0.8626         0.8471        39.4101         0.9949         2.2209       -58.1277        1.18045              1              1
      7562.5000        11.9543         0.0333       111.6807        93.5129        95.8691       85.80907         0.8562         0.8437        35.9063         0.9959         2.2249       -57.6422       1.665165              1              1
      7563.0000        11.9532         0.0465       111.1636           92.1        95.8235       84.31889         0.8596         0.8489        32.5433         0.9965         2.2337        -57.518       1.788578              1              1
      7563.5000        11.9533         0.0593       110.9083         90.677        93.7495       82.81799         0.8629         0.8541         32.361         0.9903         2.2397       -57.6793       1.626495              1              1
      7564.0000        11.9541         0.0717       110.8909        89.4121         88.623       81.48526         0.8663         0.8636        34.5457         0.9842         2.2442       -57.9961       1.308907              1              1
      7564.5000        11.9574         0.0901       110.9977        88.2585        82.9127       80.27094         0.8725         0.8749        35.2548         0.9809          2.244       -58.3027       1.001522              1              1
      7565.0000        11.9623         0.1029       111.1022        89.0441        84.2686       81.11959         0.8789         0.8864        35.5643         0.9797         2.2325       -58.5997      0.7037354              1              1
      7565.5000        11.9615         0.1097       110.6503        91.1946        87.5988       83.42027         0.8854         0.9005        36.1812          0.987         2.2195       -58.8537      0.4489517              1              1
      7566.0000         11.958         0.1054       110.1198        92.4248        89.8353       84.74191         0.8962         0.9148        37.1394         1.0032          2.206       -59.0209      0.2809639              1              1
      7566.5000        11.9536         0.0922       109.2787        93.4895        86.8292       85.88748         0.9128         0.9288        34.8333         1.0218         2.2015       -59.1613      0.1397781              1              1
      7567.0000        11.9452         0.0768       108.4364         93.306        86.5485       85.70518         0.9296         0.9421        33.0465          1.044         2.2135       -59.2095     0.09079361              1              1
      7567.5000        11.9301         0.0642       107.9626        93.1007        87.4923       85.49969         0.9449         0.9556        33.6297         1.0578          2.222       -59.2576     0.04190826              1              1
