#------------------------------------------------------------------------------
# Created by    : vladimir.rabinovich
# Created on    : 09/19/2023 17:20:21
#------------------------------------------------------------------------------
~Version Information Section
VERS.           2.0     :   CWLS log ASCII Standard - VERSION 2.0
WRAP.           NO      :   One line per depth step
~Well Information Section
#MNEM       .UNIT                                         VALUE :DESCRIPTION
#------------------------------------------------------------------------------
STRT        .FT                                            1439 :START DEPTH
STOP        .FT                                           13833 :STOP DEPTH
STEP        .FT                                             0.5 :STEP      
NULL        .                                           -999.25 :NULL      
COMP        .                                        EXXON CORP :COMPANY   
WELL        .                               OCS G04992 ST00BP00 :WELL      
FLD         .                                           WILDCAT :FIELD     
LOC         .                                                   :LOCATION  
CNTY        .                               MUSTANG ISLAND EAST :LOCATION  
STAT        .                                             TEXAS :STATE     
CTRY        .                                     UNITED STATES :COUNTRY   
SRVC        .                                                   :SERVICE COMPANY
DATE        .                             9/13/2023 11:20:08 AM :LOG DATE  
API         .                                    42712400640000 :API NUMBER
UWI         .                                    42712400640000 :UNIQUE WELL ID
XCOORD      .                                  530427.861923906 :SURFACE X 
YCOORD      .                                  9963308.63528926 :SURFACE Y 
LAT         .                                        27.4144168 :LATITUDE  
LON         .                                       -96.4214066 :LONGITUDE 
ELEV        .FT                                              73 :ELEVATION VALUE
ELEV_TYPE   .                                                KB :ELEVATION REFERENCE TYPE
~Curve Information Section
#MNEM       .UNIT                                      API CODE :CURVE DESCRIPTION
#------------------------------------------------------------------------------
DEPT        .FT                                                 :DEPTH     
ASFL        .OHMM                                               :          
CILD        .MMHO                                               :          
DT          .US/F                                               :          
GR          .GAPI                                               :          
GR_NORM     .GAPI                                               :GammaRay Normalized
ILD         .OHMM                                               :          
SP          .MV                                                 :          
SP_NORM     .MV                                                 :SP Normalized
VSH_GR      .V/V                                                :Volume of Shale from GR
VSH_SP      .V/V                                                :Volume of Shale from SP
~A        DEPTH           ASFL           CILD             DT             GR        GR_NORM            ILD             SP        SP_NORM         VSH_GR         VSH_SP
# ...
      9695.5000         0.6826       1898.844       116.9866        54.4225       70.40346         0.5444       -52.5975      -1.964588      0.7958183      0.9607083
      9696.0000          0.705       1734.709       116.6165        53.7652       69.58581         0.5399       -52.3492       -1.71629      0.7784215      0.9656742
      9696.5000         0.7189       1606.244       116.3065        53.1428       68.81178         0.5539       -51.9975       -1.36459      0.7619528      0.9727082
      9697.0000         0.7311        1540.77       114.8423        52.7767       68.35812         0.5715        -51.014     -0.3810883      0.7523005      0.9923782
      9697.5000         0.7426       1502.814       110.2379        52.5916       68.13072         0.5892       -50.1986      0.4343109      0.7474622              1
      9698.0000         0.7583       1486.148       105.4636        52.8757       68.48983         0.6116       -49.7256      0.9073105      0.7551028              1
      9698.5000         0.7781       1472.375        103.079        53.2629        68.9778         0.6342       -49.4564        1.17651       0.765485              1
      9699.0000         0.7981       1461.658       103.3861        53.6494       69.46489         0.6567       -49.2161       1.416813      0.7758487              1
      9699.5000         0.8114       1450.803       106.2028        54.8246       70.93787         0.6653       -49.0404        1.59251      0.8071886              1
      9700.0000         0.8174       1419.457        109.334        55.0026       71.16434          0.667       -48.9081       1.724812      0.8120072              1
      9700.5000         0.8105       1493.277       112.3503        54.5706       70.62832         0.6687        -48.983        1.64991      0.8006026              1
      9701.0000         0.8037       1559.646       113.6045        53.7129       69.56017         0.6696       -49.2211       1.411812      0.7778758              1
      9701.5000         0.7968       1610.963       112.8473        52.8552       68.49201         0.6558       -49.4592        1.17371      0.7551492              1
      9702.0000         0.7889       1644.496       112.0457        52.0142       67.44473         0.6418       -49.7069      0.9260101      0.7328665              1
      9702.5000         0.7801       1671.918       114.4528        51.4908       66.79445         0.6279       -49.7094      0.9235115      0.7190308              1
      9703.0000         0.7712       1688.137       116.5577        50.9673       66.14406          0.614       -49.6851      0.9478111      0.7051927              1
      9703.5000         0.7622       1700.059       117.1383         53.134        68.8564          0.594         -50.02      0.6129112      0.7629021              1
      9704.0000         0.7448       1712.008       116.7712        55.1383       71.36575         0.5733       -50.3854      0.2475128      0.8162926              1
      9704.5000         0.7284        1721.73       115.8649        56.3409       72.87297         0.5525       -50.9804     -0.3474884      0.8483611      0.9930502
      9705.0000         0.7147       1727.754       114.9285        56.7632       73.40482         0.5402       -51.5755     -0.9425888       0.859677      0.9811482
      9705.5000         0.7106       1721.471        113.891        56.9412       73.63129         0.5309       -51.2083     -0.5753899      0.8644956      0.9884922
      9706.0000         0.7182       1699.688       113.0881        57.1196       73.85826         0.5217        -50.419       0.213913      0.8693247              1
      9706.5000         0.7257       1675.295       112.4302        57.2975       74.08462         0.5248       -50.0256      0.6073112      0.8741408              1
      9707.0000         0.7342       1648.371       111.6936        57.0505       73.77983         0.5381       -50.3667      0.2662125       0.867656              1
      9707.5000         0.7445       1590.148       110.7473        56.4567       73.04155         0.5515       -50.6029     0.03001022      0.8519478              1
      9708.0000         0.7547       1547.922        110.184        55.8629       72.30328         0.5649       -50.7962     -0.1632881      0.8362401      0.9967343
      9708.5000         0.7704       1513.943       110.4158        55.2292       71.51513         0.5794       -50.9891     -0.3561897      0.8194708      0.9928762
      9709.0000         0.7858        1479.07       110.0906        54.5345       70.65073         0.5937        -51.078     -0.4450874      0.8010793      0.9910982
      9709.5000         0.7966       1441.115       108.1628        54.4287       70.52245         0.6082       -51.1628     -0.5298882      0.7983501      0.9894022
      9710.0000         0.8074       1402.342        107.038        56.0496       72.55255         0.6226       -51.3495     -0.7165871      0.8415436      0.9856682
      9710.5000         0.8147        1413.42       107.0792        57.2571        74.0659         0.6369       -51.5388     -0.9058876      0.8737425      0.9818823
      9711.0000          0.811       1425.467       109.9083        58.4124       75.51399           0.64       -51.8861      -1.253189      0.9045531      0.9749362
      9711.5000         0.8018       1453.287       112.5352        59.3965       76.74809         0.6428       -52.2676      -1.634689      0.9308105      0.9673062
      9712.0000         0.7877       1481.105       113.8972          59.23       76.54395         0.6456       -52.6486       -2.01569      0.9264669      0.9596862
      9712.5000         0.7696       1518.066       114.4702        58.9701       76.22304         0.6485       -51.2132     -0.5802879      0.9196391      0.9883943
      9713.0000         0.7519       1557.113       115.0571        57.8547       74.83276          0.649       -49.8912      0.7417107      0.8900588              1
      9713.5000         0.7366       1596.855       114.5377        56.7368       73.43937         0.6353       -50.1351      0.4978104      0.8604121              1
      9714.0000         0.7219       1636.746       113.3391        55.0711       71.36121         0.6216       -50.3919      0.2410126      0.8161958              1
      9714.5000         0.7144       1677.979       112.9238        53.4453       69.33293         0.6079       -50.5518     0.08111191      0.7730411              1
      9715.0000         0.7171       1696.896       113.5638         52.229       67.81653         0.5942        -50.599     0.03391266      0.7407772              1
      9715.5000         0.7211       1696.375       114.6051        51.5294         66.946         0.5806       -50.6464    -0.01348877      0.7222553      0.9997302
      9716.0000         0.7255       1695.855       115.2518        51.6675        67.1226          0.569       -50.9811     -0.3481865      0.7260129      0.9930363
      9716.5000         0.7295       1695.334        115.097        52.2726       67.88295         0.5609       -52.1855      -1.552589      0.7421904      0.9689482
      9717.0000         0.7271       1695.102       114.2557        52.8763       68.64155         0.5528       -53.0718      -2.438889      0.7583308      0.9512222
      9717.5000          0.721       1697.029       114.4752        53.4801       69.40027         0.5447       -53.6196      -2.986687      0.7744738      0.9402663
      9718.0000         0.7129       1698.957       115.6313        54.5806       70.77987         0.5404       -53.0109      -2.377987       0.803827      0.9524403
      9718.5000         0.7048       1700.889       115.9659        56.7841       73.53822         0.5508        -51.278     -0.6450882      0.8625152      0.9870982
      9719.0000         0.6957       1702.816       115.0446        62.3201       80.46219         0.5613       -50.4899       0.143013              1              1
      9719.5000         0.6865       1674.004       113.5963        62.9425       81.24416         0.5717        -49.908      0.7249107              1              1
