#------------------------------------------------------------------------------
# Created by    : vladimir.rabinovich
# Created on    : 09/19/2023 17:21:28
#------------------------------------------------------------------------------
~Version Information Section
VERS.           2.0     :   CWLS log ASCII Standard - VERSION 2.0
WRAP.           NO      :   One line per depth step
~Well Information Section
#MNEM       .UNIT                                         VALUE :DESCRIPTION
#------------------------------------------------------------------------------
STRT        .FT                                             999 :START DEPTH
STOP        .FT                                           14605 :STOP DEPTH
STEP        .FT                                             0.5 :STEP      
NULL        .                                           -999.25 :NULL      
COMP        .                                      GETTY OIL CO :COMPANY   
WELL        .                               OCS G03116 ST00BP00 :WELL      
FLD         .                                           WILDCAT :FIELD     
LOC         .                                                   :LOCATION  
CNTY        .                                  HIGH ISLAND EAST :LOCATION  
STAT        .                                             TEXAS :STATE     
CTRY        .                                     UNITED STATES :COUNTRY   
SRVC        .                                                   :SERVICE COMPANY
DATE        .                             9/13/2023 11:19:51 AM :LOG DATE  
API         .                                    42710400090000 :API NUMBER
UWI         .                                    42710400090000 :UNIQUE WELL ID
XCOORD      .                                  1371379.55461592 :SURFACE X 
YCOORD      .                                  10664640.0845049 :SURFACE Y 
LAT         .                                        29.3834483 :LATITUDE  
LON         .                                       -93.8450221 :LONGITUDE 
ELEV        .FT                                              80 :ELEVATION VALUE
ELEV_TYPE   .                                                KB :ELEVATION REFERENCE TYPE
~Curve Information Section
#MNEM       .UNIT                                      API CODE :CURVE DESCRIPTION
#------------------------------------------------------------------------------
DEPT        .FT                                                 :DEPTH     
CALI        .IN                                                 :          
DRHO        .G/C3                                               :          
GR          .GAPI                                               :          
GR_NORM     .GAPI                                               :GammaRay Normalized
NPHI        .%                                                  :          
RHOB        .G/C3                                               :          
VSH_GR      .V/V                                                :Volume of Shale from GR
~A        DEPTH           CALI           DRHO             GR        GR_NORM           NPHI           RHOB         VSH_GR
# ...
      6426.0000        12.9186        -0.0154         48.774       54.89237        34.8996         2.1553      0.4657951
      6426.5000        13.0475        -0.0297         49.848       56.50735        36.3145         2.1086      0.5001565
      6427.0000        13.2227        -0.0265        50.4587       57.42554        38.8875         2.1255      0.5196924
      6427.5000        13.2996        -0.0157        50.8622       58.03209        40.7262         2.1594      0.5325977
      6428.0000        13.3177        -0.0083        51.0956        58.3828        39.5412         2.1925      0.5400595
      6428.5000        13.1388        -0.0077        51.0701       58.34414        37.1876         2.2184      0.5392371
      6429.0000        12.9986        -0.0066        50.7357        57.8409        35.9824         2.2509      0.5285297
      6429.5000        12.8977        -0.0036        50.1506       56.96059        35.3645         2.2854      0.5097998
      6430.0000        12.8722         0.0023        49.9933        56.7237        35.0033         2.3273      0.5047596
      6430.5000        12.8403         0.0136        50.4625       57.42907        34.3376         2.3405      0.5197673
      6431.0000        12.8048         0.0122        51.2471       58.60879        34.3862         2.3428      0.5448679
      6431.5000        12.7868         0.0091        51.7044       59.29626        35.2533         2.3546      0.5594949
      6432.0000         12.771         0.0085         51.906       59.59916        36.2802         2.3359      0.5659395
      6432.5000        12.7842         0.0069        51.6166       59.16357        37.5204         2.3096      0.5566718
      6433.0000        12.7976         0.0018        51.1505       58.46225        39.0725         2.2681        0.54175
      6433.5000        12.8114        -0.0101        51.2587       58.62468        41.9381         2.2303       0.545206
      6434.0000        12.8253        -0.0207        51.3004       58.68708        44.6305          2.185      0.5465337
      6434.5000        12.8416        -0.0315        50.8696       58.03883        45.9666         2.1665      0.5327411
      6435.0000        12.8544        -0.0412        50.0553       56.81383         44.923         2.1904      0.5066773
      6435.5000        12.7762        -0.0498        48.8709       55.03217        42.9813           2.23      0.4687696
      6436.0000        12.2391        -0.0652         47.158       52.45567        42.1898         2.2391      0.4139503
      6436.5000        11.5252        -0.0763        45.3957       49.80486         42.447         2.2284      0.3575501
      6437.0000        11.2883        -0.0743        43.8412       47.46657        40.8008          2.201      0.3077993
      6437.5000        11.1881        -0.0626        43.0906       46.33735        39.8505         2.1769      0.2837735
      6438.0000        11.2162        -0.0604        42.7972       45.89577        40.1061         2.1456       0.274378
      6438.5000          11.28        -0.0667         42.973       46.15986         40.105         2.1239      0.2799971
      6439.0000        11.3331        -0.0678        43.2079       46.51284        40.2352         2.1167      0.2875073
      6439.5000        11.3763        -0.0611        43.2913       46.63795        40.5956         2.1263      0.2901692
      6440.0000        11.4028        -0.0538        42.7067       45.75841        40.0128          2.138      0.2714555
      6440.5000        11.4146        -0.0504        42.4614       45.38916        38.2994         2.1577      0.2635992
      6441.0000           11.4        -0.0539        42.7435       45.81314        36.6219         2.1883      0.2726199
      6441.5000        11.3825        -0.0546        43.8709       47.50842        34.6489         2.2194      0.3086899
      6442.0000        11.3553        -0.0473        46.7818        51.8861        30.9983         2.3079       0.401832
      6442.5000        11.4029        -0.0369         49.361       55.76491        27.4581         2.4126      0.4843598
      6443.0000        11.6346         -0.026        52.0813       59.85593        24.5896         2.4335      0.5714028
      6443.5000        11.8073        -0.0216        54.1926       63.03102        23.7165         2.4223       0.638958
      6444.0000        11.8975        -0.0235        56.0862       65.87868        24.2896         2.3996      0.6995463
      6444.5000         11.847        -0.0281        57.9723       68.71507        25.4672         2.3801       0.759895
      6445.0000        11.7662        -0.0419        59.6035       71.16807        26.4821         2.3593      0.8120865
      6445.5000        11.7037        -0.0561        60.9859       73.24689        28.0686         2.3442      0.8563169
      6446.0000        11.6219        -0.0685        61.7384       74.37833        28.8245         2.3381      0.8803901
      6446.5000        11.4918        -0.0797         60.684        72.7922        29.2584         2.3348      0.8466425
      6447.0000         11.369        -0.0851        59.4612        70.9528        29.6185         2.3323      0.8075063
      6447.5000        11.2891        -0.0786         58.226       69.09476        30.5729         2.3357      0.7679735
      6448.0000        11.2445         -0.075        57.3523       67.78039         32.549         2.3296      0.7400082
      6448.5000        11.1998        -0.0825        57.1425       67.46454        34.3175         2.3298       0.733288
      6449.0000        11.0119        -0.0922        57.6499       68.22734        34.3141         2.3358      0.7495179
      6449.5000        10.1366        -0.1015         58.382       69.32813        34.1794         2.3282       0.772939
      6450.0000         9.6797        -0.1108        59.4649        70.9565        35.3384         2.3132      0.8075851
      6450.5000         9.7817        -0.1187        59.6499       71.23444        36.4114         2.3015      0.8134986
      6451.0000        10.0223        -0.1092        59.2303       70.60303        37.1838         2.2971      0.8000646
      6451.5000        10.1956        -0.1123        58.5726       69.61354        37.2924         2.3024      0.7790115
      6452.0000        10.3357        -0.1134        57.6629       68.24504        36.8196         2.3029      0.7498945
      6452.5000        10.4338        -0.1045        56.6617       66.73893        36.1022         2.2947      0.7178496
      6453.0000        10.5017        -0.0922        54.7075       63.79948        35.5966         2.2903      0.6553082
      6453.5000        10.6624        -0.0826        53.4451       61.90053        35.4925          2.299      0.6149048
      6454.0000        10.8193         -0.074        53.3635       61.77749        35.6122         2.3036      0.6122871
      6454.5000        10.9559        -0.0729        54.5008       63.48768        35.4667          2.279      0.6486741
      6455.0000        11.0765         -0.074        55.4971       64.98581        35.4279         2.2615      0.6805491
      6455.5000        11.1687         -0.081        55.9897       65.72635        35.8712         2.2468      0.6963053
      6456.0000        11.2407        -0.0724         55.528       65.03165         36.065         2.2438      0.6815244
      6456.5000        11.2653        -0.0752        55.4139       64.85973        35.4011          2.234      0.6778667
      6457.0000        11.1569        -0.0828        56.9005       67.09526         34.363         2.2431      0.7254311
      6457.5000        11.0461        -0.0826        58.9154       70.12537        33.8045         2.2684      0.7899014
      6458.0000        11.1699        -0.0745        60.8213       72.99152        34.3892         2.2772      0.8508833
      6458.5000        11.0922        -0.0745        62.4946       75.50785        35.6667         2.2857      0.9044223
      6459.0000        10.9778        -0.0768        64.0118       77.78942        36.6376         2.3006      0.9529664
