#------------------------------------------------------------------------------
# Created by    : vladimir.rabinovich
# Created on    : 09/19/2023 17:20:21
#------------------------------------------------------------------------------
~Version Information Section
VERS.           2.0     :   CWLS log ASCII Standard - VERSION 2.0
WRAP.           NO      :   One line per depth step
~Well Information Section
#MNEM       .UNIT                                         VALUE :DESCRIPTION
#------------------------------------------------------------------------------
STRT        .FT                                            1439 :START DEPTH
STOP        .FT                                           13833 :STOP DEPTH
STEP        .FT                                             0.5 :STEP      
NULL        .                                           -999.25 :NULL      
COMP        .                                        EXXON CORP :COMPANY   
WELL        .                               OCS G04992 ST00BP00 :WELL      
FLD         .                                           WILDCAT :FIELD     
LOC         .                                                   :LOCATION  
CNTY        .                               MUSTANG ISLAND EAST :LOCATION  
STAT        .                                             TEXAS :STATE     
CTRY        .                                     UNITED STATES :COUNTRY   
SRVC        .                                                   :SERVICE COMPANY
DATE        .                             9/13/2023 11:20:08 AM :LOG DATE  
API         .                                    42712400640000 :API NUMBER
UWI         .                                    42712400640000 :UNIQUE WELL ID
XCOORD      .                                  530427.861923906 :SURFACE X 
YCOORD      .                                  9963308.63528926 :SURFACE Y 
LAT         .                                        27.4144168 :LATITUDE  
LON         .                                       -96.4214066 :LONGITUDE 
ELEV        .FT                                              73 :ELEVATION VALUE
ELEV_TYPE   .                                                KB :ELEVATION REFERENCE TYPE
~Curve Information Section
#MNEM       .UNIT                                      API CODE :CURVE DESCRIPTION
#------------------------------------------------------------------------------
DEPT        .FT                                                 :DEPTH     
ASFL        .OHMM                                               :          
CILD        .MMHO                                               :          
DT          .US/F                                               :          
GR          .GAPI                                               :          
GR_NORM     .GAPI                                               :GammaRay Normalized
ILD         .OHMM                                               :          
SP          .MV                                                 :          
SP_NORM     .MV                                                 :SP Normalized
VSH_GR      .V/V                                                :Volume of Shale from GR
VSH_SP      .V/V                                                :Volume of Shale from SP
~A        DEPTH           ASFL           CILD             DT             GR        GR_NORM            ILD             SP        SP_NORM         VSH_GR         VSH_SP
# ...
     11337.0000         0.8819       1295.102        96.7706        63.2973       74.22955         0.7667       -45.4705      0.2187195      0.8772244              1
     11337.5000         0.8802       1297.859        98.5372        62.8156       73.62802         0.7697       -45.8857     -0.1987686       0.864426      0.9960246
     11338.0000         0.8741       1300.615        99.5685         62.335       73.02789         0.7715       -46.2081     -0.5234528      0.8516572      0.9895309
     11338.5000         0.8674       1304.504       100.2577        61.7487       72.29562         0.7733       -46.3762     -0.6938438      0.8360771      0.9861231
     11339.0000         0.8554       1309.471       100.7015        61.1524       71.55087          0.775       -46.4615     -0.7814255      0.8202312      0.9843715
     11339.5000         0.8433       1314.451       100.5436         60.403       70.61472         0.7768       -46.2169     -0.5391159      0.8003131      0.9892177
     11340.0000         0.8335       1319.418       100.1284        59.5701        69.5742          0.778       -45.9728     -0.2973061      0.7781745      0.9940539
     11340.5000         0.8242       1324.398       100.1683        59.0597       68.93681         0.7747       -45.6682    0.005008698       0.764613              1
     11341.0000         0.8167       1347.672       101.1091         61.176       71.58279         0.7715       -45.8895     -0.2185783      0.8209105      0.9956284
     11341.5000         0.8128       1371.965       102.0592        62.2765       72.95905         0.7682       -46.1107     -0.4420624      0.8501924      0.9911587
     11342.0000         0.8089       1389.725       102.7159        61.4312       71.90301         0.7649       -45.9971     -0.3307533      0.8277236       0.993385
     11342.5000          0.805       1403.883       102.9615        60.5872       70.84862         0.7616       -45.6395     0.02455902      0.8052897              1
     11343.0000         0.8043       1407.844       102.1877        59.7444       69.79573         0.7583       -45.4792      0.1825752      0.7828879              1
     11343.5000         0.8036       1401.498       100.8369        58.9016       68.74284         0.7565       -45.3762      0.2832832       0.760486              1
     11344.0000         0.8042       1395.164        99.8231        58.0588       67.68996         0.7583       -45.2808         0.3764      0.7380842              1
     11344.5000         0.8069       1389.014       100.1802        58.3676       68.07656           0.76       -45.5776     0.07731247      0.7463098              1
     11345.0000         0.8096       1387.262       101.5935        59.7817        69.8448         0.7618       -45.9392     -0.2865753       0.783932      0.9942685
     11345.5000         0.8123       1385.508       102.1622        62.4891       73.22966         0.7636       -46.3009     -0.6505623      0.8559502      0.9869888
     11346.0000         0.8141       1383.754       101.7595        62.4639       73.19878         0.7653       -46.7839      -1.135853      0.8552931      0.9772829
     11346.5000         0.8157       1373.977       100.6147        62.4987       73.24287         0.7715       -47.3068      -1.661037      0.8562314      0.9667792
     11347.0000         0.8174       1359.248        99.4462        62.7054       73.50186         0.7799       -47.8296      -2.186127      0.8617417      0.9562775
     11347.5000         0.8226       1344.518        99.1545         62.912       73.76072         0.7883       -48.3537      -2.712509      0.8672494      0.9457498
     11348.0000         0.8295       1334.881       100.0079        63.1853       74.10295         0.7967       -48.1984      -2.559498      0.8745309        0.94881
     11348.5000         0.8382       1327.182       100.8381         63.504       74.50195         0.8051        -48.007      -2.370388      0.8830203      0.9525923
     11349.0000         0.8497        1319.48       100.4799        63.4368       74.41856         0.8129       -47.8791      -2.244774      0.8812459      0.9551045
     11349.5000         0.8612       1311.844        99.0166        60.5337       70.79029         0.8182       -47.8336      -2.201561      0.8040487      0.9559688
     11350.0000         0.8708         1305.1        97.3386        55.4545        64.4419         0.8235       -47.8865      -2.256748      0.6689767       0.954865
     11350.5000           0.88       1298.367        96.6458        53.1863       61.60726         0.8288        -47.927      -2.299534      0.6086652      0.9540093
     11351.0000         0.8907       1291.637        98.4623        51.9887       60.11087         0.8341       -47.7689      -2.143723      0.5768271      0.9571255
     11351.5000         0.9028       1273.355       101.0692        52.5016       60.75261         0.8299       -47.6108      -1.987911       0.590481      0.9602418
     11352.0000         0.8985       1252.193       102.7721        53.7291       62.28759         0.8252       -47.4527        -1.8321      0.6231403       0.963358
     11352.5000         0.8901       1259.098        103.136        55.0188       63.90033         0.8205       -47.2747      -1.656384      0.6574538      0.9668723
     11353.0000         0.8715       1281.154       103.1556         56.545       65.80869         0.8158       -47.0827      -1.466671      0.6980571      0.9706666
     11353.5000         0.8463       1321.691       103.2896        57.9343       67.54593         0.8107       -46.9639      -1.350159      0.7350197      0.9729968
     11354.0000         0.8193       1361.086       102.4425        58.9863       68.86154         0.8051       -46.7914      -1.179947      0.7630115      0.9764011
     11354.5000         0.8074       1391.389       100.2277        59.6984       69.75227         0.7994       -46.3531     -0.7439346      0.7819633      0.9851213
     11355.0000         0.7956       1402.268        98.9979        59.9436       70.05937         0.7971       -46.4443     -0.8374214      0.7884973      0.9832516
     11355.5000         0.7909       1341.463        98.8524         59.912       70.02048         0.8014       -46.5355     -0.9309082      0.7876699      0.9813818
     11356.0000         0.7984       1268.238       102.1328        59.8805       69.98173         0.8057       -46.6267      -1.024395      0.7868453      0.9795121
     11356.5000         0.8087       1249.857       104.6498         59.849       69.94296         0.8099       -46.7179      -1.117882      0.7860205      0.9776424
     11357.0000         0.8189       1240.568       107.0095        59.8174       69.90408         0.8142       -46.8225      -1.224766      0.7851933      0.9755047
     11357.5000         0.8292       1235.813       108.5688         62.152       72.82294         0.8184       -46.9563      -1.360855      0.8472965      0.9727829
     11358.0000         0.8489       1231.068       109.1681        63.1255       74.04041         0.8211       -47.0898      -1.496647      0.8732003      0.9700671
     11358.5000         0.8405       1226.311       109.3445        63.4841       74.48928           0.82       -47.2236      -1.632729      0.8827506      0.9673454
     11359.0000          0.832       1224.199       109.1544         63.822       74.91225         0.8189       -47.3752      -1.786617      0.8917501      0.9642677
     11359.5000         0.8223       1225.842       108.4265        64.2123       75.40074         0.8177       -47.5601      -1.973804      0.9021434      0.9605239
     11360.0000         0.8126       1227.484        106.962        65.0638       76.46572         0.8166       -47.7269      -2.142891      0.9248026      0.9571422
     11360.5000         0.8072       1229.127        104.585        65.9352       77.55559         0.8157       -47.4238      -1.842083      0.9479913      0.9631584
     11361.0000         0.8044        1230.77       102.4924        66.8141       78.65482          0.817       -46.2984     -0.7189674      0.9713792      0.9856207
