#------------------------------------------------------------------------------
# Created by    : vladimir.rabinovich
# Created on    : 09/19/2023 17:20:40
#------------------------------------------------------------------------------
~Version Information Section
VERS.           2.0     :   CWLS log ASCII Standard - VERSION 2.0
WRAP.           NO      :   One line per depth step
~Well Information Section
#MNEM       .UNIT                                         VALUE :DESCRIPTION
#------------------------------------------------------------------------------
STRT        .FT                                             769 :START DEPTH
STOP        .FT                                           10573 :STOP DEPTH
STEP        .FT                                             0.5 :STEP      
NULL        .                                           -999.25 :NULL      
COMP        .                                        TEXACO INC :COMPANY   
WELL        .                               OCS G01846 ST00BP00 :WELL      
FLD         .                            HIGH ISLAND BLOCK 0129 :FIELD     
LOC         .                                                   :LOCATION  
CNTY        .                                  HIGH ISLAND EAST :LOCATION  
STAT        .                                             TEXAS :STATE     
CTRY        .                                     UNITED STATES :COUNTRY   
SRVC        .                                                   :SERVICE COMPANY
DATE        .                             9/13/2023 11:19:51 AM :LOG DATE  
API         .                                    42710300030000 :API NUMBER
UWI         .                                    42710300030000 :UNIQUE WELL ID
XCOORD      .                                   1386052.0565626 :SURFACE X 
YCOORD      .                                   10637380.600337 :SURFACE Y 
LAT         .                                        29.3087467 :LATITUDE  
LON         .                                       -93.7983562 :LONGITUDE 
ELEV        .FT                                              81 :ELEVATION VALUE
ELEV_TYPE   .                                                KB :ELEVATION REFERENCE TYPE
~Curve Information Section
#MNEM       .UNIT                                      API CODE :CURVE DESCRIPTION
#------------------------------------------------------------------------------
DEPT        .FT                                                 :DEPTH     
ASN         .OHMM                                               :          
CALI        .IN                                                 :          
DRHO        .G/C3                                               :          
GR          .GAPI                                               :          
GR_1        .GAPI                                               :          
GR_NORM     .GAPI                                               :GammaRay Normalized
ILD         .OHMM                                               :          
RHOB        .G/C3                                               :          
SP          .MV                                                 :          
SP_NORM     .MV                                                 :SP Normalized
VSH_GR      .V/V                                                :Volume of Shale from GR
VSH_SP      .V/V                                                :Volume of Shale from SP
~A        DEPTH            ASN           CALI           DRHO             GR           GR_1        GR_NORM            ILD           RHOB             SP        SP_NORM         VSH_GR         VSH_SP
# ...
      8600.0000         1.1355        -999.25         0.0145        -999.25        -999.25        -999.25         1.0643        -999.25        -20.125      0.3598328        -999.25              1
      8600.5000         1.1318        -999.25         0.0082        -999.25        -999.25        -999.25         1.0617        -999.25       -20.1022      0.3816299        -999.25              1
      8601.0000          1.126        -999.25         0.0036        -999.25        -999.25        -999.25         1.0542        -999.25       -20.0795      0.4033241        -999.25              1
      8601.5000         1.1203        -999.25         0.0053        -999.25        -999.25        -999.25         1.0435        -999.25       -20.0708      0.4110184        -999.25              1
      8602.0000         1.1088        -999.25          0.006        -999.25        -999.25        -999.25         1.0257        -999.25       -20.0739      0.4069157        -999.25              1
      8602.5000         1.0949        -999.25         0.0063        -999.25        -999.25        -999.25         1.0054        -999.25       -20.0771        0.40271        -999.25              1
      8603.0000         1.0812        -999.25         0.0125        -999.25        -999.25        -999.25         0.9877        -999.25       -20.0802      0.3986053        -999.25              1
      8603.5000         1.0698        -999.25         0.0228        -999.25        -999.25        -999.25         0.9819        -999.25       -20.0834      0.3943996        -999.25              1
      8604.0000         1.0603        -999.25         0.0252        -999.25        -999.25        -999.25         0.9768        -999.25       -20.0793      0.3974972        -999.25              1
      8604.5000          1.059        -999.25         0.0208        -999.25        -999.25        -999.25         0.9718        -999.25       -20.0739      0.4018917        -999.25              1
      8605.0000         1.0627        -999.25         0.0165        -999.25        -999.25        -999.25         0.9673        -999.25       -20.0686      0.4061871        -999.25              1
      8605.5000         1.0671        -999.25         0.0123        -999.25        -999.25        -999.25         0.9639        -999.25       -20.0633      0.4104824        -999.25              1
      8606.0000         1.0715        -999.25         0.0082        -999.25        -999.25        -999.25         0.9604        -999.25       -20.0756      0.3971786        -999.25              1
      8606.5000         1.0739        -999.25         0.0078        -999.25        -999.25        -999.25         0.9557        -999.25        -20.155      0.3167725        -999.25              1
      8607.0000         1.0763        -999.25          0.008        -999.25        -999.25        -999.25         0.9488        -999.25       -20.2343      0.2364674        -999.25              1
      8607.5000         1.0809        -999.25         0.0148        -999.25        -999.25        -999.25         0.9419        -999.25       -20.3138      0.1559639        -999.25              1
      8608.0000         1.0855        -999.25         0.0215        -999.25        -999.25        -999.25         0.9388        -999.25       -20.4245     0.04426003        -999.25              1
      8608.5000         1.0899        -999.25         0.0294        -999.25        -999.25        -999.25         0.9365        -999.25       -20.5569    -0.08914566        -999.25      0.9987265
      8609.0000         1.0942        -999.25         0.0375        -999.25        -999.25        -999.25         0.9357        -999.25       -20.6894     -0.2226505        -999.25      0.9968193
      8609.5000         1.0894        -999.25         0.0381        -999.25        -999.25        -999.25         0.9367        -999.25       -20.8217     -0.3559532        -999.25      0.9949149
      8610.0000         1.0779        -999.25         0.0361        -999.25        -999.25        -999.25          0.939        -999.25       -20.7744       -0.30966        -999.25      0.9955763
      8610.5000         1.0682        -999.25         0.0283        -999.25        -999.25        -999.25         0.9463        -999.25       -20.7126     -0.2488651        -999.25      0.9964448
      8611.0000         1.0597        -999.25         0.0211        -999.25        -999.25        -999.25         0.9536        -999.25       -20.6509     -0.1881676        -999.25      0.9973119
      8611.5000         1.0643        -999.25         0.0164        -999.25        -999.25        -999.25         0.9616        -999.25       -20.6684     -0.2066727        -999.25      0.9970475
      8612.0000          1.078        -999.25         0.0236        -999.25        -999.25        -999.25         0.9698        -999.25       -20.6962     -0.2354774        -999.25       0.996636
      8612.5000         1.1004        -999.25         0.0308        -999.25        -999.25        -999.25         0.9779        -999.25       -20.7239      -0.264183        -999.25       0.996226
      8613.0000         1.1155        -999.25         0.0366        -999.25        -999.25        -999.25         0.9858        -999.25        -20.735     -0.2762871        -999.25       0.996053
      8613.5000         1.1224        -999.25         0.0418        -999.25        -999.25        -999.25         0.9937        -999.25       -20.7382     -0.2804909        -999.25       0.995993
      8614.0000         1.1291        -999.25         0.0464        -999.25        -999.25        -999.25         0.9986        -999.25       -20.7385     -0.2817974        -999.25      0.9959743
      8614.5000         1.1306        -999.25         0.0455        -999.25        -999.25        -999.25         1.0029        -999.25       -20.7245     -0.2688026        -999.25        0.99616
      8615.0000         1.1231        -999.25         0.0404        -999.25        -999.25        -999.25         1.0018        -999.25       -20.7105      -0.255806        -999.25      0.9963456
      8615.5000         1.1172        -999.25         0.0326        -999.25        -999.25        -999.25         0.9935        -999.25        -20.637     -0.1833096        -999.25      0.9973813
      8616.0000         1.1233        -999.25         0.0263        -999.25        -999.25        -999.25         0.9908        -999.25       -20.5542     -0.1015148        -999.25      0.9985498
      8616.5000         1.1295        -999.25         0.0196        -999.25        -999.25        -999.25         0.9877        -999.25       -20.4828    -0.03111839        -999.25      0.9995555
      8617.0000         1.1203        -999.25         0.0106        -999.25        -999.25        -999.25         0.9612        -999.25       -20.5025    -0.05182457        -999.25      0.9992597
      8617.5000         1.1006        -999.25          0.013        -999.25        -999.25        -999.25         0.9285        -999.25       -20.5222    -0.07252884        -999.25      0.9989639
      8618.0000         1.0717        -999.25         0.0194        -999.25        -999.25        -999.25         0.9116        -999.25       -20.6604     -0.2117348        -999.25      0.9969752
      8618.5000         1.0529        -999.25         0.0268        -999.25        -999.25        -999.25         0.9014        -999.25       -20.8432     -0.3955383        -999.25      0.9943495
      8619.0000         1.0403        -999.25         0.0124        -999.25        -999.25        -999.25         0.8912        -999.25       -20.8608     -0.4141426        -999.25      0.9940837
      8619.5000         1.0381        -999.25         0.0056        -999.25        -999.25        -999.25         0.8861        -999.25       -20.8234     -0.3777485        -999.25      0.9946036
      8620.0000          1.037        -999.25         0.0127        -999.25        -999.25        -999.25         0.8824        -999.25       -20.7861     -0.3414536        -999.25      0.9951221
