#------------------------------------------------------------------------------
# Created by    : vladimir.rabinovich
# Created on    : 09/19/2023 17:21:28
#------------------------------------------------------------------------------
~Version Information Section
VERS.           2.0     :   CWLS log ASCII Standard - VERSION 2.0
WRAP.           NO      :   One line per depth step
~Well Information Section
#MNEM       .UNIT                                         VALUE :DESCRIPTION
#------------------------------------------------------------------------------
STRT        .FT                                             999 :START DEPTH
STOP        .FT                                           14605 :STOP DEPTH
STEP        .FT                                             0.5 :STEP      
NULL        .                                           -999.25 :NULL      
COMP        .                                      GETTY OIL CO :COMPANY   
WELL        .                               OCS G03116 ST00BP00 :WELL      
FLD         .                                           WILDCAT :FIELD     
LOC         .                                                   :LOCATION  
CNTY        .                                  HIGH ISLAND EAST :LOCATION  
STAT        .                                             TEXAS :STATE     
CTRY        .                                     UNITED STATES :COUNTRY   
SRVC        .                                                   :SERVICE COMPANY
DATE        .                             9/13/2023 11:19:51 AM :LOG DATE  
API         .                                    42710400090000 :API NUMBER
UWI         .                                    42710400090000 :UNIQUE WELL ID
XCOORD      .                                  1371379.55461592 :SURFACE X 
YCOORD      .                                  10664640.0845049 :SURFACE Y 
LAT         .                                        29.3834483 :LATITUDE  
LON         .                                       -93.8450221 :LONGITUDE 
ELEV        .FT                                              80 :ELEVATION VALUE
ELEV_TYPE   .                                                KB :ELEVATION REFERENCE TYPE
~Curve Information Section
#MNEM       .UNIT                                      API CODE :CURVE DESCRIPTION
#------------------------------------------------------------------------------
DEPT        .FT                                                 :DEPTH     
CALI        .IN                                                 :          
DRHO        .G/C3                                               :          
GR          .GAPI                                               :          
GR_NORM     .GAPI                                               :GammaRay Normalized
NPHI        .%                                                  :          
RHOB        .G/C3                                               :          
VSH_GR      .V/V                                                :Volume of Shale from GR
~A        DEPTH           CALI           DRHO             GR        GR_NORM           NPHI           RHOB         VSH_GR
# ...
     11853.0000         10.272        -0.0562        57.5358       75.46596        41.8798         2.3161       0.903531
     11853.5000        10.2554        -0.0442        58.6539       77.14758        41.9759         2.2837      0.9393101
     11854.0000        10.2355        -0.0624        59.9966         79.167        41.9553          2.277      0.9822766
     11854.5000        10.2152        -0.0696        61.1345       80.87841        41.8753          2.307              1
     11855.0000        10.1847        -0.0563        60.9347       80.57791        41.6497         2.3309              1
     11855.5000        10.1577        -0.0415        57.9614       76.10606        41.3028         2.3386      0.9171501
     11856.0000        10.1459        -0.0288        55.9189       73.03413        40.7277         2.3452      0.8517901
     11856.5000        10.1456        -0.0285        55.1458        71.8714        40.3425         2.3232       0.827051
     11857.0000        10.0765        -0.0327        55.9437       73.07143        40.5979         2.3128      0.8525837
     11857.5000         9.9201        -0.0329        57.2293       75.00498        41.4095         2.3154       0.893723
     11858.0000         9.8282        -0.0215        57.3978        75.2584        42.5478         2.3252      0.8991149
     11858.5000         9.8502        -0.0081        57.7133       75.73291         43.158           2.32      0.9092109
     11859.0000         9.8621        -0.0034        60.1083         79.335        42.3419         2.3308       0.985851
     11859.5000         9.8633         0.0002        61.5279       81.47008        40.9455         2.3422              1
     11860.0000         9.8593         0.0011        62.4189       82.81013         39.649         2.3519              1
     11860.5000         9.8553        -0.0023        62.8631        83.4782        39.3874         2.3429              1
     11861.0000         9.8511         -0.008        63.0214       83.71631        39.9221          2.338              1
     11861.5000         9.8437        -0.0132        62.4611       82.87361        40.8589         2.3214              1
     11862.0000         9.8309        -0.0163         61.585       81.55595        41.4975         2.3065              1
     11862.5000         9.7481        -0.0102        60.8094       80.38945        41.7634          2.311              1
     11863.0000         9.7086        -0.0116        60.0549       79.25467        41.8289         2.2978      0.9841419
     11863.5000         9.7059        -0.0191        59.7205       78.75174        41.7763         2.2889      0.9734412
     11864.0000          9.696        -0.0232         59.118       77.84558        41.3102         2.2925      0.9541613
     11864.5000         9.7018        -0.0217        58.4218       76.79849        41.1039         2.3055      0.9318828
     11865.0000         9.7185        -0.0227         58.773       77.32671        41.1154         2.2956      0.9431214
     11865.5000         9.7644        -0.0358        59.7037       78.72648        41.3662         2.3002      0.9729038
     11866.0000         9.7994        -0.0536        60.5866       80.05437        41.9928         2.2818              1
     11866.5000         9.8038        -0.0699        60.8404       80.43608        42.1575         2.2709              1
     11867.0000         9.7889        -0.0676        61.7661       81.82833        42.0476          2.284              1
     11867.5000         9.7719        -0.0576        62.7254       83.27111        41.7263         2.3186              1
     11868.0000         9.7755        -0.0488        62.6456       83.15109        42.1793         2.3163              1
     11868.5000         9.8171        -0.0413        62.5699       83.03724        43.1714           2.31              1
     11869.0000         9.8531        -0.0365        62.3841       82.75781        44.1653         2.3139              1
     11869.5000         9.7665        -0.0349        60.9496        80.6003        43.6309         2.3109              1
     11870.0000         9.5354        -0.0334         59.391       78.25618        42.3315         2.2955      0.9628974
     11870.5000         9.4909        -0.0326        58.1947       76.45694        42.0234         2.2923      0.9246157
     11871.0000           9.53        -0.0287        57.4052       75.26954        41.8943         2.2983      0.8993519
     11871.5000         9.5605         -0.028        57.6512       75.63951        41.9268         2.2953      0.9072236
     11872.0000         9.5799        -0.0276        58.4764       76.88062        41.9536         2.2897      0.9336301
     11872.5000         9.5856         -0.024         59.198       77.96591        41.9055         2.2995      0.9567215
     11873.0000         9.5724        -0.0101        59.4362       78.32416        41.6168         2.3228      0.9643438
     11873.5000         9.5667        -0.0015         59.353       78.19903        41.0261         2.3293      0.9616814
     11874.0000         9.5612         0.0013        59.9208         79.053        39.9071         2.3257      0.9798511
     11874.5000         9.5538         0.0014        60.5997       80.07407        37.9528         2.3276              1
     11875.0000         9.5501         0.0002        60.9899       80.66092        36.8868         2.3375              1
     11875.5000         9.5501        -0.0015        60.6915       80.21213        37.2198         2.3359              1
     11876.0000         9.5521        -0.0071        60.5676       80.02578        37.1583         2.3208              1
     11876.5000         9.5557        -0.0125         60.583       80.04895        37.0009         2.3102              1
     11877.0000         9.5614        -0.0161        60.2547       79.55518        37.5171         2.3047      0.9905357
     11877.5000         9.5685        -0.0139        59.7766       78.83611        38.4645         2.3099      0.9752365
     11878.0000         9.5775        -0.0058        59.6655       78.66902        38.6979         2.3304      0.9716813
     11878.5000         9.5979        -0.0044        59.6623       78.66422        37.6305         2.3352       0.971579
     11879.0000          9.614         -0.012        59.5951       78.56315        37.0539         2.3275      0.9694287
     11879.5000         9.6045        -0.0188        59.4675       78.37122        37.1518         2.3277      0.9653452
     11880.0000         9.5866        -0.0209        59.4583        78.3574        37.1836         2.3359      0.9650511
     11880.5000         9.6018        -0.0115        59.7558       78.80482        36.9901         2.3367      0.9745708
     11881.0000          9.643        -0.0051        60.2097        79.4875         36.897         2.3278      0.9890956
     11881.5000         9.6701        -0.0155        59.6789       78.68919        37.1322         2.3165      0.9721105
     11882.0000         9.6753        -0.0271        59.2154       77.99208        37.9125         2.3162      0.9572783
     11882.5000         9.6777        -0.0369        59.6901       78.70603        38.7524         2.3078      0.9724687
     11883.0000         9.6808        -0.0407        60.4284       79.81644        39.3655         2.3151      0.9960944
     11883.5000         9.7034        -0.0358        61.4733       81.38795        39.8459         2.2936              1
     11884.0000         9.7547        -0.0337        62.4238       82.81751        40.0707         2.2842              1
     11884.5000         9.8208        -0.0373        63.0263       83.72368         39.567         2.2889              1
     11885.0000         9.8531        -0.0433        63.1125       83.85332        38.2839         2.2737              1
     11885.5000         9.8818        -0.0423        62.7412       83.29488        37.8162           2.28              1
     11886.0000         9.8925          -0.02        62.8358       83.43716        38.2929         2.2966              1
