#------------------------------------------------------------------------------
# Created by    : vladimir.rabinovich
# Created on    : 09/19/2023 17:20:47
#------------------------------------------------------------------------------
~Version Information Section
VERS.           2.0     :   CWLS log ASCII Standard - VERSION 2.0
WRAP.           NO      :   One line per depth step
~Well Information Section
#MNEM       .UNIT                                         VALUE :DESCRIPTION
#------------------------------------------------------------------------------
STRT        .FT                                            1960 :START DEPTH
STOP        .FT                                           13420 :STOP DEPTH
STEP        .FT                                             0.5 :STEP      
NULL        .                                           -999.25 :NULL      
COMP        .                                 CALIFORNIA CO THE :COMPANY   
WELL        .                                     ST TR 00002-L :WELL      
FLD         .                                           WILDCAT :FIELD     
LOC         .                                                   :LOCATION  
CNTY        .                                       SABINE PASS :LOCATION  
STAT        .                                             TEXAS :STATE     
CTRY        .                                     UNITED STATES :COUNTRY   
SRVC        .                                                   :SERVICE COMPANY
DATE        .                             9/13/2023 11:12:08 AM :LOG DATE  
API         .                                    42715000310000 :API NUMBER
UWI         .                                    42715000310000 :UNIQUE WELL ID
XCOORD      .                                  1372392.72802961 :SURFACE X 
YCOORD      .                                   10750257.969662 :SURFACE Y 
LAT         .                                         29.618979 :LATITUDE  
LON         .                                       -93.8437903 :LONGITUDE 
ELEV        .FT                                              11 :ELEVATION VALUE
ELEV_TYPE   .                                                KB :ELEVATION REFERENCE TYPE
~Curve Information Section
#MNEM       .UNIT                                      API CODE :CURVE DESCRIPTION
#------------------------------------------------------------------------------
DEPT        .FT                                                 :DEPTH     
ASN         .OHMM                                               :          
IL          .OHMM                                               :          
SP          .MV                                                 :          
SP_NORM     .MV                                                 :SP Normalized
VSH_SP      .V/V                                                :Volume of Shale from SP
~A        DEPTH            ASN             IL             SP        SP_NORM         VSH_SP
# ...
     12608.0000         1.2351         0.9781       -40.7968     -0.9385095      0.9865927
     12608.5000         1.2411         0.9732       -40.8333     -0.9735522      0.9860921
     12609.0000         1.2443         0.9683       -40.8604      -0.999568      0.9857205
     12609.5000         1.2346         0.9634       -40.8714      -1.010126      0.9855697
     12610.0000         1.2248         0.9585       -40.8824      -1.020687      0.9854187
     12610.5000         1.2151         0.9536       -40.8934      -1.031245      0.9852679
     12611.0000         1.2077         0.9487       -40.8098       -0.95099      0.9864144
     12611.5000         1.2009         0.9438       -40.6942     -0.8400134      0.9879998
     12612.0000          1.194         0.9289       -40.7432     -0.8870533      0.9873278
     12612.5000         1.1871         0.9139       -40.8031     -0.9445593      0.9865063
     12613.0000         1.1802         0.8989       -40.8788       -1.01723      0.9854681
     12613.5000         1.1733         0.8839       -40.9682      -1.103055      0.9842421
     12614.0000         1.1664          0.869       -41.0576      -1.188877      0.9830161
     12614.5000         1.1591          0.854        -41.147      -1.274702      0.9817899
     12615.0000         1.1517          0.839       -41.1891      -1.315117      0.9812126
     12615.5000         1.1443          0.824       -41.1903      -1.316271      0.9811961
     12616.0000         1.1368         0.8161       -41.1916      -1.317519      0.9811783
     12616.5000         1.1482         0.8198       -41.1642      -1.291215      0.9815541
     12617.0000         1.1694         0.8234       -41.0779      -1.208367      0.9827376
     12617.5000         1.1906         0.8271       -40.9915      -1.125423      0.9839225
     12618.0000         1.2118         0.8307       -40.9054      -1.042766      0.9851034
     12618.5000         1.2298         0.8343       -40.8236     -0.9642396      0.9862251
     12619.0000         1.2454          0.838       -40.7419      -0.885808      0.9873456
     12619.5000          1.261         0.8438       -40.6601     -0.8072778      0.9884675
     12620.0000         1.2767         0.8536       -40.6111     -0.7602379      0.9891394
     12620.5000          1.292         0.8635       -40.6443     -0.7921093      0.9886842
     12621.0000         1.3058         0.8733       -40.6776     -0.8240795      0.9882274
     12621.5000         1.3195         0.8832       -40.7108      -0.855951      0.9877721
     12622.0000         1.3332          0.893        -40.744     -0.8878223      0.9873168
     12622.5000         1.3311         0.9029       -40.7314     -0.8757263      0.9874896
     12623.0000         1.3265         0.9127       -40.7124     -0.8574854      0.9877502
     12623.5000          1.322         0.9228       -40.6934      -0.839248      0.9880108
     12624.0000         1.3174          0.934       -40.6743     -0.8209119      0.9882727
     12624.5000         1.3129         0.9453       -40.6553     -0.8026709      0.9885333
     12625.0000         1.3214         0.9565       -40.6496     -0.7971998      0.9886115
     12625.5000         1.3319         0.9678       -40.6508     -0.7983497       0.988595
     12626.0000         1.3423         0.9791        -40.652     -0.7995033      0.9885785
     12626.5000         1.3528         0.9903       -40.6533      -0.800752      0.9885607
     12627.0000         1.3632         1.0016       -40.6545     -0.8019019      0.9885443
     12627.5000         1.3729         1.0129       -40.6558     -0.8031506      0.9885264
     12628.0000         1.3824         1.0241        -40.657     -0.8043041        0.98851
     12628.5000          1.392         1.0325       -40.6377     -0.7857741      0.9887747
     12629.0000         1.4015         1.0377       -40.5922      -0.742096      0.9893987
     12629.5000          1.411         1.0429       -40.5467     -0.6984143      0.9900227
     12630.0000         1.4105         1.0482       -40.5209     -0.6736475      0.9903765
     12630.5000         1.4023         1.0534       -40.5221     -0.6747974        0.99036
     12631.0000         1.3941         1.0586       -40.5239     -0.6765258      0.9903353
     12631.5000         1.3859         1.0639       -40.5643     -0.7153112      0.9897813
     12632.0000         1.3797         1.0691       -40.6047     -0.7540929      0.9892272
     12632.5000          1.374         1.0743        -40.645     -0.7927832      0.9886745
     12633.0000         1.3683         1.0795       -40.6514     -0.7989282      0.9885867
     12633.5000         1.3627         1.0839       -40.6087     -0.7579345      0.9891723
     12634.0000          1.357         1.0871        -40.566     -0.7169447       0.989758
     12634.5000         1.3513         1.0903       -40.5234     -0.6760461      0.9903422
     12635.0000         1.3485         1.0935       -40.4911     -0.6450392      0.9907852
     12635.5000         1.3466         1.0967       -40.4747     -0.6292956      0.9910101
     12636.0000         1.3447         1.0999       -40.4965     -0.6502209      0.9907112
     12636.5000         1.3428         1.1031        -40.579     -0.7294213      0.9895797
     12637.0000         1.3408         1.1063       -40.6616     -0.8087171      0.9884469
     12637.5000         1.3389         1.1094       -40.6877     -0.8337733       0.988089
     12638.0000         1.3461         1.1126       -40.6982     -0.8438549      0.9879449
     12638.5000         1.3559         1.1158       -40.7087     -0.8539332       0.987801
     12639.0000         1.3657          1.119       -40.7192     -0.8640149       0.987657
     12639.5000         1.3755         1.1201       -40.7111     -0.8562403       0.987768
     12640.0000         1.3838         1.1198       -40.7026     -0.8480773      0.9878846
     12640.5000         1.3907         1.1194       -40.6941     -0.8399183      0.9880012
     12641.0000         1.3975         1.1191       -40.7128     -0.8578699      0.9877447
     12641.5000          1.397         1.1187       -40.7802     -0.9225757      0.9868203
     12642.0000         1.3797         1.1184       -40.8474     -0.9870875      0.9858987
     12642.5000         1.3612          1.118       -40.9073       -1.04459      0.9850773
     12643.0000         1.3416         1.1177       -40.9271        -1.0636      0.9848057
     12643.5000         1.3221         1.1173       -40.9468      -1.082511      0.9845356
     12644.0000         1.3101         1.1135       -40.9666      -1.101517       0.984264
     12644.5000         1.3114         1.1096        -40.947      -1.082701      0.9845328
     12645.0000         1.3175         1.1056       -40.8539     -0.9933276      0.9858096
     12645.5000         1.3322         1.1017       -40.7608     -0.9039502      0.9870864
     12646.0000          1.347         1.0978       -40.6884     -0.8344469      0.9880793
     12646.5000         1.3398         1.0938       -40.6239     -0.7725282      0.9889639
     12647.0000         1.3237         1.0899       -40.5593     -0.7105103      0.9898499
     12647.5000         1.3076         1.0872       -40.4947     -0.6484962      0.9907358
     12648.0000         1.3007         1.0915       -40.4302     -0.5865735      0.9916204
     12648.5000         1.2969         1.0958       -40.5564      -0.707727      0.9898896
     12649.0000         1.2932         1.1001       -40.7015     -0.8470228      0.9878997
     12649.5000         1.2894         1.1044       -40.8464     -0.9861279      0.9859124
     12650.0000         1.3068         1.1087       -40.9916      -1.125519      0.9839212
     12650.5000         1.3256         1.1104       -41.1368       -1.26491      0.9819298
     12651.0000         1.3444         1.0945       -41.2051       -1.33048      0.9809932
     12651.5000         1.3629         1.0786       -41.2018      -1.327312      0.9810384
