#------------------------------------------------------------------------------
# Created by    : vladimir.rabinovich
# Created on    : 09/19/2023 17:21:38
#------------------------------------------------------------------------------
~Version Information Section
VERS.           2.0     :   CWLS log ASCII Standard - VERSION 2.0
WRAP.           NO      :   One line per depth step
~Well Information Section
#MNEM       .UNIT                                         VALUE :DESCRIPTION
#------------------------------------------------------------------------------
STRT        .FT                                            1242 :START DEPTH
STOP        .FT                                            7802 :STOP DEPTH
STEP        .FT                                             0.5 :STEP      
NULL        .                                           -999.25 :NULL      
COMP        .                                    CITIES SERVICE :COMPANY   
WELL        .                               OCS G03070 ST00BP00 :WELL      
FLD         .                                           WILDCAT :FIELD     
LOC         .                                                   :LOCATION  
CNTY        .                               MUSTANG ISLAND EAST :LOCATION  
STAT        .                                             TEXAS :STATE     
CTRY        .                                     UNITED STATES :COUNTRY   
SRVC        .                                                   :SERVICE COMPANY
DATE        .                             9/13/2023 11:20:08 AM :LOG DATE  
API         .                                    42712400230000 :API NUMBER
UWI         .                                    42712400230000 :UNIQUE WELL ID
XCOORD      .                                  541821.370048326 :SURFACE X 
YCOORD      .                                   9995115.4612029 :SURFACE Y 
LAT         .                                         27.502648 :LATITUDE  
LON         .                                       -96.3890109 :LONGITUDE 
ELEV        .FT                                              64 :ELEVATION VALUE
ELEV_TYPE   .                                                KB :ELEVATION REFERENCE TYPE
~Curve Information Section
#MNEM       .UNIT                                      API CODE :CURVE DESCRIPTION
#------------------------------------------------------------------------------
DEPT        .FT                                                 :DEPTH     
CALI        .IN                                                 :          
CILD        .MMHO                                               :          
DRHO        .G/C3                                               :          
DT          .US/F                                               :          
GR          .GAPI                                               :          
GR_1        .GAPI                                               :          
GR_NORM     .GAPI                                               :GammaRay Normalized
ILD         .OHMM                                               :          
NPHI        .%                                                  :          
RHOB        .G/C3                                               :          
SFL         .OHMM                                               :          
SP          .MV                                                 :          
SP_NORM     .MV                                                 :SP Normalized
VSH_GR      .V/V                                                :Volume of Shale from GR
VSH_SP      .V/V                                                :Volume of Shale from SP
~A        DEPTH           CALI           CILD           DRHO             DT             GR           GR_1        GR_NORM            ILD           NPHI           RHOB            SFL             SP        SP_NORM         VSH_GR         VSH_SP
# ...
      6920.0000        12.7887       1387.785         0.0709       133.5937        60.2839        65.1949       83.00526         0.7119        37.1178         2.3952          0.881       -46.8241       1.129116              1              1
      6920.5000        12.7673       1384.926         0.0571       133.5273         59.931        65.3481       83.19675         0.7007        37.0753         2.3824         0.8523        -46.943       1.010216              1              1
      6921.0000          12.77       1386.596          0.056       133.0767        60.3284        64.8029       82.51526         0.6925        36.7231         2.3958         0.8184       -47.2111       0.742115              1              1
      6921.5000        12.7858       1389.258         0.0675       132.0112        61.9166        64.2576       81.83363         0.6854        37.4002         2.3926         0.7797       -47.5156      0.4376183              1              1
      6922.0000        12.8002       1402.082         0.0557       131.2725        64.7719        62.4299       79.54901         0.6799        38.6969         2.3765         0.7281       -46.8933       1.059917      0.9904045              1
      6922.5000        12.8079       1421.633         0.0216       130.3613        66.4194        60.4539         77.079         0.6777        39.9175          2.356         0.7047       -46.3898       1.563416      0.9378511              1
      6923.0000        12.8107       1443.096         0.0404       128.6775        67.5763        59.2441       75.56675         0.6784        40.4258         2.3606         0.7042       -46.2335       1.719715      0.9056755              1
      6923.5000        12.8087       1462.549         0.0619       127.5693        68.1431        59.2352       75.55563         0.6867        40.4521         2.3733         0.7161        -46.356       1.597218       0.905439              1
      6924.0000        12.8038       1477.527         0.0707       127.0016        67.5355         59.843       76.31538         0.7023        40.5335         2.3782         0.7375       -46.3752       1.578018      0.9216037              1
      6924.5000        12.7931       1492.529         0.0562       126.7268        66.5381        60.4503        77.0745         0.7241        40.6007         2.3758         0.7636       -46.3494       1.603817      0.9377553              1
      6925.0000        12.7729       1491.197         0.0637       126.1144        65.5802        61.0581       77.83425         0.7447        40.3861         2.3803         0.7785        -46.225       1.728218      0.9539202              1
      6925.5000        12.7368       1480.963         0.0466       125.2328        65.1296        62.0366       79.05737         0.7636        38.5388         2.3734         0.7892       -45.8411       2.112118      0.9799441              1
      6926.0000        12.6953        1470.74         0.0492       124.3689        65.5236        63.1879       80.49651         0.7824        36.1482         2.3641         0.8015       -45.3709       2.582317              1              1
      6926.5000        12.6653       1459.598         0.0507       124.2437        65.4977        64.3142       81.90437         0.7985        34.9257         2.3703         0.8186       -45.0977       2.855518              1              1
      6927.0000        12.6777       1441.281         0.0492       124.2019        65.1512        65.3856       83.24362           0.81        34.9856         2.3759         0.8387       -45.0294       2.923817              1              1
      6927.5000        12.6782       1422.963          0.044       124.1815        64.8511        66.4583        84.5845         0.8163        35.1409         2.3877         0.8511       -45.4184       2.534817              1              1
      6928.0000        12.6776       1404.646         0.0355       124.2465        64.6328        67.5333       85.92825         0.8173        35.8438         2.3937         0.8559       -46.1805       1.772717              1              1
      6928.5000         12.683        1386.33         0.0279       124.4714        64.1278        68.6167        87.2825         0.8165        36.9532         2.4006         0.8527       -46.9982      0.9550171              1              1
      6929.0000        12.6877       1365.256         0.0257       124.5157         64.702        69.7096       88.64862         0.8129        37.0838         2.3831         0.8524       -47.4752      0.4780159              1              1
      6929.5000        12.6912       1343.672         0.0137       124.6051        64.9354        71.1041       90.39175         0.8088        36.8384         2.3858         0.8631       -47.8535     0.09971619              1              1
      6930.0000        12.6879       1322.113         0.0171       124.7166        64.5419        70.2627          89.34         0.8041        36.4153         2.4008         0.8911       -47.9853     -0.0320816              1       0.999198
      6930.5000        12.6815       1307.486         0.0447       125.0511        63.4987        69.3318       88.17638         0.7977        35.9654         2.4181         0.9277       -47.8727     0.08051682              1              1
      6931.0000        12.6692        1293.16         0.0493       125.5381        63.2032         68.401       87.01288         0.7915        36.6608         2.4287         0.9557       -47.3617      0.5915184              1              1
      6931.5000        12.6362       1280.107         0.0497        125.234        63.2897        59.8043         76.267         0.7865        37.0142         2.4164         0.9472       -45.9683       1.984917      0.9205744              1
      6932.0000        12.5967       1271.371           0.05       125.9357        63.3041        58.6649       74.84276         0.7814        36.8783         2.4095         0.9223       -44.1071       3.846115      0.8902714              1
      6932.5000        12.5472       1263.533         0.0289       125.7589        63.2032        57.3193       73.16075         0.7745        36.5115         2.3892         0.8912       -43.0427       4.910515      0.8544841              1
      6933.0000        12.5029       1268.365         0.0414       125.7477        63.1541        57.1572       72.95813         0.7681        36.0986         2.3966         0.8741       -43.4091       4.544117       0.850173              1
      6933.5000        12.6382       1273.199         0.0472       125.9038         63.104        59.1142       75.40437          0.763        35.7505         2.4032         0.8724       -44.5514       3.401817      0.9022207              1
      6934.0000         12.916       1278.031         0.0318       126.3761        62.9419        61.1332       77.92812         0.7579         35.483         2.3865         0.8772       -45.5634       2.389816      0.9559175              1
      6934.5000        12.8977       1288.455         0.0283       126.4349        62.5526        63.5717       80.97626         0.7535        36.0616         2.3931         0.8821       -45.6927       2.260517              1              1
      6935.0000        12.7343       1301.957         0.0274       126.5638        62.2997        65.5358       83.43138         0.7516        36.7809         2.3867         0.8843       -45.5955       2.357716              1              1
      6935.5000        12.7058       1315.459         0.0136        126.035        64.9374        66.9249       85.16776         0.7534        37.4009         2.3774         0.8736        -45.567       2.386215              1              1
      6936.0000        12.7085       1328.961         0.0341       124.6722        66.6196        67.3832       85.74062         0.7592        37.6061         2.3919         0.8469       -45.7865       2.166718              1              1
      6936.5000        12.7143       1344.785         0.0424       123.5232        67.4508        67.8408       86.31262         0.7656        38.0515         2.3911         0.7998       -45.9777       1.975517              1              1
