#------------------------------------------------------------------------------
# Created by    : vladimir.rabinovich
# Created on    : 09/19/2023 17:20:47
#------------------------------------------------------------------------------
~Version Information Section
VERS.           2.0     :   CWLS log ASCII Standard - VERSION 2.0
WRAP.           NO      :   One line per depth step
~Well Information Section
#MNEM       .UNIT                                         VALUE :DESCRIPTION
#------------------------------------------------------------------------------
STRT        .FT                                            1960 :START DEPTH
STOP        .FT                                           13420 :STOP DEPTH
STEP        .FT                                             0.5 :STEP      
NULL        .                                           -999.25 :NULL      
COMP        .                                 CALIFORNIA CO THE :COMPANY   
WELL        .                                     ST TR 00002-L :WELL      
FLD         .                                           WILDCAT :FIELD     
LOC         .                                                   :LOCATION  
CNTY        .                                       SABINE PASS :LOCATION  
STAT        .                                             TEXAS :STATE     
CTRY        .                                     UNITED STATES :COUNTRY   
SRVC        .                                                   :SERVICE COMPANY
DATE        .                             9/13/2023 11:12:08 AM :LOG DATE  
API         .                                    42715000310000 :API NUMBER
UWI         .                                    42715000310000 :UNIQUE WELL ID
XCOORD      .                                  1372392.72802961 :SURFACE X 
YCOORD      .                                   10750257.969662 :SURFACE Y 
LAT         .                                         29.618979 :LATITUDE  
LON         .                                       -93.8437903 :LONGITUDE 
ELEV        .FT                                              11 :ELEVATION VALUE
ELEV_TYPE   .                                                KB :ELEVATION REFERENCE TYPE
~Curve Information Section
#MNEM       .UNIT                                      API CODE :CURVE DESCRIPTION
#------------------------------------------------------------------------------
DEPT        .FT                                                 :DEPTH     
ASN         .OHMM                                               :          
IL          .OHMM                                               :          
SP          .MV                                                 :          
SP_NORM     .MV                                                 :SP Normalized
VSH_SP      .V/V                                                :Volume of Shale from SP
~A        DEPTH            ASN             IL             SP        SP_NORM         VSH_SP
# ...
      9572.0000         1.7622         1.3384       -47.1097      -2.506874      0.9641875
      9572.5000         1.7637         1.3405       -47.2193      -2.610794      0.9627029
      9573.0000         1.7652         1.3426       -47.3289      -2.714715      0.9612184
      9573.5000         1.7667         1.3447       -47.4384      -2.818542      0.9597351
      9574.0000         1.7682         1.3468       -47.3129      -2.703037      0.9613852
      9574.5000         1.7698         1.3479       -47.1404      -2.543663       0.963662
      9575.0000         1.7713         1.3478       -46.9681      -2.384478       0.965936
      9575.5000         1.7747         1.3477       -46.7959      -2.225379      0.9682088
      9576.0000         1.7832         1.3475       -46.6237      -2.066287      0.9704816
      9576.5000         1.7918         1.3474        -46.444      -1.900195      0.9728544
      9577.0000         1.8003         1.3598       -46.2306      -1.702647      0.9756765
      9577.5000         1.8088         1.3925       -46.0168      -1.504729      0.9785039
      9578.0000         1.8153         1.4251       -45.8031      -1.306903        0.98133
      9578.5000         1.8219         1.4578       -45.5896      -1.109263      0.9841534
      9579.0000         1.8284         1.4997       -45.3759      -0.911437      0.9869795
      9579.5000         1.8376          1.549        -45.278     -0.8216868      0.9882616
      9580.0000         1.8569         1.5982       -45.4496     -0.9834742      0.9859504
      9580.5000         1.8762         1.6475       -45.6213      -1.145354      0.9836378
      9581.0000         1.8978         1.6885        -45.793      -1.307234      0.9813252
      9581.5000         1.9309         1.7115       -45.9647      -1.469114      0.9790127
      9582.0000          1.964         1.7344        -46.056      -1.555956      0.9777721
      9582.5000         1.9528         1.7574       -46.0553      -1.556931      0.9777581
      9583.0000          1.931         1.7384       -46.0546      -1.557899      0.9777443
      9583.5000         1.9149         1.6999       -46.0539      -1.558875      0.9777303
      9584.0000         1.8987         1.6615       -46.0532      -1.559847      0.9777164
      9584.5000         1.8704         1.6231       -46.0525      -1.560823      0.9777026
      9585.0000         1.8412         1.5861       -46.0518      -1.561795      0.9776887
      9585.5000         1.8103         1.5499       -46.0164      -1.530381      0.9781374
      9586.0000          1.778         1.5137       -45.9584      -1.477876      0.9788875
      9586.5000         1.7458         1.4775       -45.9005      -1.425464      0.9796363
      9587.0000         1.7141         1.4412       -45.8425      -1.372952      0.9803864
      9587.5000         1.6849         1.4135       -45.7845      -1.320447      0.9811365
      9588.0000         1.6558          1.411       -45.7265      -1.267942      0.9818866
      9588.5000         1.6523         1.4085       -45.6685      -1.215433      0.9826367
      9589.0000         1.6685         1.4059       -45.6296      -1.180755      0.9831321
      9589.5000         1.6846         1.4034        -45.629      -1.181823      0.9831168
      9590.0000         1.7008         1.4009       -45.6283      -1.182795      0.9831029
      9590.5000         1.7169         1.3963       -45.6276      -1.183771       0.983089
      9591.0000         1.7331          1.389       -45.6269      -1.184739      0.9830751
      9591.5000         1.7314         1.3817       -45.6262      -1.185715      0.9830612
      9592.0000         1.7221         1.3743       -45.6255      -1.186687      0.9830473
      9592.5000         1.7128          1.367       -45.6248      -1.187662      0.9830334
      9593.0000         1.7029         1.3597       -45.6472      -1.210196      0.9827115
      9593.5000         1.6927         1.3491        -45.735      -1.293769      0.9815176
      9594.0000         1.6825         1.3362       -45.8226      -1.377157      0.9803264
      9594.5000         1.6723         1.3232       -45.9102      -1.460537      0.9791352
      9595.0000         1.6621         1.3103       -45.9979      -1.544018      0.9779426
      9595.5000         1.6562         1.2973       -46.0854      -1.627313      0.9767527
      9596.0000          1.655         1.2844       -46.1731      -1.710793      0.9755601
      9596.5000         1.6538         1.2715       -46.2607      -1.794181      0.9743689
      9597.0000         1.6526         1.2585       -46.3535      -1.882421      0.9731083
      9597.5000         1.6514         1.2595       -46.4541      -1.977943      0.9717436
      9598.0000         1.6506         1.2612       -46.5549       -2.07365      0.9703764
      9598.5000           1.65         1.2629       -46.6555      -2.169164       0.969012
      9599.0000         1.6494         1.2646       -46.7563      -2.264874      0.9676446
      9599.5000         1.6488         1.2664       -46.8569      -2.360392      0.9662801
      9600.0000         1.6482         1.2681       -46.9577      -2.456099      0.9649129
      9600.5000         1.6497         1.2698       -46.9558      -2.455953       0.964915
      9601.0000         1.6517         1.2716        -46.871      -2.378433      0.9660224
      9601.5000         1.6538         1.2737       -46.7861       -2.30082      0.9671311
      9602.0000         1.6559         1.2758       -46.7014      -2.223392      0.9682373
      9602.5000          1.658         1.2779       -46.6165      -2.145779       0.969346
      9603.0000         1.6612           1.28       -46.5316      -2.068166      0.9704548
      9603.5000          1.667         1.2822       -46.4517      -1.995218      0.9714969
      9604.0000         1.6728         1.2843       -46.4524        -1.9975      0.9714643
      9604.5000         1.6787         1.2864       -46.4531      -1.999779      0.9714317
      9605.0000         1.6845         1.2903       -46.4539      -2.002154      0.9713978
      9605.5000         1.6904         1.2947       -46.4545       -2.00434      0.9713666
      9606.0000         1.6943          1.299       -46.4553      -2.006711      0.9713327
      9606.5000         1.6981         1.3034       -46.4559      -2.008897      0.9713015
      9607.0000          1.702         1.3078       -46.4681      -2.021914      0.9711155
      9607.5000         1.7022         1.3122       -46.4889      -2.042952      0.9708149
      9608.0000         1.6954         1.3174       -46.5098      -2.064086       0.970513
      9608.5000         1.6885         1.3326       -46.5306      -2.085128      0.9702125
      9609.0000         1.6817         1.3478       -46.5514      -2.106167      0.9699119
      9609.5000         1.6755         1.3631       -46.5722      -2.127208      0.9696113
      9610.0000         1.6709         1.3783        -46.593      -2.148243      0.9693108
      9610.5000         1.6664         1.3935        -46.588      -2.145206      0.9693542
      9611.0000         1.6619         1.4087       -46.5701      -2.130124      0.9695696
      9611.5000         1.6755         1.4243       -46.5523      -2.115139      0.9697837
      9612.0000            1.7         1.4401       -46.5345      -2.100153      0.9699978
      9612.5000         1.7244         1.4559       -46.5167      -2.085167      0.9702119
      9613.0000         1.7489         1.4717       -46.4988      -2.070086      0.9704273
      9613.5000         1.7975         1.4876        -46.481      -2.055096      0.9706415
      9614.0000         1.8546         1.5034         -46.45      -2.027792      0.9710315
      9614.5000         1.9117         1.5192        -46.353      -1.938885      0.9723017
      9615.0000          1.955          1.535       -46.2559      -1.849887       0.973573
      9615.5000         1.9536         1.5508       -46.1588      -1.760884      0.9748445
