#------------------------------------------------------------------------------
# Created by    : vladimir.rabinovich
# Created on    : 09/19/2023 17:21:48
#------------------------------------------------------------------------------
~Version Information Section
VERS.           2.0     :   CWLS log ASCII Standard - VERSION 2.0
WRAP.           NO      :   One line per depth step
~Well Information Section
#MNEM       .UNIT                                         VALUE :DESCRIPTION
#------------------------------------------------------------------------------
STRT        .FT                                            1142 :START DEPTH
STOP        .FT                                            9163 :STOP DEPTH
STEP        .FT                                             0.5 :STEP      
NULL        .                                           -999.25 :NULL      
COMP        .                                    ORYX ENERGY CO :COMPANY   
WELL        .                               OCS G06199 ST00BP00 :WELL      
FLD         .                            HIGH ISLAND BLOCK 0129 :FIELD     
LOC         .                                                   :LOCATION  
CNTY        .                                  HIGH ISLAND EAST :LOCATION  
STAT        .                                             TEXAS :STATE     
CTRY        .                                     UNITED STATES :COUNTRY   
SRVC        .                                                   :SERVICE COMPANY
DATE        .                             9/13/2023 11:20:11 AM :LOG DATE  
API         .                                    42710400360000 :API NUMBER
UWI         .                                    42710400360000 :UNIQUE WELL ID
XCOORD      .                                  1376484.19293712 :SURFACE X 
YCOORD      .                                  10620179.8267869 :SURFACE Y 
LAT         .                                        29.2612476 :LATITUDE  
LON         .                                        -93.828002 :LONGITUDE 
ELEV        .FT                                              93 :ELEVATION VALUE
ELEV_TYPE   .                                                KB :ELEVATION REFERENCE TYPE
~Curve Information Section
#MNEM       .UNIT                                      API CODE :CURVE DESCRIPTION
#------------------------------------------------------------------------------
DEPT        .FT                                                 :DEPTH     
CALI        .IN                                                 :          
DRHO        .G/C3                                               :          
DT          .US/F                                               :          
GR          .GAPI                                               :          
GR_1        .GAPI                                               :          
GR_NORM     .GAPI                                               :GammaRay Normalized
ILD         .OHMM                                               :          
ILM         .OHMM                                               :          
NPHI        .%                                                  :          
RFOC        .OHMM                                               :          
RHOB        .G/C3                                               :          
SP          .MV                                                 :          
SP_NORM     .MV                                                 :SP Normalized
VSH_GR      .V/V                                                :Volume of Shale from GR
VSH_SP      .V/V                                                :Volume of Shale from SP
~A        DEPTH           CALI           DRHO             DT             GR           GR_1        GR_NORM            ILD            ILM           NPHI           RFOC           RHOB             SP        SP_NORM         VSH_GR         VSH_SP
# ...
      7007.0000        11.9785         0.1053       105.7045        92.9999        89.5148       84.14706          0.967         0.9684        31.9686         1.1242         2.2998       -63.6988      -3.518646              1      0.9497336
      7007.5000        11.9725         0.1031       104.7887        91.8787        87.5566       82.95393         1.0051         1.0039        32.2805         1.1295         2.2829       -63.8938      -3.714432              1      0.9469367
      7008.0000        11.9664         0.0958       103.8262        90.1581        84.6021       81.12312         1.0425         1.0391        33.5194         1.1386         2.2527        -63.541      -3.362419              1      0.9519655
      7008.5000        11.9604          0.081       102.9017        88.4966        83.5494       79.35519         1.0682         1.0551        35.1707         1.1556         2.2485       -63.0859      -2.908104      0.9862807      0.9584557
      7009.0000        11.9553         0.0661       103.8076         85.688        83.8711       76.36697         1.0546          1.044        35.4343         1.1595         2.2608       -62.6082       -2.43119      0.9227014      0.9652687
      7009.5000        11.9522         0.0557       106.0479        82.3379        84.7675       72.80265          1.022          1.025        35.0304         1.0925         2.2669       -62.1287      -1.952477      0.8468649      0.9721075
      7010.0000        11.9491         0.0484       108.4775        81.3901        86.9047       71.79398         0.9959         1.0046        35.0125         1.0241         2.2687       -61.8029       -1.62746      0.8254037      0.9767506
      7010.5000        11.9483         0.0489       109.9965        85.5181        89.8605       76.18509         0.9802         0.9845        35.0681         0.9996         2.2738       -61.6537       -1.47905      0.9188317      0.9788707
      7011.0000        11.9543         0.0542       111.0709        87.2281        91.9274       78.00388         0.9689         0.9746        34.3414         1.0181         2.2799       -61.5725      -1.398632      0.9575292      0.9800196
      7011.5000        11.9602         0.0673       111.6888        86.6283        92.0862       77.36543          0.962         0.9658        33.1403         1.0387         2.2741       -62.0276      -1.854519      0.9439452      0.9735069
      7012.0000        11.9661         0.0676       111.6917        85.5723        89.1913       76.24165         0.9593         0.9623        32.0309         1.0514         2.2672       -62.6156      -2.443306       0.920035      0.9650956
      7012.5000        11.9736         0.0593       111.5157        84.0092        81.5956        74.5784         0.9567         0.9609        31.1216         1.0591          2.263       -63.1699       -2.99839      0.8846468      0.9571658
      7013.0000        11.9828         0.0567       110.3127         82.429        74.8888       72.89696         0.9623         0.9621        31.5021         1.0704         2.2615       -63.7043      -3.533577      0.8488714      0.9495203
      7013.5000        11.9921         0.0667       108.8099        80.5483        69.3772       70.89584         0.9689         0.9687        31.1061         1.0833         2.2587       -64.3842      -4.214264      0.8062946      0.9397962
      7014.0000        12.0013          0.122       106.4712        78.4142        66.7844       68.62516         0.9758         0.9758        29.8154         1.1023         2.2575       -65.1521      -4.982948      0.7579821       0.928815
      7014.5000        12.0065         0.1296        103.239         75.778        68.2957       65.82031         0.9843         0.9841        28.9297         1.1481         2.2618       -66.0909      -5.922527      0.6983045      0.9153925
      7015.0000        12.0104         0.1277        99.4332         73.213        73.5011       63.09122         0.9928          0.991        29.7473         1.1915         2.2648       -67.4165      -7.248913      0.6402386      0.8964441
      7015.5000         12.014         0.1283          98.84        72.7306        75.9457       62.57765         1.0019         1.0026         30.664         1.1439         2.2673       -68.7733      -8.606503      0.6293117        0.87705
      7016.0000        12.0165         0.1269        100.834        75.9576        77.2002       66.01027         1.0116         1.0101         31.312         1.0948         2.2709       -70.5143      -10.34829      0.7023461      0.8521674
      7016.5000        12.0191         0.1129        102.823        78.6062        73.5751       68.82755         1.0141         1.0138        31.9199         1.0826         2.2743        -72.196      -12.03077      0.7622883      0.8281318
      7017.0000        12.0225           0.08       104.1193        79.2283        71.4861       69.48899         1.0048         1.0152        32.4493         1.1561         2.2772       -73.8243      -13.65986      0.7763615      0.8048591
      7017.5000        12.0259         0.0539       102.3627        78.6726        71.9231       68.89745         0.9794         1.0135        32.9007         1.2465         2.2772       -75.0206      -14.85695      0.7637755      0.7877579
      7018.0000        12.0289         0.0541       101.0173        79.0222        74.5974       69.26899         0.9518           1.01        33.2397         1.1834         2.2777       -72.8552      -12.69233      0.7716807      0.8186809
      7018.5000        12.0269         0.0602       102.6729        81.7742        79.5559       72.19628         0.9333         1.0018        33.0934         1.0824         2.2807       -69.6725      -9.510418      0.8339635      0.8641369
      7019.0000        12.0249          0.067       106.5771        85.8159        82.7463       76.49559         0.9173          0.994        32.8133         0.9874          2.285       -67.2318      -7.070499      0.9254381      0.8989928
      7019.5000         12.023         0.0774       110.5355        88.5286        83.0303       79.38107          0.908         0.9788        32.5301         0.9352         2.2893        -65.645      -5.484486      0.9868314      0.9216502
      7020.0000        12.0218         0.1031       112.7511         86.963        80.4745       77.71516          0.898         0.9586         32.693         0.9207         2.2846        -65.011      -4.851276      0.9513863      0.9306961
      7020.5000        12.0205         0.1304       112.8003        83.7729        79.9646       74.32107         0.8875         0.9398        33.3609          0.963         2.2669       -66.4103      -6.251362      0.8791717      0.9106948
      7021.0000        12.0193         0.1335        108.576        80.3464        80.7943       70.67548         0.8791         0.9224        33.1669         1.0692         2.2509       -68.0847      -7.926548      0.8016061      0.8867636
      7021.5000        12.0182         0.1239       104.6865        76.6001        81.3918       66.68968         0.8719         0.9137        32.5545          1.154         2.2458       -69.7389      -9.581532      0.7168018       0.863121
      7022.0000         12.018         0.1056       102.4193        72.2727        82.1586       62.08569         0.8658          0.905        32.0214         1.1804         2.2633        -69.473      -9.316418      0.6188446      0.8669083
      7022.5000        12.0177         0.0772        102.978        75.8517        83.5958       65.89277          0.863         0.9011        32.2783         1.1088         2.2796       -67.6177      -7.461899      0.6998461      0.8934014
      7023.0000        12.0175         0.0862       106.2177        81.2327        84.8724       71.61687         0.8603         0.9031        32.2827         1.0411         2.2902       -65.6497      -5.494682      0.8216355      0.9215046
      7023.5000        12.0164         0.1037       108.8567        86.7415        85.3632       77.47693           0.86         0.9051        32.3183         0.9987         2.2972       -63.9171      -3.762871      0.9463176      0.9462447
