#------------------------------------------------------------------------------
# Created by    : vladimir.rabinovich
# Created on    : 09/19/2023 17:20:40
#------------------------------------------------------------------------------
~Version Information Section
VERS.           2.0     :   CWLS log ASCII Standard - VERSION 2.0
WRAP.           NO      :   One line per depth step
~Well Information Section
#MNEM       .UNIT                                         VALUE :DESCRIPTION
#------------------------------------------------------------------------------
STRT        .FT                                             769 :START DEPTH
STOP        .FT                                           10573 :STOP DEPTH
STEP        .FT                                             0.5 :STEP      
NULL        .                                           -999.25 :NULL      
COMP        .                                        TEXACO INC :COMPANY   
WELL        .                               OCS G01846 ST00BP00 :WELL      
FLD         .                            HIGH ISLAND BLOCK 0129 :FIELD     
LOC         .                                                   :LOCATION  
CNTY        .                                  HIGH ISLAND EAST :LOCATION  
STAT        .                                             TEXAS :STATE     
CTRY        .                                     UNITED STATES :COUNTRY   
SRVC        .                                                   :SERVICE COMPANY
DATE        .                             9/13/2023 11:19:51 AM :LOG DATE  
API         .                                    42710300030000 :API NUMBER
UWI         .                                    42710300030000 :UNIQUE WELL ID
XCOORD      .                                   1386052.0565626 :SURFACE X 
YCOORD      .                                   10637380.600337 :SURFACE Y 
LAT         .                                        29.3087467 :LATITUDE  
LON         .                                       -93.7983562 :LONGITUDE 
ELEV        .FT                                              81 :ELEVATION VALUE
ELEV_TYPE   .                                                KB :ELEVATION REFERENCE TYPE
~Curve Information Section
#MNEM       .UNIT                                      API CODE :CURVE DESCRIPTION
#------------------------------------------------------------------------------
DEPT        .FT                                                 :DEPTH     
ASN         .OHMM                                               :          
CALI        .IN                                                 :          
DRHO        .G/C3                                               :          
GR          .GAPI                                               :          
GR_1        .GAPI                                               :          
GR_NORM     .GAPI                                               :GammaRay Normalized
ILD         .OHMM                                               :          
RHOB        .G/C3                                               :          
SP          .MV                                                 :          
SP_NORM     .MV                                                 :SP Normalized
VSH_GR      .V/V                                                :Volume of Shale from GR
VSH_SP      .V/V                                                :Volume of Shale from SP
~A        DEPTH            ASN           CALI           DRHO             GR           GR_1        GR_NORM            ILD           RHOB             SP        SP_NORM         VSH_GR         VSH_SP
# ...
      9256.0000          0.915        10.9823         -0.134        -999.25        -999.25        -999.25         0.9805        -999.25       -22.6466      -3.479864        -999.25      0.9502876
      9256.5000         0.9117        10.9483        -0.1277        -999.25        -999.25        -999.25         0.9823        -999.25        -22.301      -3.135269        -999.25      0.9552104
      9257.0000         0.9084        10.9454        -0.1226        -999.25        -999.25        -999.25         0.9873        -999.25        -21.956      -2.791273        -999.25      0.9601247
      9257.5000         0.9094        10.9426         -0.119        -999.25        -999.25        -999.25         0.9924        -999.25       -21.8254      -2.661676        -999.25      0.9619761
      9258.0000         0.9111        10.9453        -0.1153        -999.25        -999.25        -999.25         1.0014        -999.25       -21.6951      -2.532383        -999.25      0.9638231
      9258.5000         0.9223         10.952        -0.1122        -999.25        -999.25        -999.25         1.0141        -999.25       -21.8956      -2.733887        -999.25      0.9609445
      9259.0000         0.9362        10.9599        -0.1091        -999.25        -999.25        -999.25         1.0288        -999.25       -22.1026      -2.941891        -999.25       0.957973
      9259.5000         0.9626        10.9602        -0.1062        -999.25        -999.25        -999.25         1.0507        -999.25       -22.2329      -3.073196        -999.25      0.9560972
      9260.0000         0.9875        10.9202        -0.1109        -999.25        -999.25        -999.25         1.0727        -999.25       -22.3477      -3.189001        -999.25      0.9544429
      9260.5000          1.006        10.8553        -0.1217        -999.25        -999.25        -999.25         1.0712        -999.25       -22.4006      -3.242907        -999.25      0.9536728
      9261.0000         0.9979        10.6986         -0.129        -999.25        -999.25        -999.25         1.0783        -999.25       -22.3439       -3.18721        -999.25      0.9544684
      9261.5000         0.9686        10.6502        -0.1303        -999.25        -999.25        -999.25         1.0854        -999.25       -22.2872      -3.131516        -999.25      0.9552641
      9262.0000         0.9308        10.7042        -0.1298        -999.25        -999.25        -999.25         1.0667        -999.25        -22.131       -2.97632        -999.25      0.9574811
      9262.5000         0.8947        10.7478        -0.1287        -999.25        -999.25        -999.25         1.0414        -999.25       -21.9224      -2.768723        -999.25      0.9604468
      9263.0000          0.865        10.7808        -0.1276        -999.25        -999.25        -999.25         1.0019        -999.25       -21.7145      -2.561829        -999.25      0.9634025
      9263.5000         0.8566        10.7809        -0.1261        -999.25        -999.25        -999.25         0.9556        -999.25       -21.5343      -2.382633        -999.25      0.9659624
      9264.0000         0.8575        10.7809         -0.124        -999.25        -999.25        -999.25         0.9264        -999.25       -21.3538      -2.203138        -999.25      0.9685266
      9264.5000         0.8659        10.7697        -0.1227        -999.25        -999.25        -999.25         0.9173        -999.25       -21.1736      -2.023941        -999.25      0.9710866
      9265.0000         0.8744        10.7454        -0.1282        -999.25        -999.25        -999.25         0.9102        -999.25       -21.0442      -1.895548        -999.25      0.9729207
      9265.5000         0.8757        10.7212        -0.1287        -999.25        -999.25        -999.25         0.9094        -999.25       -20.9162      -1.768553        -999.25       0.974735
      9266.0000         0.8582        10.7009        -0.1283        -999.25        -999.25        -999.25         0.9085        -999.25       -20.8209      -1.674257        -999.25       0.976082
      9266.5000         0.8466        10.6842        -0.1282        -999.25        -999.25        -999.25         0.9088        -999.25        -20.837       -1.69136        -999.25      0.9758377
      9267.0000         0.8433        10.6789        -0.1257        -999.25        -999.25        -999.25         0.9095        -999.25       -20.8531      -1.708466        -999.25      0.9755933
      9267.5000         0.8404        10.7203        -0.1193        -999.25        -999.25        -999.25         0.9095        -999.25       -20.9358      -1.792171        -999.25      0.9743975
      9268.0000         0.8377        10.7703         -0.113        -999.25        -999.25        -999.25         0.9047        -999.25       -21.0803      -1.937674        -999.25      0.9723189
      9268.5000         0.8366        10.8366        -0.1071        -999.25        -999.25        -999.25            0.9        -999.25       -21.2247       -2.08308        -999.25      0.9702417
      9269.0000         0.8375        10.8291        -0.1021        -999.25        -999.25        -999.25         0.9006        -999.25       -21.4958      -2.355185        -999.25      0.9663545
      9269.5000         0.8486           10.8        -0.1036        -999.25        -999.25        -999.25         0.9013        -999.25       -21.8069       -2.66729        -999.25      0.9618959
      9270.0000           0.86         10.781        -0.1084        -999.25        -999.25        -999.25         0.9067        -999.25       -22.0216      -2.882994        -999.25      0.9588144
      9270.5000         0.8663        10.7119        -0.1154        -999.25        -999.25        -999.25         0.9121        -999.25       -22.1642      -3.026598        -999.25      0.9567629
      9271.0000         0.8714        10.6424        -0.1192        -999.25        -999.25        -999.25         0.9159        -999.25       -22.1611      -3.024504        -999.25      0.9567928
      9271.5000         0.8747         10.606        -0.1184        -999.25        -999.25        -999.25          0.918        -999.25       -22.0364      -2.900808        -999.25      0.9585599
      9272.0000         0.8778        10.5697        -0.1151        -999.25        -999.25        -999.25         0.9202        -999.25       -21.9118      -2.777212        -999.25      0.9603255
      9272.5000         0.8805        10.5335        -0.1133        -999.25        -999.25        -999.25         0.9273        -999.25       -21.8582      -2.724617        -999.25      0.9610769
      9273.0000         0.8759         10.502        -0.1129        -999.25        -999.25        -999.25         0.9362        -999.25       -21.8321      -2.699522        -999.25      0.9614354
      9273.5000         0.8713        10.4913        -0.1126        -999.25        -999.25        -999.25         0.9451        -999.25       -21.8061      -2.674526        -999.25      0.9617925
      9274.0000         0.8666        10.4803        -0.1128        -999.25        -999.25        -999.25         0.9595        -999.25       -21.8486      -2.718031        -999.25       0.961171
      9274.5000         0.8627        10.4638        -0.1155        -999.25        -999.25        -999.25         0.9748        -999.25        -21.922      -2.792437        -999.25       0.960108
      9275.0000         0.8642        10.4473        -0.1201        -999.25        -999.25        -999.25         0.9796        -999.25       -21.9953      -2.866741        -999.25      0.9590465
      9275.5000         0.8658        10.4275        -0.1247        -999.25        -999.25        -999.25         0.9705        -999.25       -21.9902      -2.862644        -999.25      0.9591051
      9276.0000         0.8715        10.4037        -0.1293        -999.25        -999.25        -999.25          0.961        -999.25       -21.9042      -2.777649        -999.25      0.9603193
