#------------------------------------------------------------------------------
# Created by    : vladimir.rabinovich
# Created on    : 09/19/2023 17:20:45
#------------------------------------------------------------------------------
~Version Information Section
VERS.           2.0     :   CWLS log ASCII Standard - VERSION 2.0
WRAP.           NO      :   One line per depth step
~Well Information Section
#MNEM       .UNIT                                         VALUE :DESCRIPTION
#------------------------------------------------------------------------------
STRT        .FT                                             565 :START DEPTH
STOP        .FT                                           11656 :STOP DEPTH
STEP        .FT                                             0.5 :STEP      
NULL        .                                           -999.25 :NULL      
COMP        .                     MITCHELL ENERGY OFFSHORE CORP :COMPANY   
WELL        .                               OCS G02394 ST00BP00 :WELL      
FLD         .                            HIGH ISLAND BLOCK 0047 :FIELD     
LOC         .                                                   :LOCATION  
CNTY        .                                  HIGH ISLAND EAST :LOCATION  
STAT        .                                             TEXAS :STATE     
CTRY        .                                     UNITED STATES :COUNTRY   
SRVC        .                                                   :SERVICE COMPANY
DATE        .                             9/13/2023 11:11:59 AM :LOG DATE  
API         .                                    42710400050000 :API NUMBER
UWI         .                                    42710400050000 :UNIQUE WELL ID
XCOORD      .                                  1370895.90844183 :SURFACE X 
YCOORD      .                                  10676661.5178287 :SURFACE Y 
LAT         .                                        29.4165067 :LATITUDE  
LON         .                                        -93.846815 :LONGITUDE 
ELEV        .FT                                              96 :ELEVATION VALUE
ELEV_TYPE   .                                                KB :ELEVATION REFERENCE TYPE
~Curve Information Section
#MNEM       .UNIT                                      API CODE :CURVE DESCRIPTION
#------------------------------------------------------------------------------
DEPT        .FT                                                 :DEPTH     
ASN         .OHMM                                               :          
CILD        .MMHO                                               :          
GR          .GAPI                                               :          
GR_NORM     .GAPI                                               :GammaRay Normalized
ILD         .OHMM                                               :          
SP          .MV                                                 :          
SP_NORM     .MV                                                 :SP Normalized
VSH_GR      .V/V                                                :Volume of Shale from GR
VSH_SP      .V/V                                                :Volume of Shale from SP
~A        DEPTH            ASN           CILD             GR        GR_NORM            ILD             SP        SP_NORM         VSH_GR         VSH_SP
# ...
      3506.5000         0.8684       1244.869        -999.25        -999.25         0.7873       -58.3357       4.001797        -999.25              1
      3507.0000         0.8785       1224.543        -999.25        -999.25         0.7959       -57.8754       4.806944        -999.25              1
      3507.5000         0.8925       1202.426        -999.25        -999.25         0.8045       -57.4318       5.582723        -999.25              1
      3508.0000         0.9065       1180.309        -999.25        -999.25         0.8131        -57.085       6.188235        -999.25              1
      3508.5000         0.9206        1158.18        -999.25        -999.25         0.8216       -57.7085       5.087005        -999.25              1
      3509.0000         0.9386       1136.063        -999.25        -999.25         0.8296        -59.111        2.61554        -999.25              1
      3509.5000         0.9574       1117.844        -999.25        -999.25         0.8377        -59.666       1.634807        -999.25              1
      3510.0000         0.9757       1100.215        -999.25        -999.25         0.8457       -60.1189      0.8336582        -999.25              1
      3510.5000         0.9934       1084.252        -999.25        -999.25         0.8538       -60.5641     0.04606384        -999.25              1
      3511.0000          1.007       1072.342        -999.25        -999.25         0.8619       -60.2258      0.6366203        -999.25              1
      3511.5000           1.01       1075.045        -999.25        -999.25         0.8634       -59.8877       1.226828        -999.25              1
      3512.0000         1.0077       1083.664        -999.25        -999.25         0.8646       -59.5496       1.817029        -999.25              1
      3512.5000         1.0053       1092.283        -999.25        -999.25         0.8658       -59.3242       2.208998        -999.25              1
      3513.0000         0.9967       1129.969        -999.25        -999.25          0.859       -59.1647       2.485052        -999.25              1
      3513.5000         0.9871       1186.193        -999.25        -999.25         0.8504       -59.0054       2.760744        -999.25              1
      3514.0000         0.9756       1245.139        -999.25        -999.25         0.8417       -58.8459       3.036798        -999.25              1
      3514.5000         0.9541       1286.309        -999.25        -999.25          0.833       -58.7104        3.27064        -999.25              1
      3515.0000         0.9346       1305.373        -999.25        -999.25         0.8197       -58.5859       3.485123        -999.25              1
      3515.5000         0.9211       1308.986        -999.25        -999.25         0.8043       -58.4614       3.699614        -999.25              1
      3516.0000         0.9076       1306.598        -999.25        -999.25         0.7889       -58.3369       3.914104        -999.25              1
      3516.5000         0.8966       1304.207        -999.25        -999.25         0.7735       -58.2123       4.128769        -999.25              1
      3517.0000         0.8864       1301.816        -999.25        -999.25         0.7698        -58.075       4.365765        -999.25              1
      3517.5000         0.8817       1283.182        -999.25        -999.25         0.7743        -57.937       4.604002        -999.25              1
      3518.0000         0.8792       1260.648        -999.25        -999.25         0.7787       -58.1009       4.311206        -999.25              1
      3518.5000         0.8892       1238.102        -999.25        -999.25         0.7832       -58.7225       3.213317        -999.25              1
      3519.0000         0.8992       1215.568        -999.25        -999.25         0.7856       -59.3674        2.07445        -999.25              1
      3519.5000         0.9253        1217.26        -999.25        -999.25         0.7826       -60.0159      0.9292549        -999.25              1
      3520.0000         0.9536       1252.055        -999.25        -999.25         0.7795       -60.6641     -0.2154231        -999.25      0.9960832
      3520.5000          0.939       1309.873        -999.25        -999.25         0.7764       -60.0408      0.8764476        -999.25              1
      3521.0000         0.9113       1395.055        -999.25        -999.25          0.771       -59.2998        2.17534        -999.25              1
      3521.5000         0.8935       1472.818        -999.25        -999.25         0.7613       -58.7122       3.204412        -999.25              1
      3522.0000         0.8763        1500.27        -999.25        -999.25         0.7516       -58.3655       3.809738        -999.25              1
      3522.5000         0.8637       1527.082        -999.25        -999.25         0.7419       -58.0189       4.414895        -999.25              1
      3523.0000         0.8504       1544.895        -999.25        -999.25         0.7322       -57.7472       4.888309        -999.25              1
      3523.5000         0.8334       1562.721        -999.25        -999.25         0.7296       -58.0839       4.291553        -999.25              1
      3524.0000         0.8259       1572.615        -999.25        -999.25         0.7358       -58.4207       3.694628        -999.25              1
      3524.5000         0.8188       1563.059        -999.25        -999.25          0.742       -58.7336       3.139742        -999.25              1
      3525.0000         0.8147       1536.584        -999.25        -999.25         0.7501       -58.9927       2.679486        -999.25              1
      3525.5000         0.8124        1492.57        -999.25        -999.25         0.7626       -59.2516       2.219586        -999.25              1
      3526.0000         0.8102       1446.521        -999.25        -999.25         0.7751       -59.2715       2.180078        -999.25              1
      3526.5000         0.8098       1397.113        -999.25        -999.25         0.7876       -58.9345       2.768346        -999.25              1
      3527.0000         0.8112       1347.707        -999.25        -999.25         0.8022        -58.608       3.338142        -999.25              1
      3527.5000         0.8452        1289.57        -999.25        -999.25         0.8184       -58.2962       3.882091        -999.25              1
      3528.0000         0.8964        1223.17        -999.25        -999.25         0.8346       -57.9843       4.426215        -999.25              1
      3528.5000         0.9558       1166.945        -999.25        -999.25         0.8508       -57.5949       5.106651        -999.25              1
      3529.0000         1.0177       1116.287        -999.25        -999.25         0.8663       -57.9294       4.513767        -999.25              1
      3529.5000         1.0912       1072.201        -999.25        -999.25         0.8796       -59.2726       2.146615        -999.25              1
      3530.0000         1.1106       1032.479        -999.25        -999.25         0.8928       -61.4557      -1.697914        -999.25      0.9691288
      3530.5000         1.1275       1044.971        -999.25        -999.25            0.9       -63.1204       -4.63058        -999.25      0.9158077
      3531.0000         1.1398       1058.305        -999.25        -999.25         0.8908       -64.3854      -6.860184        -999.25      0.8752694
      3531.5000         1.1521       1071.643        -999.25        -999.25         0.8816       -66.4265      -10.45493        -999.25      0.8099104
      3532.0000          1.161       1084.982        -999.25        -999.25         0.8724       -69.3259      -15.55941        -999.25      0.7171017
      3532.5000         1.1672        1098.32        -999.25        -999.25         0.8632       -71.0708      -18.63315        -999.25      0.6612155
