#------------------------------------------------------------------------------
# Created by    : vladimir.rabinovich
# Created on    : 09/19/2023 17:21:39
#------------------------------------------------------------------------------
~Version Information Section
VERS.           2.0     :   CWLS log ASCII Standard - VERSION 2.0
WRAP.           NO      :   One line per depth step
~Well Information Section
#MNEM       .UNIT                                         VALUE :DESCRIPTION
#------------------------------------------------------------------------------
STRT        .FT                                            3004 :START DEPTH
STOP        .FT                                           10487 :STOP DEPTH
STEP        .FT                                             0.5 :STEP      
NULL        .                                           -999.25 :NULL      
COMP        .                                    TENNECO OIL CO :COMPANY   
WELL        .                               OCS G04082 ST00BP00 :WELL      
FLD         .                            SABINE PASS BLOCK 0017 :FIELD     
LOC         .                                                   :LOCATION  
CNTY        .                                       SABINE PASS :LOCATION  
STAT        .                                             TEXAS :STATE     
CTRY        .                                     UNITED STATES :COUNTRY   
SRVC        .                                                   :SERVICE COMPANY
DATE        .                             9/13/2023 11:20:07 AM :LOG DATE  
API         .                                    42715400130000 :API NUMBER
UWI         .                                    42715400130000 :UNIQUE WELL ID
XCOORD      .                                  1369313.82013612 :SURFACE X 
YCOORD      .                                  10714127.2468036 :SURFACE Y 
LAT         .                                        29.5195329 :LATITUDE  
LON         .                                       -93.8526471 :LONGITUDE 
ELEV        .FT                                             111 :ELEVATION VALUE
ELEV_TYPE   .                                                KB :ELEVATION REFERENCE TYPE
~Curve Information Section
#MNEM       .UNIT                                      API CODE :CURVE DESCRIPTION
#------------------------------------------------------------------------------
DEPT        .FT                                                 :DEPTH     
CALI        .IN                                                 :          
DPHI        .%                                                  :          
DRHO        .G/C3                                               :          
GR          .GAPI                                               :          
GR_NORM     .GAPI                                               :GammaRay Normalized
ILD         .OHMM                                               :          
ILM         .OHMM                                               :          
NPHI        .%                                                  :          
SFL         .OHMM                                               :          
SP          .MV                                                 :          
SP_NORM     .MV                                                 :SP Normalized
VSH_GR      .V/V                                                :Volume of Shale from GR
VSH_SP      .V/V                                                :Volume of Shale from SP
~A        DEPTH           CALI           DPHI           DRHO             GR        GR_NORM            ILD            ILM           NPHI            SFL             SP        SP_NORM         VSH_GR         VSH_SP
# ...
      3023.0000        23.2745        34.5876         0.0269        45.0495       77.09554         0.4371         0.4507        47.2277         0.5711       -69.0988      -19.32097      0.9382029      0.6779838
      3023.5000        23.2843        34.1739         0.0224        44.3564        75.6315         0.4323         0.4571         48.929         0.5391       -67.5741      -16.61339      0.9070532      0.7231103
      3024.0000        23.2274        34.3963         0.0175        43.3663       73.85149          0.428         0.4507        50.6611         0.5097        -66.683      -15.35052      0.8691807       0.744158
      3024.5000        23.0528        34.9462         0.0095        42.8713       72.59819          0.425         0.4314        50.2589         0.4975       -65.7919      -14.08765      0.8425147      0.7652058
      3025.0000        22.4295        35.3319         0.0071        44.7524       73.87266         0.4326         0.4369        50.3588         0.4887       -65.0399      -13.14195       0.869631      0.7809675
      3025.5000        21.6724        35.2915         0.0043        47.2277       75.77925         0.4512         0.4532        52.2056         0.4908       -64.3528      -12.34422      0.9101968      0.7942629
      3026.0000         21.451        35.0552         0.0035        49.7029       77.68574         0.4777         0.4766        53.0708         0.5074       -63.7646      -11.77201      0.9507604      0.8037998
      3026.5000        21.8236        34.9921         0.0031        50.6862       78.00509         0.5058         0.5084        51.4002         0.5333       -63.2744      -11.42325      0.9575551      0.8096125
      3027.0000        21.7391        34.9881         0.0009         50.196        76.7569         0.5333         0.5335        49.2119          0.557       -63.0392      -11.65594      0.9309978      0.8057344
      3027.5000        21.4941        34.9901        -0.0006        48.9109       74.66306         0.5557         0.5568        47.0734         0.5778       -63.0392      -12.42491      0.8864481      0.7929182
      3028.0000        22.3436        34.5851          0.001        48.8118       73.83094         0.5847         0.5782        45.9911         0.5951       -63.0588      -13.23857      0.8687434      0.7793571
      3028.5000        22.9347        33.8168         0.0049        50.8823       75.30688          0.614         0.5966        46.5123         0.5933       -63.1372      -14.18631      0.9001465      0.7635616
      3029.0000        22.9724        32.4091         0.0162         52.549       76.35326         0.6289         0.6239        49.6256         0.5886       -63.2549      -15.22366      0.9224099      0.7462724
      3029.5000         22.764         30.943         0.0205        53.5294       76.66954         0.6306         0.6255        52.8918         0.6118        -63.549      -16.66322      0.9291391      0.7222797
      3030.0000        21.3627        30.5314         0.0309        51.7647        74.0655         0.6162         0.6198        53.1089         0.6698        -64.002       -18.4651       0.873734      0.6922484
      3030.5000        18.2191        31.3365         0.0241        49.4584       70.88528         0.6004         0.6042         51.037         0.6579       -64.7108      -20.85024      0.8060697       0.652496
      3031.0000        17.7834        33.4043         0.0158        48.6923       69.34357         0.5822         0.5878        48.6207         0.5969       -65.3849      -23.15627      0.7732674      0.6140621
      3031.5000        18.1731         34.848        -0.0013        49.1626        69.2495         0.5643         0.5707        46.6815         0.5384       -65.5856      -24.38287       0.771266      0.5936188
      3032.0000         18.493        35.0286        -0.0103        48.0009       67.70129          0.548         0.5542        45.5643         0.5123       -65.5863      -25.15344      0.7383254       0.580776
      3032.5000        18.7794        34.7324         -0.008        46.9606       66.28223         0.5338          0.539        45.9208          0.525       -65.1699      -24.97294      0.7081326      0.5837843
      3033.0000        18.7657        34.5045        -0.0037        46.7255       65.71977         0.5214         0.5257        46.3366         0.5427       -64.2351      -23.61043      0.6961654      0.6064928
      3033.5000        18.7024        34.4332        -0.0014        46.8284       65.51688         0.5152         0.5207        46.7524         0.5588       -62.9655      -21.48453      0.6918486      0.6419246
      3034.0000        18.4479        34.0986         0.0009        45.8058       64.11665         0.5096         0.5146        47.5247         0.5776       -62.0615      -20.19224      0.6620564      0.6634627
      3034.5000        18.2882        33.7288         0.0021        44.4118       62.32132          0.505         0.5075        48.0999         0.5854       -61.0782      -18.71914      0.6238579      0.6880143
      3035.0000        18.2471        33.6987         0.0049        43.7181       61.27099         0.5042         0.4989        47.0969         0.5891       -60.0978      -17.25265      0.6015104      0.7124558
      3035.5000        18.3589        33.9741         0.0074        44.2131       61.48523         0.5043         0.4924        44.4087         0.5754       -59.1174      -15.78616      0.6060687      0.7368973
      3036.0000        18.6048        34.2581         0.0054         45.147       62.16638         0.5052          0.491        42.8911         0.5501       -57.9349      -13.85885      0.6205612      0.7690192
      3036.5000        19.0359        34.2731         0.0085        47.6398       64.50594         0.5027         0.4939        43.3783         0.5318       -56.0192      -10.25974      0.6703392      0.8290044
      3037.0000        19.4362        33.8503         0.0086        52.8431       69.72902         0.5049          0.502         44.911         0.5171       -53.9706       -6.35759      0.7814685      0.8940402
      3037.5000        19.9705        33.0295         0.0056        58.0674       74.97442         0.5139         0.5151        46.5743         0.5094       -51.4759      -1.438264      0.8930727      0.9760289
      3038.0000        19.9628        32.1382         0.0047        61.8922         78.731         0.5344         0.5256        47.5139         0.5113       -49.8238       1.559802          0.973              1
      3038.5000        20.1043        31.5289          0.006        63.8047       80.45322         0.5665         0.5414        48.0883          0.527       -48.5687        3.65265              1              1
      3039.0000        20.1872        31.6846         0.0026         63.541       79.86034         0.6029         0.5635        50.4072         0.5561       -47.7648       4.716687      0.9970284              1
      3039.5000        20.9456        32.1786         0.0003           63.4       79.39797         0.6409         0.5851        53.3071         0.5836        -47.647       4.319253      0.9871909              1
      3040.0000        22.0381        32.5743         0.0007        63.9813       79.70402         0.6756         0.6003        54.0936          0.603       -47.8235       3.916802      0.9937025              1
      3040.5000        20.5346        32.9529         0.0007        64.6289        80.0806         0.6965         0.6014        53.3223         0.5985       -48.0245       3.458491              1              1
      3041.0000        19.2337        33.0235         0.0009        65.3021       80.48442         0.7006         0.6069        50.6965         0.5866       -48.4117       2.575617              1              1
      3041.5000        17.2579        32.4942         0.0031        65.1178       79.97599         0.7041         0.6157         46.858         0.5822        -49.098       1.010753      0.9994891              1
