~VERSION INFORMATION
VERS.                             2.0:   CWLS Log ASCII Standard-VERSION 2.0
WRAP.                              NO:   One line per depth step
~Well Information Block
STRT.F                      3964.0000:   Top Depth
STOP.F                      6748.0000:   Bottom Depth
STEP.F                         .50000:   Depth Increment
NULL.                        -999.250:   Null Value
FLD .                     MU BLK A 26:   Field Name
WELL.       OCSG13276   001 ST00 BP00:   NAME
API .                    427024021500:   WELL API
EDF .F                        73.0000:   ELEV DRILL FLOOR
COMP.                  ORYX ENERGY CO:   OPERATOR
BN  .                            A 26:   BLOCK
CTRY.                             USA:   COUNTRY NAME
CNTY.                        MG ILD L:   COUNTY NAME
EGL .F                      -290.0000:   ELEV GROUND LEVEL
TDD .F                       6750.000:   FINAL TD DRILLER
STAT.                           TEXAS:   STATE NAME
UWI .                    427024021500:   WELL API
DICO.               IHS : Digitizing Company
~PARAMETER INFORMATION (zones)
#MNEM.UNIT                       Value     Description
#=========                       =====     ===========
#ZONATION                          CNL:   ZONATION NAME
#ZONE                            RUN_1:   ZONE NAME
TOP .                       3970.0000:   TOP DEPTH
BOT .                       6744.5000:   BOTTOM DEPTH
RUN .                               1:   RUN NUMBER
LCCD.                             510:   LOGGING CONTRACTOR
SRVC.                   Western Atlas:   LOGGING CONT NAME
DICO.          QC Data Collectors Ltd:   DIG COMPANY NAME
LDAT.                      08/29/1993:   DATE LOGGED
TDD .F                      6750.0000:   TOTAL DEPTH DRILLER
TDL .F                      6749.0000:   TOTAL DEPTH LOGGER
BOTL.F                      6746.0000:   BOTTOM DEPTH LOGGED
TOPL.F                      3998.0000:   TOP DEPTH LOGGED
CS1 .IN                       13.3750:   CASING SIZE 1
BS1 .IN                       12.2500:   BIT SIZE 1
DDB1.F                      6750.0000:   DEPTH DRILLED BIT 1
BHF .                              32:   FLUID CODE
DPT .                          low PH:   DRILLING FLUID TYPE
MUDD.                         11.5000:   FLUID DENSITY
MUDV.                         46.0000:   FLUID VISCOSITY
DFPH.                          8.8000:   FLUID PH
FL  .                          5.0000:   FLUID LOSS
RM  .OHMM                      1.2400:   RM
RMT .DEGF                     75.0000:   RM TEMP
RMF .OHMM                      1.1400:   RMF
RMFT.DEGF                     75.0000:   RMF TEMP
FSC .                               M:   RMF CODE
RMC .OHMM                      1.8000:   RMC
RMCT.DEGF                     75.0000:   RMC TEMP
CMC .                               M:   RMC CODE
TMAX.DEGF                    164.0000:   MAX REC TEMP
TIMC.                         10.0000:   TIME SINCE CIRCLN
~PARAMETER INFORMATION (zones)
#MNEM.UNIT                       Value     Description
#=========                       =====     ===========
#ZONATION                          DIL:   ZONATION NAME
#ZONE                            RUN_1:   ZONE NAME
TOP .                       3986.0000:   TOP DEPTH
BOT .                       6748.5000:   BOTTOM DEPTH
RUN .                               1:   RUN NUMBER
LCCD.                             510:   LOGGING CONTRACTOR
SRVC.                   Western Atlas:   LOGGING CONT NAME
DICO.          QC Data Collectors Ltd:   DIG COMPANY NAME
LDAT.                      08/29/1993:   DATE LOGGED
TDD .F                      6750.0000:   TOTAL DEPTH DRILLER
TDL .F                      6750.0000:   TOTAL DEPTH LOGGER
BOTL.F                      6748.0000:   BOTTOM DEPTH LOGGED
TOPL.F                      3998.0000:   TOP DEPTH LOGGED
CS1 .IN                       13.3750:   CASING SIZE 1
BS1 .IN                       12.2500:   BIT SIZE 1
DDB1.F                      6750.0000:   DEPTH DRILLED BIT 1
BHF .                              32:   FLUID CODE
DPT .                          low PH:   DRILLING FLUID TYPE
MUDD.                         11.5000:   FLUID DENSITY
MUDV.                         46.0000:   FLUID VISCOSITY
DFPH.                          8.8000:   FLUID PH
FL  .                          5.0000:   FLUID LOSS
RM  .OHMM                      1.2400:   RM
RMT .DEGF                     75.0000:   RM TEMP
RMF .OHMM                      1.1400:   RMF
RMFT.DEGF                     75.0000:   RMF TEMP
FSC .                               M:   RMF CODE
RMC .OHMM                      1.8000:   RMC
RMCT.DEGF                     75.0000:   RMC TEMP
CMC .                               M:   RMC CODE
TMAX.DEGF                    158.0000:   MAX REC TEMP
TIMC.                          6.0000:   TIME SINCE CIRCLN
~PARAMETER INFORMATION (zones)
#MNEM.UNIT                       Value     Description
#=========                       =====     ===========
#ZONATION                          FDC:   ZONATION NAME
#ZONE                            RUN_1:   ZONE NAME
TOP .                       3964.0000:   TOP DEPTH
BOT .                       6746.5000:   BOTTOM DEPTH
RUN .                               1:   RUN NUMBER
LCCD.                             510:   LOGGING CONTRACTOR
SRVC.                   Western Atlas:   LOGGING CONT NAME
DICO.          QC Data Collectors Ltd:   DIG COMPANY NAME
LDAT.                      08/29/1993:   DATE LOGGED
TDD .F                      6750.0000:   TOTAL DEPTH DRILLER
TDL .F                      6749.0000:   TOTAL DEPTH LOGGER
BOTL.F                      6746.0000:   BOTTOM DEPTH LOGGED
TOPL.F                      3998.0000:   TOP DEPTH LOGGED
CS1 .IN                       13.3750:   CASING SIZE 1
BS1 .IN                       12.2500:   BIT SIZE 1
DDB1.F                      6750.0000:   DEPTH DRILLED BIT 1
BHF .                              32:   FLUID CODE
DPT .                          low PH:   DRILLING FLUID TYPE
MUDD.                         11.5000:   FLUID DENSITY
MUDV.                         46.0000:   FLUID VISCOSITY
DFPH.                          8.8000:   FLUID PH
FL  .                          5.0000:   FLUID LOSS
RM  .OHMM                      1.2400:   RM
RMT .DEGF                     75.0000:   RM TEMP
RMF .OHMM                      1.1400:   RMF
RMFT.DEGF                     75.0000:   RMF TEMP
FSC .                               M:   RMF CODE
RMC .OHMM                      1.8000:   RMC
RMCT.DEGF                     75.0000:   RMC TEMP
CMC .                               M:   RMC CODE
TMAX.DEGF                    164.0000:   MAX REC TEMP
TIMC.                         10.0000:   TIME SINCE CIRCLN
~Curve Information Block
#MNEM.UNIT                    API CODE    No Description
#=========                    ========    == ===========
DEPT.F                   00 001 00 00:     1  DEPTH
NPHI.%                               :     2  Neutron Porosity
DT.US/F                              :     3  Sonic Transit Time
GR.GAPI                              :     4  Gamma Ray
ILD.OHMM                             :     5  Deep Induction Resistivity
ILM.OHMM                             :     6  Medium Induction Resistivity
RFOC.OHMM                            :     7  Medium Resistivity
SP.MV                                :     8  Spontaneous Potential
CALI.IN                              :     9  Caliper
DPHI.%                               :    10  Porosity
DRHO.G/C3                            :    11  Bulk Density Correction
GRD.GAPI                             :    12  Gamma Ray
~ASCII
# ...
 4726.5000    36.0573   120.8497    59.4597     1.0005     1.0191     1.3751   -76.5387    11.7224    20.6930      .0238    66.3654
 4727.0000    36.5413   120.0535    58.6661      .9932     1.0145     1.3786   -77.1111    11.7136    20.4104      .0234    67.9890
 4727.5000    36.9638   120.1409    59.6588      .9904     1.0087     1.3625   -77.5919    11.7070    21.2199      .0216    68.7705
 4728.0000    37.3497   120.8503    59.4474      .9885     1.0019     1.3513   -77.9465    11.7003    22.0805      .0213    68.7267
 4728.5000    37.3577   122.1044    57.4841      .9865     1.0005     1.3516   -78.0962    11.6913    23.0404      .0215    68.3846
 4729.0000    37.3747   123.4801    56.9648      .9870     1.0001     1.3557   -78.0579    11.6861    23.4633      .0238    69.0471
 4729.5000    37.6081   124.4172    59.2031      .9886      .9994     1.3593   -77.8893    11.6798    23.5223      .0310    70.1373
 4730.0000    37.6970   124.4404    61.1456      .9920      .9986     1.3603   -77.8943    11.6715    23.5126      .0401    70.6919
 4730.5000    37.6761   124.3317    59.7309      .9959      .9997     1.3510   -78.1838    11.6729    23.6010      .0480    70.7839
 4731.0000    37.5400   124.4390    59.2593     1.0010     1.0028     1.3608   -77.8594    11.6774    23.7396      .0422    71.7400
 4731.5000    37.3875   124.6627    61.8983      .9996     1.0066     1.3747   -77.5540    11.6852    23.5081      .0347    71.8702
 4732.0000    37.2995   125.0771    65.5145     1.0039     1.0111     1.3784   -77.6714    11.6917    23.4499      .0328    71.3159
 4732.5000    37.1298   125.5804    68.0594     1.0119     1.0158     1.3734   -78.0127    11.6994    23.4058      .0364    70.3984
 4733.0000    37.3814   125.5422    69.1125     1.0213     1.0208     1.3634   -78.2761    11.7095    23.3827      .0408    70.2522
 4733.5000    38.1513   124.1930    67.2177     1.0310     1.0250     1.3645   -78.0470    11.7216    23.3305      .0430    71.9005
 4734.0000    38.8134   122.3237    63.4865     1.0405     1.0285     1.3811   -77.3467    11.7253    23.2825      .0420    72.9417
 4734.5000    38.8529   120.5909    62.3668     1.0489     1.0340     1.3911   -76.7493    11.7282    23.2688      .0404    72.2375
 4735.0000    38.3963   119.5807    61.8140     1.0585     1.0429     1.3939   -76.9757    11.7229    23.5095      .0401    70.6053
 4735.5000    38.1686   120.4595    61.3944     1.0710     1.0565     1.3931   -77.9747    11.7125    23.8855      .0428    70.0804
 4736.0000    38.0722   121.9485    62.1499     1.0794     1.0702     1.3912   -78.8801    11.7044    24.0662      .0449    69.6139
 4736.5000    38.0327   122.7904    63.7578     1.0867     1.0843     1.3918   -79.2896    11.6950    23.9737      .0466    68.6625
 4737.0000    37.3631   122.5304    63.3472     1.0964     1.0986     1.3952   -79.5125    11.6896    23.7876      .0442    71.7931
 4737.5000    36.7458   121.9053    60.5494     1.1058     1.1129     1.4074   -80.0033    11.6821    23.5955      .0439    72.1388
 4738.0000    36.3958   121.6951    58.3723     1.1151     1.1269     1.4360   -80.7623    11.6753    23.4278      .0408    69.1927
 4738.5000    36.2625   121.8417    57.4508     1.1244     1.1411     1.4417   -81.7504    11.6724    23.2423      .0387    67.6766
 4739.0000    35.9972   121.9885    58.0327     1.1352     1.1570     1.4299   -81.6947    11.6664    23.4205      .0388    68.7137
 4739.5000    35.5846   120.9731    60.9624     1.1490     1.1747     1.4211   -81.4501    11.6624    23.6844      .0427    69.4469
 4740.0000    35.6714   119.7302    63.9007     1.1625     1.1854     1.4152   -81.8917    11.6600    23.8941      .0480    68.9415
 4740.5000    36.0909   118.8457    65.0458     1.1665     1.1858     1.4158   -82.7775    11.6572    24.0140      .0500    68.7965
 4741.0000    36.5206   118.2604    64.8579     1.1671     1.1817     1.4208   -83.4484    11.6543    24.2697      .0525    69.6919
 4741.5000    36.8660   117.7332    63.3312     1.1602     1.1745     1.4282   -83.7550    11.6515    24.5618      .0593    69.3123
 4742.0000    37.0701   117.2621    62.0617     1.1513     1.1650     1.4404   -82.9734    11.6463    24.6367      .0709    68.5063
 4742.5000    37.1219   116.8074    61.1208     1.1404     1.1423     1.4494   -82.4316    11.6407    24.5724      .0778    68.0942
 4743.0000    37.1405   116.4735    60.6417     1.1304     1.1204     1.4476   -82.3916    11.6348    24.4783      .0772    68.8533
 4743.5000    37.1816   116.6696    61.8670     1.1209     1.1029     1.4258   -82.7296    11.6314    24.3600      .0747    69.8361
 4744.0000    37.4127   117.2365    61.9209     1.1107     1.0889     1.3989   -82.9618    11.6353    24.2476      .0704    70.0959
 4744.5000    37.7222   118.0490    60.0221     1.1017     1.0816     1.3774   -83.1637    11.6427    24.0841      .0624    69.3971
 4745.0000    37.8632   119.0005    59.5406     1.1002     1.1063     1.3697   -82.5724    11.6540    23.9352      .0553    68.8064
 4745.5000    38.0717   119.8098    59.2973     1.0999     1.1125     1.3721   -81.9778    11.6668    23.7209      .0506    68.7529
 4746.0000    38.4268   120.2574    58.7758     1.1109     1.1226     1.3914   -82.1467    11.6804    23.5599      .0465    69.1669
 4746.5000    38.6002   120.4087    60.2485     1.1208     1.1378     1.4152   -82.4381    11.6924    23.4195      .0546    68.3063
 4747.0000    38.2655   119.7416    63.7352     1.1199     1.1417     1.4452   -82.6101    11.7028    23.3066      .0660    67.1741
 4747.5000    37.5691   118.4122    65.6769     1.1185     1.1368     1.4468   -82.5684    11.7111    23.5980      .0772    66.4916
 4748.0000    37.0638   117.7307    64.2200     1.1167     1.1288     1.4384   -82.1382    11.7266    24.0611      .0851    67.6420
 4748.5000    36.9201   117.0747    61.0419     1.1105     1.1193     1.4168   -81.7963    11.7431    24.1518      .0764    68.7842
 4749.0000    36.7928   117.3617    58.9484     1.1018     1.1094     1.3961   -81.4617    11.7587    24.0520      .0674    67.0382
 4749.5000    37.0063   117.8516    58.7819     1.0906     1.0952     1.3825   -80.9209    11.7729    23.9987      .0592    65.6418
 4750.0000    38.2028   118.7468    60.1751     1.0789     1.0801     1.3762   -80.0646    11.7828    24.0239      .0535    67.4293
 4750.5000    38.5904   119.7566    60.5473     1.0630     1.0646     1.3739   -79.5204    11.7831    24.0931      .0546    69.5708
 4751.0000    38.3349   120.7877    59.9018     1.0508     1.0523     1.3718   -79.5460    11.7832    24.1147      .0567    69.6649
 4751.5000    37.9886   121.8433    60.4787     1.0404     1.0416     1.3685   -80.0039    11.7845    23.9501      .0587    68.6322
 4752.0000    37.8410   122.6238    62.7644     1.0326     1.0371     1.3667   -80.5249    11.7903    23.8194      .0592    67.5364
 4752.5000    37.9976   122.3121    63.6434     1.0251     1.0351     1.3654   -80.5822    11.7995    23.7202      .0529    67.2871
 4753.0000    38.1894   121.9258    62.7466     1.0184     1.0353     1.3671   -80.5782    11.8107    23.6928      .0444    68.6260
 4753.5000    38.3687   121.9226    62.5881     1.0187     1.0407     1.3674   -80.5720    11.8277    23.7609      .0432    69.7942
 4754.0000    38.2036   121.9419    63.8381     1.0219     1.0469     1.3631   -80.5424    11.8537    24.1130      .0595    70.3698
 4754.5000    38.0392   122.0526    64.5800     1.0308     1.0532     1.3585   -80.5076    11.8862    24.6015      .0743    70.3424
 4755.0000    38.1213   122.2377    61.8768     1.0418     1.0644     1.3581   -80.4449    11.9171    24.8603      .0748    69.5405
 4755.5000    38.2231   121.6860    59.8418     1.0670     1.0793     1.3733   -80.3589    11.9397    25.0134      .0709    68.7187
 4756.0000    38.0065   120.8447    60.3881     1.0917     1.1021     1.3949   -80.3225    11.9481    24.9847      .0789    68.2012
 4756.5000    37.3101   119.9902    63.7242     1.1158     1.1181     1.4125   -80.1368    11.9347    24.8314      .0856    68.6544
