~VERSION INFORMATION
VERS.                             2.0:   CWLS Log ASCII Standard-VERSION 2.0
WRAP.                              NO:   One line per depth step
~Well Information Block
STRT.F                       590.0000:   Top Depth
STOP.F                      5513.0000:   Bottom Depth
STEP.F                         .50000:   Depth Increment
NULL.                        -999.250:   Null Value
FLD .                     MU BLK A 16:   Field Name
WELL.       OCSG03011  A001 ST00 BP00:   NAME
API .                    427024004100:   WELL API
R1  .                           13904:   COMMENT  1
EDF .F                       102.0000:   ELEV DRILL FLOOR
COMP.       CITIES SERVICE OIL COMPAN:   OPERATOR
BN  .                            A 16:   BLOCK
CTRY.                             USA:   COUNTRY NAME
CNTY.                        MG ILD L:   COUNTY NAME
EKB .F                       103.0000:   ELEV KELLY BUSHING
TDD .F                       5519.000:   FINAL TD DRILLER
STAT.                           TEXAS:   STATE NAME
UWI .                    427024004100:   WELL API
DICO.               IHS : Digitizing Company
~PARAMETER INFORMATION (zones)
#MNEM.UNIT                       Value     Description
#=========                       =====     ===========
#ZONATION                          CNL:   ZONATION NAME
#ZONE                            RUN_1:   ZONE NAME
TOP .                       3234.0000:   TOP DEPTH
BOT .                       5513.5000:   BOTTOM DEPTH
RUN .                               1:   RUN NUMBER
LCCD.                             440:   LOGGING CONTRACTOR
SRVC.                    Schlumberger:   LOGGING CONT NAME
DICO.          QC Data Collectors Ltd:   DIG COMPANY NAME
LDAT.                      03/04/1980:   DATE LOGGED
ELD .F                       103.0000:   LOG DATUM ELEVATION
TDD .F                      5512.0000:   TOTAL DEPTH DRILLER
TDL .F                      5519.0000:   TOTAL DEPTH LOGGER
BOTL.F                      5513.0000:   BOTTOM DEPTH LOGGED
TOPL.F                      3240.0000:   TOP DEPTH LOGGED
CS1 .IN                       13.3750:   CASING SIZE 1
BS1 .IN                       12.2500:   BIT SIZE 1
DDB1.F                      5512.0000:   DEPTH DRILLED BIT 1
BHF .                              99:   FLUID CODE
DPT .                   Miscellaneous:   DRILLING FLUID TYPE
MUDD.                         13.1000:   FLUID DENSITY
MUDV.                         38.0000:   FLUID VISCOSITY
DFPH.                         11.5000:   FLUID PH
FL  .                          4.0000:   FLUID LOSS
RM  .OHMM                       .8600:   RM
RMT .DEGF                     70.0000:   RM TEMP
RMF .OHMM                       .6600:   RMF
RMFT.DEGF                     70.0000:   RMF TEMP
FSC .                               M:   RMF CODE
RMC .OHMM                      1.8600:   RMC
RMCT.DEGF                     70.0000:   RMC TEMP
CMC .                               M:   RMC CODE
TMAX.DEGF                    145.0000:   MAX REC TEMP
TIMC.                          6.5000:   TIME SINCE CIRCLN
~PARAMETER INFORMATION (zones)
#MNEM.UNIT                       Value     Description
#=========                       =====     ===========
#ZONATION                          DIL:   ZONATION NAME
#ZONE                            RUN_1:   ZONE NAME
TOP .                       3240.0000:   TOP DEPTH
BOT .                       5513.5000:   BOTTOM DEPTH
RUN .                               1:   RUN NUMBER
LCCD.                             440:   LOGGING CONTRACTOR
SRVC.                    Schlumberger:   LOGGING CONT NAME
DICO.          QC Data Collectors Ltd:   DIG COMPANY NAME
LDAT.                      03/04/1980:   DATE LOGGED
ELD .F                       103.0000:   LOG DATUM ELEVATION
TDD .F                      5512.0000:   TOTAL DEPTH DRILLER
TDL .F                      5519.0000:   TOTAL DEPTH LOGGER
BOTL.F                      5513.0000:   BOTTOM DEPTH LOGGED
TOPL.F                      3240.0000:   TOP DEPTH LOGGED
CS1 .IN                       13.3750:   CASING SIZE 1
BS1 .IN                       12.2500:   BIT SIZE 1
DDB1.F                      5512.0000:   DEPTH DRILLED BIT 1
BHF .                              99:   FLUID CODE
DPT .                   Miscellaneous:   DRILLING FLUID TYPE
MUDD.                         13.1000:   FLUID DENSITY
MUDV.                         38.0000:   FLUID VISCOSITY
DFPH.                         11.5000:   FLUID PH
FL  .                          4.0000:   FLUID LOSS
RM  .OHMM                       .8600:   RM
RMT .DEGF                     70.0000:   RM TEMP
RMF .OHMM                       .6600:   RMF
RMFT.DEGF                     70.0000:   RMF TEMP
FSC .                               M:   RMF CODE
RMC .OHMM                      1.8600:   RMC
RMCT.DEGF                     70.0000:   RMC TEMP
CMC .                               M:   RMC CODE
TMAX.DEGF                    145.0000:   MAX REC TEMP
TIMC.                          6.5000:   TIME SINCE CIRCLN
~PARAMETER INFORMATION (zones)
#MNEM.UNIT                       Value     Description
#=========                       =====     ===========
#ZONATION                          DIL:   ZONATION NAME
#ZONE                          RUN_1_1:   ZONE NAME
TOP .                        590.0000:   TOP DEPTH
BOT .                       1046.5000:   BOTTOM DEPTH
RUN .                               1:   RUN NUMBER
LCCD.                             440:   LOGGING CONTRACTOR
SRVC.                    Schlumberger:   LOGGING CONT NAME
DICO.          QC Data Collectors Ltd:   DIG COMPANY NAME
LDAT.                      02/20/1980:   DATE LOGGED
ELD .F                       103.0000:   LOG DATUM ELEVATION
TDD .F                      1050.0000:   TOTAL DEPTH DRILLER
TDL .F                      1050.0000:   TOTAL DEPTH LOGGER
BOTL.F                      1046.0000:   BOTTOM DEPTH LOGGED
TOPL.F                       597.0000:   TOP DEPTH LOGGED
CS1 .IN                       30.0000:   CASING SIZE 1
BS1 .IN                       12.5000:   BIT SIZE 1
DDB1.F                      1050.0000:   DEPTH DRILLED BIT 1
BHF .                              99:   FLUID CODE
DPT .                   Miscellaneous:   DRILLING FLUID TYPE
MUDD.                          8.6000:   FLUID DENSITY
MUDV.                         39.0000:   FLUID VISCOSITY
DFPH.                         12.3000:   FLUID PH
FL  .                            NULL:   FLUID LOSS
RM  .OHMM                       .3900:   RM
RMT .DEGF                     80.0000:   RM TEMP
RMF .OHMM                       .2400:   RMF
RMFT.DEGF                     80.0000:   RMF TEMP
FSC .                               M:   RMF CODE
RMC .OHMM                       .4500:   RMC
RMCT.DEGF                     80.0000:   RMC TEMP
CMC .                               M:   RMC CODE
TMAX.DEGF                     90.0000:   MAX REC TEMP
TIMC.                          1.5000:   TIME SINCE CIRCLN
~PARAMETER INFORMATION (zones)
#MNEM.UNIT                       Value     Description
#=========                       =====     ===========
#ZONATION                          FDC:   ZONATION NAME
#ZONE                            RUN_1:   ZONE NAME
TOP .                       3234.0000:   TOP DEPTH
BOT .                       5513.5000:   BOTTOM DEPTH
RUN .                               1:   RUN NUMBER
LCCD.                             440:   LOGGING CONTRACTOR
SRVC.                    Schlumberger:   LOGGING CONT NAME
DICO.          QC Data Collectors Ltd:   DIG COMPANY NAME
LDAT.                      03/04/1980:   DATE LOGGED
ELD .F                       103.0000:   LOG DATUM ELEVATION
TDD .F                      5512.0000:   TOTAL DEPTH DRILLER
TDL .F                      5519.0000:   TOTAL DEPTH LOGGER
BOTL.F                      5513.0000:   BOTTOM DEPTH LOGGED
TOPL.F                      3240.0000:   TOP DEPTH LOGGED
CS1 .IN                       13.3750:   CASING SIZE 1
BS1 .IN                       12.2500:   BIT SIZE 1
DDB1.F                      5512.0000:   DEPTH DRILLED BIT 1
BHF .                              99:   FLUID CODE
DPT .                   Miscellaneous:   DRILLING FLUID TYPE
MUDD.                         13.1000:   FLUID DENSITY
MUDV.                         38.0000:   FLUID VISCOSITY
DFPH.                         11.5000:   FLUID PH
FL  .                          4.0000:   FLUID LOSS
RM  .OHMM                       .8600:   RM
RMT .DEGF                     70.0000:   RM TEMP
RMF .OHMM                       .6600:   RMF
RMFT.DEGF                     70.0000:   RMF TEMP
FSC .                               M:   RMF CODE
RMC .OHMM                      1.8600:   RMC
RMCT.DEGF                     70.0000:   RMC TEMP
CMC .                               M:   RMC CODE
TMAX.DEGF                    145.0000:   MAX REC TEMP
TIMC.                          6.5000:   TIME SINCE CIRCLN
~Curve Information Block
#MNEM.UNIT                    API CODE    No Description
#=========                    ========    == ===========
DEPT.F                   00 001 00 00:     1  DEPTH
NPHI.%                               :     2  Neutron Porosity
ASFL.OHMM                            :     3  Shallow Resistivity
DT.US/F                              :     4  Sonic Transit Time
GR.GAPI                              :     5  Gamma Ray
ILD.OHMM                             :     6  Deep Induction Resistivity
SFL.OHMM                             :     7  Medium Resistivity
SP.MV                                :     8  Spontaneous Potential
CALI.IN                              :     9  Caliper
DRHO.G/C3                            :    10  Bulk Density Correction
GR.GAPI                              :    11  Gamma Ray
RHOB.G/C3                            :    12  Bulk Density
~ASCII
# ...
 4585.5000    42.9685     1.3029  -999.2500  -999.2500     1.2474  -999.2500   -63.3094    12.6398     -.0074    67.3925     2.2853
 4586.0000    45.6406     1.2668  -999.2500  -999.2500     1.1953  -999.2500   -63.9474    12.5561     -.0125    68.3171     2.2813
 4586.5000    45.3328     1.2405  -999.2500  -999.2500     1.1432  -999.2500   -64.7460    12.5295     -.0157    69.1478     2.2816
 4587.0000    44.3986     1.2251  -999.2500  -999.2500     1.0911  -999.2500   -65.5438    12.5208     -.0185    68.0087     2.2807
 4587.5000    43.3928     1.2190  -999.2500  -999.2500     1.0390  -999.2500   -66.3418    12.5482     -.0212    66.5292     2.2775
 4588.0000    42.6892     1.2201  -999.2500  -999.2500     1.0014  -999.2500   -67.1403    12.5730     -.0251    65.0975     2.2740
 4588.5000    42.3514     1.2269  -999.2500  -999.2500      .9817  -999.2500   -67.9382    12.5407     -.0280    63.8871     2.2711
 4589.0000    42.2090     1.2337  -999.2500  -999.2500      .9621  -999.2500   -68.9690    12.5055     -.0265    62.9648     2.2681
 4589.5000    41.9037     1.2363  -999.2500  -999.2500      .9424  -999.2500   -70.1028    12.4703     -.0224    62.5636     2.2725
 4590.0000    41.3938     1.2236  -999.2500  -999.2500      .9228  -999.2500   -71.2360    12.4450     -.0130    63.3698     2.2771
 4590.5000    40.8787     1.2090  -999.2500  -999.2500      .9031  -999.2500   -69.9847    12.4228     -.0043    64.4069     2.2778
 4591.0000    40.4448     1.1939  -999.2500  -999.2500      .8951  -999.2500   -69.1752    12.4158     -.0025    65.4563     2.2703
 4591.5000    40.3807     1.1789  -999.2500  -999.2500      .8988  -999.2500   -69.1572    12.4108     -.0045    66.4413     2.2618
 4592.0000    40.4182     1.1639  -999.2500  -999.2500      .9025  -999.2500   -69.0267    12.4026     -.0062    67.3524     2.2629
 4592.5000    40.5894     1.1489  -999.2500  -999.2500      .9062  -999.2500   -68.1680    12.3984     -.0057    67.6925     2.2795
 4593.0000    41.5156     1.1323  -999.2500  -999.2500      .9099  -999.2500   -66.7517    12.4254     -.0032    66.9187     2.2923
 4593.5000    42.6660     1.1158  -999.2500  -999.2500      .9136  -999.2500   -65.3141    12.4380     -.0014    66.4124     2.3003
 4594.0000    43.3043     1.0993  -999.2500  -999.2500      .9173  -999.2500   -65.3652    12.4333     -.0009    67.2487     2.2950
 4594.5000    42.8951     1.0828  -999.2500  -999.2500      .9210  -999.2500   -65.7052    12.4345     -.0017    68.0413     2.2866
 4595.0000    42.4938     1.0710  -999.2500  -999.2500      .9262  -999.2500   -65.7881    12.4787     -.0016    68.6409     2.2791
 4595.5000    43.3456     1.0757  -999.2500  -999.2500      .9325  -999.2500   -65.0762    12.5633     -.0015    69.0636     2.2709
 4596.0000    45.6177     1.0963  -999.2500  -999.2500      .9387  -999.2500   -64.3649    12.5908     -.0147    68.9758     2.2579
 4596.5000    45.6505     1.1198  -999.2500  -999.2500      .9450  -999.2500   -65.0404    12.5683     -.0275    67.7875     2.2447
 4597.0000    43.7123     1.1433  -999.2500  -999.2500      .9512  -999.2500   -66.3098    12.5289     -.0328    66.0573     2.2339
 4597.5000    40.9259     1.1668  -999.2500  -999.2500      .9575  -999.2500   -67.4830    12.5334     -.0234    64.5961     2.2308
 4598.0000    39.7644     1.1665  -999.2500  -999.2500      .9637  -999.2500   -68.3889    12.5520     -.0137    64.6281     2.2384
 4598.5000    41.1060     1.1481  -999.2500  -999.2500      .9700  -999.2500   -69.1925    12.5843     -.0062    66.0093     2.2550
 4599.0000    44.3086     1.1206  -999.2500  -999.2500      .9647  -999.2500   -68.0631    12.6330     -.0007    67.0206     2.2779
 4599.5000    46.7674     1.0902  -999.2500  -999.2500      .9545  -999.2500   -66.9331    12.6779      .0035    67.4592     2.2887
 4600.0000    47.3806     1.0599  -999.2500  -999.2500      .9443  -999.2500   -65.8031    12.7158     -.0005    66.9985     2.2904
 4600.5000    46.4892     1.0300  -999.2500  -999.2500      .9340  -999.2500   -64.6731    12.7187     -.0038    65.3556     2.2862
 4601.0000    45.6655     1.0187  -999.2500  -999.2500      .9238  -999.2500   -64.6010    12.6734     -.0068    63.5725     2.2784
 4601.5000    45.5994     1.0337  -999.2500  -999.2500      .9136  -999.2500   -69.2867    12.6151     -.0084    61.6997     2.2694
 4602.0000    45.8994     1.0488  -999.2500  -999.2500      .9034  -999.2500   -73.9774    12.5494     -.0087    59.9372     2.2596
 4602.5000    45.1365     1.0637  -999.2500  -999.2500      .8932  -999.2500   -73.8068    12.5399     -.0089    59.9056     2.2483
 4603.0000    42.8460     1.0670  -999.2500  -999.2500      .8829  -999.2500   -73.0547    12.5457     -.0106    61.6948     2.2417
 4603.5000    41.0514     1.0703  -999.2500  -999.2500      .8721  -999.2500   -71.8442    12.5434     -.0118    64.6145     2.2488
 4604.0000    40.9326     1.0558  -999.2500  -999.2500      .8588  -999.2500   -70.6339    12.5409     -.0113    65.6633     2.2587
 4604.5000    41.9236     1.0372  -999.2500  -999.2500      .8455  -999.2500   -69.4236    12.5402     -.0115    66.1851     2.2683
 4605.0000    43.2696     1.0187  -999.2500  -999.2500      .8322  -999.2500   -68.2904    12.5122     -.0122    66.7834     2.2719
 4605.5000    44.1226     1.0005  -999.2500  -999.2500      .8189  -999.2500   -67.5503    12.4301     -.0127    67.6793     2.2732
 4606.0000    44.9669     1.0012  -999.2500  -999.2500      .8057  -999.2500   -67.9165    12.3683     -.0124    68.5770     2.2761
 4606.5000    45.5020     1.0018  -999.2500  -999.2500      .7924  -999.2500   -70.8335    12.3333     -.0104    69.4316     2.2801
 4607.0000    45.3546     1.0096  -999.2500  -999.2500      .7791  -999.2500   -73.8519    12.3063     -.0078    68.9045     2.2710
 4607.5000    44.6400     1.0216  -999.2500  -999.2500      .7658  -999.2500   -76.6066    12.2575     -.0075    68.2606     2.2531
 4608.0000    43.6887     1.0335  -999.2500  -999.2500      .7525  -999.2500   -79.0323    12.2226     -.0078    70.1494     2.2254
 4608.5000    41.8535     1.0455  -999.2500  -999.2500      .7392  -999.2500   -81.4556    12.2018     -.0077    73.4943     2.2176
 4609.0000    40.8857     1.0335  -999.2500  -999.2500      .7277  -999.2500   -81.7802    12.2076     -.0061    76.2015     2.2240
 4609.5000    41.0086     1.0168  -999.2500  -999.2500      .7218  -999.2500   -77.6638    12.2147     -.0045    76.6034     2.2301
 4610.0000    41.5471     1.0001  -999.2500  -999.2500      .7159  -999.2500   -73.5381    12.2119     -.0032    75.2664     2.2343
 4610.5000    43.3275      .9759  -999.2500  -999.2500      .7100  -999.2500   -75.3461    12.1939     -.0030    72.8185     2.2326
 4611.0000    44.6835      .9424  -999.2500  -999.2500      .7041  -999.2500   -77.1541    12.1761     -.0048    70.6064     2.2185
 4611.5000    45.2064      .9206  -999.2500  -999.2500      .6982  -999.2500   -78.9620    12.1588     -.0075    68.7767     2.1985
 4612.0000    44.3951      .9349  -999.2500  -999.2500      .6934  -999.2500   -80.2590    12.1403     -.0100    69.1835     2.1889
 4612.5000    43.5936      .9492  -999.2500  -999.2500      .7102  -999.2500   -77.6688    12.1181     -.0114    70.2224     2.2083
 4613.0000    43.0955      .9635  -999.2500  -999.2500      .7270  -999.2500   -74.7446    12.1274     -.0102    69.1355     2.2309
 4613.5000    42.9927      .9679  -999.2500  -999.2500      .7437  -999.2500   -73.3861    12.1474     -.0090    67.3230     2.2463
 4614.0000    43.4391      .9705  -999.2500  -999.2500      .7605  -999.2500   -72.0596    12.1600     -.0077    66.1174     2.2521
 4614.5000    45.2661      .9731  -999.2500  -999.2500      .7773  -999.2500   -71.4839    12.1694     -.0062    64.9120     2.2505
 4615.0000    45.8006      .9767  -999.2500  -999.2500      .7940  -999.2500   -71.9177    12.1758     -.0046    64.8492     2.2467
 4615.5000    44.5001      .9802  -999.2500  -999.2500      .8108  -999.2500   -72.9053    12.1915     -.0042    65.6149     2.2429
