~VERSION INFORMATION
VERS.                             2.0:   CWLS Log ASCII Standard-VERSION 2.0
WRAP.                              NO:   One line per depth step
~Well Information Block
STRT.F                       590.0000:   Top Depth
STOP.F                      5513.0000:   Bottom Depth
STEP.F                         .50000:   Depth Increment
NULL.                        -999.250:   Null Value
FLD .                     MU BLK A 16:   Field Name
WELL.       OCSG03011  A001 ST00 BP00:   NAME
API .                    427024004100:   WELL API
R1  .                           13904:   COMMENT  1
EDF .F                       102.0000:   ELEV DRILL FLOOR
COMP.       CITIES SERVICE OIL COMPAN:   OPERATOR
BN  .                            A 16:   BLOCK
CTRY.                             USA:   COUNTRY NAME
CNTY.                        MG ILD L:   COUNTY NAME
EKB .F                       103.0000:   ELEV KELLY BUSHING
TDD .F                       5519.000:   FINAL TD DRILLER
STAT.                           TEXAS:   STATE NAME
UWI .                    427024004100:   WELL API
DICO.               IHS : Digitizing Company
~PARAMETER INFORMATION (zones)
#MNEM.UNIT                       Value     Description
#=========                       =====     ===========
#ZONATION                          CNL:   ZONATION NAME
#ZONE                            RUN_1:   ZONE NAME
TOP .                       3234.0000:   TOP DEPTH
BOT .                       5513.5000:   BOTTOM DEPTH
RUN .                               1:   RUN NUMBER
LCCD.                             440:   LOGGING CONTRACTOR
SRVC.                    Schlumberger:   LOGGING CONT NAME
DICO.          QC Data Collectors Ltd:   DIG COMPANY NAME
LDAT.                      03/04/1980:   DATE LOGGED
ELD .F                       103.0000:   LOG DATUM ELEVATION
TDD .F                      5512.0000:   TOTAL DEPTH DRILLER
TDL .F                      5519.0000:   TOTAL DEPTH LOGGER
BOTL.F                      5513.0000:   BOTTOM DEPTH LOGGED
TOPL.F                      3240.0000:   TOP DEPTH LOGGED
CS1 .IN                       13.3750:   CASING SIZE 1
BS1 .IN                       12.2500:   BIT SIZE 1
DDB1.F                      5512.0000:   DEPTH DRILLED BIT 1
BHF .                              99:   FLUID CODE
DPT .                   Miscellaneous:   DRILLING FLUID TYPE
MUDD.                         13.1000:   FLUID DENSITY
MUDV.                         38.0000:   FLUID VISCOSITY
DFPH.                         11.5000:   FLUID PH
FL  .                          4.0000:   FLUID LOSS
RM  .OHMM                       .8600:   RM
RMT .DEGF                     70.0000:   RM TEMP
RMF .OHMM                       .6600:   RMF
RMFT.DEGF                     70.0000:   RMF TEMP
FSC .                               M:   RMF CODE
RMC .OHMM                      1.8600:   RMC
RMCT.DEGF                     70.0000:   RMC TEMP
CMC .                               M:   RMC CODE
TMAX.DEGF                    145.0000:   MAX REC TEMP
TIMC.                          6.5000:   TIME SINCE CIRCLN
~PARAMETER INFORMATION (zones)
#MNEM.UNIT                       Value     Description
#=========                       =====     ===========
#ZONATION                          DIL:   ZONATION NAME
#ZONE                            RUN_1:   ZONE NAME
TOP .                       3240.0000:   TOP DEPTH
BOT .                       5513.5000:   BOTTOM DEPTH
RUN .                               1:   RUN NUMBER
LCCD.                             440:   LOGGING CONTRACTOR
SRVC.                    Schlumberger:   LOGGING CONT NAME
DICO.          QC Data Collectors Ltd:   DIG COMPANY NAME
LDAT.                      03/04/1980:   DATE LOGGED
ELD .F                       103.0000:   LOG DATUM ELEVATION
TDD .F                      5512.0000:   TOTAL DEPTH DRILLER
TDL .F                      5519.0000:   TOTAL DEPTH LOGGER
BOTL.F                      5513.0000:   BOTTOM DEPTH LOGGED
TOPL.F                      3240.0000:   TOP DEPTH LOGGED
CS1 .IN                       13.3750:   CASING SIZE 1
BS1 .IN                       12.2500:   BIT SIZE 1
DDB1.F                      5512.0000:   DEPTH DRILLED BIT 1
BHF .                              99:   FLUID CODE
DPT .                   Miscellaneous:   DRILLING FLUID TYPE
MUDD.                         13.1000:   FLUID DENSITY
MUDV.                         38.0000:   FLUID VISCOSITY
DFPH.                         11.5000:   FLUID PH
FL  .                          4.0000:   FLUID LOSS
RM  .OHMM                       .8600:   RM
RMT .DEGF                     70.0000:   RM TEMP
RMF .OHMM                       .6600:   RMF
RMFT.DEGF                     70.0000:   RMF TEMP
FSC .                               M:   RMF CODE
RMC .OHMM                      1.8600:   RMC
RMCT.DEGF                     70.0000:   RMC TEMP
CMC .                               M:   RMC CODE
TMAX.DEGF                    145.0000:   MAX REC TEMP
TIMC.                          6.5000:   TIME SINCE CIRCLN
~PARAMETER INFORMATION (zones)
#MNEM.UNIT                       Value     Description
#=========                       =====     ===========
#ZONATION                          DIL:   ZONATION NAME
#ZONE                          RUN_1_1:   ZONE NAME
TOP .                        590.0000:   TOP DEPTH
BOT .                       1046.5000:   BOTTOM DEPTH
RUN .                               1:   RUN NUMBER
LCCD.                             440:   LOGGING CONTRACTOR
SRVC.                    Schlumberger:   LOGGING CONT NAME
DICO.          QC Data Collectors Ltd:   DIG COMPANY NAME
LDAT.                      02/20/1980:   DATE LOGGED
ELD .F                       103.0000:   LOG DATUM ELEVATION
TDD .F                      1050.0000:   TOTAL DEPTH DRILLER
TDL .F                      1050.0000:   TOTAL DEPTH LOGGER
BOTL.F                      1046.0000:   BOTTOM DEPTH LOGGED
TOPL.F                       597.0000:   TOP DEPTH LOGGED
CS1 .IN                       30.0000:   CASING SIZE 1
BS1 .IN                       12.5000:   BIT SIZE 1
DDB1.F                      1050.0000:   DEPTH DRILLED BIT 1
BHF .                              99:   FLUID CODE
DPT .                   Miscellaneous:   DRILLING FLUID TYPE
MUDD.                          8.6000:   FLUID DENSITY
MUDV.                         39.0000:   FLUID VISCOSITY
DFPH.                         12.3000:   FLUID PH
FL  .                            NULL:   FLUID LOSS
RM  .OHMM                       .3900:   RM
RMT .DEGF                     80.0000:   RM TEMP
RMF .OHMM                       .2400:   RMF
RMFT.DEGF                     80.0000:   RMF TEMP
FSC .                               M:   RMF CODE
RMC .OHMM                       .4500:   RMC
RMCT.DEGF                     80.0000:   RMC TEMP
CMC .                               M:   RMC CODE
TMAX.DEGF                     90.0000:   MAX REC TEMP
TIMC.                          1.5000:   TIME SINCE CIRCLN
~PARAMETER INFORMATION (zones)
#MNEM.UNIT                       Value     Description
#=========                       =====     ===========
#ZONATION                          FDC:   ZONATION NAME
#ZONE                            RUN_1:   ZONE NAME
TOP .                       3234.0000:   TOP DEPTH
BOT .                       5513.5000:   BOTTOM DEPTH
RUN .                               1:   RUN NUMBER
LCCD.                             440:   LOGGING CONTRACTOR
SRVC.                    Schlumberger:   LOGGING CONT NAME
DICO.          QC Data Collectors Ltd:   DIG COMPANY NAME
LDAT.                      03/04/1980:   DATE LOGGED
ELD .F                       103.0000:   LOG DATUM ELEVATION
TDD .F                      5512.0000:   TOTAL DEPTH DRILLER
TDL .F                      5519.0000:   TOTAL DEPTH LOGGER
BOTL.F                      5513.0000:   BOTTOM DEPTH LOGGED
TOPL.F                      3240.0000:   TOP DEPTH LOGGED
CS1 .IN                       13.3750:   CASING SIZE 1
BS1 .IN                       12.2500:   BIT SIZE 1
DDB1.F                      5512.0000:   DEPTH DRILLED BIT 1
BHF .                              99:   FLUID CODE
DPT .                   Miscellaneous:   DRILLING FLUID TYPE
MUDD.                         13.1000:   FLUID DENSITY
MUDV.                         38.0000:   FLUID VISCOSITY
DFPH.                         11.5000:   FLUID PH
FL  .                          4.0000:   FLUID LOSS
RM  .OHMM                       .8600:   RM
RMT .DEGF                     70.0000:   RM TEMP
RMF .OHMM                       .6600:   RMF
RMFT.DEGF                     70.0000:   RMF TEMP
FSC .                               M:   RMF CODE
RMC .OHMM                      1.8600:   RMC
RMCT.DEGF                     70.0000:   RMC TEMP
CMC .                               M:   RMC CODE
TMAX.DEGF                    145.0000:   MAX REC TEMP
TIMC.                          6.5000:   TIME SINCE CIRCLN
~Curve Information Block
#MNEM.UNIT                    API CODE    No Description
#=========                    ========    == ===========
DEPT.F                   00 001 00 00:     1  DEPTH
NPHI.%                               :     2  Neutron Porosity
ASFL.OHMM                            :     3  Shallow Resistivity
DT.US/F                              :     4  Sonic Transit Time
GR.GAPI                              :     5  Gamma Ray
ILD.OHMM                             :     6  Deep Induction Resistivity
SFL.OHMM                             :     7  Medium Resistivity
SP.MV                                :     8  Spontaneous Potential
CALI.IN                              :     9  Caliper
DRHO.G/C3                            :    10  Bulk Density Correction
GR.GAPI                              :    11  Gamma Ray
RHOB.G/C3                            :    12  Bulk Density
~ASCII
# ...
 5165.0000    42.1230     1.3335  -999.2500  -999.2500     1.2526  -999.2500   -44.9484    12.7667      .0045    63.1688     2.3411
 5165.5000    38.7625     1.3249  -999.2500  -999.2500     1.2211  -999.2500   -44.8255    12.7478      .0078    61.9931     2.3532
 5166.0000    36.8284     1.3138  -999.2500  -999.2500     1.1897  -999.2500   -44.7355    12.7264      .0126    62.0153     2.3644
 5166.5000    35.7339     1.2965  -999.2500  -999.2500     1.1582  -999.2500   -44.7156    12.7367      .0190    62.9742     2.3728
 5167.0000    35.9092     1.2792  -999.2500  -999.2500     1.1268  -999.2500   -44.7697    12.7483      .0186    64.6000     2.3680
 5167.5000    37.3939     1.2561  -999.2500  -999.2500     1.0955  -999.2500   -44.8237    12.6928      .0118    66.4586     2.3434
 5168.0000    39.3206     1.2189  -999.2500  -999.2500     1.0671  -999.2500   -44.9424    12.6025      .0053    68.3925     2.3200
 5168.5000    39.6957     1.1818  -999.2500  -999.2500     1.0386  -999.2500   -45.1342    12.5665      .0026    69.1198     2.3086
 5169.0000    38.1173     1.1414  -999.2500  -999.2500     1.0101  -999.2500   -45.3261    12.5612      .0026    68.2194     2.3105
 5169.5000    36.4091     1.0896  -999.2500  -999.2500      .9816  -999.2500   -45.5179    12.5745      .0029    68.3549     2.3134
 5170.0000    35.7520     1.0378  -999.2500  -999.2500      .9532  -999.2500   -45.7098    12.6069      .0051    69.0034     2.3114
 5170.5000    37.4928     1.0106  -999.2500  -999.2500      .9247  -999.2500   -46.0559    12.6484      .0079    69.8804     2.3078
 5171.0000    41.0481      .9918  -999.2500  -999.2500      .8962  -999.2500   -46.4919    12.6815      .0105    70.8928     2.3110
 5171.5000    43.7205      .9729  -999.2500  -999.2500      .8678  -999.2500   -46.9282    12.7082      .0092    71.2562     2.3099
 5172.0000    44.8766      .9613  -999.2500  -999.2500      .8413  -999.2500   -47.1682    12.7345      .0045    71.1906     2.2998
 5172.5000    45.3439      .9529  -999.2500  -999.2500      .8182  -999.2500   -47.1157    12.7513      .0017    71.3916     2.2913
 5173.0000    45.2990      .9455  -999.2500  -999.2500      .7951  -999.2500   -47.0632    12.7680      .0048    73.0040     2.2963
 5173.5000    45.1536      .9454  -999.2500  -999.2500      .7720  -999.2500   -46.9210    12.7755      .0134    74.4426     2.3020
 5174.0000    45.1050      .9539  -999.2500  -999.2500      .7625  -999.2500   -46.6360    12.7776      .0185    74.8663     2.3046
 5174.5000    45.2780      .9834  -999.2500  -999.2500      .7805  -999.2500   -46.3510    12.7813      .0187    74.8162     2.3041
 5175.0000    45.6303     1.0129  -999.2500  -999.2500      .8200  -999.2500   -46.5434    12.7730      .0168    74.5122     2.3027
 5175.5000    46.3250     1.0448  -999.2500  -999.2500      .9058  -999.2500   -47.0908    12.7536      .0151    74.7814     2.3018
 5176.0000    46.2969     1.1163  -999.2500  -999.2500      .9916  -999.2500   -48.0093    12.7357      .0135    75.4816     2.2994
 5176.5000    44.8810     1.3624  -999.2500  -999.2500     1.0774  -999.2500   -48.9446    12.7374      .0124    75.9890     2.2943
 5177.0000    42.6309     1.4130  -999.2500  -999.2500     1.1633  -999.2500   -49.8348    12.7463      .0110    74.9723     2.2911
 5177.5000    41.6638     1.4460  -999.2500  -999.2500     1.2379  -999.2500   -50.3873    12.7480      .0066    73.3661     2.2942
 5178.0000    41.7963     1.4650  -999.2500  -999.2500     1.3015  -999.2500   -50.6343    12.7364      .0040    71.9471     2.3048
 5178.5000    41.1507     1.4802  -999.2500  -999.2500     1.3651  -999.2500   -50.2614    12.7179      .0030    70.7850     2.3164
 5179.0000    40.0928     1.4944  -999.2500  -999.2500     1.4288  -999.2500   -50.7640    12.6976      .0014    70.2098     2.3167
 5179.5000    38.3137     1.5085  -999.2500  -999.2500     1.5043  -999.2500   -52.2330    12.6765     -.0011    69.6741     2.3061
 5180.0000    36.7265     1.5581  -999.2500  -999.2500     1.5954  -999.2500   -55.2238    12.6498     -.0042    69.1382     2.2944
 5180.5000    35.8406     1.6585  -999.2500  -999.2500     1.7987  -999.2500   -56.5302    12.6309     -.0072    68.6061     2.2804
 5181.0000    36.9125     1.7589  -999.2500  -999.2500     2.0018  -999.2500   -57.5020    12.6446     -.0100    67.8381     2.2784
 5181.5000    38.1173     1.8594  -999.2500  -999.2500     2.2051  -999.2500   -58.2352    12.6751     -.0108    66.0547     2.2957
 5182.0000    36.2230     1.9597  -999.2500  -999.2500     2.4083  -999.2500   -58.9107    12.6500     -.0107    63.2784     2.3157
 5182.5000    32.3768     2.1809  -999.2500  -999.2500     2.6116  -999.2500   -59.3106    12.5815     -.0103    60.1301     2.3245
 5183.0000    29.3811     2.4500  -999.2500  -999.2500     2.8035  -999.2500   -59.6329    12.5122     -.0095    57.6285     2.3131
 5183.5000    27.2092     2.7190  -999.2500  -999.2500     2.9183  -999.2500   -59.9406    12.4840     -.0111    57.1020     2.2711
 5184.0000    27.1804     2.9344  -999.2500  -999.2500     2.8261  -999.2500   -60.1689    12.4654     -.0131    57.3877     2.2617
 5184.5000    27.6134     2.7708  -999.2500  -999.2500     2.7180  -999.2500   -59.8147    12.4731     -.0144    57.6145     2.2751
 5185.0000    27.8271     2.6072  -999.2500  -999.2500     2.6007  -999.2500   -58.2961    12.4881     -.0144    57.8136     2.2964
 5185.5000    27.8870     2.4436  -999.2500  -999.2500     2.3716  -999.2500   -56.6865    12.5105     -.0117    58.7112     2.3052
 5186.0000    28.0687     2.2800  -999.2500  -999.2500     2.1427  -999.2500   -54.8872    12.5381     -.0099    60.5859     2.2974
 5186.5000    28.7049     2.1163  -999.2500  -999.2500     1.9607  -999.2500   -53.2713    12.5765     -.0060    62.5221     2.2933
 5187.0000    30.4308     1.9528  -999.2500  -999.2500     1.8475  -999.2500   -52.0629    12.6166     -.0001    65.2441     2.3025
 5187.5000    32.2779     1.7892  -999.2500  -999.2500     1.7344  -999.2500   -51.3265    12.6596      .0037    66.3638     2.3153
 5188.0000    35.9454     1.6256  -999.2500  -999.2500     1.6318  -999.2500   -51.2350    12.7025      .0064    65.6033     2.3225
 5188.5000    38.8644     1.5123  -999.2500  -999.2500     1.5904  -999.2500   -51.1559    12.7313      .0091    65.0325     2.3268
 5189.0000    39.6255     1.5065  -999.2500  -999.2500     1.5489  -999.2500   -51.7998    12.7301      .0118    65.0798     2.3342
 5189.5000    39.1582     1.5546  -999.2500  -999.2500     1.5094  -999.2500   -52.4678    12.7131      .0122    64.3130     2.3349
 5190.0000    37.5695     1.6027  -999.2500  -999.2500     1.4920  -999.2500   -53.1709    12.6888      .0060    62.5689     2.3250
 5190.5000    35.1009     1.6507  -999.2500  -999.2500     1.5353  -999.2500   -53.4415    12.6613     -.0010    61.7009     2.3203
 5191.0000    32.2425     1.6988  -999.2500  -999.2500     1.5785  -999.2500   -53.1570    12.6466     -.0023    62.0645     2.3319
 5191.5000    32.7991     1.7468  -999.2500  -999.2500     1.6218  -999.2500   -53.0830    12.6552      .0008    62.3210     2.3492
 5192.0000    34.6358     1.7304  -999.2500  -999.2500     1.6604  -999.2500   -53.1500    12.6769      .0050    62.4734     2.3620
 5192.5000    37.3672     1.6970  -999.2500  -999.2500     1.6436  -999.2500   -53.3503    12.7036      .0079    61.9660     2.3648
 5193.0000    37.9331     1.6623  -999.2500  -999.2500     1.6269  -999.2500   -53.1481    12.7253      .0100    61.2609     2.3553
 5193.5000    37.5474     1.6246  -999.2500  -999.2500     1.6005  -999.2500   -52.9025    12.7236      .0114    62.4741     2.3467
 5194.0000    37.4304     1.5817  -999.2500  -999.2500     1.5824  -999.2500   -52.7512    12.7130      .0094    64.5322     2.3414
 5194.5000    37.6493     1.5666  -999.2500  -999.2500     1.6079  -999.2500   -52.8267    12.7025     -.0017    65.9204     2.3394
 5195.0000    36.4991     1.6264  -999.2500  -999.2500     1.6334  -999.2500   -53.0186    12.6919     -.0101    64.2268     2.3457
