~VERSION INFORMATION
VERS.                             2.0:   CWLS Log ASCII Standard-VERSION 2.0
WRAP.                              NO:   One line per depth step
~Well Information Block
STRT.F                      3964.0000:   Top Depth
STOP.F                      6748.0000:   Bottom Depth
STEP.F                         .50000:   Depth Increment
NULL.                        -999.250:   Null Value
FLD .                     MU BLK A 26:   Field Name
WELL.       OCSG13276   001 ST00 BP00:   NAME
API .                    427024021500:   WELL API
EDF .F                        73.0000:   ELEV DRILL FLOOR
COMP.                  ORYX ENERGY CO:   OPERATOR
BN  .                            A 26:   BLOCK
CTRY.                             USA:   COUNTRY NAME
CNTY.                        MG ILD L:   COUNTY NAME
EGL .F                      -290.0000:   ELEV GROUND LEVEL
TDD .F                       6750.000:   FINAL TD DRILLER
STAT.                           TEXAS:   STATE NAME
UWI .                    427024021500:   WELL API
DICO.               IHS : Digitizing Company
~PARAMETER INFORMATION (zones)
#MNEM.UNIT                       Value     Description
#=========                       =====     ===========
#ZONATION                          CNL:   ZONATION NAME
#ZONE                            RUN_1:   ZONE NAME
TOP .                       3970.0000:   TOP DEPTH
BOT .                       6744.5000:   BOTTOM DEPTH
RUN .                               1:   RUN NUMBER
LCCD.                             510:   LOGGING CONTRACTOR
SRVC.                   Western Atlas:   LOGGING CONT NAME
DICO.          QC Data Collectors Ltd:   DIG COMPANY NAME
LDAT.                      08/29/1993:   DATE LOGGED
TDD .F                      6750.0000:   TOTAL DEPTH DRILLER
TDL .F                      6749.0000:   TOTAL DEPTH LOGGER
BOTL.F                      6746.0000:   BOTTOM DEPTH LOGGED
TOPL.F                      3998.0000:   TOP DEPTH LOGGED
CS1 .IN                       13.3750:   CASING SIZE 1
BS1 .IN                       12.2500:   BIT SIZE 1
DDB1.F                      6750.0000:   DEPTH DRILLED BIT 1
BHF .                              32:   FLUID CODE
DPT .                          low PH:   DRILLING FLUID TYPE
MUDD.                         11.5000:   FLUID DENSITY
MUDV.                         46.0000:   FLUID VISCOSITY
DFPH.                          8.8000:   FLUID PH
FL  .                          5.0000:   FLUID LOSS
RM  .OHMM                      1.2400:   RM
RMT .DEGF                     75.0000:   RM TEMP
RMF .OHMM                      1.1400:   RMF
RMFT.DEGF                     75.0000:   RMF TEMP
FSC .                               M:   RMF CODE
RMC .OHMM                      1.8000:   RMC
RMCT.DEGF                     75.0000:   RMC TEMP
CMC .                               M:   RMC CODE
TMAX.DEGF                    164.0000:   MAX REC TEMP
TIMC.                         10.0000:   TIME SINCE CIRCLN
~PARAMETER INFORMATION (zones)
#MNEM.UNIT                       Value     Description
#=========                       =====     ===========
#ZONATION                          DIL:   ZONATION NAME
#ZONE                            RUN_1:   ZONE NAME
TOP .                       3986.0000:   TOP DEPTH
BOT .                       6748.5000:   BOTTOM DEPTH
RUN .                               1:   RUN NUMBER
LCCD.                             510:   LOGGING CONTRACTOR
SRVC.                   Western Atlas:   LOGGING CONT NAME
DICO.          QC Data Collectors Ltd:   DIG COMPANY NAME
LDAT.                      08/29/1993:   DATE LOGGED
TDD .F                      6750.0000:   TOTAL DEPTH DRILLER
TDL .F                      6750.0000:   TOTAL DEPTH LOGGER
BOTL.F                      6748.0000:   BOTTOM DEPTH LOGGED
TOPL.F                      3998.0000:   TOP DEPTH LOGGED
CS1 .IN                       13.3750:   CASING SIZE 1
BS1 .IN                       12.2500:   BIT SIZE 1
DDB1.F                      6750.0000:   DEPTH DRILLED BIT 1
BHF .                              32:   FLUID CODE
DPT .                          low PH:   DRILLING FLUID TYPE
MUDD.                         11.5000:   FLUID DENSITY
MUDV.                         46.0000:   FLUID VISCOSITY
DFPH.                          8.8000:   FLUID PH
FL  .                          5.0000:   FLUID LOSS
RM  .OHMM                      1.2400:   RM
RMT .DEGF                     75.0000:   RM TEMP
RMF .OHMM                      1.1400:   RMF
RMFT.DEGF                     75.0000:   RMF TEMP
FSC .                               M:   RMF CODE
RMC .OHMM                      1.8000:   RMC
RMCT.DEGF                     75.0000:   RMC TEMP
CMC .                               M:   RMC CODE
TMAX.DEGF                    158.0000:   MAX REC TEMP
TIMC.                          6.0000:   TIME SINCE CIRCLN
~PARAMETER INFORMATION (zones)
#MNEM.UNIT                       Value     Description
#=========                       =====     ===========
#ZONATION                          FDC:   ZONATION NAME
#ZONE                            RUN_1:   ZONE NAME
TOP .                       3964.0000:   TOP DEPTH
BOT .                       6746.5000:   BOTTOM DEPTH
RUN .                               1:   RUN NUMBER
LCCD.                             510:   LOGGING CONTRACTOR
SRVC.                   Western Atlas:   LOGGING CONT NAME
DICO.          QC Data Collectors Ltd:   DIG COMPANY NAME
LDAT.                      08/29/1993:   DATE LOGGED
TDD .F                      6750.0000:   TOTAL DEPTH DRILLER
TDL .F                      6749.0000:   TOTAL DEPTH LOGGER
BOTL.F                      6746.0000:   BOTTOM DEPTH LOGGED
TOPL.F                      3998.0000:   TOP DEPTH LOGGED
CS1 .IN                       13.3750:   CASING SIZE 1
BS1 .IN                       12.2500:   BIT SIZE 1
DDB1.F                      6750.0000:   DEPTH DRILLED BIT 1
BHF .                              32:   FLUID CODE
DPT .                          low PH:   DRILLING FLUID TYPE
MUDD.                         11.5000:   FLUID DENSITY
MUDV.                         46.0000:   FLUID VISCOSITY
DFPH.                          8.8000:   FLUID PH
FL  .                          5.0000:   FLUID LOSS
RM  .OHMM                      1.2400:   RM
RMT .DEGF                     75.0000:   RM TEMP
RMF .OHMM                      1.1400:   RMF
RMFT.DEGF                     75.0000:   RMF TEMP
FSC .                               M:   RMF CODE
RMC .OHMM                      1.8000:   RMC
RMCT.DEGF                     75.0000:   RMC TEMP
CMC .                               M:   RMC CODE
TMAX.DEGF                    164.0000:   MAX REC TEMP
TIMC.                         10.0000:   TIME SINCE CIRCLN
~Curve Information Block
#MNEM.UNIT                    API CODE    No Description
#=========                    ========    == ===========
DEPT.F                   00 001 00 00:     1  DEPTH
NPHI.%                               :     2  Neutron Porosity
DT.US/F                              :     3  Sonic Transit Time
GR.GAPI                              :     4  Gamma Ray
ILD.OHMM                             :     5  Deep Induction Resistivity
ILM.OHMM                             :     6  Medium Induction Resistivity
RFOC.OHMM                            :     7  Medium Resistivity
SP.MV                                :     8  Spontaneous Potential
CALI.IN                              :     9  Caliper
DPHI.%                               :    10  Porosity
DRHO.G/C3                            :    11  Bulk Density Correction
GRD.GAPI                             :    12  Gamma Ray
~ASCII
# ...
 6160.0000    35.0907   134.8752    64.0632      .7508      .7810     1.2029   -83.6573    11.8338    20.9903      .0938    63.1110
 6160.5000    35.3476   135.0349    64.6617      .7389      .7668     1.1740   -83.6075    11.8503    21.3373      .0931    64.1467
 6161.0000    35.5053   136.1069    64.9569      .7272      .7547     1.1499   -83.3235    11.8571    21.5581      .0868    65.3450
 6161.5000    35.7598   137.0664    65.5876      .7151      .7409     1.1278   -82.3610    11.8481    21.3661      .0765    65.9424
 6162.0000    35.8334   137.8696    66.7804      .7062      .7372     1.1215   -81.2880    11.8235    21.1581      .0655    65.2865
 6162.5000    36.5816   138.6599    65.9375      .6986      .7337     1.1309   -80.4677    11.7810    21.0703      .0660    64.6615
 6163.0000    37.5903   139.3464    62.9964      .6932      .7304     1.1424   -81.0812    11.7391    21.4906      .0709    64.5629
 6163.5000    38.4451   140.0986    58.6385      .6891      .7280     1.1513   -81.5685    11.6947    22.2069      .0774    64.7452
 6164.0000    38.8044   141.5254    59.2453      .6849      .7272     1.1430   -81.9260    11.6503    22.8943      .0840    65.0125
 6164.5000    37.8060   143.2085    61.3056      .6836      .7248     1.1313   -82.2346    11.6058    23.5810      .0834    64.6492
 6165.0000    36.9342   144.4978    62.4828      .6831      .7215     1.1191   -82.2651    11.5614    24.0738      .0823    63.5088
 6165.5000    36.7549   145.5498    61.8353      .6825      .7205     1.1218   -81.8618    11.5037    24.2553      .0880    62.7883
 6166.0000    37.5970   146.1477    60.6104      .6806      .7191     1.1279   -81.1980    11.4540    24.3073      .0901    63.7428
 6166.5000    37.6298   146.0884    60.3966      .6785      .7167     1.1276   -80.4481    11.4233    24.3029      .0910    65.6788
 6167.0000    37.3779   145.6301    59.6864      .6768      .7174     1.1229   -80.2009    11.4389    23.8317      .0905    67.3248
 6167.5000    37.1724   145.2986    58.8868      .6756      .7202     1.1174   -80.4138    11.4690    23.2484      .0861    67.8331
 6168.0000    37.3556   145.1575    59.5193      .6749      .7254     1.1153   -80.9839    11.5009    23.0266      .0758    66.7318
 6168.5000    37.9809   145.6597    59.0544      .6773      .7316     1.1225   -81.4348    11.5327    22.8370      .0647    65.2810
 6169.0000    38.7434   146.4343    57.9351      .6797      .7378     1.1291   -81.8251    11.5548    22.2702      .0662    63.9571
 6169.5000    39.3125   147.2341    57.7148      .6850      .7441     1.1291   -81.4659    11.5662    21.4095      .0715    61.5235
 6170.0000    38.9532   147.9619    59.5341      .6921      .7513     1.1269   -80.8658    11.5670    20.7117      .0732    58.9224
 6170.5000    37.7703   148.2554    59.9488      .6993      .7592     1.1288   -80.9048    11.5639    20.3007      .0722    56.9039
 6171.0000    36.5355   147.0403    59.2386      .7108      .7684     1.1364   -80.9773    11.5605    20.1499      .0749    57.2044
 6171.5000    35.6621   145.4412    58.9664      .7231      .7785     1.1491   -81.0740    11.5571    20.0908      .0792    57.9581
 6172.0000    35.3469   143.8630    60.4614      .7412      .7901     1.1654   -81.2484    11.5424    19.7948      .0834    58.6194
 6172.5000    35.5740   142.4600    62.2409      .7592      .8019     1.1834   -81.3260    11.5345    19.6669      .0847    59.0043
 6173.0000    35.9850   141.2207    62.3492      .7766      .8138     1.1965   -81.5283    11.5288    20.4878      .0842    60.3116
 6173.5000    36.3822   140.2173    60.8541      .7911      .8226     1.2079   -81.9559    11.5057    21.8729      .0876    62.6664
 6174.0000    36.8278   139.3909    59.4007      .8026      .8298     1.2110   -82.3245    11.4896    22.8274      .0967    64.3444
 6174.5000    37.3939   138.6206    58.8211      .8096      .8299     1.2003   -82.5621    11.4822    22.9754      .0986    63.8074
 6175.0000    38.6363   137.9104    59.0043      .8099      .8293     1.1883   -82.8463    11.4929    22.6682      .0942    63.2883
 6175.5000    39.8763   137.3062    59.3218      .8072      .8287     1.1863   -83.2544    11.5239    22.0202      .0919    62.9601
 6176.0000    40.1330   136.7925    60.0785      .7994      .8276     1.1860   -83.3018    11.5655    21.4139      .0942    61.8339
 6176.5000    39.6480   136.4531    59.7078      .7917      .8245     1.1818   -82.6135    11.5986    20.9072      .0980    59.7402
 6177.0000    38.7612   136.3862    58.4733      .7815      .8215     1.1731   -81.9504    11.6243    21.0583      .0989    59.3362
 6177.5000    38.1342   136.3542    57.2242      .7774      .8187     1.1619   -81.3124    11.6358    21.7539      .0998    58.1896
 6178.0000    37.9229   136.3250    56.0944      .7745      .8167     1.1600   -80.7720    11.6223    22.7850      .1042    56.7955
 6178.5000    38.4905   136.3413    56.2479      .7697      .8148     1.1779   -80.3970    11.5650    23.9812      .1087    56.4159
 6179.0000    39.6674   136.4744    57.6573      .7641      .8121     1.1945   -80.5735    11.4805    25.2637      .1045    58.2919
 6179.5000    40.2852   136.7288    59.4484      .7588      .8094     1.1943   -81.0304    11.4108    26.3513      .0963    61.5875
 6180.0000    40.0370   136.7480    60.6953      .7539      .8065     1.1764   -81.6348    11.4665    26.6381      .0860    62.7354
 6180.5000    39.2321   136.3779    60.7086      .7489      .8036     1.1524   -82.1591    11.5440    26.5475      .0828    60.6442
 6181.0000    39.0810   134.9275    60.4070      .7437      .8003     1.1428   -82.2336    11.5483    26.4330      .0759    58.4594
 6181.5000    39.1212   131.6765    59.7604      .7386      .7948     1.1601   -82.0092    11.5477    26.6652      .0770    57.3011
 6182.0000    39.1618   125.0297    58.5431      .7368      .7885     1.1752   -81.6813    11.5470    27.3489      .0979    56.4630
 6182.5000    39.4561   119.2675    57.4591      .7350      .7815     1.1875   -81.5980    11.5464    28.0995      .1181    55.8735
 6183.0000    39.8578   117.4789    58.9908      .7331      .7724     1.1851   -81.9358    11.5514    28.0519      .1019    55.9331
 6183.5000    39.6809   117.5620    61.6531      .7298      .7643     1.1725   -83.1023    11.5549    26.8333      .0846    56.2912
 6184.0000    39.9843   118.9938    64.0314      .7266      .7575     1.1597   -84.6414    11.5561    25.6743      .0803    57.1674
 6184.5000    40.3328   120.5056    62.8337      .7258      .7506     1.1333   -85.9982    11.5427    24.7549      .0837    59.5037
 6185.0000    39.4843   121.3302    61.6849      .7252      .7451     1.1153   -86.4491    11.5325    23.7521      .0826    61.9545
 6185.5000    37.5189   120.3582    60.3036      .7250      .7442     1.1092   -86.1058    11.5343    22.7961      .0803    63.8684
 6186.0000    35.9210   118.5078    58.8159      .7250      .7454     1.1167   -85.3046    11.5338    22.0016      .0878    65.1208
 6186.5000    35.4648   117.3224    56.8107      .7248      .7484     1.1310   -84.8763    11.5237    21.7449      .0998    65.9214
 6187.0000    35.3151   117.8125    53.8206      .7243      .7537     1.1427   -84.5989    11.5082    21.8926      .1116    66.7687
 6187.5000    35.2539   118.5428    54.3736      .7237      .7602     1.1457   -84.3295    11.3806    22.5395      .1222    68.6001
 6188.0000    35.5319   118.9364    56.1451      .7236      .7660     1.1453   -84.1193    11.0929    24.3159      .1234    70.7775
 6188.5000    36.3197   118.9928    57.7356      .7235      .7685     1.1519   -84.0338    10.6751    26.5358      .1196    72.3551
 6189.0000    36.8115   119.0087    58.5314      .7242      .7674     1.1626   -83.9464    10.1783    28.7527      .1145    73.1488
 6189.5000    36.7028   119.0094    58.9988      .7250      .7653     1.1590   -83.8571    10.0291    30.2360      .1079    72.9451
 6190.0000    36.3982   119.1362    60.3856      .7256      .7624     1.1409   -83.7412     9.8015    30.8881      .0986    71.3982
