~VERSION INFORMATION
VERS.                             2.0:   CWLS Log ASCII Standard-VERSION 2.0
WRAP.                              NO:   One line per depth step
~Well Information Block
STRT.F                       590.0000:   Top Depth
STOP.F                      5513.0000:   Bottom Depth
STEP.F                         .50000:   Depth Increment
NULL.                        -999.250:   Null Value
FLD .                     MU BLK A 16:   Field Name
WELL.       OCSG03011  A001 ST00 BP00:   NAME
API .                    427024004100:   WELL API
R1  .                           13904:   COMMENT  1
EDF .F                       102.0000:   ELEV DRILL FLOOR
COMP.       CITIES SERVICE OIL COMPAN:   OPERATOR
BN  .                            A 16:   BLOCK
CTRY.                             USA:   COUNTRY NAME
CNTY.                        MG ILD L:   COUNTY NAME
EKB .F                       103.0000:   ELEV KELLY BUSHING
TDD .F                       5519.000:   FINAL TD DRILLER
STAT.                           TEXAS:   STATE NAME
UWI .                    427024004100:   WELL API
DICO.               IHS : Digitizing Company
~PARAMETER INFORMATION (zones)
#MNEM.UNIT                       Value     Description
#=========                       =====     ===========
#ZONATION                          CNL:   ZONATION NAME
#ZONE                            RUN_1:   ZONE NAME
TOP .                       3234.0000:   TOP DEPTH
BOT .                       5513.5000:   BOTTOM DEPTH
RUN .                               1:   RUN NUMBER
LCCD.                             440:   LOGGING CONTRACTOR
SRVC.                    Schlumberger:   LOGGING CONT NAME
DICO.          QC Data Collectors Ltd:   DIG COMPANY NAME
LDAT.                      03/04/1980:   DATE LOGGED
ELD .F                       103.0000:   LOG DATUM ELEVATION
TDD .F                      5512.0000:   TOTAL DEPTH DRILLER
TDL .F                      5519.0000:   TOTAL DEPTH LOGGER
BOTL.F                      5513.0000:   BOTTOM DEPTH LOGGED
TOPL.F                      3240.0000:   TOP DEPTH LOGGED
CS1 .IN                       13.3750:   CASING SIZE 1
BS1 .IN                       12.2500:   BIT SIZE 1
DDB1.F                      5512.0000:   DEPTH DRILLED BIT 1
BHF .                              99:   FLUID CODE
DPT .                   Miscellaneous:   DRILLING FLUID TYPE
MUDD.                         13.1000:   FLUID DENSITY
MUDV.                         38.0000:   FLUID VISCOSITY
DFPH.                         11.5000:   FLUID PH
FL  .                          4.0000:   FLUID LOSS
RM  .OHMM                       .8600:   RM
RMT .DEGF                     70.0000:   RM TEMP
RMF .OHMM                       .6600:   RMF
RMFT.DEGF                     70.0000:   RMF TEMP
FSC .                               M:   RMF CODE
RMC .OHMM                      1.8600:   RMC
RMCT.DEGF                     70.0000:   RMC TEMP
CMC .                               M:   RMC CODE
TMAX.DEGF                    145.0000:   MAX REC TEMP
TIMC.                          6.5000:   TIME SINCE CIRCLN
~PARAMETER INFORMATION (zones)
#MNEM.UNIT                       Value     Description
#=========                       =====     ===========
#ZONATION                          DIL:   ZONATION NAME
#ZONE                            RUN_1:   ZONE NAME
TOP .                       3240.0000:   TOP DEPTH
BOT .                       5513.5000:   BOTTOM DEPTH
RUN .                               1:   RUN NUMBER
LCCD.                             440:   LOGGING CONTRACTOR
SRVC.                    Schlumberger:   LOGGING CONT NAME
DICO.          QC Data Collectors Ltd:   DIG COMPANY NAME
LDAT.                      03/04/1980:   DATE LOGGED
ELD .F                       103.0000:   LOG DATUM ELEVATION
TDD .F                      5512.0000:   TOTAL DEPTH DRILLER
TDL .F                      5519.0000:   TOTAL DEPTH LOGGER
BOTL.F                      5513.0000:   BOTTOM DEPTH LOGGED
TOPL.F                      3240.0000:   TOP DEPTH LOGGED
CS1 .IN                       13.3750:   CASING SIZE 1
BS1 .IN                       12.2500:   BIT SIZE 1
DDB1.F                      5512.0000:   DEPTH DRILLED BIT 1
BHF .                              99:   FLUID CODE
DPT .                   Miscellaneous:   DRILLING FLUID TYPE
MUDD.                         13.1000:   FLUID DENSITY
MUDV.                         38.0000:   FLUID VISCOSITY
DFPH.                         11.5000:   FLUID PH
FL  .                          4.0000:   FLUID LOSS
RM  .OHMM                       .8600:   RM
RMT .DEGF                     70.0000:   RM TEMP
RMF .OHMM                       .6600:   RMF
RMFT.DEGF                     70.0000:   RMF TEMP
FSC .                               M:   RMF CODE
RMC .OHMM                      1.8600:   RMC
RMCT.DEGF                     70.0000:   RMC TEMP
CMC .                               M:   RMC CODE
TMAX.DEGF                    145.0000:   MAX REC TEMP
TIMC.                          6.5000:   TIME SINCE CIRCLN
~PARAMETER INFORMATION (zones)
#MNEM.UNIT                       Value     Description
#=========                       =====     ===========
#ZONATION                          DIL:   ZONATION NAME
#ZONE                          RUN_1_1:   ZONE NAME
TOP .                        590.0000:   TOP DEPTH
BOT .                       1046.5000:   BOTTOM DEPTH
RUN .                               1:   RUN NUMBER
LCCD.                             440:   LOGGING CONTRACTOR
SRVC.                    Schlumberger:   LOGGING CONT NAME
DICO.          QC Data Collectors Ltd:   DIG COMPANY NAME
LDAT.                      02/20/1980:   DATE LOGGED
ELD .F                       103.0000:   LOG DATUM ELEVATION
TDD .F                      1050.0000:   TOTAL DEPTH DRILLER
TDL .F                      1050.0000:   TOTAL DEPTH LOGGER
BOTL.F                      1046.0000:   BOTTOM DEPTH LOGGED
TOPL.F                       597.0000:   TOP DEPTH LOGGED
CS1 .IN                       30.0000:   CASING SIZE 1
BS1 .IN                       12.5000:   BIT SIZE 1
DDB1.F                      1050.0000:   DEPTH DRILLED BIT 1
BHF .                              99:   FLUID CODE
DPT .                   Miscellaneous:   DRILLING FLUID TYPE
MUDD.                          8.6000:   FLUID DENSITY
MUDV.                         39.0000:   FLUID VISCOSITY
DFPH.                         12.3000:   FLUID PH
FL  .                            NULL:   FLUID LOSS
RM  .OHMM                       .3900:   RM
RMT .DEGF                     80.0000:   RM TEMP
RMF .OHMM                       .2400:   RMF
RMFT.DEGF                     80.0000:   RMF TEMP
FSC .                               M:   RMF CODE
RMC .OHMM                       .4500:   RMC
RMCT.DEGF                     80.0000:   RMC TEMP
CMC .                               M:   RMC CODE
TMAX.DEGF                     90.0000:   MAX REC TEMP
TIMC.                          1.5000:   TIME SINCE CIRCLN
~PARAMETER INFORMATION (zones)
#MNEM.UNIT                       Value     Description
#=========                       =====     ===========
#ZONATION                          FDC:   ZONATION NAME
#ZONE                            RUN_1:   ZONE NAME
TOP .                       3234.0000:   TOP DEPTH
BOT .                       5513.5000:   BOTTOM DEPTH
RUN .                               1:   RUN NUMBER
LCCD.                             440:   LOGGING CONTRACTOR
SRVC.                    Schlumberger:   LOGGING CONT NAME
DICO.          QC Data Collectors Ltd:   DIG COMPANY NAME
LDAT.                      03/04/1980:   DATE LOGGED
ELD .F                       103.0000:   LOG DATUM ELEVATION
TDD .F                      5512.0000:   TOTAL DEPTH DRILLER
TDL .F                      5519.0000:   TOTAL DEPTH LOGGER
BOTL.F                      5513.0000:   BOTTOM DEPTH LOGGED
TOPL.F                      3240.0000:   TOP DEPTH LOGGED
CS1 .IN                       13.3750:   CASING SIZE 1
BS1 .IN                       12.2500:   BIT SIZE 1
DDB1.F                      5512.0000:   DEPTH DRILLED BIT 1
BHF .                              99:   FLUID CODE
DPT .                   Miscellaneous:   DRILLING FLUID TYPE
MUDD.                         13.1000:   FLUID DENSITY
MUDV.                         38.0000:   FLUID VISCOSITY
DFPH.                         11.5000:   FLUID PH
FL  .                          4.0000:   FLUID LOSS
RM  .OHMM                       .8600:   RM
RMT .DEGF                     70.0000:   RM TEMP
RMF .OHMM                       .6600:   RMF
RMFT.DEGF                     70.0000:   RMF TEMP
FSC .                               M:   RMF CODE
RMC .OHMM                      1.8600:   RMC
RMCT.DEGF                     70.0000:   RMC TEMP
CMC .                               M:   RMC CODE
TMAX.DEGF                    145.0000:   MAX REC TEMP
TIMC.                          6.5000:   TIME SINCE CIRCLN
~Curve Information Block
#MNEM.UNIT                    API CODE    No Description
#=========                    ========    == ===========
DEPT.F                   00 001 00 00:     1  DEPTH
NPHI.%                               :     2  Neutron Porosity
ASFL.OHMM                            :     3  Shallow Resistivity
DT.US/F                              :     4  Sonic Transit Time
GR.GAPI                              :     5  Gamma Ray
ILD.OHMM                             :     6  Deep Induction Resistivity
SFL.OHMM                             :     7  Medium Resistivity
SP.MV                                :     8  Spontaneous Potential
CALI.IN                              :     9  Caliper
DRHO.G/C3                            :    10  Bulk Density Correction
GR.GAPI                              :    11  Gamma Ray
RHOB.G/C3                            :    12  Bulk Density
~ASCII
# ...
 4128.0000    44.1697     1.1773  -999.2500  -999.2500     1.0660  -999.2500   -68.5096    12.6993      .0091    63.9933     2.2742
 4128.5000    43.4832     1.1693  -999.2500  -999.2500     1.0655  -999.2500   -68.6802    12.6905      .0069    64.5361     2.2744
 4129.0000    42.7141     1.1613  -999.2500  -999.2500     1.0665  -999.2500   -68.9785    12.6709      .0047    65.0582     2.2753
 4129.5000    43.0865     1.1556  -999.2500  -999.2500     1.0675  -999.2500   -69.2770    12.6429      .0022    64.8733     2.2712
 4130.0000    43.2160     1.1725  -999.2500  -999.2500     1.0896  -999.2500   -70.0492    12.5930     -.0072    64.6884     2.2647
 4130.5000    42.9860     1.1906  -999.2500  -999.2500     1.1520  -999.2500   -71.4467    12.5481     -.0153    63.8033     2.2603
 4131.0000    41.6837     1.2180  -999.2500  -999.2500     1.2144  -999.2500   -72.8440    12.5176     -.0186    62.8788     2.2650
 4131.5000    38.5767     1.2454  -999.2500  -999.2500     1.2768  -999.2500   -74.1146    12.5206     -.0130    63.0598     2.2739
 4132.0000    35.8378     1.2728  -999.2500  -999.2500     1.2874  -999.2500   -74.3519    12.5338     -.0033    63.8101     2.2908
 4132.5000    36.6020     1.2986  -999.2500  -999.2500     1.2624  -999.2500   -73.3356    12.5742      .0036    64.7236     2.2999
 4133.0000    39.1310     1.3217  -999.2500  -999.2500     1.2375  -999.2500   -72.6350    12.6213      .0077    65.0146     2.2967
 4133.5000    41.1633     1.2946  -999.2500  -999.2500     1.2125  -999.2500   -71.9351    12.6867      .0038    64.0939     2.2859
 4134.0000    43.9067     1.2485  -999.2500  -999.2500     1.1876  -999.2500   -71.2344    12.7250      .0007    63.1763     2.2714
 4134.5000    45.8622     1.2126  -999.2500  -999.2500     1.1626  -999.2500   -70.6309    12.7362     -.0007    64.7394     2.2569
 4135.0000    47.3824     1.1844  -999.2500  -999.2500     1.1377  -999.2500   -70.2993    12.7395     -.0014    66.1823     2.2567
 4135.5000    47.5154     1.1702  -999.2500  -999.2500     1.1127  -999.2500   -69.9679    12.7367     -.0008    67.3857     2.2622
 4136.0000    46.9094     1.1610  -999.2500  -999.2500     1.0878  -999.2500   -69.6364    12.7397      .0013    68.5699     2.2684
 4136.5000    46.1112     1.1556  -999.2500  -999.2500     1.0657  -999.2500   -69.2842    12.7536      .0016    69.8522     2.2664
 4137.0000    45.9085     1.1535  -999.2500  -999.2500     1.0458  -999.2500   -68.8950    12.7462     -.0012    71.3000     2.2569
 4137.5000    46.1707     1.1524  -999.2500  -999.2500     1.0258  -999.2500   -69.5105    12.6873     -.0034    70.4694     2.2514
 4138.0000    45.4128     1.1568  -999.2500  -999.2500     1.0059  -999.2500   -70.3656    12.6508     -.0055    67.6167     2.2514
 4138.5000    44.0892     1.1613  -999.2500  -999.2500      .9859  -999.2500   -71.2200    12.6194     -.0071    64.6901     2.2523
 4139.0000    43.1505     1.1657  -999.2500  -999.2500      .9659  -999.2500   -72.2471    12.6153     -.0064    64.1925     2.2514
 4139.5000    43.1011     1.1654  -999.2500  -999.2500      .9460  -999.2500   -73.3438    12.6112     -.0034    65.9945     2.2501
 4140.0000    44.9058     1.1565  -999.2500  -999.2500      .9260  -999.2500   -74.4412    12.6219     -.0001    67.5206     2.2495
 4140.5000    46.5517     1.1476  -999.2500  -999.2500      .9257  -999.2500   -73.5573    12.6385      .0018    68.4314     2.2504
 4141.0000    47.3772     1.1388  -999.2500  -999.2500      .9396  -999.2500   -72.6826    12.5850     -.0040    67.0820     2.2480
 4141.5000    45.9878     1.1334  -999.2500  -999.2500      .9535  -999.2500   -72.8000    12.5595     -.0082    66.0573     2.2452
 4142.0000    43.8978     1.1489  -999.2500  -999.2500      .9674  -999.2500   -75.9089    12.5339     -.0114    65.6188     2.2490
 4142.5000    42.4138     1.1644  -999.2500  -999.2500      .9812  -999.2500   -78.4734    12.5490     -.0111    66.1450     2.2558
 4143.0000    42.5135     1.1811  -999.2500  -999.2500     1.0020  -999.2500   -79.4747    12.5737     -.0031    66.9164     2.2613
 4143.5000    43.7293     1.1996  -999.2500  -999.2500     1.0329  -999.2500   -78.2209    12.6000      .0070    67.7719     2.2619
 4144.0000    45.0396     1.2082  -999.2500  -999.2500     1.0637  -999.2500   -76.9673    12.6569      .0122    68.2694     2.2595
 4144.5000    46.0092     1.2031  -999.2500  -999.2500     1.0945  -999.2500   -75.7136    12.6432      .0054    67.3210     2.2570
 4145.0000    44.8896     1.1980  -999.2500  -999.2500     1.1254  -999.2500   -77.3452    12.5353     -.0014    64.5250     2.2580
 4145.5000    43.5756     1.1929  -999.2500  -999.2500     1.1066  -999.2500   -81.8326    12.4713     -.0083    61.0516     2.2579
 4146.0000    41.9837     1.1942  -999.2500  -999.2500     1.0787  -999.2500   -87.1587    12.4073     -.0151    57.1938     2.2440
 4146.5000    41.2535     1.2047  -999.2500  -999.2500     1.0508  -999.2500   -92.2814    12.3640     -.0207    53.5159     2.2134
 4147.0000    41.6035     1.2152  -999.2500  -999.2500     1.0229  -999.2500   -94.1774    12.3560     -.0236    51.0150     2.1674
 4147.5000    41.7632     1.2117  -999.2500  -999.2500      .9952  -999.2500   -94.7587    12.3483     -.0258    51.2071     2.1589
 4148.0000    41.2350     1.2005  -999.2500  -999.2500      .9675  -999.2500   -93.2607    12.3589     -.0277    53.0627     2.1725
 4148.5000    40.5821     1.1894  -999.2500  -999.2500      .9397  -999.2500   -91.7628    12.3695     -.0223    56.0927     2.1970
 4149.0000    40.0888     1.1787  -999.2500  -999.2500      .9120  -999.2500   -90.3887    12.3808     -.0165    57.7217     2.2292
 4149.5000    39.8035     1.1700  -999.2500  -999.2500      .8846  -999.2500   -89.5186    12.3925     -.0120    56.9949     2.2373
 4150.0000    39.7541     1.1613  -999.2500  -999.2500      .8662  -999.2500   -90.5085    12.4018     -.0125    56.0256     2.2291
 4150.5000    39.7502     1.1525  -999.2500  -999.2500      .8487  -999.2500   -93.4691    12.4078     -.0141    54.7988     2.2158
 4151.0000    39.6604     1.1438  -999.2500  -999.2500      .8604  -999.2500   -93.0605    12.4138     -.0147    54.1201     2.2012
 4151.5000    39.5373     1.1351  -999.2500  -999.2500      .8721  -999.2500   -92.1545    12.3774     -.0152    54.0728     2.1863
 4152.0000    39.5618     1.1346  -999.2500  -999.2500      .8839  -999.2500   -90.7634    12.3756     -.0170    54.9645     2.1804
 4152.5000    39.9500     1.1341  -999.2500  -999.2500      .8969  -999.2500   -89.2379    12.3469     -.0193    56.2947     2.1997
 4153.0000    40.0950     1.1335  -999.2500  -999.2500      .9105  -999.2500   -87.7124    12.3182     -.0211    55.7133     2.2261
 4153.5000    39.9737     1.1395  -999.2500  -999.2500      .9241  -999.2500   -86.7250    12.3031     -.0220    53.0306     2.2318
 4154.0000    39.7843     1.1496  -999.2500  -999.2500      .9377  -999.2500   -86.9478    12.2997     -.0215    49.7469     2.2120
 4154.5000    39.7949     1.1596  -999.2500  -999.2500      .9513  -999.2500   -88.8160    12.3071     -.0220    47.5200     2.1937
 4155.0000    39.3616     1.1502  -999.2500  -999.2500      .9447  -999.2500   -90.9706    12.3146     -.0233    46.3984     2.1780
 4155.5000    38.2737     1.1302  -999.2500  -999.2500      .9283  -999.2500   -93.1263    12.3269     -.0249    45.9938     2.1567
 4156.0000    37.9907     1.1102  -999.2500  -999.2500      .9119  -999.2500   -95.0525    12.3397     -.0250    45.9504     2.1334
 4156.5000    39.7370     1.0901  -999.2500  -999.2500      .8954  -999.2500   -96.9144    12.3597     -.0237    46.0771     2.1318
 4157.0000    41.5144     1.0638  -999.2500  -999.2500      .8698  -999.2500   -98.7150    12.3831     -.0202    46.3423     2.1351
 4157.5000    42.2675     1.0374  -999.2500  -999.2500      .8396  -999.2500  -100.2203    12.4127     -.0164    45.2228     2.1380
 4158.0000    42.4570     1.0110  -999.2500  -999.2500      .8095  -999.2500  -101.1652    12.4288     -.0180    43.9455     2.1294
