~VERSION INFORMATION
VERS.                             2.0:   CWLS Log ASCII Standard-VERSION 2.0
WRAP.                              NO:   One line per depth step
~Well Information Block
STRT.F                      1238.0000:   Top Depth
STOP.F                      5786.0000:   Bottom Depth
STEP.F                         .50000:   Depth Increment
NULL.                        -999.250:   Null Value
FLD .                     MU BLK A 18:   Field Name
WELL.       OCSG05167   001 ST00 BP00:   NAME
API .                    427024015100:   WELL API
R1  .            STANDARD OIL PROD CO:   COMMENT  1
EDF .F                       884.0000:   ELEV DRILL FLOOR
COMP.            STANDARD OIL PROD CO:   OPERATOR
BN  .                            A 18:   BLOCK
CTRY.                             USA:   COUNTRY NAME
CNTY.                        MG ILD L:   COUNTY NAME
EKB .F                        85.0000:   ELEV KELLY BUSHING
TDD .F                       5792.000:   FINAL TD DRILLER
STAT.                           TEXAS:   STATE NAME
UWI .                    427024015100:   WELL API
DICO.               IHS : Digitizing Company
~PARAMETER INFORMATION (zones)
#MNEM.UNIT                       Value     Description
#=========                       =====     ===========
#ZONATION                          CNL:   ZONATION NAME
#ZONE                            RUN_0:   ZONE NAME
TOP .                       3294.0000:   TOP DEPTH
BOT .                       5786.5000:   BOTTOM DEPTH
RUN .                               0:   RUN NUMBER
LCCD.                             440:   LOGGING CONTRACTOR
SRVC.                    Schlumberger:   LOGGING CONT NAME
DICO.          QC Data Collectors Ltd:   DIG COMPANY NAME
LDAT.                      11/28/1987:   DATE LOGGED
ELD .F                        85.0000:   LOG DATUM ELEVATION
TDD .F                      5785.0000:   TOTAL DEPTH DRILLER
TDL .F                      5792.0000:   TOTAL DEPTH LOGGER
BOTL.F                      5786.0000:   BOTTOM DEPTH LOGGED
TOPL.F                      3300.0000:   TOP DEPTH LOGGED
CS1 .IN                       10.7500:   CASING SIZE 1
BS1 .IN                        9.8750:   BIT SIZE 1
DDB1.F                      5785.0000:   DEPTH DRILLED BIT 1
BHF .                              81:   FLUID CODE
DPT .          Lignosulfonate (Ligno):   DRILLING FLUID TYPE
MUDD.                         11.0000:   FLUID DENSITY
MUDV.                         41.0000:   FLUID VISCOSITY
DFPH.                         10.0000:   FLUID PH
FL  .                         10.0000:   FLUID LOSS
RM  .OHMM                       .9400:   RM
~PARAMETER INFORMATION (zones)
#MNEM.UNIT                       Value     Description
#=========                       =====     ===========
#ZONATION                          DIL:   ZONATION NAME
#ZONE                            RUN_1:   ZONE NAME
TOP .                       1238.0000:   TOP DEPTH
BOT .                       5786.5000:   BOTTOM DEPTH
RUN .                               1:   RUN NUMBER
LCCD.                             440:   LOGGING CONTRACTOR
SRVC.                    Schlumberger:   LOGGING CONT NAME
DICO.          QC Data Collectors Ltd:   DIG COMPANY NAME
LDAT.                      11/23/1987:   DATE LOGGED
ELD .F                        85.0000:   LOG DATUM ELEVATION
TDD .F                      3540.0000:   TOTAL DEPTH DRILLER
TDL .F                      3539.0000:   TOTAL DEPTH LOGGER
BOTL.F                      3533.0000:   BOTTOM DEPTH LOGGED
TOPL.F                      1294.0000:   TOP DEPTH LOGGED
CS1 .IN                       16.0000:   CASING SIZE 1
BS1 .IN                       13.5000:   BIT SIZE 1
DDB1.F                      3540.0000:   DEPTH DRILLED BIT 1
BHF .                              81:   FLUID CODE
DPT .          Lignosulfonate (Ligno):   DRILLING FLUID TYPE
MUDV.                         38.0000:   FLUID VISCOSITY
DFPH.                          8.0000:   FLUID PH
FL  .                         29.2000:   FLUID LOSS
RMF .OHMM                       .2400:   RMF
FSC .                               C:   RMF CODE
TMAX.DEGF                    120.0000:   MAX REC TEMP
TIMC.                          4.0000:   TIME SINCE CIRCLN
~PARAMETER INFORMATION (zones)
#MNEM.UNIT                       Value     Description
#=========                       =====     ===========
#ZONATION                          FDC:   ZONATION NAME
#ZONE                            RUN_0:   ZONE NAME
TOP .                       3294.0000:   TOP DEPTH
BOT .                       5786.5000:   BOTTOM DEPTH
RUN .                               0:   RUN NUMBER
LCCD.                             440:   LOGGING CONTRACTOR
SRVC.                    Schlumberger:   LOGGING CONT NAME
DICO.          QC Data Collectors Ltd:   DIG COMPANY NAME
LDAT.                      11/28/1987:   DATE LOGGED
ELD .F                        85.0000:   LOG DATUM ELEVATION
TDD .F                      5785.0000:   TOTAL DEPTH DRILLER
TDL .F                      5792.0000:   TOTAL DEPTH LOGGER
BOTL.F                      5786.0000:   BOTTOM DEPTH LOGGED
TOPL.F                      3300.0000:   TOP DEPTH LOGGED
CS1 .IN                       10.7500:   CASING SIZE 1
BS1 .IN                        9.8750:   BIT SIZE 1
DDB1.F                      5785.0000:   DEPTH DRILLED BIT 1
BHF .                              81:   FLUID CODE
DPT .          Lignosulfonate (Ligno):   DRILLING FLUID TYPE
MUDD.                         11.0000:   FLUID DENSITY
MUDV.                         41.0000:   FLUID VISCOSITY
DFPH.                         10.0000:   FLUID PH
FL  .                         10.0000:   FLUID LOSS
RM  .OHMM                       .9400:   RM
~Curve Information Block
#MNEM.UNIT                    API CODE    No Description
#=========                    ========    == ===========
DEPT.F                   00 001 00 00:     1  DEPTH
NPHI.DEC                              :     2  Neutron Porosity
DT.US/F                              :     3  Sonic Transit Time
GR.GAPI                              :     4  Gamma Ray
ILD.OHMM                             :     5  Deep Induction Resistivity
ILM.OHMM                             :     6  Medium Induction Resistivity
SFL.OHMM                             :     7  Medium Resistivity
SP.MV                                :     8  Spontaneous Potential
CALI.IN                              :     9  Caliper
DPHI.DEC                              :    10  Porosity
DRHO.G/C3                            :    11  Bulk Density Correction
GR.GAPI                              :    12  Gamma Ray
~ASCII
# ...
 4776.0000      .4575   124.7284  -999.2500      .8989      .9114     1.0381   -58.3264    10.4089      .2884      .0148    70.7205
 4776.5000      .4701   124.1479  -999.2500      .8982      .9131     1.0328   -58.0140    10.5113      .2949      .0126    66.9844
 4777.0000      .4814   122.7953  -999.2500      .9029      .9148     1.0592   -57.8146    10.5806      .2947      .0110    64.3708
 4777.5000      .4790   122.1768  -999.2500      .9096      .9165     1.0929   -57.5736    10.6246      .2783      .0140    64.0767
 4778.0000      .4754   121.9823  -999.2500      .9206      .9249     1.1274   -57.3273    10.6440      .2649      .0250    66.2031
 4778.5000      .4701   121.7200  -999.2500      .9397      .9404     1.1566   -57.0602    10.6335      .2598      .0317    69.5269
 4779.0000      .4418   121.0148  -999.2500      .9636      .9646     1.1501   -56.8257    10.6085      .2575      .0337    71.2784
 4779.5000      .4175   119.5859  -999.2500      .9905      .9953     1.1364   -56.6601    10.5891      .2554      .0299    69.2151
 4780.0000      .3862   117.2263  -999.2500     1.0304     1.0288     1.1402   -56.6327    10.5954      .2495      .0286    67.5630
 4780.5000      .3728   113.6377  -999.2500     1.0707     1.0651     1.1981   -56.6729    10.5780      .2340      .0318    68.1598
 4781.0000      .3707   110.4811  -999.2500     1.1073     1.1080     1.3428   -56.8281    10.5160      .2261      .0344    69.3346
 4781.5000      .3831   110.6239  -999.2500     1.1444     1.1536     1.5015   -57.1035    10.4817      .2306      .0261    69.9163
 4782.0000      .3895   112.8215  -999.2500     1.1839     1.1931     1.6064   -57.5159    10.4474      .2391      .0189    70.7762
 4782.5000      .3860   114.8990  -999.2500     1.2291     1.2228     1.6433   -57.8651    10.4155      .2431      .0138    72.0215
 4783.0000      .3654   115.4836  -999.2500     1.2807     1.2394     1.5094   -57.8811    10.3976      .2391      .0092    71.3088
 4783.5000      .3499   113.4288  -999.2500     1.3187     1.2609     1.3827   -58.1486    10.3955      .2292      .0052    70.1188
 4784.0000      .3386   110.5699  -999.2500     1.3325     1.2994     1.3203   -58.5566    10.4159      .2145      .0031    69.2433
 4784.5000      .3445   109.0696  -999.2500     1.3180     1.3287     1.5753   -59.0028    10.4513      .2032      .0005    69.7683
 4785.0000      .3723   111.3573  -999.2500     1.3051     1.2996     1.7347   -58.6627    10.5049      .1990     -.0005    70.4272
 4785.5000      .3837   113.2848  -999.2500     1.2919     1.2782     1.6684   -58.1721    10.5903      .2108     -.0012    70.8708
 4786.0000      .3886   113.5947  -999.2500     1.2698     1.2629     1.4597   -57.9666    10.6371      .2232     -.0010    69.8689
 4786.5000      .3853   112.8011  -999.2500     1.2542     1.2521     1.2935   -59.0031    10.5850      .2353      .0012    65.8271
 4787.0000      .3745   111.1075  -999.2500     1.2438     1.2460     1.1914   -60.9229    10.4094      .2364      .0042    60.4462
 4787.5000      .3639   109.0444  -999.2500     1.2300     1.2305     1.2645   -63.6586    10.0955      .2316      .0054    55.5285
 4788.0000      .3701   108.4315  -999.2500     1.1134     1.1909     1.3704   -68.5612     9.8544      .2292     -.0034    52.5518
 4788.5000      .3969   109.6433  -999.2500      .9329     1.0660     1.4630   -74.3411     9.6997      .2465     -.0091    51.0912
 4789.0000      .4100   110.9515  -999.2500      .8179      .9185     1.4044   -78.9014     9.6544      .2662     -.0130    50.0614
 4789.5000      .4149   111.9634  -999.2500      .7611      .8024     1.2587   -82.5651     9.6322      .2813     -.0158    49.0370
 4790.0000      .4100   112.6094  -999.2500      .7248      .7604     1.1182   -85.4707     9.5918      .2957     -.0167    48.0836
 4790.5000      .3819   112.7379  -999.2500      .6793      .7122      .9960   -85.1910     9.5277      .2910     -.0129    48.2491
 4791.0000      .3672   112.2958  -999.2500      .6484      .6645      .9593   -83.7124     9.4568      .2717     -.0080    50.1306
 4791.5000      .3577   110.7535  -999.2500      .6598      .6590     1.0440   -81.4177     9.4173      .2526     -.0054    51.4927
 4792.0000      .3492   108.9683  -999.2500      .7064      .7078     1.1945   -77.1829     9.3992      .2372     -.0026    52.7713
 4792.5000      .3416   108.2832  -999.2500      .7649      .7787     1.3601   -73.7410     9.3990      .2254     -.0030    54.3882
 4793.0000      .3354   108.1511  -999.2500      .8184      .8453     1.4511   -71.9862     9.4070      .2163     -.0041    55.7469
 4793.5000      .3325   108.3248  -999.2500      .8600      .9257     1.4988   -71.3035     9.4204      .2088     -.0053    56.6882
 4794.0000      .3442   109.8678  -999.2500      .8828      .9985     1.4669   -71.4512     9.4590      .2035     -.0049    56.7840
 4794.5000      .3569   111.5889  -999.2500      .8941     1.0216     1.3754   -73.7675     9.5430      .2154     -.0027    56.1393
 4795.0000      .3616   112.6556  -999.2500      .8889      .9574     1.2508   -76.2910     9.6707      .2324     -.0033    55.4005
 4795.5000      .3648   112.8134  -999.2500      .8266      .8886     1.1266   -78.8074     9.8293      .2517     -.0048    54.5805
 4796.0000      .3696   112.8022  -999.2500      .7635      .8311     1.0687   -81.9287     9.8970      .2641     -.0066    53.5391
 4796.5000      .3775   112.9155  -999.2500      .7064      .7754     1.0646   -83.1436     9.9258      .2694     -.0086    52.4341
 4797.0000      .3809   113.4871  -999.2500      .6522      .7338     1.1069   -84.5981     9.9563      .2697     -.0108    49.9073
 4797.5000      .3787   114.2096  -999.2500      .6055      .6973     1.1685   -86.6530     9.9859      .2733     -.0132    47.4376
 4798.0000      .3757   114.5952  -999.2500      .5649      .6631     1.0504   -89.1379    10.0051      .2897     -.0160    45.0947
 4798.5000      .3716   114.3773  -999.2500      .5342      .6269      .9791   -91.9170    10.0327      .3107     -.0185    44.1333
 4799.0000      .3642   113.2776  -999.2500      .5125      .5953      .9298   -93.3180    10.0644      .3226     -.0198    42.2907
 4799.5000      .3442   109.3325  -999.2500      .4960      .5888      .8942   -92.3510    10.0930      .3274     -.0204    40.9200
 4800.0000      .3188   107.8502  -999.2500      .4894      .5979      .8850   -91.1373    10.0965      .3231     -.0199    39.7203
 4800.5000      .2781   100.8577  -999.2500      .4907      .6102      .9798   -89.5200    10.0464      .2468     -.0177    39.1223
 4801.0000      .2735    96.8130  -999.2500      .5004      .6223     1.4335   -87.7749    10.0154      .2135     -.0145    40.2589
 4801.5000      .3262    97.0410  -999.2500      .5208      .6327     2.0332   -85.7925     9.9674      .2006     -.0108    43.6821
 4802.0000      .3535   104.1511  -999.2500      .5586      .6435     2.1255   -82.9507     9.9002      .2218     -.0060    47.7579
 4802.5000      .3716   112.6390  -999.2500      .6285      .6755     1.4832   -78.4290     9.8553      .2577     -.0004    55.9337
 4803.0000      .3920   117.0991  -999.2500      .6993      .7267     1.0560   -72.9575    10.0055      .2733      .0118    61.5912
 4803.5000      .4095   119.2054  -999.2500      .7526      .7895      .9660   -68.9709    10.3663      .2732      .0220    65.8102
 4804.0000      .4154   120.5665  -999.2500      .7995      .8520      .9991   -65.0300    10.6371      .2652      .0276    68.9738
 4804.5000      .4134   120.9349  -999.2500      .8457      .9110     1.0776   -61.6315    10.8675      .2588      .0275    70.9388
 4805.0000      .4141   120.5386  -999.2500      .8966      .9577     1.1343   -59.6286    10.9111      .2622      .0222    73.4692
 4805.5000      .4245   120.5607  -999.2500      .9585      .9987     1.1791   -58.6759    10.9100      .2633      .0175    74.8890
 4806.0000      .4367   120.8198  -999.2500     1.0126     1.0337     1.2101   -58.1565    10.9190      .2567      .0164    74.6841
