~VERSION INFORMATION
VERS.                             2.0:   CWLS Log ASCII Standard-VERSION 2.0
WRAP.                              NO:   One line per depth step
~Well Information Block
STRT.F                      3964.0000:   Top Depth
STOP.F                      6748.0000:   Bottom Depth
STEP.F                         .50000:   Depth Increment
NULL.                        -999.250:   Null Value
FLD .                     MU BLK A 26:   Field Name
WELL.       OCSG13276   001 ST00 BP00:   NAME
API .                    427024021500:   WELL API
EDF .F                        73.0000:   ELEV DRILL FLOOR
COMP.                  ORYX ENERGY CO:   OPERATOR
BN  .                            A 26:   BLOCK
CTRY.                             USA:   COUNTRY NAME
CNTY.                        MG ILD L:   COUNTY NAME
EGL .F                      -290.0000:   ELEV GROUND LEVEL
TDD .F                       6750.000:   FINAL TD DRILLER
STAT.                           TEXAS:   STATE NAME
UWI .                    427024021500:   WELL API
DICO.               IHS : Digitizing Company
~PARAMETER INFORMATION (zones)
#MNEM.UNIT                       Value     Description
#=========                       =====     ===========
#ZONATION                          CNL:   ZONATION NAME
#ZONE                            RUN_1:   ZONE NAME
TOP .                       3970.0000:   TOP DEPTH
BOT .                       6744.5000:   BOTTOM DEPTH
RUN .                               1:   RUN NUMBER
LCCD.                             510:   LOGGING CONTRACTOR
SRVC.                   Western Atlas:   LOGGING CONT NAME
DICO.          QC Data Collectors Ltd:   DIG COMPANY NAME
LDAT.                      08/29/1993:   DATE LOGGED
TDD .F                      6750.0000:   TOTAL DEPTH DRILLER
TDL .F                      6749.0000:   TOTAL DEPTH LOGGER
BOTL.F                      6746.0000:   BOTTOM DEPTH LOGGED
TOPL.F                      3998.0000:   TOP DEPTH LOGGED
CS1 .IN                       13.3750:   CASING SIZE 1
BS1 .IN                       12.2500:   BIT SIZE 1
DDB1.F                      6750.0000:   DEPTH DRILLED BIT 1
BHF .                              32:   FLUID CODE
DPT .                          low PH:   DRILLING FLUID TYPE
MUDD.                         11.5000:   FLUID DENSITY
MUDV.                         46.0000:   FLUID VISCOSITY
DFPH.                          8.8000:   FLUID PH
FL  .                          5.0000:   FLUID LOSS
RM  .OHMM                      1.2400:   RM
RMT .DEGF                     75.0000:   RM TEMP
RMF .OHMM                      1.1400:   RMF
RMFT.DEGF                     75.0000:   RMF TEMP
FSC .                               M:   RMF CODE
RMC .OHMM                      1.8000:   RMC
RMCT.DEGF                     75.0000:   RMC TEMP
CMC .                               M:   RMC CODE
TMAX.DEGF                    164.0000:   MAX REC TEMP
TIMC.                         10.0000:   TIME SINCE CIRCLN
~PARAMETER INFORMATION (zones)
#MNEM.UNIT                       Value     Description
#=========                       =====     ===========
#ZONATION                          DIL:   ZONATION NAME
#ZONE                            RUN_1:   ZONE NAME
TOP .                       3986.0000:   TOP DEPTH
BOT .                       6748.5000:   BOTTOM DEPTH
RUN .                               1:   RUN NUMBER
LCCD.                             510:   LOGGING CONTRACTOR
SRVC.                   Western Atlas:   LOGGING CONT NAME
DICO.          QC Data Collectors Ltd:   DIG COMPANY NAME
LDAT.                      08/29/1993:   DATE LOGGED
TDD .F                      6750.0000:   TOTAL DEPTH DRILLER
TDL .F                      6750.0000:   TOTAL DEPTH LOGGER
BOTL.F                      6748.0000:   BOTTOM DEPTH LOGGED
TOPL.F                      3998.0000:   TOP DEPTH LOGGED
CS1 .IN                       13.3750:   CASING SIZE 1
BS1 .IN                       12.2500:   BIT SIZE 1
DDB1.F                      6750.0000:   DEPTH DRILLED BIT 1
BHF .                              32:   FLUID CODE
DPT .                          low PH:   DRILLING FLUID TYPE
MUDD.                         11.5000:   FLUID DENSITY
MUDV.                         46.0000:   FLUID VISCOSITY
DFPH.                          8.8000:   FLUID PH
FL  .                          5.0000:   FLUID LOSS
RM  .OHMM                      1.2400:   RM
RMT .DEGF                     75.0000:   RM TEMP
RMF .OHMM                      1.1400:   RMF
RMFT.DEGF                     75.0000:   RMF TEMP
FSC .                               M:   RMF CODE
RMC .OHMM                      1.8000:   RMC
RMCT.DEGF                     75.0000:   RMC TEMP
CMC .                               M:   RMC CODE
TMAX.DEGF                    158.0000:   MAX REC TEMP
TIMC.                          6.0000:   TIME SINCE CIRCLN
~PARAMETER INFORMATION (zones)
#MNEM.UNIT                       Value     Description
#=========                       =====     ===========
#ZONATION                          FDC:   ZONATION NAME
#ZONE                            RUN_1:   ZONE NAME
TOP .                       3964.0000:   TOP DEPTH
BOT .                       6746.5000:   BOTTOM DEPTH
RUN .                               1:   RUN NUMBER
LCCD.                             510:   LOGGING CONTRACTOR
SRVC.                   Western Atlas:   LOGGING CONT NAME
DICO.          QC Data Collectors Ltd:   DIG COMPANY NAME
LDAT.                      08/29/1993:   DATE LOGGED
TDD .F                      6750.0000:   TOTAL DEPTH DRILLER
TDL .F                      6749.0000:   TOTAL DEPTH LOGGER
BOTL.F                      6746.0000:   BOTTOM DEPTH LOGGED
TOPL.F                      3998.0000:   TOP DEPTH LOGGED
CS1 .IN                       13.3750:   CASING SIZE 1
BS1 .IN                       12.2500:   BIT SIZE 1
DDB1.F                      6750.0000:   DEPTH DRILLED BIT 1
BHF .                              32:   FLUID CODE
DPT .                          low PH:   DRILLING FLUID TYPE
MUDD.                         11.5000:   FLUID DENSITY
MUDV.                         46.0000:   FLUID VISCOSITY
DFPH.                          8.8000:   FLUID PH
FL  .                          5.0000:   FLUID LOSS
RM  .OHMM                      1.2400:   RM
RMT .DEGF                     75.0000:   RM TEMP
RMF .OHMM                      1.1400:   RMF
RMFT.DEGF                     75.0000:   RMF TEMP
FSC .                               M:   RMF CODE
RMC .OHMM                      1.8000:   RMC
RMCT.DEGF                     75.0000:   RMC TEMP
CMC .                               M:   RMC CODE
TMAX.DEGF                    164.0000:   MAX REC TEMP
TIMC.                         10.0000:   TIME SINCE CIRCLN
~Curve Information Block
#MNEM.UNIT                    API CODE    No Description
#=========                    ========    == ===========
DEPT.F                   00 001 00 00:     1  DEPTH
NPHI.%                               :     2  Neutron Porosity
DT.US/F                              :     3  Sonic Transit Time
GR.GAPI                              :     4  Gamma Ray
ILD.OHMM                             :     5  Deep Induction Resistivity
ILM.OHMM                             :     6  Medium Induction Resistivity
RFOC.OHMM                            :     7  Medium Resistivity
SP.MV                                :     8  Spontaneous Potential
CALI.IN                              :     9  Caliper
DPHI.%                               :    10  Porosity
DRHO.G/C3                            :    11  Bulk Density Correction
GRD.GAPI                             :    12  Gamma Ray
~ASCII
# ...
 4360.5000    36.3785   120.3805    61.3752     1.0663     1.0618     1.4049   -82.2837    11.6961    23.6469      .0454    65.4628
 4361.0000    36.2189   121.3427    60.7842     1.0480     1.0460     1.3762   -82.1533    11.6620    23.6737      .0427    67.1482
 4361.5000    36.4883   122.3055    60.1733     1.0292     1.0299     1.3527   -81.9977    11.6055    23.8193      .0367    69.1842
 4362.0000    36.9981   123.1963    59.7035     1.0128     1.0112     1.3347   -81.8821    11.5528    24.2313      .0350    69.1804
 4362.5000    37.4922   124.0494    59.5064      .9978      .9959     1.3273   -81.8547    11.5365    24.6250      .0354    67.8655
 4363.0000    37.7270   124.8557    59.7953      .9828      .9912     1.3291   -82.1975    11.5356    24.9374      .0371    66.5715
 4363.5000    37.3579   125.6334    61.0051      .9783      .9964     1.3307   -82.7500    11.5429    25.1949      .0401    65.4442
 4364.0000    37.0905   125.8168    63.3888      .9793     1.0150     1.3322   -83.3893    11.5455    25.4530      .0469    63.8824
 4364.5000    36.9058   125.8698    63.9103      .9842     1.0340     1.3401   -83.9476    11.5477    25.7359      .0546    64.8776
 4365.0000    37.0056   125.6584    62.0139      .9957     1.0508     1.3490   -84.3745    11.5479    26.0326      .0575    68.7557
 4365.5000    37.0146   124.9321    59.4993     1.0038     1.0609     1.3612   -84.5178    11.5496    26.1689      .0564    72.2511
 4366.0000    36.8138   123.4581    56.4558     1.0063     1.0648     1.3767   -84.3611    11.5556    26.1481      .0537    71.5066
 4366.5000    36.2676   122.3888    56.6670     1.0083     1.0625     1.3942   -83.9647    11.5583    26.1066      .0520    69.3224
 4367.0000    35.8102   121.7532    58.0009     1.0103     1.0570     1.4062   -83.4930    11.5608    25.9656      .0548    66.9283
 4367.5000    36.2252   121.7314    62.2416     1.0076     1.0493     1.3818   -82.9838    11.5649    25.6610      .0561    65.1003
 4368.0000    37.1825   122.3738    65.9340     1.0032     1.0369     1.3564   -82.4420    11.5689    25.6857      .0516    65.7455
 4368.5000    38.4939   124.0914    68.5909     1.0033     1.0324     1.3320   -81.8688    11.5714    26.1100      .0456    67.2432
 4369.0000    39.2380   125.5610    67.3712     1.0033     1.0306     1.3241   -81.5735    11.5748    26.5787      .0443    68.2714
 4369.5000    39.8912   126.8716    62.9468     1.0034     1.0312     1.3284   -81.6282    11.5802    26.9861      .0555    67.2593
 4370.0000    40.1105   127.7201    59.1271     1.0082     1.0417     1.3563   -82.1281    11.5786    27.3524      .0694    65.8036
 4370.5000    39.8154   128.0635    60.6905     1.0130     1.0526     1.3865   -82.5208    11.5683    27.2703      .0790    65.6443
 4371.0000    39.2454   127.3602    62.8403     1.0163     1.0603     1.3991   -82.9097    11.5543    26.8310      .0718    65.5464
 4371.5000    39.1268   124.9196    61.7740     1.0190     1.0660     1.3994   -83.1603    11.5745    26.7275      .0629    65.1760
 4372.0000    38.8548   122.7234    60.0110     1.0204     1.0710     1.3981   -82.7571    11.6429    26.9060      .0706    64.5281
 4372.5000    38.4540   121.4185    59.7558     1.0207     1.0727     1.4006   -82.7111    11.6358    27.0916      .0769    64.5824
 4373.0000    38.0451   120.9001    61.2304     1.0208     1.0750     1.4017   -83.0790    11.5621    27.0483      .0819    66.6951
 4373.5000    37.8535   120.8911    60.7162     1.0217     1.0771     1.3991   -83.6317    11.5023    26.7666      .0822    68.2433
 4374.0000    38.1938   121.2860    60.7946     1.0226     1.0782     1.3946   -84.0798    11.4939    26.3156      .0748    69.0502
 4374.5000    38.5269   121.8865    62.2416     1.0229     1.0790     1.3897   -84.3750    11.4990    26.3632      .0689    69.8373
 4375.0000    38.6232   122.3177    63.4867     1.0229     1.0780     1.3895   -84.4294    11.5088    26.5688      .0758    68.7533
 4375.5000    38.3276   121.8477    63.9222     1.0230     1.0760     1.3861   -84.3396    11.5146    26.6894      .0740    67.8612
 4376.0000    38.0239   121.3174    62.6922     1.0231     1.0723     1.3882   -84.2062    11.5213    26.6024      .0682    68.9520
 4376.5000    37.8422   120.8524    59.9033     1.0242     1.0715     1.3951   -83.9010    11.5222    26.3224      .0607    70.0762
 4377.0000    37.7502   120.7406    56.9431     1.0261     1.0713     1.4114   -83.5277    11.5258    26.0223      .0554    70.6593
 4377.5000    37.9755   120.9104    56.6124     1.0307     1.0692     1.4288   -83.0337    11.5264    25.6718      .0577    70.1478
 4378.0000    38.7955   121.9347    59.0096     1.0382     1.0681     1.4253   -82.6199    11.5204    25.5464      .0653    69.2422
 4378.5000    39.4016   123.1975    58.7525     1.0473     1.0693     1.3922   -82.2997    11.5119    25.6339      .0718    69.5441
 4379.0000    39.8751   124.0122    57.4573     1.0585     1.0723     1.3723   -82.2837    11.4863    25.8301      .0757    68.5063
 4379.5000    40.1647   123.9243    56.7717     1.0708     1.0769     1.3659   -82.4534    11.4857    26.0630      .0792    66.3678
 4380.0000    39.8076   123.0466    62.1927     1.0877     1.0873     1.3799   -82.2780    11.4828    26.3181      .0840    64.8083
 4380.5000    38.8171   121.6095    65.6377     1.1048     1.0997     1.4086   -82.4897    11.4939    26.5399      .0914    64.9602
 4381.0000    37.8281   120.2301    66.7407     1.1185     1.1140     1.4280   -83.2617    11.5093    26.6978      .0950    65.4075
 4381.5000    36.8802   118.9385    65.0513     1.1321     1.1288     1.4409   -84.0433    11.5273    26.4918      .0901    65.4614
 4382.0000    36.0558   117.8259    62.1437     1.1467     1.1448     1.4520   -84.7607    11.5371    25.8831      .0869    65.3976
 4382.5000    36.1772   116.9495    59.6040     1.1595     1.1585     1.4673   -85.6000    11.5418    25.3214      .0838    65.1639
 4383.0000    36.4902   116.8594    59.6493     1.1705     1.1672     1.4717   -86.2538    11.5405    24.8579      .0782    64.6760
 4383.5000    36.7209   117.5421    61.1937     1.1761     1.1641     1.4702   -86.4093    11.5555    24.6572      .0671    65.2812
 4384.0000    36.7451   118.2694    62.2398     1.1652     1.1545     1.4434   -86.0688    11.5652    24.7124      .0618    66.7086
 4384.5000    36.1887   118.9027    61.6329     1.1473     1.1388     1.4381   -85.5468    11.5789    24.9273      .0699    67.4189
 4385.0000    35.8170   119.4017    62.0825     1.1326     1.1248     1.4348   -85.4160    11.5981    25.2093      .0798    67.4236
 4385.5000    36.3323   119.6367    62.7017     1.1209     1.1196     1.4313   -85.4156    11.6190    25.4352      .0865    68.0013
 4386.0000    36.8906   119.9226    62.3589     1.1122     1.1152     1.4270   -85.4788    11.6415    25.6021      .0844    69.2620
 4386.5000    37.1045   120.8203    62.2338     1.1052     1.1098     1.4032   -85.4799    11.6695    25.6943      .0721    70.5634
 4387.0000    36.9232   121.8683    64.0364     1.1043     1.1045     1.3751   -85.2401    11.6988    25.5162      .0594    68.5458
 4387.5000    36.8134   122.8267    66.5167     1.1034     1.1047     1.3831   -84.2135    11.7300    25.2035      .0466    66.3333
 4388.0000    37.0097   123.2467    66.8387     1.1042     1.1066     1.4087   -83.3560    11.7555    24.9753      .0334    64.3145
 4388.5000    37.3021   122.9285    64.7587     1.1050     1.1069     1.4174   -82.9985    11.7796    24.9158      .0340    64.1083
 4389.0000    37.6454   122.3750    61.7005     1.1061     1.1053     1.3965   -82.7780    11.7989    24.8954      .0338    65.7295
 4389.5000    37.9912   121.6283    58.4599     1.1083     1.1037     1.3828   -82.5609    11.8051    24.9178      .0343    66.8876
 4390.0000    38.3325   120.7751    60.0870     1.1105     1.1029     1.3908   -82.2872    11.8039    24.9866      .0462    67.1711
 4390.5000    38.6264   120.0902    65.5471     1.1118     1.1020     1.4227   -81.9772    11.7986    24.9866      .0569    67.0770
