~VERSION INFORMATION
VERS.                             2.0:   CWLS Log ASCII Standard-VERSION 2.0
WRAP.                              NO:   One line per depth step
~Well Information Block
STRT.F                      3964.0000:   Top Depth
STOP.F                      6748.0000:   Bottom Depth
STEP.F                         .50000:   Depth Increment
NULL.                        -999.250:   Null Value
FLD .                     MU BLK A 26:   Field Name
WELL.       OCSG13276   001 ST00 BP00:   NAME
API .                    427024021500:   WELL API
EDF .F                        73.0000:   ELEV DRILL FLOOR
COMP.                  ORYX ENERGY CO:   OPERATOR
BN  .                            A 26:   BLOCK
CTRY.                             USA:   COUNTRY NAME
CNTY.                        MG ILD L:   COUNTY NAME
EGL .F                      -290.0000:   ELEV GROUND LEVEL
TDD .F                       6750.000:   FINAL TD DRILLER
STAT.                           TEXAS:   STATE NAME
UWI .                    427024021500:   WELL API
DICO.               IHS : Digitizing Company
~PARAMETER INFORMATION (zones)
#MNEM.UNIT                       Value     Description
#=========                       =====     ===========
#ZONATION                          CNL:   ZONATION NAME
#ZONE                            RUN_1:   ZONE NAME
TOP .                       3970.0000:   TOP DEPTH
BOT .                       6744.5000:   BOTTOM DEPTH
RUN .                               1:   RUN NUMBER
LCCD.                             510:   LOGGING CONTRACTOR
SRVC.                   Western Atlas:   LOGGING CONT NAME
DICO.          QC Data Collectors Ltd:   DIG COMPANY NAME
LDAT.                      08/29/1993:   DATE LOGGED
TDD .F                      6750.0000:   TOTAL DEPTH DRILLER
TDL .F                      6749.0000:   TOTAL DEPTH LOGGER
BOTL.F                      6746.0000:   BOTTOM DEPTH LOGGED
TOPL.F                      3998.0000:   TOP DEPTH LOGGED
CS1 .IN                       13.3750:   CASING SIZE 1
BS1 .IN                       12.2500:   BIT SIZE 1
DDB1.F                      6750.0000:   DEPTH DRILLED BIT 1
BHF .                              32:   FLUID CODE
DPT .                          low PH:   DRILLING FLUID TYPE
MUDD.                         11.5000:   FLUID DENSITY
MUDV.                         46.0000:   FLUID VISCOSITY
DFPH.                          8.8000:   FLUID PH
FL  .                          5.0000:   FLUID LOSS
RM  .OHMM                      1.2400:   RM
RMT .DEGF                     75.0000:   RM TEMP
RMF .OHMM                      1.1400:   RMF
RMFT.DEGF                     75.0000:   RMF TEMP
FSC .                               M:   RMF CODE
RMC .OHMM                      1.8000:   RMC
RMCT.DEGF                     75.0000:   RMC TEMP
CMC .                               M:   RMC CODE
TMAX.DEGF                    164.0000:   MAX REC TEMP
TIMC.                         10.0000:   TIME SINCE CIRCLN
~PARAMETER INFORMATION (zones)
#MNEM.UNIT                       Value     Description
#=========                       =====     ===========
#ZONATION                          DIL:   ZONATION NAME
#ZONE                            RUN_1:   ZONE NAME
TOP .                       3986.0000:   TOP DEPTH
BOT .                       6748.5000:   BOTTOM DEPTH
RUN .                               1:   RUN NUMBER
LCCD.                             510:   LOGGING CONTRACTOR
SRVC.                   Western Atlas:   LOGGING CONT NAME
DICO.          QC Data Collectors Ltd:   DIG COMPANY NAME
LDAT.                      08/29/1993:   DATE LOGGED
TDD .F                      6750.0000:   TOTAL DEPTH DRILLER
TDL .F                      6750.0000:   TOTAL DEPTH LOGGER
BOTL.F                      6748.0000:   BOTTOM DEPTH LOGGED
TOPL.F                      3998.0000:   TOP DEPTH LOGGED
CS1 .IN                       13.3750:   CASING SIZE 1
BS1 .IN                       12.2500:   BIT SIZE 1
DDB1.F                      6750.0000:   DEPTH DRILLED BIT 1
BHF .                              32:   FLUID CODE
DPT .                          low PH:   DRILLING FLUID TYPE
MUDD.                         11.5000:   FLUID DENSITY
MUDV.                         46.0000:   FLUID VISCOSITY
DFPH.                          8.8000:   FLUID PH
FL  .                          5.0000:   FLUID LOSS
RM  .OHMM                      1.2400:   RM
RMT .DEGF                     75.0000:   RM TEMP
RMF .OHMM                      1.1400:   RMF
RMFT.DEGF                     75.0000:   RMF TEMP
FSC .                               M:   RMF CODE
RMC .OHMM                      1.8000:   RMC
RMCT.DEGF                     75.0000:   RMC TEMP
CMC .                               M:   RMC CODE
TMAX.DEGF                    158.0000:   MAX REC TEMP
TIMC.                          6.0000:   TIME SINCE CIRCLN
~PARAMETER INFORMATION (zones)
#MNEM.UNIT                       Value     Description
#=========                       =====     ===========
#ZONATION                          FDC:   ZONATION NAME
#ZONE                            RUN_1:   ZONE NAME
TOP .                       3964.0000:   TOP DEPTH
BOT .                       6746.5000:   BOTTOM DEPTH
RUN .                               1:   RUN NUMBER
LCCD.                             510:   LOGGING CONTRACTOR
SRVC.                   Western Atlas:   LOGGING CONT NAME
DICO.          QC Data Collectors Ltd:   DIG COMPANY NAME
LDAT.                      08/29/1993:   DATE LOGGED
TDD .F                      6750.0000:   TOTAL DEPTH DRILLER
TDL .F                      6749.0000:   TOTAL DEPTH LOGGER
BOTL.F                      6746.0000:   BOTTOM DEPTH LOGGED
TOPL.F                      3998.0000:   TOP DEPTH LOGGED
CS1 .IN                       13.3750:   CASING SIZE 1
BS1 .IN                       12.2500:   BIT SIZE 1
DDB1.F                      6750.0000:   DEPTH DRILLED BIT 1
BHF .                              32:   FLUID CODE
DPT .                          low PH:   DRILLING FLUID TYPE
MUDD.                         11.5000:   FLUID DENSITY
MUDV.                         46.0000:   FLUID VISCOSITY
DFPH.                          8.8000:   FLUID PH
FL  .                          5.0000:   FLUID LOSS
RM  .OHMM                      1.2400:   RM
RMT .DEGF                     75.0000:   RM TEMP
RMF .OHMM                      1.1400:   RMF
RMFT.DEGF                     75.0000:   RMF TEMP
FSC .                               M:   RMF CODE
RMC .OHMM                      1.8000:   RMC
RMCT.DEGF                     75.0000:   RMC TEMP
CMC .                               M:   RMC CODE
TMAX.DEGF                    164.0000:   MAX REC TEMP
TIMC.                         10.0000:   TIME SINCE CIRCLN
~Curve Information Block
#MNEM.UNIT                    API CODE    No Description
#=========                    ========    == ===========
DEPT.F                   00 001 00 00:     1  DEPTH
NPHI.%                               :     2  Neutron Porosity
DT.US/F                              :     3  Sonic Transit Time
GR.GAPI                              :     4  Gamma Ray
ILD.OHMM                             :     5  Deep Induction Resistivity
ILM.OHMM                             :     6  Medium Induction Resistivity
RFOC.OHMM                            :     7  Medium Resistivity
SP.MV                                :     8  Spontaneous Potential
CALI.IN                              :     9  Caliper
DPHI.%                               :    10  Porosity
DRHO.G/C3                            :    11  Bulk Density Correction
GRD.GAPI                             :    12  Gamma Ray
~ASCII
# ...
 6526.0000    29.0943   106.4114    53.3767      .9553      .9766     1.2221   -88.6332    11.6630    18.1456      .0636    66.1064
 6526.5000    28.2157   107.1992    53.7237      .9866      .9988     1.2012   -88.6752    11.6490    16.8653      .0599    63.4475
 6527.0000    28.7202   107.7881    56.1624     1.0081     1.0144     1.2108   -88.5883    11.6282    15.5865      .0466    60.9141
 6527.5000    31.3449   106.9952    55.8667     1.0073     1.0211     1.2517   -88.3909    11.6766    15.2004      .0253    61.1086
 6528.0000    33.2593   104.3705    54.3664      .9986     1.0151     1.3121   -88.9551    11.7531    16.0530      .0136    64.1750
 6528.5000    33.4285   101.8503    53.0065      .9878     1.0031     1.3666   -89.4719    11.7809    16.9849      .0154    65.0592
 6529.0000    33.3917    99.9725    52.9882      .9685      .9788     1.3380   -89.0681    11.7746    17.2988      .0178    64.9561
 6529.5000    33.5526   101.6732    55.2510      .9387      .9493     1.2319   -88.2245    11.7698    17.4341      .0165    64.4692
 6530.0000    33.9468   103.4653    55.7470      .9015      .9309     1.1508   -87.2642    11.7644    17.6154      .0097    63.9042
 6530.5000    34.3246   105.8800    55.2415      .8617      .8983     1.1786   -86.5726    11.7618    18.1344      .0070    64.6354
 6531.0000    34.4446   107.9122    56.2589      .8297      .8705     1.1991   -86.4392    11.7538    18.5991      .0158    66.0609
 6531.5000    34.1323   109.3220    57.4893      .8036      .8492     1.1893   -86.4247    11.7445    18.4940      .0253    67.3412
 6532.0000    33.7888   111.1447    56.6230      .7875      .8307     1.1453   -86.7858    11.7364    18.1679      .0327    67.3505
 6532.5000    33.4564   113.1508    56.4434      .7794      .8258     1.1251   -87.4773    11.7311    17.8427      .0378    66.9404
 6533.0000    33.3358   114.9435    60.2896      .7724      .8274     1.1226   -88.1871    11.7309    17.9500      .0402    66.5072
 6533.5000    33.3864   115.3860    62.8407      .7663      .8303     1.1356   -88.7034    11.7383    18.3952      .0409    66.1335
 6534.0000    33.1912   114.3584    61.6556      .7655      .8306     1.1532   -88.8781    11.7465    19.0458      .0360    66.0259
 6534.5000    32.7261   112.5220    59.5908      .7658      .8263     1.1743   -88.6704    11.7515    19.5641      .0255    66.3262
 6535.0000    33.0887   110.9001    58.2419      .7674      .8189     1.1868   -88.2018    11.7578    19.6459      .0199    66.7567
 6535.5000    34.0128   111.4066    59.1057      .7684      .8147     1.1732   -87.7418    11.7651    19.2470      .0209    67.1263
 6536.0000    34.3608   112.8838    59.7758      .7688      .8188     1.1465   -87.9935    11.7735    18.7164      .0263    67.8250
 6536.5000    34.0045   114.1799    60.2040      .7706      .8243     1.1298   -88.8365    11.7789    19.0428      .0343    67.0691
 6537.0000    33.6320   114.9310    60.4745      .7730      .8358     1.1238   -89.7028    11.7819    19.6874      .0458    64.7671
 6537.5000    33.4013   115.1575    60.5573      .7765      .8472     1.1239   -90.6998    11.7850    20.3425      .0563    61.9432
 6538.0000    33.2978   114.6079    59.3024      .7834      .8592     1.1315   -91.5502    11.7803    20.7278      .0608    61.7019
 6538.5000    33.3565   114.1263    55.6297      .7950      .8737     1.1420   -90.7523    11.7099    19.2649      .0491    63.4278
 6539.0000    33.7318   113.7152    54.4470      .8100      .8865     1.1538   -89.4817    11.6017    16.2348      .0361    62.0663
 6539.5000    35.1753   114.3073    55.3829      .8250      .8952     1.1642   -88.2404    11.4747    15.0004      .0666    57.7971
 6540.0000    38.6927   117.1604    54.3456      .8345      .8991     1.1723   -87.2335    11.3811    15.0272      .0957    52.0286
 6540.5000    40.2413   122.2155    53.9778      .8424      .8994     1.1701   -87.0012    11.3678    14.7303      .0877    51.2752
 6541.0000    41.4649   127.2755    56.6144      .8464      .8965     1.1580   -87.9679    11.3547    13.5297      .0607    52.5875
 6541.5000    41.3159   129.2004    59.1594      .8478      .8912     1.1403   -89.9227    11.3262    11.4058      .0293    54.1693
 6542.0000    39.6257   128.4780    59.8271      .8445      .8880     1.1145   -91.9924    11.3137     8.8393      .0224    53.1045
 6542.5000    37.4646   124.6606    60.3177      .8398      .8885     1.1141   -93.0789    11.3858     7.2371      .0388    49.9432
 6543.0000    35.2811   122.1318    60.4900      .8326      .8890     1.1214   -92.3320    11.4774     5.8271      .0487    46.2748
 6543.5000    34.6249   120.6660    57.0836      .8236      .8877     1.1428   -91.1555    11.5528     5.5589      .0137    44.7729
 6544.0000    35.3407   118.5825    54.0585      .8116      .8854     1.1834   -90.7755    11.5923     6.9748     -.0129    45.2531
 6544.5000    37.4318   114.8799    52.1757      .7904      .8607     1.2397   -91.2808    11.5873     9.8349     -.0219    46.2490
 6545.0000    38.8514   109.0962    51.7853      .7645      .8257     1.2913   -91.9900    11.5603    13.2093     -.0009    47.7262
 6545.5000    39.5527   102.2994    51.4539      .7345      .7831     1.3040   -92.7462    11.5340    17.0993      .0233    51.5485
 6546.0000    40.4276    97.2968    52.4579      .7029      .7443     1.2118   -93.4103    11.5487    20.6361      .0406    55.8373
 6546.5000    41.2816    98.6516    55.0604      .6712      .7045     1.1405   -93.1929    11.6066    22.0207      .0402    59.9785
 6547.0000    41.9098   104.8246    58.7501      .6447      .6717     1.0825   -91.2692    11.6613    23.3576      .0360    63.8956
 6547.5000    41.5215   113.8568    61.8608      .6214      .6422     1.0363   -88.5861    11.6674    23.7514      .0321    65.7489
 6548.0000    39.2292   120.2842    64.5695      .5973      .6215      .9968   -86.5200    11.6548    23.3069      .0277    66.0240
 6548.5000    37.5659   126.9063    64.5328      .5783      .6171      .9743   -86.1543    11.6676    21.3232      .0223    64.6637
 6549.0000    36.2812   128.4009    63.7087      .5694      .6247      .9691   -87.0564    11.6842    16.8310      .0181    62.0663
 6549.5000    35.3273   130.0850    62.2103      .5667      .6354      .9802   -88.2172    11.7047    14.2734      .0270    59.7151
 6550.0000    34.7225   131.0862    59.4832      .5729      .6493     1.0155   -89.8715    11.7285    13.5752      .0373    58.1923
 6550.5000    34.2303   128.6677    56.6658      .5861      .6622     1.0541   -90.4243    11.7444    13.9731      .0410    58.8817
 6551.0000    33.8570   124.4910    54.2124      .6017      .6736     1.0816   -90.7397    11.7557    14.9337      .0260    60.1312
 6551.5000    34.6134   120.6835    54.5203      .6118      .6800     1.0834   -91.2826    11.7517    17.1470      .0196    61.9629
 6552.0000    36.4198   119.1078    55.6981      .6165      .6755     1.0661   -91.8348    11.7468    19.9222      .0195    64.1516
 6552.5000    38.2262   119.6949    57.5601      .6193      .6593     1.0784   -91.7313    11.7411    23.0148      .0195    66.7786
 6553.0000    38.9073   119.1864    59.0043      .6197      .6465     1.0749   -91.5726    11.7350    24.2303      .0198    68.8910
 6553.5000    38.6726   118.5358    58.7501      .6189      .6337     1.0216   -91.8271    11.7319    24.2545      .0206    70.1479
 6554.0000    37.6956   119.6143    57.7654      .6169      .6231      .9857   -92.3369    11.7299    24.2841      .0226    70.9192
 6554.5000    36.3810   121.5118    57.1282      .6117      .6151      .9814   -91.6149    11.7245    24.3692      .0283    71.5833
 6555.0000    35.3444   122.6228    57.9279      .6075      .6112      .9975   -91.2074    11.7244    24.4498      .0361    72.3367
 6555.5000    35.2359   122.1761    60.1479      .6083      .6124     1.0165   -91.8422    11.7293    24.2787      .0446    71.1980
 6556.0000    35.1095   121.9658    62.5108      .6128      .6186     1.0286   -92.7817    11.7303    23.6408      .0506    68.1475
