~VERSION INFORMATION
VERS.                             2.0:   CWLS Log ASCII Standard-VERSION 2.0
WRAP.                              NO:   One line per depth step
~Well Information Block
STRT.F                       590.0000:   Top Depth
STOP.F                      5513.0000:   Bottom Depth
STEP.F                         .50000:   Depth Increment
NULL.                        -999.250:   Null Value
FLD .                     MU BLK A 16:   Field Name
WELL.       OCSG03011  A001 ST00 BP00:   NAME
API .                    427024004100:   WELL API
R1  .                           13904:   COMMENT  1
EDF .F                       102.0000:   ELEV DRILL FLOOR
COMP.       CITIES SERVICE OIL COMPAN:   OPERATOR
BN  .                            A 16:   BLOCK
CTRY.                             USA:   COUNTRY NAME
CNTY.                        MG ILD L:   COUNTY NAME
EKB .F                       103.0000:   ELEV KELLY BUSHING
TDD .F                       5519.000:   FINAL TD DRILLER
STAT.                           TEXAS:   STATE NAME
UWI .                    427024004100:   WELL API
DICO.               IHS : Digitizing Company
~PARAMETER INFORMATION (zones)
#MNEM.UNIT                       Value     Description
#=========                       =====     ===========
#ZONATION                          CNL:   ZONATION NAME
#ZONE                            RUN_1:   ZONE NAME
TOP .                       3234.0000:   TOP DEPTH
BOT .                       5513.5000:   BOTTOM DEPTH
RUN .                               1:   RUN NUMBER
LCCD.                             440:   LOGGING CONTRACTOR
SRVC.                    Schlumberger:   LOGGING CONT NAME
DICO.          QC Data Collectors Ltd:   DIG COMPANY NAME
LDAT.                      03/04/1980:   DATE LOGGED
ELD .F                       103.0000:   LOG DATUM ELEVATION
TDD .F                      5512.0000:   TOTAL DEPTH DRILLER
TDL .F                      5519.0000:   TOTAL DEPTH LOGGER
BOTL.F                      5513.0000:   BOTTOM DEPTH LOGGED
TOPL.F                      3240.0000:   TOP DEPTH LOGGED
CS1 .IN                       13.3750:   CASING SIZE 1
BS1 .IN                       12.2500:   BIT SIZE 1
DDB1.F                      5512.0000:   DEPTH DRILLED BIT 1
BHF .                              99:   FLUID CODE
DPT .                   Miscellaneous:   DRILLING FLUID TYPE
MUDD.                         13.1000:   FLUID DENSITY
MUDV.                         38.0000:   FLUID VISCOSITY
DFPH.                         11.5000:   FLUID PH
FL  .                          4.0000:   FLUID LOSS
RM  .OHMM                       .8600:   RM
RMT .DEGF                     70.0000:   RM TEMP
RMF .OHMM                       .6600:   RMF
RMFT.DEGF                     70.0000:   RMF TEMP
FSC .                               M:   RMF CODE
RMC .OHMM                      1.8600:   RMC
RMCT.DEGF                     70.0000:   RMC TEMP
CMC .                               M:   RMC CODE
TMAX.DEGF                    145.0000:   MAX REC TEMP
TIMC.                          6.5000:   TIME SINCE CIRCLN
~PARAMETER INFORMATION (zones)
#MNEM.UNIT                       Value     Description
#=========                       =====     ===========
#ZONATION                          DIL:   ZONATION NAME
#ZONE                            RUN_1:   ZONE NAME
TOP .                       3240.0000:   TOP DEPTH
BOT .                       5513.5000:   BOTTOM DEPTH
RUN .                               1:   RUN NUMBER
LCCD.                             440:   LOGGING CONTRACTOR
SRVC.                    Schlumberger:   LOGGING CONT NAME
DICO.          QC Data Collectors Ltd:   DIG COMPANY NAME
LDAT.                      03/04/1980:   DATE LOGGED
ELD .F                       103.0000:   LOG DATUM ELEVATION
TDD .F                      5512.0000:   TOTAL DEPTH DRILLER
TDL .F                      5519.0000:   TOTAL DEPTH LOGGER
BOTL.F                      5513.0000:   BOTTOM DEPTH LOGGED
TOPL.F                      3240.0000:   TOP DEPTH LOGGED
CS1 .IN                       13.3750:   CASING SIZE 1
BS1 .IN                       12.2500:   BIT SIZE 1
DDB1.F                      5512.0000:   DEPTH DRILLED BIT 1
BHF .                              99:   FLUID CODE
DPT .                   Miscellaneous:   DRILLING FLUID TYPE
MUDD.                         13.1000:   FLUID DENSITY
MUDV.                         38.0000:   FLUID VISCOSITY
DFPH.                         11.5000:   FLUID PH
FL  .                          4.0000:   FLUID LOSS
RM  .OHMM                       .8600:   RM
RMT .DEGF                     70.0000:   RM TEMP
RMF .OHMM                       .6600:   RMF
RMFT.DEGF                     70.0000:   RMF TEMP
FSC .                               M:   RMF CODE
RMC .OHMM                      1.8600:   RMC
RMCT.DEGF                     70.0000:   RMC TEMP
CMC .                               M:   RMC CODE
TMAX.DEGF                    145.0000:   MAX REC TEMP
TIMC.                          6.5000:   TIME SINCE CIRCLN
~PARAMETER INFORMATION (zones)
#MNEM.UNIT                       Value     Description
#=========                       =====     ===========
#ZONATION                          DIL:   ZONATION NAME
#ZONE                          RUN_1_1:   ZONE NAME
TOP .                        590.0000:   TOP DEPTH
BOT .                       1046.5000:   BOTTOM DEPTH
RUN .                               1:   RUN NUMBER
LCCD.                             440:   LOGGING CONTRACTOR
SRVC.                    Schlumberger:   LOGGING CONT NAME
DICO.          QC Data Collectors Ltd:   DIG COMPANY NAME
LDAT.                      02/20/1980:   DATE LOGGED
ELD .F                       103.0000:   LOG DATUM ELEVATION
TDD .F                      1050.0000:   TOTAL DEPTH DRILLER
TDL .F                      1050.0000:   TOTAL DEPTH LOGGER
BOTL.F                      1046.0000:   BOTTOM DEPTH LOGGED
TOPL.F                       597.0000:   TOP DEPTH LOGGED
CS1 .IN                       30.0000:   CASING SIZE 1
BS1 .IN                       12.5000:   BIT SIZE 1
DDB1.F                      1050.0000:   DEPTH DRILLED BIT 1
BHF .                              99:   FLUID CODE
DPT .                   Miscellaneous:   DRILLING FLUID TYPE
MUDD.                          8.6000:   FLUID DENSITY
MUDV.                         39.0000:   FLUID VISCOSITY
DFPH.                         12.3000:   FLUID PH
FL  .                            NULL:   FLUID LOSS
RM  .OHMM                       .3900:   RM
RMT .DEGF                     80.0000:   RM TEMP
RMF .OHMM                       .2400:   RMF
RMFT.DEGF                     80.0000:   RMF TEMP
FSC .                               M:   RMF CODE
RMC .OHMM                       .4500:   RMC
RMCT.DEGF                     80.0000:   RMC TEMP
CMC .                               M:   RMC CODE
TMAX.DEGF                     90.0000:   MAX REC TEMP
TIMC.                          1.5000:   TIME SINCE CIRCLN
~PARAMETER INFORMATION (zones)
#MNEM.UNIT                       Value     Description
#=========                       =====     ===========
#ZONATION                          FDC:   ZONATION NAME
#ZONE                            RUN_1:   ZONE NAME
TOP .                       3234.0000:   TOP DEPTH
BOT .                       5513.5000:   BOTTOM DEPTH
RUN .                               1:   RUN NUMBER
LCCD.                             440:   LOGGING CONTRACTOR
SRVC.                    Schlumberger:   LOGGING CONT NAME
DICO.          QC Data Collectors Ltd:   DIG COMPANY NAME
LDAT.                      03/04/1980:   DATE LOGGED
ELD .F                       103.0000:   LOG DATUM ELEVATION
TDD .F                      5512.0000:   TOTAL DEPTH DRILLER
TDL .F                      5519.0000:   TOTAL DEPTH LOGGER
BOTL.F                      5513.0000:   BOTTOM DEPTH LOGGED
TOPL.F                      3240.0000:   TOP DEPTH LOGGED
CS1 .IN                       13.3750:   CASING SIZE 1
BS1 .IN                       12.2500:   BIT SIZE 1
DDB1.F                      5512.0000:   DEPTH DRILLED BIT 1
BHF .                              99:   FLUID CODE
DPT .                   Miscellaneous:   DRILLING FLUID TYPE
MUDD.                         13.1000:   FLUID DENSITY
MUDV.                         38.0000:   FLUID VISCOSITY
DFPH.                         11.5000:   FLUID PH
FL  .                          4.0000:   FLUID LOSS
RM  .OHMM                       .8600:   RM
RMT .DEGF                     70.0000:   RM TEMP
RMF .OHMM                       .6600:   RMF
RMFT.DEGF                     70.0000:   RMF TEMP
FSC .                               M:   RMF CODE
RMC .OHMM                      1.8600:   RMC
RMCT.DEGF                     70.0000:   RMC TEMP
CMC .                               M:   RMC CODE
TMAX.DEGF                    145.0000:   MAX REC TEMP
TIMC.                          6.5000:   TIME SINCE CIRCLN
~Curve Information Block
#MNEM.UNIT                    API CODE    No Description
#=========                    ========    == ===========
DEPT.F                   00 001 00 00:     1  DEPTH
NPHI.%                               :     2  Neutron Porosity
ASFL.OHMM                            :     3  Shallow Resistivity
DT.US/F                              :     4  Sonic Transit Time
GR.GAPI                              :     5  Gamma Ray
ILD.OHMM                             :     6  Deep Induction Resistivity
SFL.OHMM                             :     7  Medium Resistivity
SP.MV                                :     8  Spontaneous Potential
CALI.IN                              :     9  Caliper
DRHO.G/C3                            :    10  Bulk Density Correction
GR.GAPI                              :    11  Gamma Ray
RHOB.G/C3                            :    12  Bulk Density
~ASCII
# ...
 5012.5000    42.5833     1.1847  -999.2500  -999.2500     1.1071  -999.2500   -49.8145    12.6925      .0391    69.2894     2.3056
 5013.0000    44.2846     1.1795  -999.2500  -999.2500     1.0905  -999.2500   -50.0175    12.6610      .0447    68.9045     2.3153
 5013.5000    44.0046     1.1837  -999.2500  -999.2500     1.0740  -999.2500   -50.2206    12.6621      .0503    68.5629     2.3219
 5014.0000    43.2914     1.1878  -999.2500  -999.2500     1.0574  -999.2500   -50.4003    12.6907      .0552    68.0542     2.3275
 5014.5000    42.7955     1.1893  -999.2500  -999.2500     1.0409  -999.2500   -50.4149    12.7424      .0562    67.8975     2.3319
 5015.0000    42.9468     1.1758  -999.2500  -999.2500     1.0243  -999.2500   -50.4294    12.8170      .0489    68.5063     2.3244
 5015.5000    43.5958     1.1623  -999.2500  -999.2500     1.0078  -999.2500   -50.2932    12.9114      .0355    69.1405     2.3089
 5016.0000    45.4789     1.1485  -999.2500  -999.2500      .9913  -999.2500   -49.3540    13.0182      .0232    69.4385     2.2915
 5016.5000    47.5053     1.1335  -999.2500  -999.2500      .9873  -999.2500   -48.4142    13.1159      .0141    69.3346     2.2781
 5017.0000    48.9373     1.1185  -999.2500  -999.2500      .9887  -999.2500   -48.5206    13.1987      .0070    69.3906     2.2718
 5017.5000    48.9170     1.1035  -999.2500  -999.2500      .9900  -999.2500   -48.8298    13.2241      .0050    69.7794     2.2750
 5018.0000    47.8728     1.1204  -999.2500  -999.2500      .9914  -999.2500   -49.1635    13.2200      .0071    69.8207     2.2861
 5018.5000    45.6900     1.1484  -999.2500  -999.2500      .9927  -999.2500   -49.4974    13.1937      .0086    68.1045     2.2973
 5019.0000    43.3847     1.1764  -999.2500  -999.2500      .9941  -999.2500   -49.8314    13.1673      .0072    65.6345     2.3062
 5019.5000    42.6793     1.2014  -999.2500  -999.2500     1.0120  -999.2500   -50.1650    13.1503      .0077    64.3669     2.3102
 5020.0000    43.8806     1.2192  -999.2500  -999.2500     1.0300  -999.2500   -50.3812    13.1435      .0092    64.6207     2.3108
 5020.5000    44.9548     1.2370  -999.2500  -999.2500     1.0481  -999.2500   -50.2709    13.1365      .0096    65.4133     2.3104
 5021.0000    44.7704     1.2277  -999.2500  -999.2500     1.0662  -999.2500   -50.1606    13.1254      .0062    66.2059     2.3100
 5021.5000    44.9169     1.2178  -999.2500  -999.2500     1.0843  -999.2500   -50.0504    13.1143      .0021    66.7577     2.3119
 5022.0000    45.2532     1.2090  -999.2500  -999.2500     1.1023  -999.2500   -49.9401    13.1123      .0061    66.4172     2.3184
 5022.5000    45.1115     1.2008  -999.2500  -999.2500     1.1133  -999.2500   -50.1337    13.1114      .0124    65.4698     2.3271
 5023.0000    43.9441     1.1927  -999.2500  -999.2500     1.1175  -999.2500   -50.3493    13.1086      .0182    64.6570     2.3394
 5023.5000    42.1656     1.2103  -999.2500  -999.2500     1.1217  -999.2500   -50.5648    13.1423      .0198    64.6204     2.3427
 5024.0000    41.2779     1.2341  -999.2500  -999.2500     1.1259  -999.2500   -50.9614    13.1994      .0091    64.7556     2.3342
 5024.5000    41.1525     1.2579  -999.2500  -999.2500     1.1301  -999.2500   -51.4181    13.2598      .0027    65.0996     2.3293
 5025.0000    41.9310     1.2818  -999.2500  -999.2500     1.1343  -999.2500   -51.3946    13.3051      .0005    65.3922     2.3258
 5025.5000    42.7198     1.3062  -999.2500  -999.2500     1.1585  -999.2500   -50.9711    13.3219      .0014    65.2314     2.3280
 5026.0000    42.8770     1.3307  -999.2500  -999.2500     1.1876  -999.2500   -50.5474    13.3067      .0023    64.4081     2.3362
 5026.5000    42.2332     1.3545  -999.2500  -999.2500     1.2167  -999.2500   -50.3345    13.2813      .0040    63.7089     2.3441
 5027.0000    41.5355     1.3712  -999.2500  -999.2500     1.2458  -999.2500   -50.4093    13.2233      .0057    64.4277     2.3483
 5027.5000    41.6373     1.3764  -999.2500  -999.2500     1.2503  -999.2500   -50.4707    13.1416      .0072    65.1835     2.3416
 5028.0000    42.3679     1.3598  -999.2500  -999.2500     1.2297  -999.2500   -50.4910    13.0754      .0086    65.9037     2.3348
 5028.5000    43.3464     1.3108  -999.2500  -999.2500     1.2092  -999.2500   -50.5114    13.0240      .0101    65.4277     2.3268
 5029.0000    43.5963     1.2504  -999.2500  -999.2500     1.1887  -999.2500   -50.5317    13.0389      .0113    64.9764     2.3189
 5029.5000    42.7811     1.2163  -999.2500  -999.2500     1.1710  -999.2500   -50.5532    13.0424      .0094    64.5999     2.3127
 5030.0000    41.3185     1.2168  -999.2500  -999.2500     1.1710  -999.2500   -50.5854    13.0836      .0072    65.1097     2.3106
 5030.5000    38.0804     1.2435  -999.2500  -999.2500     1.1709  -999.2500   -50.6177    13.1313      .0057    65.9915     2.3144
 5031.0000    37.7968     1.2702  -999.2500  -999.2500     1.1709  -999.2500   -50.8195    13.1595      .0062    66.4701     2.3256
 5031.5000    38.5627     1.3193  -999.2500  -999.2500     1.1900  -999.2500   -51.1783    13.1644      .0082    65.1921     2.3435
 5032.0000    38.9651     1.3700  -999.2500  -999.2500     1.2094  -999.2500   -51.1307    13.1477      .0100    63.1658     2.3590
 5032.5000    38.5587     1.4083  -999.2500  -999.2500     1.2287  -999.2500   -50.9272    13.1443      .0116    61.4675     2.3683
 5033.0000    37.6245     1.4346  -999.2500  -999.2500     1.2481  -999.2500   -50.7236    13.1508      .0101    60.4893     2.3705
 5033.5000    36.0135     1.4329  -999.2500  -999.2500     1.2675  -999.2500   -51.1274    13.1261      .0073    59.9537     2.3671
 5034.0000    35.5501     1.4234  -999.2500  -999.2500     1.2869  -999.2500   -51.9706    13.0868      .0066    61.4490     2.3628
 5034.5000    35.9117     1.4139  -999.2500  -999.2500     1.3058  -999.2500   -51.4457    13.0322      .0083    66.4775     2.3582
 5035.0000    36.5994     1.4051  -999.2500  -999.2500     1.3238  -999.2500   -53.0190    12.9853      .0126    68.6378     2.3561
 5035.5000    36.6866     1.3989  -999.2500  -999.2500     1.3418  -999.2500   -52.9290    12.9521      .0165    68.6403     2.3521
 5036.0000    36.6400     1.4361  -999.2500  -999.2500     1.3598  -999.2500   -52.7142    12.9189      .0084    66.2539     2.3454
 5036.5000    36.0932     1.4981  -999.2500  -999.2500     1.3778  -999.2500   -52.4991    12.9011     -.0011    64.0321     2.3386
 5037.0000    35.0520     1.5544  -999.2500  -999.2500     1.3957  -999.2500   -52.6379    12.8840     -.0085    62.6976     2.3493
 5037.5000    33.2322     1.6097  -999.2500  -999.2500     1.4136  -999.2500   -53.2801    12.8641     -.0051    62.4186     2.3614
 5038.0000    32.2704     1.6524  -999.2500  -999.2500     1.4266  -999.2500   -53.9224    12.8436     -.0019    62.5394     2.3654
 5038.5000    33.8566     1.6314  -999.2500  -999.2500     1.4397  -999.2500   -53.8615    12.8399      .0014    62.8404     2.3659
 5039.0000    36.0910     1.5815  -999.2500  -999.2500     1.4527  -999.2500   -53.3178    12.8382      .0048    62.5427     2.3649
 5039.5000    37.9307     1.5315  -999.2500  -999.2500     1.4658  -999.2500   -52.2129    12.8368      .0091    62.1629     2.3651
 5040.0000    38.9305     1.4900  -999.2500  -999.2500     1.4561  -999.2500   -52.2625    12.8664      .0137    62.1594     2.3621
 5040.5000    39.3936     1.4585  -999.2500  -999.2500     1.4372  -999.2500   -52.5384    12.8961      .0163    62.1558     2.3525
 5041.0000    39.1999     1.4271  -999.2500  -999.2500     1.4183  -999.2500   -52.8146    12.9345      .0080    62.2409     2.3358
 5041.5000    37.8000     1.4176  -999.2500  -999.2500     1.3994  -999.2500   -53.0905    12.9818     -.0007    62.3836     2.3233
 5042.0000    37.0776     1.4261  -999.2500  -999.2500     1.3805  -999.2500   -53.3665    13.0190     -.0062    62.5020     2.3168
 5042.5000    37.0769     1.4347  -999.2500  -999.2500     1.3980  -999.2500   -53.6423    13.0367     -.0061    62.1901     2.3144
