~VERSION INFORMATION
VERS.                             2.0:   CWLS Log ASCII Standard-VERSION 2.0
WRAP.                              NO:   One line per depth step
~Well Information Block
STRT.F                      1238.0000:   Top Depth
STOP.F                      5786.0000:   Bottom Depth
STEP.F                         .50000:   Depth Increment
NULL.                        -999.250:   Null Value
FLD .                     MU BLK A 18:   Field Name
WELL.       OCSG05167   001 ST00 BP00:   NAME
API .                    427024015100:   WELL API
R1  .            STANDARD OIL PROD CO:   COMMENT  1
EDF .F                       884.0000:   ELEV DRILL FLOOR
COMP.            STANDARD OIL PROD CO:   OPERATOR
BN  .                            A 18:   BLOCK
CTRY.                             USA:   COUNTRY NAME
CNTY.                        MG ILD L:   COUNTY NAME
EKB .F                        85.0000:   ELEV KELLY BUSHING
TDD .F                       5792.000:   FINAL TD DRILLER
STAT.                           TEXAS:   STATE NAME
UWI .                    427024015100:   WELL API
DICO.               IHS : Digitizing Company
~PARAMETER INFORMATION (zones)
#MNEM.UNIT                       Value     Description
#=========                       =====     ===========
#ZONATION                          CNL:   ZONATION NAME
#ZONE                            RUN_0:   ZONE NAME
TOP .                       3294.0000:   TOP DEPTH
BOT .                       5786.5000:   BOTTOM DEPTH
RUN .                               0:   RUN NUMBER
LCCD.                             440:   LOGGING CONTRACTOR
SRVC.                    Schlumberger:   LOGGING CONT NAME
DICO.          QC Data Collectors Ltd:   DIG COMPANY NAME
LDAT.                      11/28/1987:   DATE LOGGED
ELD .F                        85.0000:   LOG DATUM ELEVATION
TDD .F                      5785.0000:   TOTAL DEPTH DRILLER
TDL .F                      5792.0000:   TOTAL DEPTH LOGGER
BOTL.F                      5786.0000:   BOTTOM DEPTH LOGGED
TOPL.F                      3300.0000:   TOP DEPTH LOGGED
CS1 .IN                       10.7500:   CASING SIZE 1
BS1 .IN                        9.8750:   BIT SIZE 1
DDB1.F                      5785.0000:   DEPTH DRILLED BIT 1
BHF .                              81:   FLUID CODE
DPT .          Lignosulfonate (Ligno):   DRILLING FLUID TYPE
MUDD.                         11.0000:   FLUID DENSITY
MUDV.                         41.0000:   FLUID VISCOSITY
DFPH.                         10.0000:   FLUID PH
FL  .                         10.0000:   FLUID LOSS
RM  .OHMM                       .9400:   RM
~PARAMETER INFORMATION (zones)
#MNEM.UNIT                       Value     Description
#=========                       =====     ===========
#ZONATION                          DIL:   ZONATION NAME
#ZONE                            RUN_1:   ZONE NAME
TOP .                       1238.0000:   TOP DEPTH
BOT .                       5786.5000:   BOTTOM DEPTH
RUN .                               1:   RUN NUMBER
LCCD.                             440:   LOGGING CONTRACTOR
SRVC.                    Schlumberger:   LOGGING CONT NAME
DICO.          QC Data Collectors Ltd:   DIG COMPANY NAME
LDAT.                      11/23/1987:   DATE LOGGED
ELD .F                        85.0000:   LOG DATUM ELEVATION
TDD .F                      3540.0000:   TOTAL DEPTH DRILLER
TDL .F                      3539.0000:   TOTAL DEPTH LOGGER
BOTL.F                      3533.0000:   BOTTOM DEPTH LOGGED
TOPL.F                      1294.0000:   TOP DEPTH LOGGED
CS1 .IN                       16.0000:   CASING SIZE 1
BS1 .IN                       13.5000:   BIT SIZE 1
DDB1.F                      3540.0000:   DEPTH DRILLED BIT 1
BHF .                              81:   FLUID CODE
DPT .          Lignosulfonate (Ligno):   DRILLING FLUID TYPE
MUDV.                         38.0000:   FLUID VISCOSITY
DFPH.                          8.0000:   FLUID PH
FL  .                         29.2000:   FLUID LOSS
RMF .OHMM                       .2400:   RMF
FSC .                               C:   RMF CODE
TMAX.DEGF                    120.0000:   MAX REC TEMP
TIMC.                          4.0000:   TIME SINCE CIRCLN
~PARAMETER INFORMATION (zones)
#MNEM.UNIT                       Value     Description
#=========                       =====     ===========
#ZONATION                          FDC:   ZONATION NAME
#ZONE                            RUN_0:   ZONE NAME
TOP .                       3294.0000:   TOP DEPTH
BOT .                       5786.5000:   BOTTOM DEPTH
RUN .                               0:   RUN NUMBER
LCCD.                             440:   LOGGING CONTRACTOR
SRVC.                    Schlumberger:   LOGGING CONT NAME
DICO.          QC Data Collectors Ltd:   DIG COMPANY NAME
LDAT.                      11/28/1987:   DATE LOGGED
ELD .F                        85.0000:   LOG DATUM ELEVATION
TDD .F                      5785.0000:   TOTAL DEPTH DRILLER
TDL .F                      5792.0000:   TOTAL DEPTH LOGGER
BOTL.F                      5786.0000:   BOTTOM DEPTH LOGGED
TOPL.F                      3300.0000:   TOP DEPTH LOGGED
CS1 .IN                       10.7500:   CASING SIZE 1
BS1 .IN                        9.8750:   BIT SIZE 1
DDB1.F                      5785.0000:   DEPTH DRILLED BIT 1
BHF .                              81:   FLUID CODE
DPT .          Lignosulfonate (Ligno):   DRILLING FLUID TYPE
MUDD.                         11.0000:   FLUID DENSITY
MUDV.                         41.0000:   FLUID VISCOSITY
DFPH.                         10.0000:   FLUID PH
FL  .                         10.0000:   FLUID LOSS
RM  .OHMM                       .9400:   RM
~Curve Information Block
#MNEM.UNIT                    API CODE    No Description
#=========                    ========    == ===========
DEPT.F                   00 001 00 00:     1  DEPTH
NPHI.DEC                              :     2  Neutron Porosity
DT.US/F                              :     3  Sonic Transit Time
GR.GAPI                              :     4  Gamma Ray
ILD.OHMM                             :     5  Deep Induction Resistivity
ILM.OHMM                             :     6  Medium Induction Resistivity
SFL.OHMM                             :     7  Medium Resistivity
SP.MV                                :     8  Spontaneous Potential
CALI.IN                              :     9  Caliper
DPHI.DEC                              :    10  Porosity
DRHO.G/C3                            :    11  Bulk Density Correction
GR.GAPI                              :    12  Gamma Ray
~ASCII
# ...
 3769.5000      .4822   127.1431  -999.2500     1.0611     1.0592     1.2080   -66.8005    10.4716      .3014      .0193    69.5764
 3770.0000      .4882   127.0425  -999.2500     1.0732     1.0692     1.2201   -66.9884    10.5367      .2971      .0229    68.1145
 3770.5000      .4877   127.1608  -999.2500     1.0886     1.0803     1.2358   -67.1271    10.4777      .2997      .0132    67.7996
 3771.0000      .4645   127.1437  -999.2500     1.1071     1.0932     1.2524   -67.2056    10.4445      .3030      .0043    68.6031
 3771.5000      .4383   126.7933  -999.2500     1.1239     1.1117     1.2528   -67.2197    10.4851      .3070     -.0021    68.8826
 3772.0000      .4263   127.6031  -999.2500     1.1419     1.1284     1.2590   -67.2817    10.7778      .3057     -.0056    65.8561
 3772.5000      .4334   132.7500  -999.2500     1.1608     1.1549     1.2789   -67.3539    11.0171      .3004     -.0015    63.1411
 3773.0000      .4459   132.6416  -999.2500     1.1821     1.1864     1.3178   -67.4183    10.9614      .2969      .0029    61.4614
 3773.5000      .4406   127.7573  -999.2500     1.2063     1.2220     1.3659   -67.4774    10.8447      .2973      .0076    61.2313
 3774.0000      .4115   122.8561  -999.2500     1.2354     1.2575     1.3973   -67.4226    10.7150      .2974      .0068    61.6251
 3774.5000      .3691   121.5470  -999.2500     1.2697     1.2743     1.3983   -68.1814    10.3909      .2887      .0017    62.0522
 3775.0000      .3428   120.1122  -999.2500     1.2941     1.3102     1.5151   -69.3101    10.1190      .2769     -.0026    62.7139
 3775.5000      .3789   119.3770  -999.2500     1.2698     1.3311     1.7459   -70.3007    10.0488      .2733     -.0059    64.1161
 3776.0000      .4220   121.9938  -999.2500     1.2234     1.3006     1.9155   -70.8796    10.2112      .2862     -.0045    66.7865
 3776.5000      .4326   124.3264  -999.2500     1.1990     1.2470     1.8413   -70.5278    10.4216      .2997      .0028    68.0319
 3777.0000      .4177   125.4064  -999.2500     1.2012     1.1795     1.4870   -69.8759    10.6645      .3025      .0097    68.6638
 3777.5000      .4082   124.9231  -999.2500     1.2011     1.1427     1.2378   -69.1603    10.8883      .2956      .0131    69.5836
 3778.0000      .4058   124.5413  -999.2500     1.1737     1.1428     1.1835   -68.6364    10.8297      .2900      .0055    71.6785
 3778.5000      .4069   124.4469  -999.2500     1.1420     1.1418     1.1926   -68.3375    10.8093      .2844     -.0010    72.9817
 3779.0000      .4169   124.3843  -999.2500     1.1239     1.1328     1.2209   -68.1608    10.7968      .2793     -.0031    73.6224
 3779.5000      .4307   126.4664  -999.2500     1.1229     1.1318     1.2272   -68.0690    10.7023      .2765     -.0036    72.9564
 3780.0000      .4407   132.0732  -999.2500     1.1393     1.1386     1.2380   -68.0985    10.5798      .2755     -.0043    70.1569
 3780.5000      .4366   131.8926  -999.2500     1.1593     1.1476     1.2832   -68.2135    10.6711      .2755     -.0043    67.4272
 3781.0000      .4270   128.1763  -999.2500     1.1715     1.1641     1.3238   -68.4585    10.7626      .2785     -.0030    65.8193
 3781.5000      .4229   127.1077  -999.2500     1.1762     1.1727     1.3485   -68.7347    10.7384      .2827     -.0008    66.5175
 3782.0000      .4292   128.4062  -999.2500     1.1742     1.1679     1.3584   -68.8555    10.5955      .2848      .0016    69.3242
 3782.5000      .4401   128.8406  -999.2500     1.1631     1.1578     1.3501   -68.8635    10.5024      .2825      .0046    71.7086
 3783.0000      .4493   128.0452  -999.2500     1.1547     1.1483     1.3039   -68.8232    10.5579      .2763      .0085    73.2137
 3783.5000      .4443   126.9143  -999.2500     1.1453     1.1461     1.2297   -68.7408    10.8600      .2720      .0110    73.7889
 3784.0000      .4317   125.6240  -999.2500     1.1385     1.1394     1.1488   -68.5103    11.2078      .2766      .0084    71.5228
 3784.5000      .4200   124.2855  -999.2500     1.1360     1.1324     1.1257   -68.2086    11.3038      .2806      .0066    69.4460
 3785.0000      .4114   122.6736  -999.2500     1.1335     1.1246     1.1706   -67.8174    11.0480      .2804      .0062    67.8544
 3785.5000      .4071   121.6073  -999.2500     1.1323     1.1214     1.2519   -67.4136    10.7760      .2727      .0097    67.8824
 3786.0000      .4217   121.0166  -999.2500     1.1384     1.1315     1.3031   -67.0654    10.6102      .2614      .0147    67.8412
 3786.5000      .4390   121.5109  -999.2500     1.1476     1.1433     1.3364   -66.9744    10.4146      .2541      .0171    66.8444
 3787.0000      .4547   122.1787  -999.2500     1.1531     1.1545     1.3270   -66.9189    10.4129      .2556      .0181    65.2516
 3787.5000      .4543   122.7534  -999.2500     1.1580     1.1626     1.2966   -66.9021    10.4073      .2649      .0196    64.3055
 3788.0000      .4309   123.1106  -999.2500     1.1589     1.1673     1.2597   -66.8411    10.4171      .2767      .0210    67.7797
 3788.5000      .4140   123.2047  -999.2500     1.1621     1.1689     1.2494   -66.7786    10.4164      .2871      .0220    71.0088
 3789.0000      .4097   123.0112  -999.2500     1.1662     1.1669     1.2572   -66.7203    10.4301      .2911      .0224    73.7565
 3789.5000      .4272   122.4767  -999.2500     1.1702     1.1669     1.2770   -66.7013    10.4930      .2883      .0226    76.3254
 3790.0000      .4395   122.1235  -999.2500     1.1730     1.1671     1.2989   -66.7095    10.5843      .2829      .0198    76.8915
 3790.5000      .4432   122.7699  -999.2500     1.1696     1.1650     1.3080   -66.7175    10.6127      .2772      .0135    75.6281
 3791.0000      .4402   123.4600  -999.2500     1.1663     1.1628     1.2876   -66.6819    10.6010      .2753      .0076    73.2749
 3791.5000      .4331   123.8684  -999.2500     1.1636     1.1626     1.2723   -66.6183    10.6095      .2739      .0035    71.0980
 3792.0000      .4235   123.0078  -999.2500     1.1630     1.1647     1.2563   -66.5342    10.6277      .2701      .0010    71.6169
 3792.5000      .4079   121.4531  -999.2500     1.1624     1.1666     1.2617   -66.4352    10.6432      .2582     -.0002    73.7094
 3793.0000      .3977   119.8870  -999.2500     1.1600     1.1658     1.3057   -66.3383    10.6511      .2509      .0004    74.8081
 3793.5000      .3929   119.6859  -999.2500     1.1493     1.1619     1.3222   -66.2346    10.6455      .2452      .0037    74.6669
 3794.0000      .3864   120.5547  -999.2500     1.1431     1.1575     1.3188   -66.1040    10.6425      .2397      .0075    72.8804
 3794.5000      .3776   122.3202  -999.2500     1.1402     1.1528     1.3095   -65.9846    10.6876      .2390      .0110    70.9575
 3795.0000      .3741   124.6010  -999.2500     1.1354     1.1474     1.2967   -65.8744    10.7225      .2460      .0089    70.0289
 3795.5000      .3993   126.2876  -999.2500     1.1239     1.1409     1.2793   -65.7329    10.7173      .2572      .0054    70.3041
 3796.0000      .4108   127.7778  -999.2500     1.1098     1.1332     1.2567   -65.6136    10.7087      .2679      .0035    71.4546
 3796.5000      .4185   128.3840  -999.2500     1.0984     1.1221     1.2303   -65.5221    10.7098      .2740      .0035    71.7002
 3797.0000      .4242   127.6978  -999.2500     1.0931     1.1116     1.2062   -65.3508    10.7720      .2728      .0035    70.5803
 3797.5000      .4195   126.7952  -999.2500     1.0906     1.1048     1.1880   -65.1600    10.9099      .2663     -.0001    69.6162
 3798.0000      .3980   126.1172  -999.2500     1.0905     1.0972     1.2023   -65.0232    10.9278      .2583     -.0051    69.5121
 3798.5000      .3820   125.9545  -999.2500     1.0824     1.0868     1.2385   -64.9692    10.7759      .2522     -.0066    69.9258
 3799.0000      .3752   126.2999  -999.2500     1.0661     1.0653     1.2648   -65.0730    10.6877      .2477     -.0041    70.2262
 3799.5000      .4011   127.1438  -999.2500     1.0549     1.0537     1.2600   -65.2692    10.6489      .2445     -.0014    70.6877
