~VERSION INFORMATION
VERS.                             2.0:   CWLS Log ASCII Standard-VERSION 2.0
WRAP.                              NO:   One line per depth step
~Well Information Block
STRT.F                      1238.0000:   Top Depth
STOP.F                      5786.0000:   Bottom Depth
STEP.F                         .50000:   Depth Increment
NULL.                        -999.250:   Null Value
FLD .                     MU BLK A 18:   Field Name
WELL.       OCSG05167   001 ST00 BP00:   NAME
API .                    427024015100:   WELL API
R1  .            STANDARD OIL PROD CO:   COMMENT  1
EDF .F                       884.0000:   ELEV DRILL FLOOR
COMP.            STANDARD OIL PROD CO:   OPERATOR
BN  .                            A 18:   BLOCK
CTRY.                             USA:   COUNTRY NAME
CNTY.                        MG ILD L:   COUNTY NAME
EKB .F                        85.0000:   ELEV KELLY BUSHING
TDD .F                       5792.000:   FINAL TD DRILLER
STAT.                           TEXAS:   STATE NAME
UWI .                    427024015100:   WELL API
DICO.               IHS : Digitizing Company
~PARAMETER INFORMATION (zones)
#MNEM.UNIT                       Value     Description
#=========                       =====     ===========
#ZONATION                          CNL:   ZONATION NAME
#ZONE                            RUN_0:   ZONE NAME
TOP .                       3294.0000:   TOP DEPTH
BOT .                       5786.5000:   BOTTOM DEPTH
RUN .                               0:   RUN NUMBER
LCCD.                             440:   LOGGING CONTRACTOR
SRVC.                    Schlumberger:   LOGGING CONT NAME
DICO.          QC Data Collectors Ltd:   DIG COMPANY NAME
LDAT.                      11/28/1987:   DATE LOGGED
ELD .F                        85.0000:   LOG DATUM ELEVATION
TDD .F                      5785.0000:   TOTAL DEPTH DRILLER
TDL .F                      5792.0000:   TOTAL DEPTH LOGGER
BOTL.F                      5786.0000:   BOTTOM DEPTH LOGGED
TOPL.F                      3300.0000:   TOP DEPTH LOGGED
CS1 .IN                       10.7500:   CASING SIZE 1
BS1 .IN                        9.8750:   BIT SIZE 1
DDB1.F                      5785.0000:   DEPTH DRILLED BIT 1
BHF .                              81:   FLUID CODE
DPT .          Lignosulfonate (Ligno):   DRILLING FLUID TYPE
MUDD.                         11.0000:   FLUID DENSITY
MUDV.                         41.0000:   FLUID VISCOSITY
DFPH.                         10.0000:   FLUID PH
FL  .                         10.0000:   FLUID LOSS
RM  .OHMM                       .9400:   RM
~PARAMETER INFORMATION (zones)
#MNEM.UNIT                       Value     Description
#=========                       =====     ===========
#ZONATION                          DIL:   ZONATION NAME
#ZONE                            RUN_1:   ZONE NAME
TOP .                       1238.0000:   TOP DEPTH
BOT .                       5786.5000:   BOTTOM DEPTH
RUN .                               1:   RUN NUMBER
LCCD.                             440:   LOGGING CONTRACTOR
SRVC.                    Schlumberger:   LOGGING CONT NAME
DICO.          QC Data Collectors Ltd:   DIG COMPANY NAME
LDAT.                      11/23/1987:   DATE LOGGED
ELD .F                        85.0000:   LOG DATUM ELEVATION
TDD .F                      3540.0000:   TOTAL DEPTH DRILLER
TDL .F                      3539.0000:   TOTAL DEPTH LOGGER
BOTL.F                      3533.0000:   BOTTOM DEPTH LOGGED
TOPL.F                      1294.0000:   TOP DEPTH LOGGED
CS1 .IN                       16.0000:   CASING SIZE 1
BS1 .IN                       13.5000:   BIT SIZE 1
DDB1.F                      3540.0000:   DEPTH DRILLED BIT 1
BHF .                              81:   FLUID CODE
DPT .          Lignosulfonate (Ligno):   DRILLING FLUID TYPE
MUDV.                         38.0000:   FLUID VISCOSITY
DFPH.                          8.0000:   FLUID PH
FL  .                         29.2000:   FLUID LOSS
RMF .OHMM                       .2400:   RMF
FSC .                               C:   RMF CODE
TMAX.DEGF                    120.0000:   MAX REC TEMP
TIMC.                          4.0000:   TIME SINCE CIRCLN
~PARAMETER INFORMATION (zones)
#MNEM.UNIT                       Value     Description
#=========                       =====     ===========
#ZONATION                          FDC:   ZONATION NAME
#ZONE                            RUN_0:   ZONE NAME
TOP .                       3294.0000:   TOP DEPTH
BOT .                       5786.5000:   BOTTOM DEPTH
RUN .                               0:   RUN NUMBER
LCCD.                             440:   LOGGING CONTRACTOR
SRVC.                    Schlumberger:   LOGGING CONT NAME
DICO.          QC Data Collectors Ltd:   DIG COMPANY NAME
LDAT.                      11/28/1987:   DATE LOGGED
ELD .F                        85.0000:   LOG DATUM ELEVATION
TDD .F                      5785.0000:   TOTAL DEPTH DRILLER
TDL .F                      5792.0000:   TOTAL DEPTH LOGGER
BOTL.F                      5786.0000:   BOTTOM DEPTH LOGGED
TOPL.F                      3300.0000:   TOP DEPTH LOGGED
CS1 .IN                       10.7500:   CASING SIZE 1
BS1 .IN                        9.8750:   BIT SIZE 1
DDB1.F                      5785.0000:   DEPTH DRILLED BIT 1
BHF .                              81:   FLUID CODE
DPT .          Lignosulfonate (Ligno):   DRILLING FLUID TYPE
MUDD.                         11.0000:   FLUID DENSITY
MUDV.                         41.0000:   FLUID VISCOSITY
DFPH.                         10.0000:   FLUID PH
FL  .                         10.0000:   FLUID LOSS
RM  .OHMM                       .9400:   RM
~Curve Information Block
#MNEM.UNIT                    API CODE    No Description
#=========                    ========    == ===========
DEPT.F                   00 001 00 00:     1  DEPTH
NPHI.DEC                              :     2  Neutron Porosity
DT.US/F                              :     3  Sonic Transit Time
GR.GAPI                              :     4  Gamma Ray
ILD.OHMM                             :     5  Deep Induction Resistivity
ILM.OHMM                             :     6  Medium Induction Resistivity
SFL.OHMM                             :     7  Medium Resistivity
SP.MV                                :     8  Spontaneous Potential
CALI.IN                              :     9  Caliper
DPHI.DEC                              :    10  Porosity
DRHO.G/C3                            :    11  Bulk Density Correction
GR.GAPI                              :    12  Gamma Ray
~ASCII
# ...
 5264.0000      .3593   102.3475  -999.2500     1.1988     1.2737     1.9327   -60.1379     9.9895      .1968      .0165    58.2890
 5264.5000      .3802   105.8831  -999.2500     1.0908     1.1057     1.8388   -63.9319     9.8801      .2113      .0043    55.4226
 5265.0000      .3767   106.9584  -999.2500      .9719      .9676     1.3619   -69.9122     9.8303      .2440     -.0051    52.6266
 5265.5000      .3703   107.2133  -999.2500      .8589      .8643     1.1066   -73.3591     9.8132      .2697     -.0104    50.6311
 5266.0000      .3630   107.4738  -999.2500      .7712      .7679     1.0094   -75.9985     9.8418      .2837     -.0131    52.5902
 5266.5000      .3656   107.6105  -999.2500      .6941      .7253     1.0626   -76.7703     9.9020      .2884     -.0125    54.2360
 5267.0000      .3674   107.4871  -999.2500      .6332      .6863     1.1173   -76.6118     9.9397      .2793     -.0110    54.0186
 5267.5000      .3692   106.2971  -999.2500      .5791      .6538     1.0892   -77.0603     9.9636      .2710     -.0085    51.6647
 5268.0000      .3718   104.6335  -999.2500      .5428      .6323     1.0671   -78.4908     9.9855      .2763     -.0083    48.9793
 5268.5000      .3739   103.6221  -999.2500      .5224      .6161     1.0563   -80.6940     9.9961      .2894     -.0104    47.5637
 5269.0000      .3696   103.5116  -999.2500      .5103      .6023     1.0616   -82.0920     9.9964      .3009     -.0122    47.0994
 5269.5000      .3647   104.4434  -999.2500      .5064      .5926     1.0412   -82.1987     9.9946      .3000     -.0133    48.3574
 5270.0000      .3667   105.6038  -999.2500      .5131      .5872     1.0206   -81.4027     9.9949      .2863     -.0134    48.7813
 5270.5000      .3743   106.8329  -999.2500      .5250      .5921      .9925   -77.7244    10.0264      .2674     -.0113    49.0333
 5271.0000      .3743   108.0210  -999.2500      .5400      .6072      .9607   -73.6941    10.0795      .2559     -.0063    50.0359
 5271.5000      .3684   108.4438  -999.2500      .5584      .6314      .9417   -72.2810    10.1341      .2513     -.0003    51.8469
 5272.0000      .3649   107.4841  -999.2500      .5823      .6722     1.0098   -72.3033    10.1021      .2521      .0024    53.0700
 5272.5000      .3638   106.2008  -999.2500      .6162      .7066     1.1082   -73.5543     9.9894      .2487     -.0002    51.9319
 5273.0000      .3614   105.3702  -999.2500      .6531      .7364     1.2129   -74.8523     9.9240      .2418     -.0028    50.9372
 5273.5000      .3564   105.8529  -999.2500      .6935      .7494     1.2757   -76.0841     9.8889      .2487     -.0061    50.5470
 5274.0000      .3480   107.0372  -999.2500      .7402      .7590     1.2827   -76.8325     9.8657      .2653     -.0075    52.2404
 5274.5000      .3452   107.2787  -999.2500      .7859      .7821     1.2771   -76.9772     9.8765      .2759     -.0072    55.9959
 5275.0000      .3487   105.8313  -999.2500      .8391      .8313     1.2746   -74.2726     9.9436      .2800     -.0086    60.2299
 5275.5000      .3465   103.0386  -999.2500      .9046      .8886     1.2812   -70.0303    10.0147      .2706     -.0044    64.0219
 5276.0000      .3339    99.6559  -999.2500      .9840      .9623     1.3253   -63.8548    10.1093      .2444      .0037    64.3910
 5276.5000      .3152    95.9435  -999.2500     1.0898     1.0501     1.3974   -56.1608    10.2323      .2213      .0125    62.1927
 5277.0000      .2957    93.1615  -999.2500     1.2086     1.1504     1.4937   -52.6126    10.2838      .1854      .0200    57.7181
 5277.5000      .2805    92.7346  -999.2500     1.3056     1.2593     1.6708   -50.7759    10.2470      .1719      .0269    54.4862
 5278.0000      .2897    94.2148  -999.2500     1.4084     1.3828     1.8485   -50.7653    10.2234      .1674      .0194    53.2097
 5278.5000      .3045    97.2002  -999.2500     1.4912     1.4643     1.9838   -51.0820    10.2155      .1766      .0094    55.0339
 5279.0000      .3258    99.9929  -999.2500     1.5125     1.4843     2.0054   -51.3953    10.2218      .1916      .0029    57.4753
 5279.5000      .3365   101.7626  -999.2500     1.5135     1.4985     1.8427   -51.4988    10.2762      .1986      .0114    60.1619
 5280.0000      .3470   102.5946  -999.2500     1.5055     1.4934     1.7081   -51.3423    10.3378      .1977      .0204    62.3372
 5280.5000      .3516   102.7997  -999.2500     1.4656     1.4593     1.6721   -50.8729    10.4003      .2122      .0258    63.6623
 5281.0000      .3530   103.3485  -999.2500     1.4126     1.4075     1.7132   -50.1883    10.4814      .2258      .0271    63.2651
 5281.5000      .3532   104.0347  -999.2500     1.3732     1.3651     1.6995   -49.5471    10.5591      .2385      .0282    62.2692
 5282.0000      .3590   103.8553  -999.2500     1.3427     1.3349     1.6464   -49.0226    10.6421      .2456      .0297    61.8268
 5282.5000      .3613   102.9698  -999.2500     1.3226     1.3287     1.6328   -48.8513    10.7119      .2517      .0229    61.2064
 5283.0000      .3539   101.6614  -999.2500     1.3162     1.3469     1.6139   -48.9014    10.7700      .2624      .0116    60.1680
 5283.5000      .3256   100.3108  -999.2500     1.3266     1.3269     1.5601   -49.0361    10.8195      .2647      .0075    59.0445
 5284.0000      .3032   106.3345  -999.2500     1.3704     1.3526     1.5065   -49.8840    10.8437      .2468      .0055    57.8870
 5284.5000      .2825   122.6866  -999.2500     1.4254     1.3984     1.5470   -50.9759    10.6872      .2146      .0033    56.7902
 5285.0000      .2737   130.2271  -999.2500     1.4716     1.5617     1.7757   -52.1016    10.4885      .1973      .0019    55.3254
 5285.5000      .2830   134.4524  -999.2500     1.4923     1.6205     2.1407   -53.0941    10.3160      .1837      .0019    54.1844
 5286.0000      .2987   128.1853  -999.2500     1.4907     1.6042     2.3747   -52.7090    10.2715      .1812      .0088    55.5514
 5286.5000      .3239   114.9150  -999.2500     1.4829     1.5786     2.3607   -51.6641    10.2855      .1995      .0224    57.5262
 5287.0000      .3470   107.3950  -999.2500     1.4859     1.5486     2.1979   -50.7017    10.4244      .2288      .0384    59.5230
 5287.5000      .3645   118.0737  -999.2500     1.4829     1.5096     1.9133   -49.8967    10.5909      .2465      .0514    60.8828
 5288.0000      .3751   120.5343  -999.2500     1.4552     1.4546     1.7056   -49.2199    10.7723      .2572      .0591    61.6826
 5288.5000      .3693   113.4849  -999.2500     1.4254     1.4062     1.5974   -48.4227    10.8719      .2488      .0607    61.4524
 5289.0000      .3515   106.8738  -999.2500     1.4102     1.3950     1.5038   -47.8725    10.8099      .2257      .0567    60.6690
 5289.5000      .3335   102.6268  -999.2500     1.4267     1.4620     1.4554   -47.4537    10.6993      .2078      .0530    60.2087
 5290.0000      .3191   100.0387  -999.2500     1.4510     1.5008     1.5414   -47.2010    10.4948      .1902      .0498    60.3234
 5290.5000      .3283    98.8976  -999.2500     1.4687     1.5667     1.8104   -47.0801    10.3814      .1875      .0460    60.6854
 5291.0000      .3386    99.3525  -999.2500     1.4843     1.6236     2.0899   -47.2072    10.3743      .1889      .0429    60.9471
 5291.5000      .3321   100.0699  -999.2500     1.5193     1.6150     2.2857   -47.3119    10.4507      .1779      .0511    61.3157
 5292.0000      .3261   101.4375  -999.2500     1.5455     1.6105     2.1425   -47.1599    10.5116      .1690      .0566    63.1279
 5292.5000      .3260   102.6593  -999.2500     1.5460     1.6064     2.0073   -46.7487    10.5457      .1635      .0565    64.7129
 5293.0000      .3372   103.6248  -999.2500     1.5183     1.5692     1.8799   -46.2750    10.5785      .1655      .0523    65.3784
 5293.5000      .3497   104.7864  -999.2500     1.4662     1.5099     1.7717   -45.9499    10.6431      .1658      .0495    64.2817
 5294.0000      .3606   105.7639  -999.2500     1.4309     1.4647     1.7092   -45.7098    10.7406      .1619      .0511    63.7831
