~VERSION INFORMATION
VERS.                             2.0:   CWLS Log ASCII Standard-VERSION 2.0
WRAP.                              NO:   One line per depth step
~Well Information Block
STRT.F                      1238.0000:   Top Depth
STOP.F                      5786.0000:   Bottom Depth
STEP.F                         .50000:   Depth Increment
NULL.                        -999.250:   Null Value
FLD .                     MU BLK A 18:   Field Name
WELL.       OCSG05167   001 ST00 BP00:   NAME
API .                    427024015100:   WELL API
R1  .            STANDARD OIL PROD CO:   COMMENT  1
EDF .F                       884.0000:   ELEV DRILL FLOOR
COMP.            STANDARD OIL PROD CO:   OPERATOR
BN  .                            A 18:   BLOCK
CTRY.                             USA:   COUNTRY NAME
CNTY.                        MG ILD L:   COUNTY NAME
EKB .F                        85.0000:   ELEV KELLY BUSHING
TDD .F                       5792.000:   FINAL TD DRILLER
STAT.                           TEXAS:   STATE NAME
UWI .                    427024015100:   WELL API
DICO.               IHS : Digitizing Company
~PARAMETER INFORMATION (zones)
#MNEM.UNIT                       Value     Description
#=========                       =====     ===========
#ZONATION                          CNL:   ZONATION NAME
#ZONE                            RUN_0:   ZONE NAME
TOP .                       3294.0000:   TOP DEPTH
BOT .                       5786.5000:   BOTTOM DEPTH
RUN .                               0:   RUN NUMBER
LCCD.                             440:   LOGGING CONTRACTOR
SRVC.                    Schlumberger:   LOGGING CONT NAME
DICO.          QC Data Collectors Ltd:   DIG COMPANY NAME
LDAT.                      11/28/1987:   DATE LOGGED
ELD .F                        85.0000:   LOG DATUM ELEVATION
TDD .F                      5785.0000:   TOTAL DEPTH DRILLER
TDL .F                      5792.0000:   TOTAL DEPTH LOGGER
BOTL.F                      5786.0000:   BOTTOM DEPTH LOGGED
TOPL.F                      3300.0000:   TOP DEPTH LOGGED
CS1 .IN                       10.7500:   CASING SIZE 1
BS1 .IN                        9.8750:   BIT SIZE 1
DDB1.F                      5785.0000:   DEPTH DRILLED BIT 1
BHF .                              81:   FLUID CODE
DPT .          Lignosulfonate (Ligno):   DRILLING FLUID TYPE
MUDD.                         11.0000:   FLUID DENSITY
MUDV.                         41.0000:   FLUID VISCOSITY
DFPH.                         10.0000:   FLUID PH
FL  .                         10.0000:   FLUID LOSS
RM  .OHMM                       .9400:   RM
~PARAMETER INFORMATION (zones)
#MNEM.UNIT                       Value     Description
#=========                       =====     ===========
#ZONATION                          DIL:   ZONATION NAME
#ZONE                            RUN_1:   ZONE NAME
TOP .                       1238.0000:   TOP DEPTH
BOT .                       5786.5000:   BOTTOM DEPTH
RUN .                               1:   RUN NUMBER
LCCD.                             440:   LOGGING CONTRACTOR
SRVC.                    Schlumberger:   LOGGING CONT NAME
DICO.          QC Data Collectors Ltd:   DIG COMPANY NAME
LDAT.                      11/23/1987:   DATE LOGGED
ELD .F                        85.0000:   LOG DATUM ELEVATION
TDD .F                      3540.0000:   TOTAL DEPTH DRILLER
TDL .F                      3539.0000:   TOTAL DEPTH LOGGER
BOTL.F                      3533.0000:   BOTTOM DEPTH LOGGED
TOPL.F                      1294.0000:   TOP DEPTH LOGGED
CS1 .IN                       16.0000:   CASING SIZE 1
BS1 .IN                       13.5000:   BIT SIZE 1
DDB1.F                      3540.0000:   DEPTH DRILLED BIT 1
BHF .                              81:   FLUID CODE
DPT .          Lignosulfonate (Ligno):   DRILLING FLUID TYPE
MUDV.                         38.0000:   FLUID VISCOSITY
DFPH.                          8.0000:   FLUID PH
FL  .                         29.2000:   FLUID LOSS
RMF .OHMM                       .2400:   RMF
FSC .                               C:   RMF CODE
TMAX.DEGF                    120.0000:   MAX REC TEMP
TIMC.                          4.0000:   TIME SINCE CIRCLN
~PARAMETER INFORMATION (zones)
#MNEM.UNIT                       Value     Description
#=========                       =====     ===========
#ZONATION                          FDC:   ZONATION NAME
#ZONE                            RUN_0:   ZONE NAME
TOP .                       3294.0000:   TOP DEPTH
BOT .                       5786.5000:   BOTTOM DEPTH
RUN .                               0:   RUN NUMBER
LCCD.                             440:   LOGGING CONTRACTOR
SRVC.                    Schlumberger:   LOGGING CONT NAME
DICO.          QC Data Collectors Ltd:   DIG COMPANY NAME
LDAT.                      11/28/1987:   DATE LOGGED
ELD .F                        85.0000:   LOG DATUM ELEVATION
TDD .F                      5785.0000:   TOTAL DEPTH DRILLER
TDL .F                      5792.0000:   TOTAL DEPTH LOGGER
BOTL.F                      5786.0000:   BOTTOM DEPTH LOGGED
TOPL.F                      3300.0000:   TOP DEPTH LOGGED
CS1 .IN                       10.7500:   CASING SIZE 1
BS1 .IN                        9.8750:   BIT SIZE 1
DDB1.F                      5785.0000:   DEPTH DRILLED BIT 1
BHF .                              81:   FLUID CODE
DPT .          Lignosulfonate (Ligno):   DRILLING FLUID TYPE
MUDD.                         11.0000:   FLUID DENSITY
MUDV.                         41.0000:   FLUID VISCOSITY
DFPH.                         10.0000:   FLUID PH
FL  .                         10.0000:   FLUID LOSS
RM  .OHMM                       .9400:   RM
~Curve Information Block
#MNEM.UNIT                    API CODE    No Description
#=========                    ========    == ===========
DEPT.F                   00 001 00 00:     1  DEPTH
NPHI.DEC                              :     2  Neutron Porosity
DT.US/F                              :     3  Sonic Transit Time
GR.GAPI                              :     4  Gamma Ray
ILD.OHMM                             :     5  Deep Induction Resistivity
ILM.OHMM                             :     6  Medium Induction Resistivity
SFL.OHMM                             :     7  Medium Resistivity
SP.MV                                :     8  Spontaneous Potential
CALI.IN                              :     9  Caliper
DPHI.DEC                              :    10  Porosity
DRHO.G/C3                            :    11  Bulk Density Correction
GR.GAPI                              :    12  Gamma Ray
~ASCII
# ...
 4593.0000      .4647   124.1224  -999.2500      .8448      .8804     1.1887   -62.6554    10.1466      .3241     -.0036    69.4287
 4593.5000      .4679   125.1792  -999.2500      .8528      .8776     1.1326   -61.0656    10.1446      .3132      .0010    72.5968
 4594.0000      .4530   125.9150  -999.2500      .8653      .8818     1.1175   -59.4756    10.2283      .2914      .0062    73.7788
 4594.5000      .4422   125.5608  -999.2500      .8816      .8894     1.1163   -58.5516    10.2970      .2737      .0066    73.1560
 4595.0000      .4433   124.2020  -999.2500      .8985      .9027     1.1450   -58.2792    10.2944      .2556      .0061    70.5039
 4595.5000      .4502   122.5936  -999.2500      .9173      .9308     1.1786   -58.2838    10.3102      .2440      .0064    67.8699
 4596.0000      .4522   121.9122  -999.2500      .9299      .9544     1.2137   -58.4988    10.3393      .2366      .0072    67.4463
 4596.5000      .4496   121.6725  -999.2500      .9371      .9638     1.2388   -58.7955    10.3386      .2348      .0092    70.0719
 4597.0000      .4458   120.7670  -999.2500      .9389      .9630     1.2481   -58.9263    10.3040      .2371      .0110    72.7528
 4597.5000      .4403   120.7549  -999.2500      .9379      .9578     1.2535   -58.7051    10.2790      .2444      .0117    75.1649
 4598.0000      .4542   123.2145  -999.2500      .9390      .9561     1.2338   -58.2850    10.2928      .2558      .0073    76.7754
 4598.5000      .4774   125.9840  -999.2500      .9438      .9564     1.1806   -57.9108    10.3394      .2682     -.0004    77.5223
 4599.0000      .4847   126.6227  -999.2500      .9516      .9604     1.1379   -57.5549    10.3907      .2713     -.0064    77.5923
 4599.5000      .4746   125.7875  -999.2500      .9607      .9666     1.1208   -57.2343    10.4334      .2654     -.0087    76.5305
 4600.0000      .4520   124.3647  -999.2500      .9701      .9750     1.1553   -57.2089    10.5047      .2555     -.0093    74.3069
 4600.5000      .4305   122.4283  -999.2500      .9740      .9891     1.3043   -57.8194    10.5588      .2494     -.0091    73.6896
 4601.0000      .4310   121.3402  -999.2500      .9724      .9912     1.3472   -58.6337    10.5570      .2597     -.0071    73.8308
 4601.5000      .4499   122.5128  -999.2500      .9707      .9919     1.2779   -59.4172    10.5645      .2765     -.0040    71.7040
 4602.0000      .4713   123.7655  -999.2500      .9691      .9893     1.2097   -60.1192    10.6248      .3014     -.0018    67.4078
 4602.5000      .4627   123.9349  -999.2500      .9677      .9825     1.1640   -60.8116    10.7173      .3222      .0001    67.6262
 4603.0000      .4437   122.5465  -999.2500      .9626      .9733     1.1730   -61.6370    10.6825      .3306      .0009    68.8611
 4603.5000      .4354   120.4246  -999.2500      .9542      .9631     1.2335   -62.1823    10.5103      .3203      .0007    69.0603
 4604.0000      .4477   121.2456  -999.2500      .9399      .9562     1.2428   -61.1524    10.3823      .2972      .0023    67.9730
 4604.5000      .4646   123.1892  -999.2500      .9343      .9516     1.1933   -59.4769    10.5126      .2811      .0054    67.6395
 4605.0000      .4738   124.4417  -999.2500      .9324      .9498     1.1582   -58.3858    10.7078      .2739      .0075    68.7339
 4605.5000      .4693   124.5189  -999.2500      .9330      .9515     1.1281   -58.1848    10.7414      .2702      .0049    69.9052
 4606.0000      .4582   123.4545  -999.2500      .9370      .9496     1.1420   -58.6421    10.6499      .2659     -.0010    69.6279
 4606.5000      .4499   121.9304  -999.2500      .9405      .9483     1.2115   -59.1314    10.5987      .2621     -.0069    69.5695
 4607.0000      .4487   121.2130  -999.2500      .9435      .9495     1.2086   -59.3873    10.5673      .2736     -.0124    70.9192
 4607.5000      .4499   121.7979  -999.2500      .9464      .9549     1.1500   -59.7008    10.6116      .2867     -.0119    71.8612
 4608.0000      .4488   122.1442  -999.2500      .9565      .9704     1.1115   -59.4316    10.7067      .2927     -.0063    71.8008
 4608.5000      .4415   122.2599  -999.2500      .9674      .9841     1.1524   -59.0592    10.7868      .2872     -.0028    71.8022
 4609.0000      .4326   121.8364  -999.2500      .9773      .9961     1.2133   -59.1062    10.8015      .2758     -.0016    71.8873
 4609.5000      .4263   120.7344  -999.2500      .9852     1.0047     1.2702   -59.6521    10.8003      .2675     -.0026    71.7565
 4610.0000      .4303   119.5004  -999.2500      .9946     1.0121     1.2930   -60.2465    10.8158      .2646     -.0054    68.8047
 4610.5000      .4366   118.6404  -999.2500     1.0044     1.0182     1.2767   -60.9443    10.8167      .2768     -.0084    65.9583
 4611.0000      .4271   118.1211  -999.2500     1.0139     1.0238     1.2748   -61.6554    10.8199      .2874     -.0064    62.4709
 4611.5000      .4155   117.6932  -999.2500     1.0202     1.0302     1.2935   -62.3478    10.7328      .2934     -.0019    60.5197
 4612.0000      .4098   118.4592  -999.2500     1.0263     1.0395     1.2878   -62.4940    10.6329      .2976      .0026    64.2253
 4612.5000      .4103   119.4866  -999.2500     1.0322     1.0450     1.2729   -61.9841    10.7269      .2983      .0065    68.6606
 4613.0000      .4271   120.1490  -999.2500     1.0376     1.0488     1.2314   -61.3466    10.8373      .2954      .0087    71.3224
 4613.5000      .4483   120.1864  -999.2500     1.0426     1.0496     1.1928   -61.0212    10.7067      .2942      .0098    70.6024
 4614.0000      .4559   119.7260  -999.2500     1.0490     1.0493     1.1939   -61.0423    10.6784      .2995      .0092    68.6847
 4614.5000      .4303   119.7418  -999.2500     1.0561     1.0477     1.2210   -61.9618    10.7264      .3064      .0077    67.1079
 4615.0000      .4162   120.2328  -999.2500     1.0638     1.0469     1.2679   -63.1126    10.6393      .3113      .0040    65.1266
 4615.5000      .4250   121.2842  -999.2500     1.0711     1.0489     1.2558   -63.4404    10.5364      .3143      .0005    63.5936
 4616.0000      .4411   121.0437  -999.2500     1.0766     1.0552     1.2286   -63.0441    10.6334      .3164      .0018    63.9518
 4616.5000      .4537   120.0803  -999.2500     1.0800     1.0670     1.2245   -62.5043    10.8254      .3137      .0091    65.7590
 4617.0000      .4582   119.2948  -999.2500     1.0834     1.0769     1.2412   -61.9217    10.9531      .3095      .0145    68.0127
 4617.5000      .4597   118.4189  -999.2500     1.0829     1.0830     1.2642   -61.4576    10.8265      .3071      .0117    70.0935
 4618.0000      .4555   117.5430  -999.2500     1.0825     1.0776     1.2821   -61.0105    10.7140      .3050      .0056    71.4615
 4618.5000      .4339   118.2097  -999.2500     1.0797     1.0615     1.3030   -60.8746    10.7300      .2975      .0014    71.1676
 4619.0000      .4362   119.3575  -999.2500     1.0690     1.0407     1.3348   -60.8287    10.8141      .2921      .0041    71.1450
 4619.5000      .4514   120.9092  -999.2500     1.0496     1.0185     1.3363   -60.5104    10.9730      .2941      .0086    71.4448
 4620.0000      .4619   122.2469  -999.2500     1.0303     1.0055     1.2481   -60.0194    10.9819      .2983      .0107    72.6400
 4620.5000      .4563   123.1301  -999.2500     1.0155      .9963     1.1732   -59.7249    10.8062      .3009      .0117    74.5913
 4621.0000      .4433   123.5675  -999.2500     1.0073      .9918     1.1434   -59.6155    10.7909      .2985      .0095    76.3926
 4621.5000      .4379   123.5129  -999.2500     1.0030      .9860     1.1490   -59.6234    10.7771      .2882      .0044    77.5836
 4622.0000      .4412   123.6034  -999.2500      .9953      .9855     1.1479   -59.5278    10.9230      .2833      .0016    74.9489
 4622.5000      .4425   123.5378  -999.2500      .9749      .9902     1.1441   -59.3493    10.9233      .2866      .0014    70.1896
 4623.0000      .4430   122.3850  -999.2500      .9868     1.0018     1.1474   -59.0625    10.7671      .2913      .0054    68.1177
