~VERSION INFORMATION
VERS.                             2.0:   CWLS Log ASCII Standard-VERSION 2.0
WRAP.                              NO:   One line per depth step
~Well Information Block
STRT.F                       590.0000:   Top Depth
STOP.F                      5513.0000:   Bottom Depth
STEP.F                         .50000:   Depth Increment
NULL.                        -999.250:   Null Value
FLD .                     MU BLK A 16:   Field Name
WELL.       OCSG03011  A001 ST00 BP00:   NAME
API .                    427024004100:   WELL API
R1  .                           13904:   COMMENT  1
EDF .F                       102.0000:   ELEV DRILL FLOOR
COMP.       CITIES SERVICE OIL COMPAN:   OPERATOR
BN  .                            A 16:   BLOCK
CTRY.                             USA:   COUNTRY NAME
CNTY.                        MG ILD L:   COUNTY NAME
EKB .F                       103.0000:   ELEV KELLY BUSHING
TDD .F                       5519.000:   FINAL TD DRILLER
STAT.                           TEXAS:   STATE NAME
UWI .                    427024004100:   WELL API
DICO.               IHS : Digitizing Company
~PARAMETER INFORMATION (zones)
#MNEM.UNIT                       Value     Description
#=========                       =====     ===========
#ZONATION                          CNL:   ZONATION NAME
#ZONE                            RUN_1:   ZONE NAME
TOP .                       3234.0000:   TOP DEPTH
BOT .                       5513.5000:   BOTTOM DEPTH
RUN .                               1:   RUN NUMBER
LCCD.                             440:   LOGGING CONTRACTOR
SRVC.                    Schlumberger:   LOGGING CONT NAME
DICO.          QC Data Collectors Ltd:   DIG COMPANY NAME
LDAT.                      03/04/1980:   DATE LOGGED
ELD .F                       103.0000:   LOG DATUM ELEVATION
TDD .F                      5512.0000:   TOTAL DEPTH DRILLER
TDL .F                      5519.0000:   TOTAL DEPTH LOGGER
BOTL.F                      5513.0000:   BOTTOM DEPTH LOGGED
TOPL.F                      3240.0000:   TOP DEPTH LOGGED
CS1 .IN                       13.3750:   CASING SIZE 1
BS1 .IN                       12.2500:   BIT SIZE 1
DDB1.F                      5512.0000:   DEPTH DRILLED BIT 1
BHF .                              99:   FLUID CODE
DPT .                   Miscellaneous:   DRILLING FLUID TYPE
MUDD.                         13.1000:   FLUID DENSITY
MUDV.                         38.0000:   FLUID VISCOSITY
DFPH.                         11.5000:   FLUID PH
FL  .                          4.0000:   FLUID LOSS
RM  .OHMM                       .8600:   RM
RMT .DEGF                     70.0000:   RM TEMP
RMF .OHMM                       .6600:   RMF
RMFT.DEGF                     70.0000:   RMF TEMP
FSC .                               M:   RMF CODE
RMC .OHMM                      1.8600:   RMC
RMCT.DEGF                     70.0000:   RMC TEMP
CMC .                               M:   RMC CODE
TMAX.DEGF                    145.0000:   MAX REC TEMP
TIMC.                          6.5000:   TIME SINCE CIRCLN
~PARAMETER INFORMATION (zones)
#MNEM.UNIT                       Value     Description
#=========                       =====     ===========
#ZONATION                          DIL:   ZONATION NAME
#ZONE                            RUN_1:   ZONE NAME
TOP .                       3240.0000:   TOP DEPTH
BOT .                       5513.5000:   BOTTOM DEPTH
RUN .                               1:   RUN NUMBER
LCCD.                             440:   LOGGING CONTRACTOR
SRVC.                    Schlumberger:   LOGGING CONT NAME
DICO.          QC Data Collectors Ltd:   DIG COMPANY NAME
LDAT.                      03/04/1980:   DATE LOGGED
ELD .F                       103.0000:   LOG DATUM ELEVATION
TDD .F                      5512.0000:   TOTAL DEPTH DRILLER
TDL .F                      5519.0000:   TOTAL DEPTH LOGGER
BOTL.F                      5513.0000:   BOTTOM DEPTH LOGGED
TOPL.F                      3240.0000:   TOP DEPTH LOGGED
CS1 .IN                       13.3750:   CASING SIZE 1
BS1 .IN                       12.2500:   BIT SIZE 1
DDB1.F                      5512.0000:   DEPTH DRILLED BIT 1
BHF .                              99:   FLUID CODE
DPT .                   Miscellaneous:   DRILLING FLUID TYPE
MUDD.                         13.1000:   FLUID DENSITY
MUDV.                         38.0000:   FLUID VISCOSITY
DFPH.                         11.5000:   FLUID PH
FL  .                          4.0000:   FLUID LOSS
RM  .OHMM                       .8600:   RM
RMT .DEGF                     70.0000:   RM TEMP
RMF .OHMM                       .6600:   RMF
RMFT.DEGF                     70.0000:   RMF TEMP
FSC .                               M:   RMF CODE
RMC .OHMM                      1.8600:   RMC
RMCT.DEGF                     70.0000:   RMC TEMP
CMC .                               M:   RMC CODE
TMAX.DEGF                    145.0000:   MAX REC TEMP
TIMC.                          6.5000:   TIME SINCE CIRCLN
~PARAMETER INFORMATION (zones)
#MNEM.UNIT                       Value     Description
#=========                       =====     ===========
#ZONATION                          DIL:   ZONATION NAME
#ZONE                          RUN_1_1:   ZONE NAME
TOP .                        590.0000:   TOP DEPTH
BOT .                       1046.5000:   BOTTOM DEPTH
RUN .                               1:   RUN NUMBER
LCCD.                             440:   LOGGING CONTRACTOR
SRVC.                    Schlumberger:   LOGGING CONT NAME
DICO.          QC Data Collectors Ltd:   DIG COMPANY NAME
LDAT.                      02/20/1980:   DATE LOGGED
ELD .F                       103.0000:   LOG DATUM ELEVATION
TDD .F                      1050.0000:   TOTAL DEPTH DRILLER
TDL .F                      1050.0000:   TOTAL DEPTH LOGGER
BOTL.F                      1046.0000:   BOTTOM DEPTH LOGGED
TOPL.F                       597.0000:   TOP DEPTH LOGGED
CS1 .IN                       30.0000:   CASING SIZE 1
BS1 .IN                       12.5000:   BIT SIZE 1
DDB1.F                      1050.0000:   DEPTH DRILLED BIT 1
BHF .                              99:   FLUID CODE
DPT .                   Miscellaneous:   DRILLING FLUID TYPE
MUDD.                          8.6000:   FLUID DENSITY
MUDV.                         39.0000:   FLUID VISCOSITY
DFPH.                         12.3000:   FLUID PH
FL  .                            NULL:   FLUID LOSS
RM  .OHMM                       .3900:   RM
RMT .DEGF                     80.0000:   RM TEMP
RMF .OHMM                       .2400:   RMF
RMFT.DEGF                     80.0000:   RMF TEMP
FSC .                               M:   RMF CODE
RMC .OHMM                       .4500:   RMC
RMCT.DEGF                     80.0000:   RMC TEMP
CMC .                               M:   RMC CODE
TMAX.DEGF                     90.0000:   MAX REC TEMP
TIMC.                          1.5000:   TIME SINCE CIRCLN
~PARAMETER INFORMATION (zones)
#MNEM.UNIT                       Value     Description
#=========                       =====     ===========
#ZONATION                          FDC:   ZONATION NAME
#ZONE                            RUN_1:   ZONE NAME
TOP .                       3234.0000:   TOP DEPTH
BOT .                       5513.5000:   BOTTOM DEPTH
RUN .                               1:   RUN NUMBER
LCCD.                             440:   LOGGING CONTRACTOR
SRVC.                    Schlumberger:   LOGGING CONT NAME
DICO.          QC Data Collectors Ltd:   DIG COMPANY NAME
LDAT.                      03/04/1980:   DATE LOGGED
ELD .F                       103.0000:   LOG DATUM ELEVATION
TDD .F                      5512.0000:   TOTAL DEPTH DRILLER
TDL .F                      5519.0000:   TOTAL DEPTH LOGGER
BOTL.F                      5513.0000:   BOTTOM DEPTH LOGGED
TOPL.F                      3240.0000:   TOP DEPTH LOGGED
CS1 .IN                       13.3750:   CASING SIZE 1
BS1 .IN                       12.2500:   BIT SIZE 1
DDB1.F                      5512.0000:   DEPTH DRILLED BIT 1
BHF .                              99:   FLUID CODE
DPT .                   Miscellaneous:   DRILLING FLUID TYPE
MUDD.                         13.1000:   FLUID DENSITY
MUDV.                         38.0000:   FLUID VISCOSITY
DFPH.                         11.5000:   FLUID PH
FL  .                          4.0000:   FLUID LOSS
RM  .OHMM                       .8600:   RM
RMT .DEGF                     70.0000:   RM TEMP
RMF .OHMM                       .6600:   RMF
RMFT.DEGF                     70.0000:   RMF TEMP
FSC .                               M:   RMF CODE
RMC .OHMM                      1.8600:   RMC
RMCT.DEGF                     70.0000:   RMC TEMP
CMC .                               M:   RMC CODE
TMAX.DEGF                    145.0000:   MAX REC TEMP
TIMC.                          6.5000:   TIME SINCE CIRCLN
~Curve Information Block
#MNEM.UNIT                    API CODE    No Description
#=========                    ========    == ===========
DEPT.F                   00 001 00 00:     1  DEPTH
NPHI.%                               :     2  Neutron Porosity
ASFL.OHMM                            :     3  Shallow Resistivity
DT.US/F                              :     4  Sonic Transit Time
GR.GAPI                              :     5  Gamma Ray
ILD.OHMM                             :     6  Deep Induction Resistivity
SFL.OHMM                             :     7  Medium Resistivity
SP.MV                                :     8  Spontaneous Potential
CALI.IN                              :     9  Caliper
DRHO.G/C3                            :    10  Bulk Density Correction
GR.GAPI                              :    11  Gamma Ray
RHOB.G/C3                            :    12  Bulk Density
~ASCII
# ...
 4433.0000    36.5537     1.2166  -999.2500  -999.2500      .8882  -999.2500   -88.7479    12.3938      .0311    55.4743     2.2971
 4433.5000    36.2253     1.1526  -999.2500  -999.2500      .8326  -999.2500   -91.6206    12.3923      .0197    52.4144     2.2429
 4434.0000    37.6303     1.0638  -999.2500  -999.2500      .7636  -999.2500   -94.5059    12.3918      .0029    49.3546     2.2086
 4434.5000    39.0368      .9980  -999.2500  -999.2500      .6913  -999.2500   -97.4012    12.3914     -.0077    47.9819     2.1482
 4435.0000    41.3362      .9295  -999.2500  -999.2500      .6190  -999.2500  -101.7003    12.3942     -.0117    47.0950     2.1237
 4435.5000    41.3827      .9164  -999.2500  -999.2500      .5468  -999.2500  -104.2410    12.4028     -.0125    47.6987     2.1110
 4436.0000    40.3636      .9080  -999.2500  -999.2500      .5234  -999.2500  -103.6012    12.4114     -.0117    48.7039     2.1133
 4436.5000    40.4521      .9008  -999.2500  -999.2500      .5152  -999.2500  -103.3777    12.4196     -.0099    47.7153     2.1135
 4437.0000    41.8690      .8936  -999.2500  -999.2500      .5070  -999.2500  -103.3506    12.4276     -.0083    45.7294     2.1105
 4437.5000    42.2889      .8863  -999.2500  -999.2500      .4987  -999.2500  -103.3235    12.4357     -.0078    43.9476     2.1058
 4438.0000    40.8403      .8769  -999.2500  -999.2500      .5253  -999.2500  -104.1473    12.4451     -.0088    42.2615     2.1018
 4438.5000    39.0649      .8673  -999.2500  -999.2500      .5637  -999.2500  -105.0872    12.4544     -.0137    41.0229     2.1006
 4439.0000    38.3867      .8802  -999.2500  -999.2500      .6022  -999.2500  -106.0270    12.4608     -.0204    41.7909     2.1027
 4439.5000    38.8221      .9418  -999.2500  -999.2500      .6407  -999.2500  -106.4299    12.4651     -.0279    42.5574     2.1128
 4440.0000    37.5344     1.0034  -999.2500  -999.2500      .6811  -999.2500  -104.4475    12.4685     -.0357    42.7319     2.1632
 4440.5000    32.0243     1.0650  -999.2500  -999.2500      .7253  -999.2500  -102.1963    12.4664     -.0428    42.3046     2.2276
 4441.0000    25.5947     1.1266  -999.2500  -999.2500      .7694  -999.2500  -100.3448    12.4642     -.0365    43.1426     2.3195
 4441.5000    17.8833     1.1883  -999.2500  -999.2500      .8063  -999.2500   -99.2570    12.4564     -.0095    44.8201     2.4531
 4442.0000    18.9238     1.2499  -999.2500  -999.2500      .8011  -999.2500   -98.1691    12.4472      .0030    47.2790     2.4529
 4442.5000    25.7305     1.3115  -999.2500  -999.2500      .7959  -999.2500   -97.4500    12.4316     -.0013    49.1997     2.3677
 4443.0000    31.3284     1.2749  -999.2500  -999.2500      .7688  -999.2500   -96.9602    12.4200     -.0055    50.5318     2.2747
 4443.5000    37.2953     1.1095  -999.2500  -999.2500      .7338  -999.2500   -96.3566    12.4133     -.0104    51.3951     2.1881
 4444.0000    38.3498     1.0358  -999.2500  -999.2500      .6989  -999.2500   -95.3993    12.4109     -.0153    52.0630     2.1753
 4444.5000    38.3424      .9737  -999.2500  -999.2500      .6639  -999.2500   -94.4425    12.4123     -.0181    52.5797     2.1768
 4445.0000    38.6022      .9351  -999.2500  -999.2500      .6289  -999.2500   -93.9265    12.4177     -.0185    52.7619     2.1814
 4445.5000    39.4456      .9314  -999.2500  -999.2500      .6137  -999.2500   -94.3916    12.4282     -.0185    51.7717     2.1726
 4446.0000    39.9973      .9429  -999.2500  -999.2500      .6186  -999.2500   -95.1469    12.4381     -.0191    50.8998     2.1452
 4446.5000    40.0548      .9543  -999.2500  -999.2500      .6263  -999.2500   -96.2053    12.4469     -.0209    50.3512     2.1327
 4447.0000    39.6287      .9676  -999.2500  -999.2500      .6644  -999.2500   -97.2638    12.4464     -.0222    50.7745     2.1384
 4447.5000    38.5085      .9966  -999.2500  -999.2500      .7024  -999.2500   -96.8488    12.4462     -.0219    52.4661     2.1509
 4448.0000    37.4990     1.0256  -999.2500  -999.2500      .7405  -999.2500   -94.3540    12.4484     -.0190    54.2344     2.1664
 4448.5000    36.4208     1.0546  -999.2500  -999.2500      .7786  -999.2500   -92.1719    12.4468     -.0136    56.1219     2.1839
 4449.0000    35.9827     1.0836  -999.2500  -999.2500      .8166  -999.2500   -88.8434    12.4500     -.0122    58.2798     2.1998
 4449.5000    36.1013     1.1168  -999.2500  -999.2500      .8427  -999.2500   -85.4558    12.4759     -.0144    60.5815     2.2248
 4450.0000    38.0989     1.1503  -999.2500  -999.2500      .8634  -999.2500   -82.0684    12.5223     -.0165    62.9777     2.2508
 4450.5000    39.8397     1.1722  -999.2500  -999.2500      .8840  -999.2500   -78.6808    12.5723     -.0038    64.7153     2.2771
 4451.0000    41.3893     1.1477  -999.2500  -999.2500      .9047  -999.2500   -75.2933    12.6192      .0055    66.3448     2.2863
 4451.5000    42.3177     1.1224  -999.2500  -999.2500      .9253  -999.2500   -71.9033    12.6594      .0076    68.4744     2.2780
 4452.0000    42.8685     1.0971  -999.2500  -999.2500      .9459  -999.2500   -69.4424    12.6729      .0052    70.5758     2.2664
 4452.5000    43.1484     1.0712  -999.2500  -999.2500      .9658  -999.2500   -68.6063    12.6864      .0055    71.2433     2.2693
 4453.0000    43.3677     1.0450  -999.2500  -999.2500      .9760  -999.2500   -68.8622    12.6998      .0148    71.2286     2.2740
 4453.5000    43.6574     1.0216  -999.2500  -999.2500      .9863  -999.2500   -69.1178    12.7129      .0172    71.1537     2.2709
 4454.0000    44.0968     1.0321  -999.2500  -999.2500      .9965  -999.2500   -69.0529    12.7228      .0144    71.9957     2.2589
 4454.5000    43.9398     1.0426  -999.2500  -999.2500     1.0067  -999.2500   -68.9539    12.7200      .0035    72.4142     2.2495
 4455.0000    43.7424     1.0531  -999.2500  -999.2500     1.0169  -999.2500   -68.8547    12.7171     -.0035    71.7039     2.2410
 4455.5000    43.9607     1.0636  -999.2500  -999.2500     1.0271  -999.2500   -68.7557    12.7127     -.0060    71.1075     2.2342
 4456.0000    44.3640     1.0741  -999.2500  -999.2500     1.0308  -999.2500   -69.0516    12.7084     -.0036    70.3724     2.2367
 4456.5000    44.9816     1.0845  -999.2500  -999.2500     1.0266  -999.2500   -69.3853    12.7023     -.0001    71.4249     2.2408
 4457.0000    45.8000     1.0913  -999.2500  -999.2500     1.0224  -999.2500   -69.7189    12.6957      .0040    73.0458     2.2447
 4457.5000    46.7202     1.0963  -999.2500  -999.2500     1.0182  -999.2500   -70.0190    12.6916      .0064    74.4209     2.2385
 4458.0000    47.9717     1.1013  -999.2500  -999.2500     1.0140  -999.2500   -70.2336    12.6886      .0032    75.1017     2.2305
 4458.5000    48.9074     1.1063  -999.2500  -999.2500     1.0111  -999.2500   -70.4486    12.7040      .0001    73.6615     2.2284
 4459.0000    48.6417     1.1106  -999.2500  -999.2500     1.0101  -999.2500   -70.5464    12.7355     -.0004    72.3121     2.2329
 4459.5000    47.0611     1.1144  -999.2500  -999.2500     1.0091  -999.2500   -70.3245    12.7742     -.0010    71.4194     2.2383
 4460.0000    45.3019     1.1183  -999.2500  -999.2500     1.0081  -999.2500   -70.1025    12.7748      .0012    72.1112     2.2448
 4460.5000    45.1159     1.1222  -999.2500  -999.2500     1.0070  -999.2500   -69.8804    12.7679      .0040    72.6498     2.2490
 4461.0000    46.1291     1.1260  -999.2500  -999.2500     1.0122  -999.2500   -69.6584    12.7807      .0051    72.9523     2.2445
 4461.5000    46.0786     1.1299  -999.2500  -999.2500     1.0212  -999.2500   -69.4365    12.8195      .0045    72.7896     2.2373
 4462.0000    43.2519     1.1387  -999.2500  -999.2500     1.0303  -999.2500   -69.1454    12.8625      .0062    71.7456     2.2386
 4462.5000    41.8387     1.1498  -999.2500  -999.2500     1.0393  -999.2500   -68.8247    12.9132      .0078    69.7782     2.2431
 4463.0000    41.7716     1.1610  -999.2500  -999.2500     1.0484  -999.2500   -68.5039    12.9694      .0056    68.8209     2.2407
