~VERSION INFORMATION
VERS.                             2.0:   CWLS Log ASCII Standard-VERSION 2.0
WRAP.                              NO:   One line per depth step
~Well Information Block
STRT.F                      3964.0000:   Top Depth
STOP.F                      6748.0000:   Bottom Depth
STEP.F                         .50000:   Depth Increment
NULL.                        -999.250:   Null Value
FLD .                     MU BLK A 26:   Field Name
WELL.       OCSG13276   001 ST00 BP00:   NAME
API .                    427024021500:   WELL API
EDF .F                        73.0000:   ELEV DRILL FLOOR
COMP.                  ORYX ENERGY CO:   OPERATOR
BN  .                            A 26:   BLOCK
CTRY.                             USA:   COUNTRY NAME
CNTY.                        MG ILD L:   COUNTY NAME
EGL .F                      -290.0000:   ELEV GROUND LEVEL
TDD .F                       6750.000:   FINAL TD DRILLER
STAT.                           TEXAS:   STATE NAME
UWI .                    427024021500:   WELL API
DICO.               IHS : Digitizing Company
~PARAMETER INFORMATION (zones)
#MNEM.UNIT                       Value     Description
#=========                       =====     ===========
#ZONATION                          CNL:   ZONATION NAME
#ZONE                            RUN_1:   ZONE NAME
TOP .                       3970.0000:   TOP DEPTH
BOT .                       6744.5000:   BOTTOM DEPTH
RUN .                               1:   RUN NUMBER
LCCD.                             510:   LOGGING CONTRACTOR
SRVC.                   Western Atlas:   LOGGING CONT NAME
DICO.          QC Data Collectors Ltd:   DIG COMPANY NAME
LDAT.                      08/29/1993:   DATE LOGGED
TDD .F                      6750.0000:   TOTAL DEPTH DRILLER
TDL .F                      6749.0000:   TOTAL DEPTH LOGGER
BOTL.F                      6746.0000:   BOTTOM DEPTH LOGGED
TOPL.F                      3998.0000:   TOP DEPTH LOGGED
CS1 .IN                       13.3750:   CASING SIZE 1
BS1 .IN                       12.2500:   BIT SIZE 1
DDB1.F                      6750.0000:   DEPTH DRILLED BIT 1
BHF .                              32:   FLUID CODE
DPT .                          low PH:   DRILLING FLUID TYPE
MUDD.                         11.5000:   FLUID DENSITY
MUDV.                         46.0000:   FLUID VISCOSITY
DFPH.                          8.8000:   FLUID PH
FL  .                          5.0000:   FLUID LOSS
RM  .OHMM                      1.2400:   RM
RMT .DEGF                     75.0000:   RM TEMP
RMF .OHMM                      1.1400:   RMF
RMFT.DEGF                     75.0000:   RMF TEMP
FSC .                               M:   RMF CODE
RMC .OHMM                      1.8000:   RMC
RMCT.DEGF                     75.0000:   RMC TEMP
CMC .                               M:   RMC CODE
TMAX.DEGF                    164.0000:   MAX REC TEMP
TIMC.                         10.0000:   TIME SINCE CIRCLN
~PARAMETER INFORMATION (zones)
#MNEM.UNIT                       Value     Description
#=========                       =====     ===========
#ZONATION                          DIL:   ZONATION NAME
#ZONE                            RUN_1:   ZONE NAME
TOP .                       3986.0000:   TOP DEPTH
BOT .                       6748.5000:   BOTTOM DEPTH
RUN .                               1:   RUN NUMBER
LCCD.                             510:   LOGGING CONTRACTOR
SRVC.                   Western Atlas:   LOGGING CONT NAME
DICO.          QC Data Collectors Ltd:   DIG COMPANY NAME
LDAT.                      08/29/1993:   DATE LOGGED
TDD .F                      6750.0000:   TOTAL DEPTH DRILLER
TDL .F                      6750.0000:   TOTAL DEPTH LOGGER
BOTL.F                      6748.0000:   BOTTOM DEPTH LOGGED
TOPL.F                      3998.0000:   TOP DEPTH LOGGED
CS1 .IN                       13.3750:   CASING SIZE 1
BS1 .IN                       12.2500:   BIT SIZE 1
DDB1.F                      6750.0000:   DEPTH DRILLED BIT 1
BHF .                              32:   FLUID CODE
DPT .                          low PH:   DRILLING FLUID TYPE
MUDD.                         11.5000:   FLUID DENSITY
MUDV.                         46.0000:   FLUID VISCOSITY
DFPH.                          8.8000:   FLUID PH
FL  .                          5.0000:   FLUID LOSS
RM  .OHMM                      1.2400:   RM
RMT .DEGF                     75.0000:   RM TEMP
RMF .OHMM                      1.1400:   RMF
RMFT.DEGF                     75.0000:   RMF TEMP
FSC .                               M:   RMF CODE
RMC .OHMM                      1.8000:   RMC
RMCT.DEGF                     75.0000:   RMC TEMP
CMC .                               M:   RMC CODE
TMAX.DEGF                    158.0000:   MAX REC TEMP
TIMC.                          6.0000:   TIME SINCE CIRCLN
~PARAMETER INFORMATION (zones)
#MNEM.UNIT                       Value     Description
#=========                       =====     ===========
#ZONATION                          FDC:   ZONATION NAME
#ZONE                            RUN_1:   ZONE NAME
TOP .                       3964.0000:   TOP DEPTH
BOT .                       6746.5000:   BOTTOM DEPTH
RUN .                               1:   RUN NUMBER
LCCD.                             510:   LOGGING CONTRACTOR
SRVC.                   Western Atlas:   LOGGING CONT NAME
DICO.          QC Data Collectors Ltd:   DIG COMPANY NAME
LDAT.                      08/29/1993:   DATE LOGGED
TDD .F                      6750.0000:   TOTAL DEPTH DRILLER
TDL .F                      6749.0000:   TOTAL DEPTH LOGGER
BOTL.F                      6746.0000:   BOTTOM DEPTH LOGGED
TOPL.F                      3998.0000:   TOP DEPTH LOGGED
CS1 .IN                       13.3750:   CASING SIZE 1
BS1 .IN                       12.2500:   BIT SIZE 1
DDB1.F                      6750.0000:   DEPTH DRILLED BIT 1
BHF .                              32:   FLUID CODE
DPT .                          low PH:   DRILLING FLUID TYPE
MUDD.                         11.5000:   FLUID DENSITY
MUDV.                         46.0000:   FLUID VISCOSITY
DFPH.                          8.8000:   FLUID PH
FL  .                          5.0000:   FLUID LOSS
RM  .OHMM                      1.2400:   RM
RMT .DEGF                     75.0000:   RM TEMP
RMF .OHMM                      1.1400:   RMF
RMFT.DEGF                     75.0000:   RMF TEMP
FSC .                               M:   RMF CODE
RMC .OHMM                      1.8000:   RMC
RMCT.DEGF                     75.0000:   RMC TEMP
CMC .                               M:   RMC CODE
TMAX.DEGF                    164.0000:   MAX REC TEMP
TIMC.                         10.0000:   TIME SINCE CIRCLN
~Curve Information Block
#MNEM.UNIT                    API CODE    No Description
#=========                    ========    == ===========
DEPT.F                   00 001 00 00:     1  DEPTH
NPHI.%                               :     2  Neutron Porosity
DT.US/F                              :     3  Sonic Transit Time
GR.GAPI                              :     4  Gamma Ray
ILD.OHMM                             :     5  Deep Induction Resistivity
ILM.OHMM                             :     6  Medium Induction Resistivity
RFOC.OHMM                            :     7  Medium Resistivity
SP.MV                                :     8  Spontaneous Potential
CALI.IN                              :     9  Caliper
DPHI.%                               :    10  Porosity
DRHO.G/C3                            :    11  Bulk Density Correction
GRD.GAPI                             :    12  Gamma Ray
~ASCII
# ...
 3994.5000    48.9875  -999.2500    27.8071  -999.2500  -999.2500  -999.2500  -999.2500  -999.2500  -999.2500  -999.2500    27.7310
 3995.0000    50.6550  -999.2500    32.3356  -999.2500  -999.2500  -999.2500  -999.2500  -999.2500  -999.2500  -999.2500    27.6398
 3995.5000    51.5380  -999.2500    33.4050  -999.2500  -999.2500  -999.2500  -999.2500  -999.2500  -999.2500  -999.2500    28.3262
 3996.0000    49.9086  -999.2500    33.7269  -999.2500  -999.2500  -999.2500  -999.2500  -999.2500  -999.2500  -999.2500    30.4214
 3996.5000    48.0530  -999.2500    34.7743  -999.2500  -999.2500  -999.2500  -999.2500  -999.2500  -999.2500  -999.2500    33.7558
 3997.0000    45.3422  -999.2500    36.5075  -999.2500  -999.2500  -999.2500  -999.2500  -999.2500  -999.2500  -999.2500    37.3351
 3997.5000    45.0346  -999.2500    36.3744  -999.2500  -999.2500  -999.2500  -999.2500  -999.2500  -999.2500  -999.2500    38.8579
 3998.0000    45.1187   119.8280    35.9526      .6604      .7581     1.2357  -117.2390    13.1683    49.5548     -.0437    38.5144
 3998.5000    45.0649   118.4348    36.5391      .6311      .7789     1.2667  -114.3621    13.1976    48.3979     -.0396    38.1579
 3999.0000    44.4532   117.2433    37.9255      .6959      .8088     1.2855  -109.1957    13.3864    47.8276     -.0362    38.2627
 3999.5000    43.7908   117.2195    41.5689      .7886      .8522     1.2947  -102.4353    13.7711    47.4724     -.0336    39.6801
 4000.0000    44.0835   120.5671    44.7911      .8629      .8870     1.2958   -95.3837    14.4169    46.5789     -.0247    44.0460
 4000.5000    44.3763   128.7031    45.5146      .9167      .9290     1.2907   -90.2834    15.3676    45.7739     -.0137    45.6619
 4001.0000    44.6693   136.6965    44.5505      .9323      .9712     1.2849   -87.2540    16.0580    45.9969     -.0002    47.9190
 4001.5000    45.0227   146.1079    44.3204      .9280      .9989     1.2812   -86.1874    16.5835    46.2589      .0085    49.5043
 4002.0000    45.8438   155.8452    45.6873      .9170     1.0015     1.2800   -85.9222    16.7970    46.2236      .0153    50.8094
 4002.5000    46.3400   159.4470    47.2066      .9045     1.0028     1.2802   -85.6138    16.6674    46.3207      .0129    51.8030
 4003.0000    46.2337   156.1157    46.9715      .8998     1.0032     1.2829   -84.9524    16.4477    47.0533     -.0004    52.2413
 4003.5000    45.7889   150.6133    46.1705      .9082     1.0040     1.2899   -84.1241    16.5198    47.6273     -.0118    52.9405
 4004.0000    45.0925   144.7097    46.5587      .9366     1.0049     1.2966   -83.7440    16.9307    47.5403     -.0117    53.9196
 4004.5000    44.5427   139.6130    47.0936      .9763     1.0080     1.3025   -84.6819    17.1084    46.1259     -.0054    55.0290
 4005.0000    44.2492   135.6089    47.8787     1.0047     1.0152     1.3079   -85.6887    16.9876    44.0061      .0015    56.4446
 4005.5000    43.3821   132.8928    49.4543     1.0162     1.0279     1.3132   -86.7000    16.8408    42.1274      .0082    57.8546
 4006.0000    42.1833   131.2639    51.6127     1.0244     1.0585     1.3254   -87.9597    16.4314    40.7892      .0107    59.3967
 4006.5000    41.8415   131.3918    52.1758     1.0462     1.0743     1.3385   -89.0200    14.6593    40.7462      .0042    58.0065
 4007.0000    42.5390   134.2358    48.7675     1.0907     1.1081     1.3546   -90.6139    13.9580    41.2235     -.0033    56.8391
 4007.5000    43.7986   136.8066    45.3592     1.1444     1.1733     1.3767   -92.8654    14.2040    41.6807     -.0106    56.1208
 4008.0000    44.4487   139.2761    42.0280     1.2008     1.2234     1.4061   -94.6344    14.9344    41.9053     -.0106    55.6136
 4008.5000    44.7693   140.6116    41.1787     1.2537     1.2749     1.4376   -96.6887    15.3654    41.4594      .0046    54.1838
 4009.0000    43.4731   137.7715    41.8701     1.2764     1.2973     1.4724   -99.6930    15.5208    40.3599      .0225    51.6947
 4009.5000    40.3487   128.8135    43.1017     1.2828     1.2877     1.5146  -102.1893    15.5334    37.9169      .0233    48.6030
 4010.0000    38.0043   111.3436    43.7505     1.2728     1.2704     1.5519  -104.2870    15.5109    35.5180      .0135    46.4658
 4010.5000    37.8811   108.8593    44.7148     1.2510     1.2302     1.5296  -103.6241    15.4607    31.4442      .0102    47.2967
 4011.0000    38.9888   110.1710    46.7411     1.2228     1.2082     1.4880  -103.2959    15.3586    30.1339      .0193    50.4847
 4011.5000    39.9811   112.9648    47.4140     1.1931     1.1896     1.4577  -103.1356    15.2161    30.3012      .0356    54.1073
 4012.0000    39.6189   113.7832    45.9135     1.1634     1.1670     1.4597  -102.8146    15.0535    30.6153      .0534    53.8826
 4012.5000    39.3349   113.2949    44.1680     1.1363     1.1368     1.4507  -100.1166    14.8686    30.1771      .0422    51.1984
 4013.0000    39.8680   112.7271    44.1888     1.1097     1.1129     1.4136   -96.1965    14.8172    30.1580      .0230    49.1172
 4013.5000    41.2168   113.9282    44.0638     1.0989     1.1187     1.3789   -93.1580    15.0488    31.0553      .0201    50.1600
 4014.0000    42.6625   118.1842    44.1833     1.1046     1.1274     1.3655   -91.1649    15.7740    33.9453      .0265    52.0095
 4014.5000    43.9087   122.5768    46.0787     1.1191     1.1397     1.3627   -90.4955    16.5055    36.3271      .0309    54.1208
 4015.0000    44.1744   126.0585    47.7464     1.1346     1.1496     1.3680   -91.0118    16.5907    37.8945      .0282    54.8481
 4015.5000    43.3694   126.3027    48.4777     1.1520     1.1532     1.3717   -92.1553    16.5903    39.6172      .0246    53.3442
 4016.0000    41.3564   124.5625    48.6901     1.1612     1.1552     1.3864   -93.6648    16.5798    40.4161      .0308    52.7230
 4016.5000    39.9882   121.8527    48.4033     1.1640     1.1496     1.4347   -95.0844    16.5592    39.2918      .0394    52.4734
 4017.0000    40.3815   118.9009    47.6711     1.1535     1.1353     1.4384   -95.6769    16.5309    37.4243      .0387    52.0031
 4017.5000    42.0834   116.3839    46.4320     1.1422     1.1180     1.4236   -95.7456    16.5064    36.2592      .0314    51.4160
 4018.0000    44.1927   114.9907    46.6456     1.1311     1.0927     1.3894   -95.5360    16.2951    36.5727      .0238    50.6390
 4018.5000    45.9527   118.7756    48.1357     1.1235     1.0719     1.3504   -95.2428    15.7740    37.9632      .0125    49.8735
 4019.0000    46.2891   123.6968    50.1732     1.0943     1.0504     1.3308   -95.1816    15.3528    38.5441      .0083    51.0107
 4019.5000    45.6974   127.2524    52.0686     1.0642     1.0267     1.3320   -95.9860    16.0407    38.4899      .0081    53.7418
 4020.0000    44.6719   128.5354    53.8403     1.0363     1.0089     1.3359   -96.8362    17.5209    38.8954      .0095    57.1175
 4020.5000    42.2446   129.6841    53.0769     1.0126      .9937     1.3348   -95.7681    18.4439    39.7143      .0119    59.2918
 4021.0000    41.1630   131.4382    50.1313      .9944      .9890     1.3333   -95.0856    18.2054    40.2272      .0153    59.7462
 4021.5000    40.6070   133.6318    47.2580      .9872      .9839     1.3306   -95.1973    17.5629    39.9985      .0188    59.3770
 4022.0000    40.7324   135.3984    46.9532      .9822      .9781     1.3262   -95.5624    16.8996    39.3627      .0192    60.6944
 4022.5000    41.5377   136.4670    50.5990      .9824      .9760     1.3170   -95.5344    15.6264    38.5447      .0203    60.7660
 4023.0000    42.3177   135.9189    52.8480      .9825      .9778     1.3033   -95.1737    14.8302    37.7449      .0233    59.3257
 4023.5000    43.0208   134.5779    53.4227      .9859      .9808     1.3082   -94.6813    14.6032    37.2441      .0302    59.0621
 4024.0000    42.1558   132.7061    52.3570      .9919      .9856     1.3237   -94.3091    15.3735    37.1289      .0322    60.2425
 4024.5000    40.9152   130.8181    51.1132      .9978      .9898     1.3379   -94.1184    16.3731    37.5463      .0281    59.2893
