~VERSION INFORMATION
VERS.                             2.0:   CWLS Log ASCII Standard-VERSION 2.0
WRAP.                              NO:   One line per depth step
~Well Information Block
STRT.F                      3964.0000:   Top Depth
STOP.F                      6748.0000:   Bottom Depth
STEP.F                         .50000:   Depth Increment
NULL.                        -999.250:   Null Value
FLD .                     MU BLK A 26:   Field Name
WELL.       OCSG13276   001 ST00 BP00:   NAME
API .                    427024021500:   WELL API
EDF .F                        73.0000:   ELEV DRILL FLOOR
COMP.                  ORYX ENERGY CO:   OPERATOR
BN  .                            A 26:   BLOCK
CTRY.                             USA:   COUNTRY NAME
CNTY.                        MG ILD L:   COUNTY NAME
EGL .F                      -290.0000:   ELEV GROUND LEVEL
TDD .F                       6750.000:   FINAL TD DRILLER
STAT.                           TEXAS:   STATE NAME
UWI .                    427024021500:   WELL API
DICO.               IHS : Digitizing Company
~PARAMETER INFORMATION (zones)
#MNEM.UNIT                       Value     Description
#=========                       =====     ===========
#ZONATION                          CNL:   ZONATION NAME
#ZONE                            RUN_1:   ZONE NAME
TOP .                       3970.0000:   TOP DEPTH
BOT .                       6744.5000:   BOTTOM DEPTH
RUN .                               1:   RUN NUMBER
LCCD.                             510:   LOGGING CONTRACTOR
SRVC.                   Western Atlas:   LOGGING CONT NAME
DICO.          QC Data Collectors Ltd:   DIG COMPANY NAME
LDAT.                      08/29/1993:   DATE LOGGED
TDD .F                      6750.0000:   TOTAL DEPTH DRILLER
TDL .F                      6749.0000:   TOTAL DEPTH LOGGER
BOTL.F                      6746.0000:   BOTTOM DEPTH LOGGED
TOPL.F                      3998.0000:   TOP DEPTH LOGGED
CS1 .IN                       13.3750:   CASING SIZE 1
BS1 .IN                       12.2500:   BIT SIZE 1
DDB1.F                      6750.0000:   DEPTH DRILLED BIT 1
BHF .                              32:   FLUID CODE
DPT .                          low PH:   DRILLING FLUID TYPE
MUDD.                         11.5000:   FLUID DENSITY
MUDV.                         46.0000:   FLUID VISCOSITY
DFPH.                          8.8000:   FLUID PH
FL  .                          5.0000:   FLUID LOSS
RM  .OHMM                      1.2400:   RM
RMT .DEGF                     75.0000:   RM TEMP
RMF .OHMM                      1.1400:   RMF
RMFT.DEGF                     75.0000:   RMF TEMP
FSC .                               M:   RMF CODE
RMC .OHMM                      1.8000:   RMC
RMCT.DEGF                     75.0000:   RMC TEMP
CMC .                               M:   RMC CODE
TMAX.DEGF                    164.0000:   MAX REC TEMP
TIMC.                         10.0000:   TIME SINCE CIRCLN
~PARAMETER INFORMATION (zones)
#MNEM.UNIT                       Value     Description
#=========                       =====     ===========
#ZONATION                          DIL:   ZONATION NAME
#ZONE                            RUN_1:   ZONE NAME
TOP .                       3986.0000:   TOP DEPTH
BOT .                       6748.5000:   BOTTOM DEPTH
RUN .                               1:   RUN NUMBER
LCCD.                             510:   LOGGING CONTRACTOR
SRVC.                   Western Atlas:   LOGGING CONT NAME
DICO.          QC Data Collectors Ltd:   DIG COMPANY NAME
LDAT.                      08/29/1993:   DATE LOGGED
TDD .F                      6750.0000:   TOTAL DEPTH DRILLER
TDL .F                      6750.0000:   TOTAL DEPTH LOGGER
BOTL.F                      6748.0000:   BOTTOM DEPTH LOGGED
TOPL.F                      3998.0000:   TOP DEPTH LOGGED
CS1 .IN                       13.3750:   CASING SIZE 1
BS1 .IN                       12.2500:   BIT SIZE 1
DDB1.F                      6750.0000:   DEPTH DRILLED BIT 1
BHF .                              32:   FLUID CODE
DPT .                          low PH:   DRILLING FLUID TYPE
MUDD.                         11.5000:   FLUID DENSITY
MUDV.                         46.0000:   FLUID VISCOSITY
DFPH.                          8.8000:   FLUID PH
FL  .                          5.0000:   FLUID LOSS
RM  .OHMM                      1.2400:   RM
RMT .DEGF                     75.0000:   RM TEMP
RMF .OHMM                      1.1400:   RMF
RMFT.DEGF                     75.0000:   RMF TEMP
FSC .                               M:   RMF CODE
RMC .OHMM                      1.8000:   RMC
RMCT.DEGF                     75.0000:   RMC TEMP
CMC .                               M:   RMC CODE
TMAX.DEGF                    158.0000:   MAX REC TEMP
TIMC.                          6.0000:   TIME SINCE CIRCLN
~PARAMETER INFORMATION (zones)
#MNEM.UNIT                       Value     Description
#=========                       =====     ===========
#ZONATION                          FDC:   ZONATION NAME
#ZONE                            RUN_1:   ZONE NAME
TOP .                       3964.0000:   TOP DEPTH
BOT .                       6746.5000:   BOTTOM DEPTH
RUN .                               1:   RUN NUMBER
LCCD.                             510:   LOGGING CONTRACTOR
SRVC.                   Western Atlas:   LOGGING CONT NAME
DICO.          QC Data Collectors Ltd:   DIG COMPANY NAME
LDAT.                      08/29/1993:   DATE LOGGED
TDD .F                      6750.0000:   TOTAL DEPTH DRILLER
TDL .F                      6749.0000:   TOTAL DEPTH LOGGER
BOTL.F                      6746.0000:   BOTTOM DEPTH LOGGED
TOPL.F                      3998.0000:   TOP DEPTH LOGGED
CS1 .IN                       13.3750:   CASING SIZE 1
BS1 .IN                       12.2500:   BIT SIZE 1
DDB1.F                      6750.0000:   DEPTH DRILLED BIT 1
BHF .                              32:   FLUID CODE
DPT .                          low PH:   DRILLING FLUID TYPE
MUDD.                         11.5000:   FLUID DENSITY
MUDV.                         46.0000:   FLUID VISCOSITY
DFPH.                          8.8000:   FLUID PH
FL  .                          5.0000:   FLUID LOSS
RM  .OHMM                      1.2400:   RM
RMT .DEGF                     75.0000:   RM TEMP
RMF .OHMM                      1.1400:   RMF
RMFT.DEGF                     75.0000:   RMF TEMP
FSC .                               M:   RMF CODE
RMC .OHMM                      1.8000:   RMC
RMCT.DEGF                     75.0000:   RMC TEMP
CMC .                               M:   RMC CODE
TMAX.DEGF                    164.0000:   MAX REC TEMP
TIMC.                         10.0000:   TIME SINCE CIRCLN
~Curve Information Block
#MNEM.UNIT                    API CODE    No Description
#=========                    ========    == ===========
DEPT.F                   00 001 00 00:     1  DEPTH
NPHI.%                               :     2  Neutron Porosity
DT.US/F                              :     3  Sonic Transit Time
GR.GAPI                              :     4  Gamma Ray
ILD.OHMM                             :     5  Deep Induction Resistivity
ILM.OHMM                             :     6  Medium Induction Resistivity
RFOC.OHMM                            :     7  Medium Resistivity
SP.MV                                :     8  Spontaneous Potential
CALI.IN                              :     9  Caliper
DPHI.%                               :    10  Porosity
DRHO.G/C3                            :    11  Bulk Density Correction
GRD.GAPI                             :    12  Gamma Ray
~ASCII
# ...
 5794.0000    35.4865   101.0237    50.4977     1.1901     1.2250     1.4052   -77.1458    12.3689    18.8311      .0716    58.2623
 5794.5000    36.1271   102.0103    51.7750     1.1996     1.2249     1.4114   -76.8811    12.4595    19.4818      .0651    57.9843
 5795.0000    35.8734   101.6278    53.2224     1.1948     1.2073     1.4350   -76.4230    12.5325    19.3600      .0723    57.6290
 5795.5000    34.7620   100.4440    54.4005     1.1791     1.1905     1.4659   -75.7936    12.4476    19.0732      .0795    57.2472
 5796.0000    33.3850   100.0316    55.5604     1.1596     1.1730     1.4482   -75.2491    12.2240    18.8474      .0758    56.8793
 5796.5000    33.3545   101.3060    56.4106     1.1346     1.1535     1.4183   -74.9651    12.1486    18.7431      .0681    56.6537
 5797.0000    33.8790   103.6249    57.7993     1.1047     1.1328     1.3715   -75.2026    12.4131    19.0635      .0721    58.5234
 5797.5000    34.6161   105.9813    59.3041     1.0763     1.1119     1.3393   -75.6902    12.6794    19.4411      .0860    60.5961
 5798.0000    35.2208   107.8523    58.8220     1.0507     1.0956     1.3210   -76.1746    12.8873    19.7643      .0996    60.9930
 5798.5000    35.2371   108.1649    57.0945     1.0336     1.0866     1.3184   -76.1189    12.9639    19.8849      .1037    60.5875
 5799.0000    34.7032   107.8435    55.3793     1.0222     1.0822     1.3280   -75.7446    12.9818    19.8022      .0992    60.3149
 5799.5000    34.1434   107.2395    53.6591     1.0236     1.0832     1.3334   -75.3215    12.9855    19.5523      .0939    61.0543
 5800.0000    34.3550   106.8156    52.0466     1.0354     1.0930     1.3328   -75.6431    12.9440    19.1186      .0870    61.8879
 5800.5000    35.6993   106.5176    50.9304     1.0516     1.1155     1.3294   -75.9620    12.8342    18.7254      .0813    61.2538
 5801.0000    36.7936   106.8953    51.0034     1.0759     1.1415     1.3158   -76.0601    12.7061    18.7526      .0809    59.2894
 5801.5000    37.6234   107.6112    51.3156     1.0991     1.1654     1.3013   -75.7260    12.5760    19.7007      .0869    57.5184
 5802.0000    36.9788   107.7736    51.4678     1.1147     1.1803     1.3180   -74.6422    12.4139    21.1186      .0969    57.2370
 5802.5000    34.5314   105.7014    50.5614     1.1234     1.1905     1.3820   -74.3994    12.2480    22.0135      .0960    57.1635
 5803.0000    31.4724   102.4830    49.5948     1.1273     1.1814     1.4557   -74.9114    12.0941    21.1603      .0825    56.5707
 5803.5000    30.7634    99.8018    49.3755     1.1124     1.1583     1.4774   -75.3455    12.1284    19.8584      .0695    56.1046
 5804.0000    31.6301    99.3495    50.0469     1.0921     1.1316     1.3769   -75.8529    12.5397    18.8229      .0627    57.0356
 5804.5000    34.3320   102.1007    51.0691     1.0622     1.0972     1.3252   -75.7297    12.6836    19.3518      .0806    57.3460
 5805.0000    36.8650   105.4740    52.0154     1.0290     1.0628     1.3101   -75.5524    12.6722    19.8287      .0967    57.6182
 5805.5000    37.6521   107.6293    52.5681      .9981     1.0360     1.3313   -75.5792    12.6465    19.8290      .0972    58.3190
 5806.0000    38.1706   108.1428    51.8790      .9730     1.0174     1.3296   -75.5956    12.6158    19.5099      .0890    59.8165
 5806.5000    38.5280   108.3077    51.5597      .9571     1.0008     1.3169   -75.6987    12.5839    19.4478      .0841    60.7775
 5807.0000    38.3253   109.0461    52.6890      .9434      .9876     1.2945   -75.8942    12.5524    20.1843      .0933    60.2162
 5807.5000    37.3240   110.0431    53.7307      .9394      .9775     1.2729   -76.1180    12.5214    21.2287      .1029    59.3935
 5808.0000    36.0712   111.1075    54.2164      .9390      .9708     1.2651   -76.6819    12.4910    22.5157      .1016    59.6386
 5808.5000    34.8683   111.2694    53.6544      .9436      .9672     1.2731   -76.5457    12.4595    23.3437      .0986    60.0659
 5809.0000    34.3134   110.6266    54.0274      .9478      .9683     1.2900   -76.3459    12.4318    23.7050      .0930    60.5339
 5809.5000    34.1366   109.5734    54.8917      .9490      .9694     1.3100   -76.5022    12.4153    23.4969      .0803    60.8240
 5810.0000    33.8228   108.6707    55.5566      .9565      .9704     1.3245   -77.0170    12.4755    23.3148      .0751    61.0963
 5810.5000    33.5343   107.8573    55.6585      .9683      .9738     1.3294   -77.4569    12.4666    23.1540      .0834    61.1898
 5811.0000    33.9645   107.4631    54.5963      .9784      .9787     1.3182   -77.1115    12.4008    22.2851      .0868    59.6056
 5811.5000    34.6511   108.4875    52.6412      .9862      .9875     1.3007   -76.6956    12.3767    21.2436      .0799    57.5341
 5812.0000    35.4620   109.4459    53.1037      .9917      .9976     1.2874   -76.4468    12.6631    20.5441      .0723    57.6932
 5812.5000    35.6286   110.2349    56.8841      .9953     1.0088     1.3018   -76.1875    12.8564    20.3891      .0714    57.3470
 5813.0000    35.2886   110.6801    59.7690      .9965     1.0204     1.3143   -76.0536    12.8584    20.2639      .0816    56.6199
 5813.5000    35.0582   109.9006    60.6914     1.0048     1.0339     1.3209   -76.1191    12.8098    20.0310      .0945    57.5532
 5814.0000    35.3147   108.7238    58.4599     1.0139     1.0513     1.3123   -76.3208    12.7216    19.6851      .1038    59.2613
 5814.5000    35.9738   108.3733    55.6221     1.0231     1.0670     1.3093   -76.3679    12.6376    19.6197      .1018    60.3828
 5815.0000    36.5808   108.2335    55.1364     1.0414     1.0812     1.3125   -75.9801    12.5689    19.7719      .0983    59.7976
 5815.5000    36.3502   108.0184    54.6415     1.0609     1.0940     1.3237   -75.4363    12.4937    19.7943      .0985    56.8757
 5816.0000    34.7515   107.3538    54.0096     1.0754     1.1036     1.3445   -75.0757    12.4012    19.7888      .0979    54.6834
 5816.5000    33.3184   105.2367    53.2150     1.0754     1.1073     1.3762   -75.4099    12.2582    19.9283      .0957    54.4906
 5817.0000    33.4088   103.4625    52.3684     1.0616     1.1043     1.4086   -75.9049    12.0555    20.6455      .0943    55.0655
 5817.5000    34.1326   103.0189    51.6234     1.0444     1.0946     1.3868   -76.4530    12.0932    22.0247      .0947    55.8105
 5818.0000    34.8989   104.2346    52.0662     1.0282     1.0778     1.3515   -76.9515    12.1518    23.4054      .0970    57.5693
 5818.5000    35.8421   106.2487    54.5229     1.0169     1.0629     1.3139   -77.0424    12.1755    23.9555      .1026    61.2802
 5819.0000    36.1942   107.9916    55.6900     1.0088     1.0488     1.2983   -76.6942    12.1416    23.2060      .1023    65.0109
 5819.5000    36.5623   108.7175    56.6382     1.0071     1.0375     1.2987   -76.4302    12.0451    22.0634      .0984    65.3478
 5820.0000    37.3932   108.4270    57.6243     1.0053     1.0316     1.3031   -76.3599    11.9522    21.2808      .0874    64.0634
 5820.5000    38.0077   107.7136    56.1182     1.0054     1.0321     1.3081   -76.4159    11.9327    21.3797      .0748    62.4928
 5821.0000    38.4191   108.0853    54.7994     1.0055     1.0412     1.3135   -76.3214    11.9352    22.2851      .0884    62.4482
 5821.5000    37.2704   108.2482    56.3727     1.0066     1.0513     1.3156   -75.9745    11.9421    22.9483      .1008    63.6484
 5822.0000    35.5014   107.9635    58.9346     1.0070     1.0550     1.3293   -75.9213    11.9748    22.8847      .1104    64.0085
 5822.5000    34.4078   107.4768    59.5267     1.0026     1.0423     1.3499   -76.1627    12.0361    21.7651      .1048    63.2669
 5823.0000    34.6534   106.9720    58.5883      .9943     1.0262     1.3351   -76.5607    12.0663    20.8880      .0976    62.4931
 5823.5000    35.3035   107.0295    58.4198      .9759     1.0077     1.3110   -76.8937    12.0633    20.4495      .0961    63.5964
 5824.0000    35.5717   107.9603    60.8652      .9487      .9946     1.2848   -77.0375    12.0566    20.8813      .1010    65.4419
