~VERSION INFORMATION
VERS.                             2.0:   CWLS Log ASCII Standard-VERSION 2.0
WRAP.                              NO:   One line per depth step
~Well Information Block
STRT.F                       590.0000:   Top Depth
STOP.F                      5513.0000:   Bottom Depth
STEP.F                         .50000:   Depth Increment
NULL.                        -999.250:   Null Value
FLD .                     MU BLK A 16:   Field Name
WELL.       OCSG03011  A001 ST00 BP00:   NAME
API .                    427024004100:   WELL API
R1  .                           13904:   COMMENT  1
EDF .F                       102.0000:   ELEV DRILL FLOOR
COMP.       CITIES SERVICE OIL COMPAN:   OPERATOR
BN  .                            A 16:   BLOCK
CTRY.                             USA:   COUNTRY NAME
CNTY.                        MG ILD L:   COUNTY NAME
EKB .F                       103.0000:   ELEV KELLY BUSHING
TDD .F                       5519.000:   FINAL TD DRILLER
STAT.                           TEXAS:   STATE NAME
UWI .                    427024004100:   WELL API
DICO.               IHS : Digitizing Company
~PARAMETER INFORMATION (zones)
#MNEM.UNIT                       Value     Description
#=========                       =====     ===========
#ZONATION                          CNL:   ZONATION NAME
#ZONE                            RUN_1:   ZONE NAME
TOP .                       3234.0000:   TOP DEPTH
BOT .                       5513.5000:   BOTTOM DEPTH
RUN .                               1:   RUN NUMBER
LCCD.                             440:   LOGGING CONTRACTOR
SRVC.                    Schlumberger:   LOGGING CONT NAME
DICO.          QC Data Collectors Ltd:   DIG COMPANY NAME
LDAT.                      03/04/1980:   DATE LOGGED
ELD .F                       103.0000:   LOG DATUM ELEVATION
TDD .F                      5512.0000:   TOTAL DEPTH DRILLER
TDL .F                      5519.0000:   TOTAL DEPTH LOGGER
BOTL.F                      5513.0000:   BOTTOM DEPTH LOGGED
TOPL.F                      3240.0000:   TOP DEPTH LOGGED
CS1 .IN                       13.3750:   CASING SIZE 1
BS1 .IN                       12.2500:   BIT SIZE 1
DDB1.F                      5512.0000:   DEPTH DRILLED BIT 1
BHF .                              99:   FLUID CODE
DPT .                   Miscellaneous:   DRILLING FLUID TYPE
MUDD.                         13.1000:   FLUID DENSITY
MUDV.                         38.0000:   FLUID VISCOSITY
DFPH.                         11.5000:   FLUID PH
FL  .                          4.0000:   FLUID LOSS
RM  .OHMM                       .8600:   RM
RMT .DEGF                     70.0000:   RM TEMP
RMF .OHMM                       .6600:   RMF
RMFT.DEGF                     70.0000:   RMF TEMP
FSC .                               M:   RMF CODE
RMC .OHMM                      1.8600:   RMC
RMCT.DEGF                     70.0000:   RMC TEMP
CMC .                               M:   RMC CODE
TMAX.DEGF                    145.0000:   MAX REC TEMP
TIMC.                          6.5000:   TIME SINCE CIRCLN
~PARAMETER INFORMATION (zones)
#MNEM.UNIT                       Value     Description
#=========                       =====     ===========
#ZONATION                          DIL:   ZONATION NAME
#ZONE                            RUN_1:   ZONE NAME
TOP .                       3240.0000:   TOP DEPTH
BOT .                       5513.5000:   BOTTOM DEPTH
RUN .                               1:   RUN NUMBER
LCCD.                             440:   LOGGING CONTRACTOR
SRVC.                    Schlumberger:   LOGGING CONT NAME
DICO.          QC Data Collectors Ltd:   DIG COMPANY NAME
LDAT.                      03/04/1980:   DATE LOGGED
ELD .F                       103.0000:   LOG DATUM ELEVATION
TDD .F                      5512.0000:   TOTAL DEPTH DRILLER
TDL .F                      5519.0000:   TOTAL DEPTH LOGGER
BOTL.F                      5513.0000:   BOTTOM DEPTH LOGGED
TOPL.F                      3240.0000:   TOP DEPTH LOGGED
CS1 .IN                       13.3750:   CASING SIZE 1
BS1 .IN                       12.2500:   BIT SIZE 1
DDB1.F                      5512.0000:   DEPTH DRILLED BIT 1
BHF .                              99:   FLUID CODE
DPT .                   Miscellaneous:   DRILLING FLUID TYPE
MUDD.                         13.1000:   FLUID DENSITY
MUDV.                         38.0000:   FLUID VISCOSITY
DFPH.                         11.5000:   FLUID PH
FL  .                          4.0000:   FLUID LOSS
RM  .OHMM                       .8600:   RM
RMT .DEGF                     70.0000:   RM TEMP
RMF .OHMM                       .6600:   RMF
RMFT.DEGF                     70.0000:   RMF TEMP
FSC .                               M:   RMF CODE
RMC .OHMM                      1.8600:   RMC
RMCT.DEGF                     70.0000:   RMC TEMP
CMC .                               M:   RMC CODE
TMAX.DEGF                    145.0000:   MAX REC TEMP
TIMC.                          6.5000:   TIME SINCE CIRCLN
~PARAMETER INFORMATION (zones)
#MNEM.UNIT                       Value     Description
#=========                       =====     ===========
#ZONATION                          DIL:   ZONATION NAME
#ZONE                          RUN_1_1:   ZONE NAME
TOP .                        590.0000:   TOP DEPTH
BOT .                       1046.5000:   BOTTOM DEPTH
RUN .                               1:   RUN NUMBER
LCCD.                             440:   LOGGING CONTRACTOR
SRVC.                    Schlumberger:   LOGGING CONT NAME
DICO.          QC Data Collectors Ltd:   DIG COMPANY NAME
LDAT.                      02/20/1980:   DATE LOGGED
ELD .F                       103.0000:   LOG DATUM ELEVATION
TDD .F                      1050.0000:   TOTAL DEPTH DRILLER
TDL .F                      1050.0000:   TOTAL DEPTH LOGGER
BOTL.F                      1046.0000:   BOTTOM DEPTH LOGGED
TOPL.F                       597.0000:   TOP DEPTH LOGGED
CS1 .IN                       30.0000:   CASING SIZE 1
BS1 .IN                       12.5000:   BIT SIZE 1
DDB1.F                      1050.0000:   DEPTH DRILLED BIT 1
BHF .                              99:   FLUID CODE
DPT .                   Miscellaneous:   DRILLING FLUID TYPE
MUDD.                          8.6000:   FLUID DENSITY
MUDV.                         39.0000:   FLUID VISCOSITY
DFPH.                         12.3000:   FLUID PH
FL  .                            NULL:   FLUID LOSS
RM  .OHMM                       .3900:   RM
RMT .DEGF                     80.0000:   RM TEMP
RMF .OHMM                       .2400:   RMF
RMFT.DEGF                     80.0000:   RMF TEMP
FSC .                               M:   RMF CODE
RMC .OHMM                       .4500:   RMC
RMCT.DEGF                     80.0000:   RMC TEMP
CMC .                               M:   RMC CODE
TMAX.DEGF                     90.0000:   MAX REC TEMP
TIMC.                          1.5000:   TIME SINCE CIRCLN
~PARAMETER INFORMATION (zones)
#MNEM.UNIT                       Value     Description
#=========                       =====     ===========
#ZONATION                          FDC:   ZONATION NAME
#ZONE                            RUN_1:   ZONE NAME
TOP .                       3234.0000:   TOP DEPTH
BOT .                       5513.5000:   BOTTOM DEPTH
RUN .                               1:   RUN NUMBER
LCCD.                             440:   LOGGING CONTRACTOR
SRVC.                    Schlumberger:   LOGGING CONT NAME
DICO.          QC Data Collectors Ltd:   DIG COMPANY NAME
LDAT.                      03/04/1980:   DATE LOGGED
ELD .F                       103.0000:   LOG DATUM ELEVATION
TDD .F                      5512.0000:   TOTAL DEPTH DRILLER
TDL .F                      5519.0000:   TOTAL DEPTH LOGGER
BOTL.F                      5513.0000:   BOTTOM DEPTH LOGGED
TOPL.F                      3240.0000:   TOP DEPTH LOGGED
CS1 .IN                       13.3750:   CASING SIZE 1
BS1 .IN                       12.2500:   BIT SIZE 1
DDB1.F                      5512.0000:   DEPTH DRILLED BIT 1
BHF .                              99:   FLUID CODE
DPT .                   Miscellaneous:   DRILLING FLUID TYPE
MUDD.                         13.1000:   FLUID DENSITY
MUDV.                         38.0000:   FLUID VISCOSITY
DFPH.                         11.5000:   FLUID PH
FL  .                          4.0000:   FLUID LOSS
RM  .OHMM                       .8600:   RM
RMT .DEGF                     70.0000:   RM TEMP
RMF .OHMM                       .6600:   RMF
RMFT.DEGF                     70.0000:   RMF TEMP
FSC .                               M:   RMF CODE
RMC .OHMM                      1.8600:   RMC
RMCT.DEGF                     70.0000:   RMC TEMP
CMC .                               M:   RMC CODE
TMAX.DEGF                    145.0000:   MAX REC TEMP
TIMC.                          6.5000:   TIME SINCE CIRCLN
~Curve Information Block
#MNEM.UNIT                    API CODE    No Description
#=========                    ========    == ===========
DEPT.F                   00 001 00 00:     1  DEPTH
NPHI.%                               :     2  Neutron Porosity
ASFL.OHMM                            :     3  Shallow Resistivity
DT.US/F                              :     4  Sonic Transit Time
GR.GAPI                              :     5  Gamma Ray
ILD.OHMM                             :     6  Deep Induction Resistivity
SFL.OHMM                             :     7  Medium Resistivity
SP.MV                                :     8  Spontaneous Potential
CALI.IN                              :     9  Caliper
DRHO.G/C3                            :    10  Bulk Density Correction
GR.GAPI                              :    11  Gamma Ray
RHOB.G/C3                            :    12  Bulk Density
~ASCII
# ...
 3396.0000    36.6552     1.2606  -999.2500  -999.2500     1.0448  -999.2500  -110.7383    12.4645     -.0229    54.7711     2.1833
 3396.5000    38.4976     1.2883  -999.2500  -999.2500     1.0543  -999.2500  -109.9373    12.4589     -.0238    55.3617     2.1818
 3397.0000    39.8394     1.3160  -999.2500  -999.2500     1.0639  -999.2500  -108.9379    12.4548     -.0247    55.9609     2.1932
 3397.5000    39.5260     1.3426  -999.2500  -999.2500     1.0734  -999.2500  -107.9385    12.4591     -.0245    56.5786     2.2132
 3398.0000    38.9584     1.3566  -999.2500  -999.2500     1.0830  -999.2500  -101.1145    12.5201     -.0216    57.1172     2.2259
 3398.5000    40.1243     1.3481  -999.2500  -999.2500     1.0999  -999.2500   -97.1305    12.5823     -.0198    57.3036     2.2371
 3399.0000    41.7265     1.3235  -999.2500  -999.2500     1.1188  -999.2500   -94.9572    12.6410     -.0249    56.8619     2.2372
 3399.5000    42.9570     1.2959  -999.2500  -999.2500     1.1378  -999.2500   -93.5585    12.6906     -.0411    55.9277     2.2324
 3400.0000    42.3806     1.2683  -999.2500  -999.2500     1.1567  -999.2500   -92.6592    12.7120     -.0480    55.7121     2.2243
 3400.5000    41.4575     1.2538  -999.2500  -999.2500     1.1756  -999.2500   -92.7854    12.7266     -.0470    56.6907     2.2242
 3401.0000    40.8442     1.2422  -999.2500  -999.2500     1.1946  -999.2500   -92.9548    12.7298     -.0424    57.8023     2.2344
 3401.5000    40.4749     1.2463  -999.2500  -999.2500     1.2001  -999.2500   -92.8146    12.7382     -.0344    61.0997     2.2468
 3402.0000    40.2037     1.2503  -999.2500  -999.2500     1.2016  -999.2500   -91.8528    12.8358     -.0253    61.8837     2.2402
 3402.5000    40.2347     1.2565  -999.2500  -999.2500     1.2031  -999.2500   -90.8910    13.0651     -.0163    62.1085     2.2315
 3403.0000    41.1800     1.2636  -999.2500  -999.2500     1.2046  -999.2500   -90.5397    13.2819     -.0115    62.0515     2.2429
 3403.5000    41.7627     1.2706  -999.2500  -999.2500     1.2061  -999.2500   -90.2288    13.1387     -.0089    61.9977     2.2553
 3404.0000    41.8931     1.2777  -999.2500  -999.2500     1.2076  -999.2500   -89.9180    12.9670     -.0056    62.0992     2.2583
 3404.5000    41.5566     1.2823  -999.2500  -999.2500     1.2091  -999.2500   -89.7540    12.8684     -.0002    62.7646     2.2529
 3405.0000    41.9401     1.2800  -999.2500  -999.2500     1.2106  -999.2500   -89.5955    12.9126      .0058    63.1259     2.2506
 3405.5000    43.1454     1.2696  -999.2500  -999.2500     1.2105  -999.2500   -89.4368    12.9661      .0109    63.0994     2.2502
 3406.0000    44.8349     1.2591  -999.2500  -999.2500     1.2101  -999.2500   -89.2781    13.0289      .0069    62.9346     2.2444
 3406.5000    45.8051     1.2502  -999.2500  -999.2500     1.2097  -999.2500   -89.1194    13.0691     -.0005    61.9557     2.2302
 3407.0000    45.5012     1.2440  -999.2500  -999.2500     1.2093  -999.2500   -88.9880    13.0604     -.0080    61.0405     2.2149
 3407.5000    44.4879     1.2377  -999.2500  -999.2500     1.2089  -999.2500   -88.8984    12.9971     -.0138    60.1241     2.2146
 3408.0000    43.6103     1.2474  -999.2500  -999.2500     1.2085  -999.2500   -89.1489    12.9162     -.0151    59.5076     2.2227
 3408.5000    42.7759     1.2625  -999.2500  -999.2500     1.2081  -999.2500   -89.6254    12.7884     -.0149    58.5063     2.2306
 3409.0000    41.7073     1.2777  -999.2500  -999.2500     1.2077  -999.2500   -90.1022    12.7639     -.0145    57.3158     2.2312
 3409.5000    40.8400     1.2928  -999.2500  -999.2500     1.2073  -999.2500   -90.1564    12.8030     -.0141    56.4117     2.2227
 3410.0000    42.0037     1.3004  -999.2500  -999.2500     1.2068  -999.2500   -89.8862    12.9604     -.0159    56.1962     2.2097
 3410.5000    46.6663     1.2991  -999.2500  -999.2500     1.2045  -999.2500   -89.6163    13.2806     -.0186    56.1059     2.1929
 3411.0000    48.6646     1.2817  -999.2500  -999.2500     1.2002  -999.2500   -89.2139    13.5502     -.0218    56.1190     2.1846
 3411.5000    49.5513     1.2462  -999.2500  -999.2500     1.1959  -999.2500   -89.0466    13.6273     -.0281    56.3509     2.1663
 3412.0000    49.3880     1.2107  -999.2500  -999.2500     1.1915  -999.2500   -90.0648    13.6940     -.0361    56.4598     2.1573
 3412.5000    49.2806     1.1968  -999.2500  -999.2500     1.1872  -999.2500   -91.0687    13.7429     -.0438    55.7565     2.1704
 3413.0000    47.0934     1.2279  -999.2500  -999.2500     1.1828  -999.2500   -92.0725    13.2648     -.0485    55.2724     2.1975
 3413.5000    41.6068     1.2589  -999.2500  -999.2500     1.1785  -999.2500   -92.7979    12.8719     -.0403    55.7198     2.2449
 3414.0000    38.6321     1.2898  -999.2500  -999.2500     1.2057  -999.2500   -92.9724    12.8939     -.0356    56.5238     2.2303
 3414.5000    38.2552     1.3207  -999.2500  -999.2500     1.2358  -999.2500   -92.4778    13.8615     -.0458    56.0742     2.1925
 3415.0000    41.0983     1.3485  -999.2500  -999.2500     1.2660  -999.2500   -92.4199    14.5789     -.0573    53.7291     2.1752
 3415.5000    42.3595     1.3711  -999.2500  -999.2500     1.2961  -999.2500   -92.3999    14.8448     -.0661    50.9515     2.1874
 3416.0000    42.1738     1.3938  -999.2500  -999.2500     1.3262  -999.2500   -92.1827    14.7865     -.0654    49.0510     2.2084
 3416.5000    41.9035     1.3935  -999.2500  -999.2500     1.3562  -999.2500   -91.9493    14.5716     -.0623    49.5307     2.2280
 3417.0000    42.4714     1.3902  -999.2500  -999.2500     1.3549  -999.2500   -92.0210    14.3304     -.0586    50.6177     2.2282
 3417.5000    43.0800     1.3892  -999.2500  -999.2500     1.3535  -999.2500   -92.6799    14.1093     -.0498    52.0970     2.2296
 3418.0000    43.4973     1.3892  -999.2500  -999.2500     1.3524  -999.2500   -93.3387    13.8686     -.0399    53.4919     2.2322
 3418.5000    44.4602     1.3892  -999.2500  -999.2500     1.3629  -999.2500   -93.9976    13.6648     -.0314    55.3303     2.2349
 3419.0000    44.9319     1.3892  -999.2500  -999.2500     1.3734  -999.2500   -94.6727    13.3580     -.0261    58.1238     2.2349
 3419.5000    43.9488     1.3983  -999.2500  -999.2500     1.3839  -999.2500   -95.5479    13.0280     -.0227    59.8618     2.2306
 3420.0000    41.2550     1.4112  -999.2500  -999.2500     1.3944  -999.2500   -96.4230    12.7094     -.0218    61.1932     2.2287
 3420.5000    39.3483     1.4242  -999.2500  -999.2500     1.4049  -999.2500   -96.7457    12.5444     -.0229    62.0524     2.2302
 3421.0000    38.0513     1.4290  -999.2500  -999.2500     1.4154  -999.2500   -95.4644    12.5609     -.0186    61.2893     2.2282
 3421.5000    37.3399     1.4012  -999.2500  -999.2500     1.4117  -999.2500   -94.1825    12.6023     -.0160    59.3297     2.2110
 3422.0000    37.2775     1.3734  -999.2500  -999.2500     1.3927  -999.2500   -92.7537    13.3082     -.0162    55.3561     2.1875
 3422.5000    38.9581     1.3457  -999.2500  -999.2500     1.3736  -999.2500   -91.3066    13.9773     -.0188    51.5317     2.1626
 3423.0000    43.1203     1.3203  -999.2500  -999.2500     1.3546  -999.2500   -89.8634    14.5418     -.0214    50.7575     2.1557
 3423.5000    45.6301     1.2978  -999.2500  -999.2500     1.3356  -999.2500   -89.0988    14.7467     -.0244    52.1241     2.1531
 3424.0000    46.4811     1.2753  -999.2500  -999.2500     1.3165  -999.2500   -88.3344    14.8971     -.0291    53.5104     2.1451
 3424.5000    45.8721     1.2606  -999.2500  -999.2500     1.2975  -999.2500   -88.0095    15.0091     -.0333    55.2231     2.1342
 3425.0000    45.7462     1.2513  -999.2500  -999.2500     1.2784  -999.2500   -87.8171    14.8251     -.0336    57.2936     2.1271
 3425.5000    46.4881     1.2520  -999.2500  -999.2500     1.2594  -999.2500   -88.4390    14.5963     -.0291    59.6979     2.1430
 3426.0000    46.9332     1.2603  -999.2500  -999.2500     1.2404  -999.2500   -89.0604    13.8982     -.0230    61.9224     2.1648
