~VERSION INFORMATION
VERS.                             2.0:   CWLS Log ASCII Standard-VERSION 2.0
WRAP.                              NO:   One line per depth step
~Well Information Block
STRT.F                      3964.0000:   Top Depth
STOP.F                      6748.0000:   Bottom Depth
STEP.F                         .50000:   Depth Increment
NULL.                        -999.250:   Null Value
FLD .                     MU BLK A 26:   Field Name
WELL.       OCSG13276   001 ST00 BP00:   NAME
API .                    427024021500:   WELL API
EDF .F                        73.0000:   ELEV DRILL FLOOR
COMP.                  ORYX ENERGY CO:   OPERATOR
BN  .                            A 26:   BLOCK
CTRY.                             USA:   COUNTRY NAME
CNTY.                        MG ILD L:   COUNTY NAME
EGL .F                      -290.0000:   ELEV GROUND LEVEL
TDD .F                       6750.000:   FINAL TD DRILLER
STAT.                           TEXAS:   STATE NAME
UWI .                    427024021500:   WELL API
DICO.               IHS : Digitizing Company
~PARAMETER INFORMATION (zones)
#MNEM.UNIT                       Value     Description
#=========                       =====     ===========
#ZONATION                          CNL:   ZONATION NAME
#ZONE                            RUN_1:   ZONE NAME
TOP .                       3970.0000:   TOP DEPTH
BOT .                       6744.5000:   BOTTOM DEPTH
RUN .                               1:   RUN NUMBER
LCCD.                             510:   LOGGING CONTRACTOR
SRVC.                   Western Atlas:   LOGGING CONT NAME
DICO.          QC Data Collectors Ltd:   DIG COMPANY NAME
LDAT.                      08/29/1993:   DATE LOGGED
TDD .F                      6750.0000:   TOTAL DEPTH DRILLER
TDL .F                      6749.0000:   TOTAL DEPTH LOGGER
BOTL.F                      6746.0000:   BOTTOM DEPTH LOGGED
TOPL.F                      3998.0000:   TOP DEPTH LOGGED
CS1 .IN                       13.3750:   CASING SIZE 1
BS1 .IN                       12.2500:   BIT SIZE 1
DDB1.F                      6750.0000:   DEPTH DRILLED BIT 1
BHF .                              32:   FLUID CODE
DPT .                          low PH:   DRILLING FLUID TYPE
MUDD.                         11.5000:   FLUID DENSITY
MUDV.                         46.0000:   FLUID VISCOSITY
DFPH.                          8.8000:   FLUID PH
FL  .                          5.0000:   FLUID LOSS
RM  .OHMM                      1.2400:   RM
RMT .DEGF                     75.0000:   RM TEMP
RMF .OHMM                      1.1400:   RMF
RMFT.DEGF                     75.0000:   RMF TEMP
FSC .                               M:   RMF CODE
RMC .OHMM                      1.8000:   RMC
RMCT.DEGF                     75.0000:   RMC TEMP
CMC .                               M:   RMC CODE
TMAX.DEGF                    164.0000:   MAX REC TEMP
TIMC.                         10.0000:   TIME SINCE CIRCLN
~PARAMETER INFORMATION (zones)
#MNEM.UNIT                       Value     Description
#=========                       =====     ===========
#ZONATION                          DIL:   ZONATION NAME
#ZONE                            RUN_1:   ZONE NAME
TOP .                       3986.0000:   TOP DEPTH
BOT .                       6748.5000:   BOTTOM DEPTH
RUN .                               1:   RUN NUMBER
LCCD.                             510:   LOGGING CONTRACTOR
SRVC.                   Western Atlas:   LOGGING CONT NAME
DICO.          QC Data Collectors Ltd:   DIG COMPANY NAME
LDAT.                      08/29/1993:   DATE LOGGED
TDD .F                      6750.0000:   TOTAL DEPTH DRILLER
TDL .F                      6750.0000:   TOTAL DEPTH LOGGER
BOTL.F                      6748.0000:   BOTTOM DEPTH LOGGED
TOPL.F                      3998.0000:   TOP DEPTH LOGGED
CS1 .IN                       13.3750:   CASING SIZE 1
BS1 .IN                       12.2500:   BIT SIZE 1
DDB1.F                      6750.0000:   DEPTH DRILLED BIT 1
BHF .                              32:   FLUID CODE
DPT .                          low PH:   DRILLING FLUID TYPE
MUDD.                         11.5000:   FLUID DENSITY
MUDV.                         46.0000:   FLUID VISCOSITY
DFPH.                          8.8000:   FLUID PH
FL  .                          5.0000:   FLUID LOSS
RM  .OHMM                      1.2400:   RM
RMT .DEGF                     75.0000:   RM TEMP
RMF .OHMM                      1.1400:   RMF
RMFT.DEGF                     75.0000:   RMF TEMP
FSC .                               M:   RMF CODE
RMC .OHMM                      1.8000:   RMC
RMCT.DEGF                     75.0000:   RMC TEMP
CMC .                               M:   RMC CODE
TMAX.DEGF                    158.0000:   MAX REC TEMP
TIMC.                          6.0000:   TIME SINCE CIRCLN
~PARAMETER INFORMATION (zones)
#MNEM.UNIT                       Value     Description
#=========                       =====     ===========
#ZONATION                          FDC:   ZONATION NAME
#ZONE                            RUN_1:   ZONE NAME
TOP .                       3964.0000:   TOP DEPTH
BOT .                       6746.5000:   BOTTOM DEPTH
RUN .                               1:   RUN NUMBER
LCCD.                             510:   LOGGING CONTRACTOR
SRVC.                   Western Atlas:   LOGGING CONT NAME
DICO.          QC Data Collectors Ltd:   DIG COMPANY NAME
LDAT.                      08/29/1993:   DATE LOGGED
TDD .F                      6750.0000:   TOTAL DEPTH DRILLER
TDL .F                      6749.0000:   TOTAL DEPTH LOGGER
BOTL.F                      6746.0000:   BOTTOM DEPTH LOGGED
TOPL.F                      3998.0000:   TOP DEPTH LOGGED
CS1 .IN                       13.3750:   CASING SIZE 1
BS1 .IN                       12.2500:   BIT SIZE 1
DDB1.F                      6750.0000:   DEPTH DRILLED BIT 1
BHF .                              32:   FLUID CODE
DPT .                          low PH:   DRILLING FLUID TYPE
MUDD.                         11.5000:   FLUID DENSITY
MUDV.                         46.0000:   FLUID VISCOSITY
DFPH.                          8.8000:   FLUID PH
FL  .                          5.0000:   FLUID LOSS
RM  .OHMM                      1.2400:   RM
RMT .DEGF                     75.0000:   RM TEMP
RMF .OHMM                      1.1400:   RMF
RMFT.DEGF                     75.0000:   RMF TEMP
FSC .                               M:   RMF CODE
RMC .OHMM                      1.8000:   RMC
RMCT.DEGF                     75.0000:   RMC TEMP
CMC .                               M:   RMC CODE
TMAX.DEGF                    164.0000:   MAX REC TEMP
TIMC.                         10.0000:   TIME SINCE CIRCLN
~Curve Information Block
#MNEM.UNIT                    API CODE    No Description
#=========                    ========    == ===========
DEPT.F                   00 001 00 00:     1  DEPTH
NPHI.%                               :     2  Neutron Porosity
DT.US/F                              :     3  Sonic Transit Time
GR.GAPI                              :     4  Gamma Ray
ILD.OHMM                             :     5  Deep Induction Resistivity
ILM.OHMM                             :     6  Medium Induction Resistivity
RFOC.OHMM                            :     7  Medium Resistivity
SP.MV                                :     8  Spontaneous Potential
CALI.IN                              :     9  Caliper
DPHI.%                               :    10  Porosity
DRHO.G/C3                            :    11  Bulk Density Correction
GRD.GAPI                             :    12  Gamma Ray
~ASCII
# ...
 5611.0000    34.3573   103.9292    56.8297     1.2320     1.2685     1.4702   -76.4742    11.5793    15.6352      .0498    60.2839
 5611.5000    33.7458   104.2771    55.6191     1.2612     1.3134     1.4341   -76.2186    11.5184    15.9574      .0573    60.8116
 5612.0000    32.4990   104.0747    51.6429     1.2862     1.3591     1.4128   -75.9847    11.4857    16.4740      .0723    60.7809
 5612.5000    31.0082   101.3235    47.6056     1.2991     1.3868     1.4867   -76.3165    11.4625    16.2393      .0817    59.8806
 5613.0000    30.3297    98.3175    45.7159     1.3066     1.3870     1.6042   -77.0989    11.4595    15.6877      .0631    58.8461
 5613.5000    28.4387    96.0548    45.8976     1.3160     1.3711     1.7181   -77.8789    11.6407    15.8517      .0462    58.0086
 5614.0000    29.1209    94.3644    50.6104     1.3185     1.3503     1.6368   -78.6558    12.0762    17.1089      .0359    57.3627
 5614.5000    30.5767    95.0916    54.0965     1.3205     1.3427     1.5273   -79.0726    12.2081    18.7262      .0630    57.1965
 5615.0000    32.6016    97.5304    53.2762     1.3204     1.3386     1.4629   -79.1918    12.2681    19.7870      .0611    57.4618
 5615.5000    33.6803   100.7413    50.9431     1.3199     1.3300     1.4534   -78.9597    12.3291    20.8292      .0601    59.5136
 5616.0000    33.3485   103.1451    48.2833     1.3165     1.3223     1.4894   -78.4270    12.3616    20.9282      .0865    60.1953
 5616.5000    31.6018   102.5155    45.8976     1.3132     1.3157     1.5674   -77.9767    12.3684    19.5891      .0759    59.4465
 5617.0000    30.3044   100.0342    44.0833     1.3083     1.3138     1.6204   -77.5809    12.3714    17.9287      .0549    58.5486
 5617.5000    30.1709    98.0825    43.6551     1.3032     1.3121     1.6193   -77.2821    12.3712    16.8024      .0348    57.7703
 5618.0000    31.1019    96.3584    47.1553     1.2921     1.3104     1.5608   -77.2482    12.3578    17.1067      .0375    57.2814
 5618.5000    32.1761    98.5349    51.9708     1.2783     1.3051     1.5004   -77.3993    12.3420    17.8298      .0467    58.7894
 5619.0000    32.3004   101.0287    53.3655     1.2582     1.2902     1.4897   -77.9388    12.3417    18.4498      .0515    60.7919
 5619.5000    31.6375   101.6949    52.9367     1.2220     1.2659     1.5376   -78.8766    12.4055    17.9923      .0403    61.8006
 5620.0000    31.9782   101.3776    54.0017     1.1836     1.2335     1.5485   -79.6993    12.5043    17.4935      .0274    60.1195
 5620.5000    33.1938   101.2217    56.0656     1.1426     1.2007     1.5028   -80.3762    12.6065    18.4167      .0270    58.4821
 5621.0000    34.5195   102.6929    56.3262     1.0949     1.1670     1.4656   -80.3129    12.6591    19.6241      .0418    58.8608
 5621.5000    36.0333   105.0468    54.2244     1.0505     1.1221     1.4319   -79.9559    12.6676    20.5637      .0576    59.6829
 5622.0000    36.7214   107.2507    52.7318     1.0137     1.0811     1.4050   -79.5131    12.6468    21.1558      .0732    60.3273
 5622.5000    37.1086   109.5371    53.4634      .9857     1.0430     1.3823   -79.0885    12.6199    21.3983      .0842    60.6802
 5623.0000    37.3330   111.7872    55.0526      .9614     1.0105     1.3641   -78.6387    12.5827    21.1668      .0967    60.5256
 5623.5000    37.1511   112.5657    57.1655      .9473      .9879     1.3512   -78.1841    12.5461    20.8326      .0900    60.4597
 5624.0000    36.8531   113.0654    60.2094      .9173      .9778     1.3396   -77.8159    12.4940    20.3204      .0799    61.2082
 5624.5000    36.6097   113.4268    61.1453      .8937      .9674     1.3255   -77.4843    12.4256    19.7498      .0710    63.4337
 5625.0000    36.7551   113.7479    59.6050      .8805      .9571     1.3169   -77.3533    12.3695    19.2416      .0650    63.3924
 5625.5000    37.0179   114.0778    57.9656      .8739      .9463     1.3114   -77.3997    12.3324    19.5419      .0627    62.9413
 5626.0000    37.1721   114.2709    56.5770      .8697      .9347     1.3100   -77.3469    12.2957    20.0459      .0621    62.6230
 5626.5000    37.1388   114.3076    56.2105      .8690      .9240     1.3075   -77.1647    12.2772    20.4974      .0616    62.7808
 5627.0000    36.9636   114.4069    56.5232      .8682      .9203     1.3034   -76.4951    12.2643    20.8095      .0563    63.2452
 5627.5000    36.9327   114.6232    58.0782      .8734      .9209     1.2990   -75.7532    12.2617    20.8760      .0530    63.8931
 5628.0000    37.2813   114.7925    59.9855      .8786      .9252     1.2945   -75.3394    12.2626    20.7615      .0506    64.3296
 5628.5000    37.6368   114.8446    61.3105      .8854      .9331     1.2898   -75.2467    12.2611    20.5220      .0464    63.8278
 5629.0000    37.8297   114.3217    61.1233      .8935      .9410     1.2879   -75.3383    12.2527    20.1962      .0399    63.7656
 5629.5000    37.5884   113.3265    59.5610      .9023      .9499     1.2905   -75.5553    12.2130    19.8703      .0371    64.5371
 5630.0000    37.0168   112.7390    56.3556      .9141      .9626     1.3012   -75.8354    12.1775    19.6595      .0404    64.2649
 5630.5000    36.3971   113.0530    53.6836      .9260      .9765     1.3146   -76.1495    12.1588    19.6046      .0463    62.7551
 5631.0000    35.7863   113.2837    55.0172      .9363      .9839     1.3309   -76.4727    12.1518    19.4307      .0535    61.3437
 5631.5000    35.4006   113.2285    56.9758      .9465      .9914     1.3538   -76.5804    12.1495    18.9330      .0592    61.8265
 5632.0000    35.1887   111.5836    57.6322      .9571      .9969     1.3699   -76.6005    12.1443    18.2159      .0608    62.4367
 5632.5000    35.2630   109.7120    56.8248      .9683     1.0010     1.3667   -76.4301    12.1381    17.8024      .0610    62.8748
 5633.0000    35.4828   108.8689    56.1583      .9786     1.0055     1.3458   -76.1615    12.1335    18.3617      .0588    63.2131
 5633.5000    35.6422   109.5396    56.4914      .9876     1.0105     1.3166   -76.2404    12.1294    19.1614      .0517    62.8745
 5634.0000    35.5799   111.4937    57.6781      .9967     1.0164     1.2950   -76.4303    12.1241    20.0355      .0428    59.8486
 5634.5000    35.4444   113.3029    57.8800     1.0056     1.0254     1.3005   -76.6227    12.1184    20.5305      .0343    59.8424
 5635.0000    35.3513   113.7157    56.5941     1.0146     1.0346     1.3288   -76.2198    12.1139    20.6302      .0284    61.2944
 5635.5000    35.0037   112.5931    55.5652     1.0220     1.0411     1.3586   -75.5084    12.1100    20.1939      .0308    62.5309
 5636.0000    34.4629   111.1001    54.7877     1.0290     1.0476     1.3782   -74.6930    12.1055    19.4575      .0324    62.7138
 5636.5000    34.6621   109.8425    53.8573     1.0336     1.0547     1.3827   -73.9265    12.1000    18.9412      .0314    62.3659
 5637.0000    34.8263   109.2466    52.8511     1.0347     1.0622     1.3867   -73.1974    12.0969    19.0137      .0293    61.5580
 5637.5000    34.6673   108.7244    52.2583     1.0348     1.0726     1.3884   -72.5955    12.0924    19.2990      .0298    60.3818
 5638.0000    34.4287   108.2415    54.4666     1.0355     1.0825     1.3899   -72.2633    12.0862    19.4414      .0322    60.6719
 5638.5000    34.7969   107.7074    57.1019     1.0374     1.0890     1.3959   -72.2432    12.0797    19.3278      .0336    60.8242
 5639.0000    35.4047   107.1357    59.1132     1.0400     1.0893     1.3991   -72.4474    12.0841    18.7924      .0364    60.7778
 5639.5000    35.8881   106.6123    58.9150     1.0433     1.0811     1.3976   -72.5502    12.0854    18.0849      .0429    60.5931
 5640.0000    35.7190   106.1268    57.1802     1.0464     1.0712     1.3909   -72.5502    12.0829    17.3566      .0461    60.6633
 5640.5000    35.5126   105.6818    55.5408     1.0478     1.0771     1.3775   -72.4127    12.0798    16.9935      .0462    61.4988
 5641.0000    35.3412   105.9020    55.9482     1.0607     1.0987     1.3637   -72.8695    12.0755    17.4935      .0469    62.4044
