~VERSION INFORMATION
VERS.                             2.0:   CWLS Log ASCII Standard-VERSION 2.0
WRAP.                              NO:   One line per depth step
~Well Information Block
STRT.F                      1238.0000:   Top Depth
STOP.F                      5786.0000:   Bottom Depth
STEP.F                         .50000:   Depth Increment
NULL.                        -999.250:   Null Value
FLD .                     MU BLK A 18:   Field Name
WELL.       OCSG05167   001 ST00 BP00:   NAME
API .                    427024015100:   WELL API
R1  .            STANDARD OIL PROD CO:   COMMENT  1
EDF .F                       884.0000:   ELEV DRILL FLOOR
COMP.            STANDARD OIL PROD CO:   OPERATOR
BN  .                            A 18:   BLOCK
CTRY.                             USA:   COUNTRY NAME
CNTY.                        MG ILD L:   COUNTY NAME
EKB .F                        85.0000:   ELEV KELLY BUSHING
TDD .F                       5792.000:   FINAL TD DRILLER
STAT.                           TEXAS:   STATE NAME
UWI .                    427024015100:   WELL API
DICO.               IHS : Digitizing Company
~PARAMETER INFORMATION (zones)
#MNEM.UNIT                       Value     Description
#=========                       =====     ===========
#ZONATION                          CNL:   ZONATION NAME
#ZONE                            RUN_0:   ZONE NAME
TOP .                       3294.0000:   TOP DEPTH
BOT .                       5786.5000:   BOTTOM DEPTH
RUN .                               0:   RUN NUMBER
LCCD.                             440:   LOGGING CONTRACTOR
SRVC.                    Schlumberger:   LOGGING CONT NAME
DICO.          QC Data Collectors Ltd:   DIG COMPANY NAME
LDAT.                      11/28/1987:   DATE LOGGED
ELD .F                        85.0000:   LOG DATUM ELEVATION
TDD .F                      5785.0000:   TOTAL DEPTH DRILLER
TDL .F                      5792.0000:   TOTAL DEPTH LOGGER
BOTL.F                      5786.0000:   BOTTOM DEPTH LOGGED
TOPL.F                      3300.0000:   TOP DEPTH LOGGED
CS1 .IN                       10.7500:   CASING SIZE 1
BS1 .IN                        9.8750:   BIT SIZE 1
DDB1.F                      5785.0000:   DEPTH DRILLED BIT 1
BHF .                              81:   FLUID CODE
DPT .          Lignosulfonate (Ligno):   DRILLING FLUID TYPE
MUDD.                         11.0000:   FLUID DENSITY
MUDV.                         41.0000:   FLUID VISCOSITY
DFPH.                         10.0000:   FLUID PH
FL  .                         10.0000:   FLUID LOSS
RM  .OHMM                       .9400:   RM
~PARAMETER INFORMATION (zones)
#MNEM.UNIT                       Value     Description
#=========                       =====     ===========
#ZONATION                          DIL:   ZONATION NAME
#ZONE                            RUN_1:   ZONE NAME
TOP .                       1238.0000:   TOP DEPTH
BOT .                       5786.5000:   BOTTOM DEPTH
RUN .                               1:   RUN NUMBER
LCCD.                             440:   LOGGING CONTRACTOR
SRVC.                    Schlumberger:   LOGGING CONT NAME
DICO.          QC Data Collectors Ltd:   DIG COMPANY NAME
LDAT.                      11/23/1987:   DATE LOGGED
ELD .F                        85.0000:   LOG DATUM ELEVATION
TDD .F                      3540.0000:   TOTAL DEPTH DRILLER
TDL .F                      3539.0000:   TOTAL DEPTH LOGGER
BOTL.F                      3533.0000:   BOTTOM DEPTH LOGGED
TOPL.F                      1294.0000:   TOP DEPTH LOGGED
CS1 .IN                       16.0000:   CASING SIZE 1
BS1 .IN                       13.5000:   BIT SIZE 1
DDB1.F                      3540.0000:   DEPTH DRILLED BIT 1
BHF .                              81:   FLUID CODE
DPT .          Lignosulfonate (Ligno):   DRILLING FLUID TYPE
MUDV.                         38.0000:   FLUID VISCOSITY
DFPH.                          8.0000:   FLUID PH
FL  .                         29.2000:   FLUID LOSS
RMF .OHMM                       .2400:   RMF
FSC .                               C:   RMF CODE
TMAX.DEGF                    120.0000:   MAX REC TEMP
TIMC.                          4.0000:   TIME SINCE CIRCLN
~PARAMETER INFORMATION (zones)
#MNEM.UNIT                       Value     Description
#=========                       =====     ===========
#ZONATION                          FDC:   ZONATION NAME
#ZONE                            RUN_0:   ZONE NAME
TOP .                       3294.0000:   TOP DEPTH
BOT .                       5786.5000:   BOTTOM DEPTH
RUN .                               0:   RUN NUMBER
LCCD.                             440:   LOGGING CONTRACTOR
SRVC.                    Schlumberger:   LOGGING CONT NAME
DICO.          QC Data Collectors Ltd:   DIG COMPANY NAME
LDAT.                      11/28/1987:   DATE LOGGED
ELD .F                        85.0000:   LOG DATUM ELEVATION
TDD .F                      5785.0000:   TOTAL DEPTH DRILLER
TDL .F                      5792.0000:   TOTAL DEPTH LOGGER
BOTL.F                      5786.0000:   BOTTOM DEPTH LOGGED
TOPL.F                      3300.0000:   TOP DEPTH LOGGED
CS1 .IN                       10.7500:   CASING SIZE 1
BS1 .IN                        9.8750:   BIT SIZE 1
DDB1.F                      5785.0000:   DEPTH DRILLED BIT 1
BHF .                              81:   FLUID CODE
DPT .          Lignosulfonate (Ligno):   DRILLING FLUID TYPE
MUDD.                         11.0000:   FLUID DENSITY
MUDV.                         41.0000:   FLUID VISCOSITY
DFPH.                         10.0000:   FLUID PH
FL  .                         10.0000:   FLUID LOSS
RM  .OHMM                       .9400:   RM
~Curve Information Block
#MNEM.UNIT                    API CODE    No Description
#=========                    ========    == ===========
DEPT.F                   00 001 00 00:     1  DEPTH
NPHI.DEC                              :     2  Neutron Porosity
DT.US/F                              :     3  Sonic Transit Time
GR.GAPI                              :     4  Gamma Ray
ILD.OHMM                             :     5  Deep Induction Resistivity
ILM.OHMM                             :     6  Medium Induction Resistivity
SFL.OHMM                             :     7  Medium Resistivity
SP.MV                                :     8  Spontaneous Potential
CALI.IN                              :     9  Caliper
DPHI.DEC                              :    10  Porosity
DRHO.G/C3                            :    11  Bulk Density Correction
GR.GAPI                              :    12  Gamma Ray
~ASCII
# ...
 5752.0000      .3922  -999.2500  -999.2500     1.0231     1.0234     1.3847   -36.2672    10.2216      .1718      .0166    79.6910
 5752.5000      .3986  -999.2500  -999.2500     1.0279     1.0217     1.3035   -36.1107    10.2214      .1763      .0189    81.5128
 5753.0000      .3961  -999.2500  -999.2500     1.0479     1.0399     1.2358   -35.8912    10.2107      .1819      .0210    80.2987
 5753.5000      .3895  -999.2500  -999.2500     1.0789     1.0682     1.2022   -35.6245    10.1908      .1872      .0183    77.9308
 5754.0000      .3736  -999.2500  -999.2500     1.1147     1.1156     1.2489   -35.5028    10.1652      .1889      .0154    76.2091
 5754.5000      .3455  -999.2500  -999.2500     1.1436     1.1847     1.4146   -35.6349    10.1209      .1809      .0134    74.7357
 5755.0000      .3153  -999.2500  -999.2500     1.1615     1.2374     1.6585   -35.8550    10.0721      .1693      .0129    72.7223
 5755.5000      .3013  -999.2500  -999.2500     1.1744     1.2543     1.9138   -36.2446    10.0269      .1578      .0148    69.2524
 5756.0000      .3160  -999.2500  -999.2500     1.1863     1.2502     1.9794   -36.6873     9.9925      .1500      .0231    68.0950
 5756.5000      .3297  -999.2500  -999.2500     1.1888     1.2013     1.8303   -36.9732     9.9899      .1502      .0318    71.2441
 5757.0000      .3531  -999.2500  -999.2500     1.1563     1.1314     1.4870   -37.0718    10.0107      .1675      .0335    75.4012
 5757.5000      .3630  -999.2500  -999.2500     1.1200     1.0901     1.2320   -37.1122    10.0527      .1819      .0239    78.7362
 5758.0000      .3719  -999.2500  -999.2500     1.0810     1.0600     1.1544   -37.1110    10.0695      .1915      .0157    81.0172
 5758.5000      .3750  -999.2500  -999.2500     1.0406     1.0262     1.1525   -37.1309    10.0629      .1948      .0137    80.8020
 5759.0000      .3773  -999.2500  -999.2500     1.0135     1.0007     1.1941   -37.1613    10.0473      .1915      .0121    80.7939
 5759.5000      .3784  -999.2500  -999.2500      .9960      .9836     1.2540   -37.1512    10.0261      .1881      .0098    81.3356
 5760.0000      .3805  -999.2500  -999.2500      .9839      .9703     1.3096   -37.1230    10.0104      .1853      .0094    82.9438
 5760.5000      .3829  -999.2500  -999.2500      .9762      .9820     1.3056   -37.1493    10.0007      .1867      .0108    85.3118
 5761.0000      .3840  -999.2500  -999.2500      .9814      .9845     1.2987   -37.1912     9.9930      .1877      .0147    87.1046
 5761.5000      .3845  -999.2500  -999.2500      .9876      .9789     1.2981   -37.2885     9.9879      .1849      .0225    87.6887
 5762.0000      .3820  -999.2500  -999.2500      .9924      .9762     1.3121   -37.3469     9.9883      .1801      .0326    87.0576
 5762.5000      .3803  -999.2500  -999.2500      .9944      .9737     1.3121   -37.3732     9.9950      .1761      .0394    82.6207
 5763.0000      .3833  -999.2500  -999.2500      .9956      .9702     1.2766   -37.4222    10.0019      .1758      .0429    78.9242
 5763.5000      .3914  -999.2500  -999.2500      .9901      .9629     1.2462   -37.4672    10.0059      .1802      .0402    77.1630
 5764.0000      .4075  -999.2500  -999.2500      .9746      .9532     1.2186   -37.5093    10.0028      .1869      .0274    77.9368
 5764.5000      .4170  -999.2500  -999.2500      .9495      .9432     1.1945   -37.4863    10.0023      .1961      .0158    80.2239
 5765.0000      .4187  -999.2500  -999.2500      .9297      .9276     1.1789   -37.4819    10.0026      .2027      .0066    83.7445
 5765.5000      .4189  -999.2500  -999.2500      .9242      .9182     1.1671   -37.5146    10.0023      .2042      .0068    85.9001
 5766.0000      .4175  -999.2500  -999.2500      .9201      .9150     1.1599   -37.5389     9.9988      .2025      .0076    86.8674
 5766.5000      .4094  -999.2500  -999.2500      .9185      .9167     1.1632   -37.5547     9.9864      .1990      .0105    85.0369
 5767.0000      .3968  -999.2500  -999.2500      .9205      .9146     1.1702   -37.5206     9.9808      .1956      .0134    83.2357
 5767.5000      .3881  -999.2500  -999.2500      .9219      .9169     1.1818   -37.4680     9.9784      .1942      .0151    82.7163
 5768.0000      .3871  -999.2500  -999.2500      .9230      .9205     1.1972   -37.4120     9.9820      .1934      .0166    83.1826
 5768.5000      .3905  -999.2500  -999.2500      .9232      .9240     1.2100   -37.4451    10.0010      .1928      .0167    83.7842
 5769.0000      .3932  -999.2500  -999.2500      .9232      .9251     1.2079   -37.4767    10.0218      .1938      .0157    84.5149
 5769.5000      .3921  -999.2500  -999.2500      .9222      .9255     1.1790   -37.4742    10.0429      .1954      .0147    84.4757
 5770.0000      .3893  -999.2500  -999.2500      .9212      .9250     1.1664   -37.4918    10.0560      .1975      .0147    83.5009
 5770.5000      .3857  -999.2500  -999.2500      .9201      .9217     1.1759   -37.5356    10.0743      .1988      .0160    82.5936
 5771.0000      .3869  -999.2500  -999.2500      .9171      .9162     1.2100   -37.6368    10.0877      .1946      .0174    82.1301
 5771.5000      .3926  -999.2500  -999.2500      .9138      .9104     1.2195   -37.7429    10.0911      .1902      .0181    82.2043
 5772.0000      .3937  -999.2500  -999.2500      .9099      .9043     1.1991   -37.8652    10.0836      .1901      .0166    82.6147
 5772.5000      .3877  -999.2500  -999.2500      .9016      .8976     1.1912   -37.9875    10.0747      .1936      .0143    82.6014
 5773.0000      .3828  -999.2500  -999.2500      .8899      .8862     1.1827   -38.0925    10.0676      .1966      .0116    80.0142
 5773.5000      .3815  -999.2500  -999.2500      .8730      .8765     1.1621   -38.1961    10.0585      .1984      .0102    77.6011
 5774.0000      .3843  -999.2500  -999.2500      .8653      .8738     1.1400   -38.2201    10.0503      .1995      .0098    78.5782
 5774.5000      .3811  -999.2500  -999.2500      .8679      .8800     1.1003   -38.2325    10.0528      .1999      .0108    80.3276
 5775.0000      .3697  -999.2500  -999.2500      .8796      .8916     1.0550   -38.3893    10.0558      .1999      .0133    82.1409
 5775.5000      .3565  -999.2500  -999.2500      .8957      .9036     1.0801   -38.5439    10.0592      .1998      .0155    82.8257
 5776.0000      .3486  -999.2500  -999.2500      .9167      .9208     1.1289   -38.6563    10.0581      .1957      .0154    82.1072
 5776.5000      .3574  -999.2500  -999.2500      .9375      .9442     1.1953   -38.7734    10.0502      .1889      .0155    82.2567
 5777.0000      .3576  -999.2500  -999.2500      .9596      .9661     1.2540   -38.8956    10.0402      .1816      .0159    83.8192
 5777.5000      .3560  -999.2500  -999.2500      .9880      .9893     1.2977   -39.0082    10.0234      .1741      .0156    86.5585
 5778.0000      .3584  -999.2500  -999.2500     1.0138     1.0150     1.3321   -39.1166    10.0075      .1712      .0139    89.2157
 5778.5000      .3742  -999.2500  -999.2500     1.0391     1.0429     1.3490   -39.2094     9.9926      .1720      .0105  -999.2500
 5779.0000      .3942  -999.2500  -999.2500     1.0710     1.0726     1.3626   -39.2962     9.9808      .1750      .0072  -999.2500
 5779.5000      .4046  -999.2500  -999.2500     1.1035     1.1062     1.3557   -39.3893     9.9818      .1786      .0114  -999.2500
 5780.0000      .3974  -999.2500  -999.2500     1.1325     1.1396     1.3227   -39.4851     9.9876      .1800      .0182  -999.2500
 5780.5000      .3836  -999.2500  -999.2500     1.1593     1.1668     1.3080   -39.6378     9.9935      .1748      .0266  -999.2500
 5781.0000      .3702  -999.2500  -999.2500     1.1821     1.1918     1.4396   -39.7971     9.9881      .1693      .0247  -999.2500
 5781.5000      .3651  -999.2500  -999.2500     1.2013     1.2125     1.6147   -39.9445     9.9779      .1665      .0205  -999.2500
 5782.0000      .3738  -999.2500  -999.2500     1.2125     1.2215     1.7180   -40.1418     9.9656      .1626      .0195  -999.2500
