~VERSION INFORMATION
VERS.                             2.0:   CWLS Log ASCII Standard-VERSION 2.0
WRAP.                              NO:   One line per depth step
~Well Information Block
STRT.F                      3964.0000:   Top Depth
STOP.F                      6748.0000:   Bottom Depth
STEP.F                         .50000:   Depth Increment
NULL.                        -999.250:   Null Value
FLD .                     MU BLK A 26:   Field Name
WELL.       OCSG13276   001 ST00 BP00:   NAME
API .                    427024021500:   WELL API
EDF .F                        73.0000:   ELEV DRILL FLOOR
COMP.                  ORYX ENERGY CO:   OPERATOR
BN  .                            A 26:   BLOCK
CTRY.                             USA:   COUNTRY NAME
CNTY.                        MG ILD L:   COUNTY NAME
EGL .F                      -290.0000:   ELEV GROUND LEVEL
TDD .F                       6750.000:   FINAL TD DRILLER
STAT.                           TEXAS:   STATE NAME
UWI .                    427024021500:   WELL API
DICO.               IHS : Digitizing Company
~PARAMETER INFORMATION (zones)
#MNEM.UNIT                       Value     Description
#=========                       =====     ===========
#ZONATION                          CNL:   ZONATION NAME
#ZONE                            RUN_1:   ZONE NAME
TOP .                       3970.0000:   TOP DEPTH
BOT .                       6744.5000:   BOTTOM DEPTH
RUN .                               1:   RUN NUMBER
LCCD.                             510:   LOGGING CONTRACTOR
SRVC.                   Western Atlas:   LOGGING CONT NAME
DICO.          QC Data Collectors Ltd:   DIG COMPANY NAME
LDAT.                      08/29/1993:   DATE LOGGED
TDD .F                      6750.0000:   TOTAL DEPTH DRILLER
TDL .F                      6749.0000:   TOTAL DEPTH LOGGER
BOTL.F                      6746.0000:   BOTTOM DEPTH LOGGED
TOPL.F                      3998.0000:   TOP DEPTH LOGGED
CS1 .IN                       13.3750:   CASING SIZE 1
BS1 .IN                       12.2500:   BIT SIZE 1
DDB1.F                      6750.0000:   DEPTH DRILLED BIT 1
BHF .                              32:   FLUID CODE
DPT .                          low PH:   DRILLING FLUID TYPE
MUDD.                         11.5000:   FLUID DENSITY
MUDV.                         46.0000:   FLUID VISCOSITY
DFPH.                          8.8000:   FLUID PH
FL  .                          5.0000:   FLUID LOSS
RM  .OHMM                      1.2400:   RM
RMT .DEGF                     75.0000:   RM TEMP
RMF .OHMM                      1.1400:   RMF
RMFT.DEGF                     75.0000:   RMF TEMP
FSC .                               M:   RMF CODE
RMC .OHMM                      1.8000:   RMC
RMCT.DEGF                     75.0000:   RMC TEMP
CMC .                               M:   RMC CODE
TMAX.DEGF                    164.0000:   MAX REC TEMP
TIMC.                         10.0000:   TIME SINCE CIRCLN
~PARAMETER INFORMATION (zones)
#MNEM.UNIT                       Value     Description
#=========                       =====     ===========
#ZONATION                          DIL:   ZONATION NAME
#ZONE                            RUN_1:   ZONE NAME
TOP .                       3986.0000:   TOP DEPTH
BOT .                       6748.5000:   BOTTOM DEPTH
RUN .                               1:   RUN NUMBER
LCCD.                             510:   LOGGING CONTRACTOR
SRVC.                   Western Atlas:   LOGGING CONT NAME
DICO.          QC Data Collectors Ltd:   DIG COMPANY NAME
LDAT.                      08/29/1993:   DATE LOGGED
TDD .F                      6750.0000:   TOTAL DEPTH DRILLER
TDL .F                      6750.0000:   TOTAL DEPTH LOGGER
BOTL.F                      6748.0000:   BOTTOM DEPTH LOGGED
TOPL.F                      3998.0000:   TOP DEPTH LOGGED
CS1 .IN                       13.3750:   CASING SIZE 1
BS1 .IN                       12.2500:   BIT SIZE 1
DDB1.F                      6750.0000:   DEPTH DRILLED BIT 1
BHF .                              32:   FLUID CODE
DPT .                          low PH:   DRILLING FLUID TYPE
MUDD.                         11.5000:   FLUID DENSITY
MUDV.                         46.0000:   FLUID VISCOSITY
DFPH.                          8.8000:   FLUID PH
FL  .                          5.0000:   FLUID LOSS
RM  .OHMM                      1.2400:   RM
RMT .DEGF                     75.0000:   RM TEMP
RMF .OHMM                      1.1400:   RMF
RMFT.DEGF                     75.0000:   RMF TEMP
FSC .                               M:   RMF CODE
RMC .OHMM                      1.8000:   RMC
RMCT.DEGF                     75.0000:   RMC TEMP
CMC .                               M:   RMC CODE
TMAX.DEGF                    158.0000:   MAX REC TEMP
TIMC.                          6.0000:   TIME SINCE CIRCLN
~PARAMETER INFORMATION (zones)
#MNEM.UNIT                       Value     Description
#=========                       =====     ===========
#ZONATION                          FDC:   ZONATION NAME
#ZONE                            RUN_1:   ZONE NAME
TOP .                       3964.0000:   TOP DEPTH
BOT .                       6746.5000:   BOTTOM DEPTH
RUN .                               1:   RUN NUMBER
LCCD.                             510:   LOGGING CONTRACTOR
SRVC.                   Western Atlas:   LOGGING CONT NAME
DICO.          QC Data Collectors Ltd:   DIG COMPANY NAME
LDAT.                      08/29/1993:   DATE LOGGED
TDD .F                      6750.0000:   TOTAL DEPTH DRILLER
TDL .F                      6749.0000:   TOTAL DEPTH LOGGER
BOTL.F                      6746.0000:   BOTTOM DEPTH LOGGED
TOPL.F                      3998.0000:   TOP DEPTH LOGGED
CS1 .IN                       13.3750:   CASING SIZE 1
BS1 .IN                       12.2500:   BIT SIZE 1
DDB1.F                      6750.0000:   DEPTH DRILLED BIT 1
BHF .                              32:   FLUID CODE
DPT .                          low PH:   DRILLING FLUID TYPE
MUDD.                         11.5000:   FLUID DENSITY
MUDV.                         46.0000:   FLUID VISCOSITY
DFPH.                          8.8000:   FLUID PH
FL  .                          5.0000:   FLUID LOSS
RM  .OHMM                      1.2400:   RM
RMT .DEGF                     75.0000:   RM TEMP
RMF .OHMM                      1.1400:   RMF
RMFT.DEGF                     75.0000:   RMF TEMP
FSC .                               M:   RMF CODE
RMC .OHMM                      1.8000:   RMC
RMCT.DEGF                     75.0000:   RMC TEMP
CMC .                               M:   RMC CODE
TMAX.DEGF                    164.0000:   MAX REC TEMP
TIMC.                         10.0000:   TIME SINCE CIRCLN
~Curve Information Block
#MNEM.UNIT                    API CODE    No Description
#=========                    ========    == ===========
DEPT.F                   00 001 00 00:     1  DEPTH
NPHI.%                               :     2  Neutron Porosity
DT.US/F                              :     3  Sonic Transit Time
GR.GAPI                              :     4  Gamma Ray
ILD.OHMM                             :     5  Deep Induction Resistivity
ILM.OHMM                             :     6  Medium Induction Resistivity
RFOC.OHMM                            :     7  Medium Resistivity
SP.MV                                :     8  Spontaneous Potential
CALI.IN                              :     9  Caliper
DPHI.%                               :    10  Porosity
DRHO.G/C3                            :    11  Bulk Density Correction
GRD.GAPI                             :    12  Gamma Ray
~ASCII
# ...
 6343.0000    36.6627   121.7405    58.6371      .6514      .7008     1.0454   -85.5219    12.3890    22.4164      .0764    64.3341
 6343.5000    37.1385   121.3721    58.3482      .6524      .7037     1.0615   -86.1743    12.4682    22.5044      .0751    63.9543
 6344.0000    37.6032   120.7683    57.7153      .6535      .7043     1.0755   -86.8604    12.3380    22.3566      .0764    63.6186
 6344.5000    38.0272   120.3574    57.3198      .6545      .7036     1.0734   -87.5200    12.1998    22.1198      .0798    63.4101
 6345.0000    37.6576   120.5189    57.2716      .6548      .7015     1.0616   -87.9281    12.1384    22.2253      .0834    63.7786
 6345.5000    36.7305   120.4669    56.8442      .6651      .6982     1.0457   -87.9147    12.1315    22.4867      .0874    65.4122
 6346.0000    35.7864   120.3679    56.4355      .6654      .6959     1.0373   -87.9498    12.1259    22.3210      .0897    67.5148
 6346.5000    35.6489   120.1514    59.2926      .6645      .6940     1.0380   -87.9469    12.1263    21.6764      .0895    68.6978
 6347.0000    36.4466   119.5332    63.0948      .6636      .6919     1.0391   -87.7308    12.1291    21.0355      .0863    68.0256
 6347.5000    37.2686   119.1733    62.6354      .6619      .6913     1.0464   -87.2128    12.1374    20.7503      .0819    66.0350
 6348.0000    37.7004   119.7440    62.1763      .6604      .6918     1.0548   -86.1975    12.1472    20.7766      .0767    64.2378
 6348.5000    36.7924   120.6401    62.6262      .6593      .6914     1.0613   -85.7949    12.1476    20.8850      .0710    64.0587
 6349.0000    35.8370   120.8335    60.9787      .6607      .6933     1.0658   -86.4346    12.1312    20.7710      .0657    64.1526
 6349.5000    35.4478   120.7972    57.2547      .6636      .6970     1.0691   -87.0497    12.1217    20.0109      .0622    64.1565
 6350.0000    35.9585   120.4246    55.3001      .6697      .7040     1.0608   -86.7998    12.1336    19.3171      .0619    62.9108
 6350.5000    36.4202   119.8788    55.0359      .6782      .7138     1.0510   -86.4462    12.1502    19.7977      .0655    62.7557
 6351.0000    36.3609   119.1639    54.4213      .6891      .7258     1.0539   -86.6050    12.1596    20.9417      .0791    64.9874
 6351.5000    35.8668   119.1970    54.1843      .6996      .7385     1.0713   -87.3057    12.0596    22.1862      .0987    65.0232
 6352.0000    35.6563   119.7697    54.7757      .7099      .7517     1.0835   -88.0931    11.9578    23.2391      .1003    63.3737
 6352.5000    35.5842   120.1682    55.3829      .7193      .7598     1.0795   -88.8610    11.8866    23.0409      .0941    62.1845
 6353.0000    35.3765   119.5101    55.1624      .7283      .7656     1.0747   -89.6744    11.8713    22.0043      .0886    61.0827
 6353.5000    34.8951   118.6886    55.0781      .7345      .7671     1.0767   -89.8311    11.9527    20.8433      .0840    60.2893
 6354.0000    34.6518   117.8353    56.0738      .7397      .7646     1.0901   -89.2977    12.0411    19.9170      .0723    60.2350
 6354.5000    35.1142   117.1229    55.7400      .7396      .7551     1.1044   -88.7816    12.1098    19.3640      .0528    60.9104
 6355.0000    35.5314   116.6770    55.9913      .7359      .7451     1.1053   -88.5566    12.1586    18.8990      .0361    61.8250
 6355.5000    35.6805   116.8822    57.7507      .7248      .7318     1.0931   -88.3130    12.1173    18.5687      .0305    62.7717
 6356.0000    36.0472   117.6344    59.1280      .7125      .7204     1.0709   -87.7235    11.9537    18.5834      .0259    61.8152
 6356.5000    36.3141   118.5875    59.1868      .7011      .7044     1.0483   -86.9098    11.7916    18.8550      .0274    61.6810
 6357.0000    36.6147   119.5294    59.7740      .6875      .6907     1.0318   -85.9458    11.7598    19.2217      .0302    63.6469
 6357.5000    37.4139   120.3698    61.0544      .6738      .6785     1.0210   -85.5884    11.7627    19.7307      .0338    66.1803
 6358.0000    38.8306   121.0995    62.5872      .6559      .6673     1.0149   -86.3582    11.7653    20.2232      .0375    64.9900
 6358.5000    39.3731   121.6964    61.1791      .6387      .6588     1.0140   -87.5403    11.7800    20.5841      .0391    64.8878
 6359.0000    38.1428   121.8868    59.2950      .6260      .6569     1.0200   -88.7321    11.7977    20.3701      .0408    65.5883
 6359.5000    37.2924   121.7655    59.6262      .6218      .6607     1.0311   -89.3296    11.8075    19.8924      .0427    66.6740
 6360.0000    36.6372   121.5393    60.9811      .6268      .6693     1.0433   -88.8066    11.8165    19.4445      .0442    67.1741
 6360.5000    36.7011   121.2136    61.1772      .6330      .6793     1.0507   -88.3668    11.8241    19.2491      .0448    67.0668
 6361.0000    36.8622   120.7902    60.2994      .6406      .6845     1.0529   -88.1450    11.8337    19.3415      .0448    66.9675
 6361.5000    36.9138   120.3934    59.4319      .6485      .6863     1.0620   -87.8396    11.8315    19.5440      .0427    66.8036
 6362.0000    36.8799   120.0601    58.7613      .6521      .6859     1.0460   -87.1749    11.8172    19.7899      .0415    66.4431
 6362.5000    36.7928   119.9761    60.1332      .6541      .6826     1.0339   -85.9464    11.8093    19.7834      .0410    65.9213
 6363.0000    36.6931   120.0151    63.3196      .6553      .6802     1.0218   -86.0582    11.8153    19.7061      .0435    65.3987
 6363.5000    36.9612   120.1823    66.4132      .6561      .6791     1.0317   -86.6208    11.8187    19.6703      .0467    64.6428
 6364.0000    37.4355   120.3156    64.4387      .6569      .6806     1.0447   -87.4083    11.7596    20.5854      .0497    63.4771
 6364.5000    38.0212   120.3928    61.4026      .6577      .6828     1.0508   -88.2587    11.5856    21.9343      .0526    63.4369
 6365.0000    37.2865   120.4802    61.9011      .6586      .6840     1.0546   -88.8921    11.4108    23.1020      .0553    63.5858
 6365.5000    36.5107   120.6448    63.8108      .6604      .6850     1.0556   -89.2526    11.3245    23.3785      .0578    64.4027
 6366.0000    36.1966   120.5641    64.3655      .6623      .6864     1.0560   -89.3588    11.3441    22.5379      .0599    65.6805
 6366.5000    36.5845   120.3760    60.2310      .6615      .6881     1.0576   -89.2928    11.3690    21.4439      .0562    66.0115
 6367.0000    36.9269   119.9692    57.3695      .6606      .6901     1.0605   -89.0226    11.3648    20.4490      .0481    66.0316
 6367.5000    36.5986   119.4668    57.8228      .6598      .6919     1.0649   -88.9691    11.3466    19.6323      .0398    66.1766
 6368.0000    36.1271   119.1602    60.9176      .6589      .6923     1.0650   -89.2751    11.3101    19.1358      .0316    66.3678
 6368.5000    35.9384   119.0619    61.6559      .6581      .6928     1.0660   -89.4491    11.3125    18.9841      .0305    66.0079
 6369.0000    35.8059   119.3885    61.9451      .6572      .6933     1.0610   -89.2227    11.4106    18.9611      .0352    65.2466
 6369.5000    35.7405   120.2618    62.6428      .6564      .6923     1.0509   -88.6808    11.5635    18.9826      .0410    64.5671
 6370.0000    35.4413   121.0060    63.9183      .6555      .6912     1.0492   -88.6497    11.7435    19.0188      .0434    64.6250
 6370.5000    34.7908   120.6747    65.3856      .6547      .6901     1.0583   -89.1218    11.8913    19.0510      .0442    66.3306
 6371.0000    34.0988   120.2458    66.5549      .6538      .6888     1.0638   -89.6136    11.9053    19.0275      .0423    68.9379
 6371.5000    33.8746   120.1237    65.1621      .6529      .6875     1.0594   -90.0706    11.9012    19.0085      .0439    71.0256
 6372.0000    33.9751   120.4595    59.3953      .6521      .6867     1.0447   -90.2295    11.9112    19.1313      .0490    72.6604
 6372.5000    34.0916   121.0995    57.0812      .6518      .6872     1.0371   -89.9539    11.9212    19.2404      .0549    73.7572
 6373.0000    33.9706   121.5748    57.2009      .6528      .6869     1.0384   -89.5446    11.9054    19.0249      .0535    72.8156
