~VERSION INFORMATION
VERS.                             2.0:   CWLS Log ASCII Standard-VERSION 2.0
WRAP.                              NO:   One line per depth step
~Well Information Block
STRT.F                      1238.0000:   Top Depth
STOP.F                      5786.0000:   Bottom Depth
STEP.F                         .50000:   Depth Increment
NULL.                        -999.250:   Null Value
FLD .                     MU BLK A 18:   Field Name
WELL.       OCSG05167   001 ST00 BP00:   NAME
API .                    427024015100:   WELL API
R1  .            STANDARD OIL PROD CO:   COMMENT  1
EDF .F                       884.0000:   ELEV DRILL FLOOR
COMP.            STANDARD OIL PROD CO:   OPERATOR
BN  .                            A 18:   BLOCK
CTRY.                             USA:   COUNTRY NAME
CNTY.                        MG ILD L:   COUNTY NAME
EKB .F                        85.0000:   ELEV KELLY BUSHING
TDD .F                       5792.000:   FINAL TD DRILLER
STAT.                           TEXAS:   STATE NAME
UWI .                    427024015100:   WELL API
DICO.               IHS : Digitizing Company
~PARAMETER INFORMATION (zones)
#MNEM.UNIT                       Value     Description
#=========                       =====     ===========
#ZONATION                          CNL:   ZONATION NAME
#ZONE                            RUN_0:   ZONE NAME
TOP .                       3294.0000:   TOP DEPTH
BOT .                       5786.5000:   BOTTOM DEPTH
RUN .                               0:   RUN NUMBER
LCCD.                             440:   LOGGING CONTRACTOR
SRVC.                    Schlumberger:   LOGGING CONT NAME
DICO.          QC Data Collectors Ltd:   DIG COMPANY NAME
LDAT.                      11/28/1987:   DATE LOGGED
ELD .F                        85.0000:   LOG DATUM ELEVATION
TDD .F                      5785.0000:   TOTAL DEPTH DRILLER
TDL .F                      5792.0000:   TOTAL DEPTH LOGGER
BOTL.F                      5786.0000:   BOTTOM DEPTH LOGGED
TOPL.F                      3300.0000:   TOP DEPTH LOGGED
CS1 .IN                       10.7500:   CASING SIZE 1
BS1 .IN                        9.8750:   BIT SIZE 1
DDB1.F                      5785.0000:   DEPTH DRILLED BIT 1
BHF .                              81:   FLUID CODE
DPT .          Lignosulfonate (Ligno):   DRILLING FLUID TYPE
MUDD.                         11.0000:   FLUID DENSITY
MUDV.                         41.0000:   FLUID VISCOSITY
DFPH.                         10.0000:   FLUID PH
FL  .                         10.0000:   FLUID LOSS
RM  .OHMM                       .9400:   RM
~PARAMETER INFORMATION (zones)
#MNEM.UNIT                       Value     Description
#=========                       =====     ===========
#ZONATION                          DIL:   ZONATION NAME
#ZONE                            RUN_1:   ZONE NAME
TOP .                       1238.0000:   TOP DEPTH
BOT .                       5786.5000:   BOTTOM DEPTH
RUN .                               1:   RUN NUMBER
LCCD.                             440:   LOGGING CONTRACTOR
SRVC.                    Schlumberger:   LOGGING CONT NAME
DICO.          QC Data Collectors Ltd:   DIG COMPANY NAME
LDAT.                      11/23/1987:   DATE LOGGED
ELD .F                        85.0000:   LOG DATUM ELEVATION
TDD .F                      3540.0000:   TOTAL DEPTH DRILLER
TDL .F                      3539.0000:   TOTAL DEPTH LOGGER
BOTL.F                      3533.0000:   BOTTOM DEPTH LOGGED
TOPL.F                      1294.0000:   TOP DEPTH LOGGED
CS1 .IN                       16.0000:   CASING SIZE 1
BS1 .IN                       13.5000:   BIT SIZE 1
DDB1.F                      3540.0000:   DEPTH DRILLED BIT 1
BHF .                              81:   FLUID CODE
DPT .          Lignosulfonate (Ligno):   DRILLING FLUID TYPE
MUDV.                         38.0000:   FLUID VISCOSITY
DFPH.                          8.0000:   FLUID PH
FL  .                         29.2000:   FLUID LOSS
RMF .OHMM                       .2400:   RMF
FSC .                               C:   RMF CODE
TMAX.DEGF                    120.0000:   MAX REC TEMP
TIMC.                          4.0000:   TIME SINCE CIRCLN
~PARAMETER INFORMATION (zones)
#MNEM.UNIT                       Value     Description
#=========                       =====     ===========
#ZONATION                          FDC:   ZONATION NAME
#ZONE                            RUN_0:   ZONE NAME
TOP .                       3294.0000:   TOP DEPTH
BOT .                       5786.5000:   BOTTOM DEPTH
RUN .                               0:   RUN NUMBER
LCCD.                             440:   LOGGING CONTRACTOR
SRVC.                    Schlumberger:   LOGGING CONT NAME
DICO.          QC Data Collectors Ltd:   DIG COMPANY NAME
LDAT.                      11/28/1987:   DATE LOGGED
ELD .F                        85.0000:   LOG DATUM ELEVATION
TDD .F                      5785.0000:   TOTAL DEPTH DRILLER
TDL .F                      5792.0000:   TOTAL DEPTH LOGGER
BOTL.F                      5786.0000:   BOTTOM DEPTH LOGGED
TOPL.F                      3300.0000:   TOP DEPTH LOGGED
CS1 .IN                       10.7500:   CASING SIZE 1
BS1 .IN                        9.8750:   BIT SIZE 1
DDB1.F                      5785.0000:   DEPTH DRILLED BIT 1
BHF .                              81:   FLUID CODE
DPT .          Lignosulfonate (Ligno):   DRILLING FLUID TYPE
MUDD.                         11.0000:   FLUID DENSITY
MUDV.                         41.0000:   FLUID VISCOSITY
DFPH.                         10.0000:   FLUID PH
FL  .                         10.0000:   FLUID LOSS
RM  .OHMM                       .9400:   RM
~Curve Information Block
#MNEM.UNIT                    API CODE    No Description
#=========                    ========    == ===========
DEPT.F                   00 001 00 00:     1  DEPTH
NPHI.DEC                              :     2  Neutron Porosity
DT.US/F                              :     3  Sonic Transit Time
GR.GAPI                              :     4  Gamma Ray
ILD.OHMM                             :     5  Deep Induction Resistivity
ILM.OHMM                             :     6  Medium Induction Resistivity
SFL.OHMM                             :     7  Medium Resistivity
SP.MV                                :     8  Spontaneous Potential
CALI.IN                              :     9  Caliper
DPHI.DEC                              :    10  Porosity
DRHO.G/C3                            :    11  Bulk Density Correction
GR.GAPI                              :    12  Gamma Ray
~ASCII
# ...
 5081.0000      .4557   112.2021  -999.2500      .9560      .9526     1.2997   -52.2646     9.5437      .2494      .0022    71.7411
 5081.5000      .4586   118.5946  -999.2500      .9579      .9477     1.1103   -51.0317     9.4926      .2613      .0057    72.4868
 5082.0000      .4362   119.5775  -999.2500      .9621      .9528     1.0299   -50.2767     9.5367      .2554      .0070    73.1323
 5082.5000      .4118   117.7328  -999.2500      .9654      .9625     1.0921   -51.0914     9.6244      .2490      .0068    73.4645
 5083.0000      .4021   115.7345  -999.2500      .9645      .9662     1.2094   -51.4985     9.7094      .2489      .0072    72.8372
 5083.5000      .3988   114.6050  -999.2500      .9694      .9705     1.3056   -51.3638     9.8253      .2496      .0087    70.5951
 5084.0000      .4016   114.1442  -999.2500      .9835      .9805     1.3332   -50.9016    10.0345      .2498      .0104    68.0493
 5084.5000      .4044   113.8752  -999.2500     1.0165     1.0010     1.2991   -50.3406    10.3695      .2488      .0124    66.0016
 5085.0000      .4028   113.3311  -999.2500     1.0630     1.0391     1.2782   -49.9947    10.6604      .2455      .0109    64.8768
 5085.5000      .3970   112.6589  -999.2500     1.1109     1.0832     1.3018   -49.6835    10.7747      .2373      .0047    64.2371
 5086.0000      .3902   111.8296  -999.2500     1.1447     1.1191     1.3601   -49.8188    10.7991      .2269      .0013    63.9268
 5086.5000      .3874   110.7511  -999.2500     1.1550     1.1440     1.4137   -50.6063    10.7663      .2217      .0020    64.6024
 5087.0000      .3860   109.5773  -999.2500     1.1545     1.1456     1.4751   -51.6656    10.7021      .2206      .0028    66.3999
 5087.5000      .3845   109.9506  -999.2500     1.1236     1.1372     1.5361   -52.5521    10.5662      .2240      .0044    68.2012
 5088.0000      .3867   113.5801  -999.2500     1.0878     1.1147     1.5896   -52.8946    10.3802      .2362      .0081    70.1311
 5088.5000      .4061   117.4784  -999.2500     1.0419     1.0825     1.4761   -52.9590    10.2044      .2478      .0144    71.1283
 5089.0000      .4306   119.6267  -999.2500      .9908     1.0423     1.1903   -52.7717    10.2235      .2639      .0211    71.1198
 5089.5000      .4468   120.7499  -999.2500      .9589     1.0028     1.0531   -52.4636    10.4654      .2867      .0277    70.3571
 5090.0000      .4482   120.6517  -999.2500      .9243      .9605      .9773   -52.9901    10.7125      .3117      .0328    69.1765
 5090.5000      .4201   119.5259  -999.2500      .8731      .9204      .9339   -56.2790    10.8959      .3279      .0222    66.1716
 5091.0000      .3877   115.8485  -999.2500      .8145      .8821      .9638   -63.5870    10.5951      .3263      .0113    58.9619
 5091.5000      .3568   112.2526  -999.2500      .7706      .8471     1.1235   -68.8030    10.2240      .3125      .0009    53.9967
 5092.0000      .3473   109.4177  -999.2500      .7432      .8102     1.3655   -72.3147     9.9327      .2932     -.0052    50.0615
 5092.5000      .3528   107.5010  -999.2500      .7267      .7821     1.5322   -74.1851     9.7627      .2780     -.0087    47.0250
 5093.0000      .3652   106.7595  -999.2500      .7245      .7713     1.6406   -72.7052     9.6986      .2661     -.0089    49.9546
 5093.5000      .3761   106.7592  -999.2500      .7307      .7607     1.5094   -70.1696     9.6770      .2553     -.0069    52.9498
 5094.0000      .3822   108.3423  -999.2500      .7448      .7565     1.3326   -68.0027     9.7074      .2518     -.0037    55.6340
 5094.5000      .3941   111.0692  -999.2500      .7626      .7578     1.2958   -66.0889     9.7531      .2583     -.0011    58.3935
 5095.0000      .4229   114.2570  -999.2500      .7866      .7726     1.2906   -63.3315     9.8043      .2697     -.0011    62.4744
 5095.5000      .4436   116.8386  -999.2500      .8124      .7913     1.2065   -59.7378     9.8573      .2837     -.0004    66.1012
 5096.0000      .4322   118.7037  -999.2500      .8336      .8123     1.0974   -56.5851     9.9221      .3001      .0052    68.3773
 5096.5000      .4140   119.6427  -999.2500      .8445      .8346     1.0384   -53.5336    10.0372      .3106      .0144    68.9706
 5097.0000      .4027   120.1440  -999.2500      .8507      .8504     1.0731   -51.7994    10.2482      .3021      .0236    69.4054
 5097.5000      .4073   120.8612  -999.2500      .8582      .8615     1.1043   -50.8685    10.4637      .2884      .0298    69.8433
 5098.0000      .4087   121.9534  -999.2500      .8693      .8693     1.0752   -50.2339    10.6576      .2720      .0257    71.1119
 5098.5000      .4077   122.6903  -999.2500      .8816      .8738     1.0286   -49.7490    10.7475      .2601      .0186    71.7969
 5099.0000      .4080   122.4491  -999.2500      .8931      .8733     1.0136   -49.5593    10.7055      .2549      .0152    72.4188
 5099.5000      .4137   121.5519  -999.2500      .9036      .8765     1.0245   -49.4044    10.6214      .2519      .0165    72.9747
 5100.0000      .4213   119.3437  -999.2500      .9063      .9042     1.0767   -48.9873    10.7041      .2499      .0173    73.2053
 5100.5000      .4290   118.0750  -999.2500      .9203      .9124     1.1785   -48.9687    10.7304      .2427      .0187    73.3041
 5101.0000      .4373   117.4989  -999.2500      .9323      .9298     1.2673   -49.0689    10.5954      .2349      .0149    74.4720
 5101.5000      .4434   118.4939  -999.2500      .9435      .9447     1.3173   -49.0305    10.4710      .2336      .0118    75.8481
 5102.0000      .4406   119.5977  -999.2500      .9542      .9572     1.3148   -48.6041    10.3576      .2421      .0131    74.5898
 5102.5000      .4295   120.3898  -999.2500      .9637      .9684     1.2492   -48.1566    10.3159      .2436      .0213    72.4364
 5103.0000      .4061   117.8522  -999.2500      .9725      .9784     1.2042   -48.2599    10.4568      .2347      .0263    70.4894
 5103.5000      .3796   114.8765  -999.2500      .9825      .9884     1.2110   -48.2261    10.5377      .2182      .0238    70.2550
 5104.0000      .3661   112.5881  -999.2500      .9938      .9959     1.2968   -48.1334    10.5487      .2048      .0212    70.6819
 5104.5000      .3687   111.7772  -999.2500     1.0062      .9941     1.3566   -48.0701    10.4725      .1991      .0286    70.9481
 5105.0000      .3730   113.1322  -999.2500     1.0119      .9908     1.3515   -48.2708    10.3291      .2015      .0362    71.1969
 5105.5000      .3775   114.8031  -999.2500     1.0126      .9931     1.2961   -48.9427    10.2303      .2136      .0292    71.8595
 5106.0000      .3857   116.6774  -999.2500     1.0048      .9952     1.2680   -49.7845    10.2791      .2519      .0202    72.1582
 5106.5000      .4001   118.2314  -999.2500      .9886      .9944     1.2771   -50.5746    10.3894      .2880      .0129    70.7615
 5107.0000      .4305   118.5149  -999.2500      .9780      .9912     1.2693   -51.0681    10.4963      .3013      .0167    69.5936
 5107.5000      .4440   118.9609  -999.2500      .9704      .9843     1.2222   -51.2726    10.6098      .2952      .0269    69.1078
 5108.0000      .4475   119.8367  -999.2500      .9681      .9796     1.1732   -50.8892    10.7596      .2772      .0301    68.7542
 5108.5000      .4454   120.2507  -999.2500      .9847      .9938     1.1417   -49.8165    10.9261      .2666      .0308    67.6108
 5109.0000      .4337   119.9889  -999.2500     1.0059     1.0241     1.1823   -49.3585    11.0516      .2627      .0321    65.8303
 5109.5000      .4197   118.6022  -999.2500     1.0316     1.0427     1.2500   -49.1417    11.0456      .2599      .0354    64.1785
 5110.0000      .4048   117.0192  -999.2500     1.0462     1.0639     1.3338   -48.9042    10.9628      .2536      .0379    63.5123
 5110.5000      .3946   114.4624  -999.2500     1.0642     1.0859     1.4412   -48.6574    10.9159      .2428      .0405    67.9011
 5111.0000      .4259   114.0098  -999.2500     1.0739     1.0971     1.5410   -48.5244    11.0453      .2485      .0415    71.5157
