~VERSION INFORMATION
VERS.                             2.0:   CWLS Log ASCII Standard-VERSION 2.0
WRAP.                              NO:   One line per depth step
~Well Information Block
STRT.F                       590.0000:   Top Depth
STOP.F                      5513.0000:   Bottom Depth
STEP.F                         .50000:   Depth Increment
NULL.                        -999.250:   Null Value
FLD .                     MU BLK A 16:   Field Name
WELL.       OCSG03011  A001 ST00 BP00:   NAME
API .                    427024004100:   WELL API
R1  .                           13904:   COMMENT  1
EDF .F                       102.0000:   ELEV DRILL FLOOR
COMP.       CITIES SERVICE OIL COMPAN:   OPERATOR
BN  .                            A 16:   BLOCK
CTRY.                             USA:   COUNTRY NAME
CNTY.                        MG ILD L:   COUNTY NAME
EKB .F                       103.0000:   ELEV KELLY BUSHING
TDD .F                       5519.000:   FINAL TD DRILLER
STAT.                           TEXAS:   STATE NAME
UWI .                    427024004100:   WELL API
DICO.               IHS : Digitizing Company
~PARAMETER INFORMATION (zones)
#MNEM.UNIT                       Value     Description
#=========                       =====     ===========
#ZONATION                          CNL:   ZONATION NAME
#ZONE                            RUN_1:   ZONE NAME
TOP .                       3234.0000:   TOP DEPTH
BOT .                       5513.5000:   BOTTOM DEPTH
RUN .                               1:   RUN NUMBER
LCCD.                             440:   LOGGING CONTRACTOR
SRVC.                    Schlumberger:   LOGGING CONT NAME
DICO.          QC Data Collectors Ltd:   DIG COMPANY NAME
LDAT.                      03/04/1980:   DATE LOGGED
ELD .F                       103.0000:   LOG DATUM ELEVATION
TDD .F                      5512.0000:   TOTAL DEPTH DRILLER
TDL .F                      5519.0000:   TOTAL DEPTH LOGGER
BOTL.F                      5513.0000:   BOTTOM DEPTH LOGGED
TOPL.F                      3240.0000:   TOP DEPTH LOGGED
CS1 .IN                       13.3750:   CASING SIZE 1
BS1 .IN                       12.2500:   BIT SIZE 1
DDB1.F                      5512.0000:   DEPTH DRILLED BIT 1
BHF .                              99:   FLUID CODE
DPT .                   Miscellaneous:   DRILLING FLUID TYPE
MUDD.                         13.1000:   FLUID DENSITY
MUDV.                         38.0000:   FLUID VISCOSITY
DFPH.                         11.5000:   FLUID PH
FL  .                          4.0000:   FLUID LOSS
RM  .OHMM                       .8600:   RM
RMT .DEGF                     70.0000:   RM TEMP
RMF .OHMM                       .6600:   RMF
RMFT.DEGF                     70.0000:   RMF TEMP
FSC .                               M:   RMF CODE
RMC .OHMM                      1.8600:   RMC
RMCT.DEGF                     70.0000:   RMC TEMP
CMC .                               M:   RMC CODE
TMAX.DEGF                    145.0000:   MAX REC TEMP
TIMC.                          6.5000:   TIME SINCE CIRCLN
~PARAMETER INFORMATION (zones)
#MNEM.UNIT                       Value     Description
#=========                       =====     ===========
#ZONATION                          DIL:   ZONATION NAME
#ZONE                            RUN_1:   ZONE NAME
TOP .                       3240.0000:   TOP DEPTH
BOT .                       5513.5000:   BOTTOM DEPTH
RUN .                               1:   RUN NUMBER
LCCD.                             440:   LOGGING CONTRACTOR
SRVC.                    Schlumberger:   LOGGING CONT NAME
DICO.          QC Data Collectors Ltd:   DIG COMPANY NAME
LDAT.                      03/04/1980:   DATE LOGGED
ELD .F                       103.0000:   LOG DATUM ELEVATION
TDD .F                      5512.0000:   TOTAL DEPTH DRILLER
TDL .F                      5519.0000:   TOTAL DEPTH LOGGER
BOTL.F                      5513.0000:   BOTTOM DEPTH LOGGED
TOPL.F                      3240.0000:   TOP DEPTH LOGGED
CS1 .IN                       13.3750:   CASING SIZE 1
BS1 .IN                       12.2500:   BIT SIZE 1
DDB1.F                      5512.0000:   DEPTH DRILLED BIT 1
BHF .                              99:   FLUID CODE
DPT .                   Miscellaneous:   DRILLING FLUID TYPE
MUDD.                         13.1000:   FLUID DENSITY
MUDV.                         38.0000:   FLUID VISCOSITY
DFPH.                         11.5000:   FLUID PH
FL  .                          4.0000:   FLUID LOSS
RM  .OHMM                       .8600:   RM
RMT .DEGF                     70.0000:   RM TEMP
RMF .OHMM                       .6600:   RMF
RMFT.DEGF                     70.0000:   RMF TEMP
FSC .                               M:   RMF CODE
RMC .OHMM                      1.8600:   RMC
RMCT.DEGF                     70.0000:   RMC TEMP
CMC .                               M:   RMC CODE
TMAX.DEGF                    145.0000:   MAX REC TEMP
TIMC.                          6.5000:   TIME SINCE CIRCLN
~PARAMETER INFORMATION (zones)
#MNEM.UNIT                       Value     Description
#=========                       =====     ===========
#ZONATION                          DIL:   ZONATION NAME
#ZONE                          RUN_1_1:   ZONE NAME
TOP .                        590.0000:   TOP DEPTH
BOT .                       1046.5000:   BOTTOM DEPTH
RUN .                               1:   RUN NUMBER
LCCD.                             440:   LOGGING CONTRACTOR
SRVC.                    Schlumberger:   LOGGING CONT NAME
DICO.          QC Data Collectors Ltd:   DIG COMPANY NAME
LDAT.                      02/20/1980:   DATE LOGGED
ELD .F                       103.0000:   LOG DATUM ELEVATION
TDD .F                      1050.0000:   TOTAL DEPTH DRILLER
TDL .F                      1050.0000:   TOTAL DEPTH LOGGER
BOTL.F                      1046.0000:   BOTTOM DEPTH LOGGED
TOPL.F                       597.0000:   TOP DEPTH LOGGED
CS1 .IN                       30.0000:   CASING SIZE 1
BS1 .IN                       12.5000:   BIT SIZE 1
DDB1.F                      1050.0000:   DEPTH DRILLED BIT 1
BHF .                              99:   FLUID CODE
DPT .                   Miscellaneous:   DRILLING FLUID TYPE
MUDD.                          8.6000:   FLUID DENSITY
MUDV.                         39.0000:   FLUID VISCOSITY
DFPH.                         12.3000:   FLUID PH
FL  .                            NULL:   FLUID LOSS
RM  .OHMM                       .3900:   RM
RMT .DEGF                     80.0000:   RM TEMP
RMF .OHMM                       .2400:   RMF
RMFT.DEGF                     80.0000:   RMF TEMP
FSC .                               M:   RMF CODE
RMC .OHMM                       .4500:   RMC
RMCT.DEGF                     80.0000:   RMC TEMP
CMC .                               M:   RMC CODE
TMAX.DEGF                     90.0000:   MAX REC TEMP
TIMC.                          1.5000:   TIME SINCE CIRCLN
~PARAMETER INFORMATION (zones)
#MNEM.UNIT                       Value     Description
#=========                       =====     ===========
#ZONATION                          FDC:   ZONATION NAME
#ZONE                            RUN_1:   ZONE NAME
TOP .                       3234.0000:   TOP DEPTH
BOT .                       5513.5000:   BOTTOM DEPTH
RUN .                               1:   RUN NUMBER
LCCD.                             440:   LOGGING CONTRACTOR
SRVC.                    Schlumberger:   LOGGING CONT NAME
DICO.          QC Data Collectors Ltd:   DIG COMPANY NAME
LDAT.                      03/04/1980:   DATE LOGGED
ELD .F                       103.0000:   LOG DATUM ELEVATION
TDD .F                      5512.0000:   TOTAL DEPTH DRILLER
TDL .F                      5519.0000:   TOTAL DEPTH LOGGER
BOTL.F                      5513.0000:   BOTTOM DEPTH LOGGED
TOPL.F                      3240.0000:   TOP DEPTH LOGGED
CS1 .IN                       13.3750:   CASING SIZE 1
BS1 .IN                       12.2500:   BIT SIZE 1
DDB1.F                      5512.0000:   DEPTH DRILLED BIT 1
BHF .                              99:   FLUID CODE
DPT .                   Miscellaneous:   DRILLING FLUID TYPE
MUDD.                         13.1000:   FLUID DENSITY
MUDV.                         38.0000:   FLUID VISCOSITY
DFPH.                         11.5000:   FLUID PH
FL  .                          4.0000:   FLUID LOSS
RM  .OHMM                       .8600:   RM
RMT .DEGF                     70.0000:   RM TEMP
RMF .OHMM                       .6600:   RMF
RMFT.DEGF                     70.0000:   RMF TEMP
FSC .                               M:   RMF CODE
RMC .OHMM                      1.8600:   RMC
RMCT.DEGF                     70.0000:   RMC TEMP
CMC .                               M:   RMC CODE
TMAX.DEGF                    145.0000:   MAX REC TEMP
TIMC.                          6.5000:   TIME SINCE CIRCLN
~Curve Information Block
#MNEM.UNIT                    API CODE    No Description
#=========                    ========    == ===========
DEPT.F                   00 001 00 00:     1  DEPTH
NPHI.%                               :     2  Neutron Porosity
ASFL.OHMM                            :     3  Shallow Resistivity
DT.US/F                              :     4  Sonic Transit Time
GR.GAPI                              :     5  Gamma Ray
ILD.OHMM                             :     6  Deep Induction Resistivity
SFL.OHMM                             :     7  Medium Resistivity
SP.MV                                :     8  Spontaneous Potential
CALI.IN                              :     9  Caliper
DRHO.G/C3                            :    10  Bulk Density Correction
GR.GAPI                              :    11  Gamma Ray
RHOB.G/C3                            :    12  Bulk Density
~ASCII
# ...
 5317.5000    46.5391     1.0729  -999.2500  -999.2500      .9069  -999.2500   -40.2263    12.9123      .0138    70.1815     2.3172
 5318.0000    45.7617     1.0719  -999.2500  -999.2500      .8928  -999.2500   -40.2775    12.9375      .0178    70.0425     2.3150
 5318.5000    43.7441     1.0910  -999.2500  -999.2500      .9007  -999.2500   -40.3206    12.9645      .0126    69.5206     2.3117
 5319.0000    41.1766     1.1323  -999.2500  -999.2500      .9474  -999.2500   -40.4189    12.9897      .0076    68.5021     2.3096
 5319.5000    38.9884     1.2156  -999.2500  -999.2500      .9941  -999.2500   -40.8361    13.0070      .0036    67.2371     2.3151
 5320.0000    37.8323     1.2989  -999.2500  -999.2500     1.0413  -999.2500   -41.2294    13.0163     -.0008    66.6964     2.3230
 5320.5000    37.6251     1.3821  -999.2500  -999.2500     1.0886  -999.2500   -41.4572    13.0079     -.0061    66.4248     2.3277
 5321.0000    37.8806     1.4063  -999.2500  -999.2500     1.1358  -999.2500   -41.4519    12.9653     -.0103    65.9044     2.3223
 5321.5000    37.8073     1.3911  -999.2500  -999.2500     1.1831  -999.2500   -41.3519    12.9316     -.0097    64.9301     2.3144
 5322.0000    37.6917     1.3759  -999.2500  -999.2500     1.2304  -999.2500   -41.2395    12.8978     -.0073    64.2052     2.3031
 5322.5000    38.6931     1.3349  -999.2500  -999.2500     1.2434  -999.2500   -41.0992    12.8636     -.0042    64.9941     2.2965
 5323.0000    40.6878     1.2974  -999.2500  -999.2500     1.2549  -999.2500   -41.2809    12.8326     -.0026    65.1796     2.2945
 5323.5000    41.8321     1.2796  -999.2500  -999.2500     1.2665  -999.2500   -42.1345    12.8060     -.0017    63.6578     2.3111
 5324.0000    40.8990     1.2720  -999.2500  -999.2500     1.2781  -999.2500   -42.2346    12.7858     -.0018    62.5024     2.3250
 5324.5000    39.7399     1.2977  -999.2500  -999.2500     1.2845  -999.2500   -42.4382    12.7679     -.0020    61.9761     2.3352
 5325.0000    38.9678     1.3233  -999.2500  -999.2500     1.2893  -999.2500   -42.7606    12.7604     -.0022    62.8116     2.3409
 5325.5000    39.1351     1.3584  -999.2500  -999.2500     1.2941  -999.2500   -43.0826    12.7544     -.0028    64.1787     2.3416
 5326.0000    38.8312     1.4009  -999.2500  -999.2500     1.3015  -999.2500   -43.4047    12.7531     -.0033    65.0686     2.3447
 5326.5000    38.0302     1.4328  -999.2500  -999.2500     1.3140  -999.2500   -43.6867    12.7478     -.0034    65.2562     2.3523
 5327.0000    35.9189     1.4572  -999.2500  -999.2500     1.3264  -999.2500   -43.8294    12.7370     -.0026    64.8451     2.3590
 5327.5000    35.0049     1.4787  -999.2500  -999.2500     1.3388  -999.2500   -43.5717    12.7151     -.0011    64.6040     2.3628
 5328.0000    35.5320     1.4779  -999.2500  -999.2500     1.3512  -999.2500   -43.2220    12.6799      .0009    64.4136     2.3580
 5328.5000    37.2595     1.4611  -999.2500  -999.2500     1.3636  -999.2500   -42.8720    12.6473      .0028    64.4172     2.3475
 5329.0000    37.9287     1.4444  -999.2500  -999.2500     1.3721  -999.2500   -42.5415    12.6328     -.0017    64.5076     2.3343
 5329.5000    37.0720     1.4276  -999.2500  -999.2500     1.3565  -999.2500   -42.9879    12.6198     -.0057    63.1725     2.3250
 5330.0000    36.2031     1.4109  -999.2500  -999.2500     1.3410  -999.2500   -43.4342    12.6056     -.0082    61.7338     2.3294
 5330.5000    35.7686     1.3903  -999.2500  -999.2500     1.3254  -999.2500   -43.3290    12.6003     -.0064    61.8299     2.3398
 5331.0000    36.1241     1.3630  -999.2500  -999.2500     1.3098  -999.2500   -42.8441    12.6077     -.0030    63.8302     2.3460
 5331.5000    37.6670     1.3358  -999.2500  -999.2500     1.2869  -999.2500   -42.3594    12.6257     -.0002    65.8304     2.3356
 5332.0000    39.2291     1.3171  -999.2500  -999.2500     1.2612  -999.2500   -41.9658    12.6375     -.0023    67.0873     2.3223
 5332.5000    39.7208     1.3059  -999.2500  -999.2500     1.2783  -999.2500   -41.6299    12.6438     -.0076    66.9082     2.3110
 5333.0000    38.4865     1.2980  -999.2500  -999.2500     1.3347  -999.2500   -41.2944    12.6452     -.0122    64.8352     2.3186
 5333.5000    36.5390     1.3263  -999.2500  -999.2500     1.3910  -999.2500   -41.6111    12.6530     -.0132    62.6970     2.3350
 5334.0000    34.2785     1.3934  -999.2500  -999.2500     1.4474  -999.2500   -42.3293    12.6620     -.0123    61.4308     2.3415
 5334.5000    34.1198     1.4603  -999.2500  -999.2500     1.5038  -999.2500   -43.0481    12.6733     -.0099    61.3793     2.3372
 5335.0000    34.8986     1.5259  -999.2500  -999.2500     1.5365  -999.2500   -43.8441    12.6819     -.0075    62.0350     2.3362
 5335.5000    35.4593     1.5714  -999.2500  -999.2500     1.5673  -999.2500   -44.6647    12.6861     -.0050    62.3768     2.3404
 5336.0000    35.5065     1.6097  -999.2500  -999.2500     1.5980  -999.2500   -45.4846    12.6853     -.0041    60.7521     2.3438
 5336.5000    34.8514     1.6370  -999.2500  -999.2500     1.6288  -999.2500   -46.3220    12.6326     -.0064    58.9760     2.3397
 5337.0000    33.7204     1.6708  -999.2500  -999.2500     1.6595  -999.2500   -47.3352    12.5511     -.0104    57.3526     2.3354
 5337.5000    31.5663     1.7058  -999.2500  -999.2500     1.6767  -999.2500   -48.3484    12.5229     -.0116    56.0322     2.3407
 5338.0000    29.4645     1.7454  -999.2500  -999.2500     1.6811  -999.2500   -49.0961    12.5128     -.0112    54.7119     2.3464
 5338.5000    28.9230     1.7850  -999.2500  -999.2500     1.6855  -999.2500   -49.6894    12.5082     -.0116    53.8472     2.3304
 5339.0000    29.4579     1.8106  -999.2500  -999.2500     1.6899  -999.2500   -50.2651    12.5140     -.0129    54.8793     2.3069
 5339.5000    30.3991     1.8362  -999.2500  -999.2500     1.6943  -999.2500   -50.7717    12.5208     -.0146    55.8463     2.2916
 5340.0000    31.2281     1.8558  -999.2500  -999.2500     1.6397  -999.2500   -47.6667    12.5354     -.0154    56.8858     2.3030
 5340.5000    31.7146     1.8323  -999.2500  -999.2500     1.5912  -999.2500   -44.6584    12.5393     -.0155    57.0046     2.3262
 5341.0000    31.6307     1.7987  -999.2500  -999.2500     1.5477  -999.2500   -43.3915    12.5462     -.0140    56.7368     2.3405
 5341.5000    31.5209     1.7652  -999.2500  -999.2500     1.5041  -999.2500   -42.3281    12.5551     -.0091    58.2136     2.3541
 5342.0000    31.5591     1.6957  -999.2500  -999.2500     1.4606  -999.2500   -41.8202    12.5627     -.0034    60.8716     2.3623
 5342.5000    32.2853     1.6258  -999.2500  -999.2500     1.4171  -999.2500   -41.3534    12.5700      .0016    64.7072     2.3568
 5343.0000    33.5122     1.5575  -999.2500  -999.2500     1.3736  -999.2500   -40.8867    12.5772      .0042    66.8368     2.3521
 5343.5000    35.1061     1.5117  -999.2500  -999.2500     1.3301  -999.2500   -40.5540    12.5818      .0028    65.9192     2.3493
 5344.0000    35.6387     1.4675  -999.2500  -999.2500     1.2879  -999.2500   -40.2667    12.5862      .0011    64.5729     2.3453
 5344.5000    35.5969     1.4232  -999.2500  -999.2500     1.2628  -999.2500   -39.9792    12.5903      .0014    63.3258     2.3390
 5345.0000    35.6718     1.3789  -999.2500  -999.2500     1.2377  -999.2500   -40.2928    12.5929      .0055    64.0026     2.3365
 5345.5000    36.6940     1.3346  -999.2500  -999.2500     1.2127  -999.2500   -40.6362    12.5961      .0097    65.1086     2.3378
 5346.0000    38.4717     1.2903  -999.2500  -999.2500     1.1876  -999.2500   -40.5100    12.6061      .0130    66.5868     2.3374
 5346.5000    40.8650     1.2461  -999.2500  -999.2500     1.1625  -999.2500   -40.2084    12.6148      .0154    67.4791     2.3360
 5347.0000    42.5667     1.2064  -999.2500  -999.2500     1.1374  -999.2500   -40.2488    12.6207      .0158    67.3711     2.3375
 5347.5000    42.4138     1.2112  -999.2500  -999.2500     1.1123  -999.2500   -40.5583    12.6255      .0134    66.9005     2.3439
