~VERSION INFORMATION
VERS.                             2.0:   CWLS Log ASCII Standard-VERSION 2.0
WRAP.                              NO:   One line per depth step
~Well Information Block
STRT.F                       590.0000:   Top Depth
STOP.F                      5513.0000:   Bottom Depth
STEP.F                         .50000:   Depth Increment
NULL.                        -999.250:   Null Value
FLD .                     MU BLK A 16:   Field Name
WELL.       OCSG03011  A001 ST00 BP00:   NAME
API .                    427024004100:   WELL API
R1  .                           13904:   COMMENT  1
EDF .F                       102.0000:   ELEV DRILL FLOOR
COMP.       CITIES SERVICE OIL COMPAN:   OPERATOR
BN  .                            A 16:   BLOCK
CTRY.                             USA:   COUNTRY NAME
CNTY.                        MG ILD L:   COUNTY NAME
EKB .F                       103.0000:   ELEV KELLY BUSHING
TDD .F                       5519.000:   FINAL TD DRILLER
STAT.                           TEXAS:   STATE NAME
UWI .                    427024004100:   WELL API
DICO.               IHS : Digitizing Company
~PARAMETER INFORMATION (zones)
#MNEM.UNIT                       Value     Description
#=========                       =====     ===========
#ZONATION                          CNL:   ZONATION NAME
#ZONE                            RUN_1:   ZONE NAME
TOP .                       3234.0000:   TOP DEPTH
BOT .                       5513.5000:   BOTTOM DEPTH
RUN .                               1:   RUN NUMBER
LCCD.                             440:   LOGGING CONTRACTOR
SRVC.                    Schlumberger:   LOGGING CONT NAME
DICO.          QC Data Collectors Ltd:   DIG COMPANY NAME
LDAT.                      03/04/1980:   DATE LOGGED
ELD .F                       103.0000:   LOG DATUM ELEVATION
TDD .F                      5512.0000:   TOTAL DEPTH DRILLER
TDL .F                      5519.0000:   TOTAL DEPTH LOGGER
BOTL.F                      5513.0000:   BOTTOM DEPTH LOGGED
TOPL.F                      3240.0000:   TOP DEPTH LOGGED
CS1 .IN                       13.3750:   CASING SIZE 1
BS1 .IN                       12.2500:   BIT SIZE 1
DDB1.F                      5512.0000:   DEPTH DRILLED BIT 1
BHF .                              99:   FLUID CODE
DPT .                   Miscellaneous:   DRILLING FLUID TYPE
MUDD.                         13.1000:   FLUID DENSITY
MUDV.                         38.0000:   FLUID VISCOSITY
DFPH.                         11.5000:   FLUID PH
FL  .                          4.0000:   FLUID LOSS
RM  .OHMM                       .8600:   RM
RMT .DEGF                     70.0000:   RM TEMP
RMF .OHMM                       .6600:   RMF
RMFT.DEGF                     70.0000:   RMF TEMP
FSC .                               M:   RMF CODE
RMC .OHMM                      1.8600:   RMC
RMCT.DEGF                     70.0000:   RMC TEMP
CMC .                               M:   RMC CODE
TMAX.DEGF                    145.0000:   MAX REC TEMP
TIMC.                          6.5000:   TIME SINCE CIRCLN
~PARAMETER INFORMATION (zones)
#MNEM.UNIT                       Value     Description
#=========                       =====     ===========
#ZONATION                          DIL:   ZONATION NAME
#ZONE                            RUN_1:   ZONE NAME
TOP .                       3240.0000:   TOP DEPTH
BOT .                       5513.5000:   BOTTOM DEPTH
RUN .                               1:   RUN NUMBER
LCCD.                             440:   LOGGING CONTRACTOR
SRVC.                    Schlumberger:   LOGGING CONT NAME
DICO.          QC Data Collectors Ltd:   DIG COMPANY NAME
LDAT.                      03/04/1980:   DATE LOGGED
ELD .F                       103.0000:   LOG DATUM ELEVATION
TDD .F                      5512.0000:   TOTAL DEPTH DRILLER
TDL .F                      5519.0000:   TOTAL DEPTH LOGGER
BOTL.F                      5513.0000:   BOTTOM DEPTH LOGGED
TOPL.F                      3240.0000:   TOP DEPTH LOGGED
CS1 .IN                       13.3750:   CASING SIZE 1
BS1 .IN                       12.2500:   BIT SIZE 1
DDB1.F                      5512.0000:   DEPTH DRILLED BIT 1
BHF .                              99:   FLUID CODE
DPT .                   Miscellaneous:   DRILLING FLUID TYPE
MUDD.                         13.1000:   FLUID DENSITY
MUDV.                         38.0000:   FLUID VISCOSITY
DFPH.                         11.5000:   FLUID PH
FL  .                          4.0000:   FLUID LOSS
RM  .OHMM                       .8600:   RM
RMT .DEGF                     70.0000:   RM TEMP
RMF .OHMM                       .6600:   RMF
RMFT.DEGF                     70.0000:   RMF TEMP
FSC .                               M:   RMF CODE
RMC .OHMM                      1.8600:   RMC
RMCT.DEGF                     70.0000:   RMC TEMP
CMC .                               M:   RMC CODE
TMAX.DEGF                    145.0000:   MAX REC TEMP
TIMC.                          6.5000:   TIME SINCE CIRCLN
~PARAMETER INFORMATION (zones)
#MNEM.UNIT                       Value     Description
#=========                       =====     ===========
#ZONATION                          DIL:   ZONATION NAME
#ZONE                          RUN_1_1:   ZONE NAME
TOP .                        590.0000:   TOP DEPTH
BOT .                       1046.5000:   BOTTOM DEPTH
RUN .                               1:   RUN NUMBER
LCCD.                             440:   LOGGING CONTRACTOR
SRVC.                    Schlumberger:   LOGGING CONT NAME
DICO.          QC Data Collectors Ltd:   DIG COMPANY NAME
LDAT.                      02/20/1980:   DATE LOGGED
ELD .F                       103.0000:   LOG DATUM ELEVATION
TDD .F                      1050.0000:   TOTAL DEPTH DRILLER
TDL .F                      1050.0000:   TOTAL DEPTH LOGGER
BOTL.F                      1046.0000:   BOTTOM DEPTH LOGGED
TOPL.F                       597.0000:   TOP DEPTH LOGGED
CS1 .IN                       30.0000:   CASING SIZE 1
BS1 .IN                       12.5000:   BIT SIZE 1
DDB1.F                      1050.0000:   DEPTH DRILLED BIT 1
BHF .                              99:   FLUID CODE
DPT .                   Miscellaneous:   DRILLING FLUID TYPE
MUDD.                          8.6000:   FLUID DENSITY
MUDV.                         39.0000:   FLUID VISCOSITY
DFPH.                         12.3000:   FLUID PH
FL  .                            NULL:   FLUID LOSS
RM  .OHMM                       .3900:   RM
RMT .DEGF                     80.0000:   RM TEMP
RMF .OHMM                       .2400:   RMF
RMFT.DEGF                     80.0000:   RMF TEMP
FSC .                               M:   RMF CODE
RMC .OHMM                       .4500:   RMC
RMCT.DEGF                     80.0000:   RMC TEMP
CMC .                               M:   RMC CODE
TMAX.DEGF                     90.0000:   MAX REC TEMP
TIMC.                          1.5000:   TIME SINCE CIRCLN
~PARAMETER INFORMATION (zones)
#MNEM.UNIT                       Value     Description
#=========                       =====     ===========
#ZONATION                          FDC:   ZONATION NAME
#ZONE                            RUN_1:   ZONE NAME
TOP .                       3234.0000:   TOP DEPTH
BOT .                       5513.5000:   BOTTOM DEPTH
RUN .                               1:   RUN NUMBER
LCCD.                             440:   LOGGING CONTRACTOR
SRVC.                    Schlumberger:   LOGGING CONT NAME
DICO.          QC Data Collectors Ltd:   DIG COMPANY NAME
LDAT.                      03/04/1980:   DATE LOGGED
ELD .F                       103.0000:   LOG DATUM ELEVATION
TDD .F                      5512.0000:   TOTAL DEPTH DRILLER
TDL .F                      5519.0000:   TOTAL DEPTH LOGGER
BOTL.F                      5513.0000:   BOTTOM DEPTH LOGGED
TOPL.F                      3240.0000:   TOP DEPTH LOGGED
CS1 .IN                       13.3750:   CASING SIZE 1
BS1 .IN                       12.2500:   BIT SIZE 1
DDB1.F                      5512.0000:   DEPTH DRILLED BIT 1
BHF .                              99:   FLUID CODE
DPT .                   Miscellaneous:   DRILLING FLUID TYPE
MUDD.                         13.1000:   FLUID DENSITY
MUDV.                         38.0000:   FLUID VISCOSITY
DFPH.                         11.5000:   FLUID PH
FL  .                          4.0000:   FLUID LOSS
RM  .OHMM                       .8600:   RM
RMT .DEGF                     70.0000:   RM TEMP
RMF .OHMM                       .6600:   RMF
RMFT.DEGF                     70.0000:   RMF TEMP
FSC .                               M:   RMF CODE
RMC .OHMM                      1.8600:   RMC
RMCT.DEGF                     70.0000:   RMC TEMP
CMC .                               M:   RMC CODE
TMAX.DEGF                    145.0000:   MAX REC TEMP
TIMC.                          6.5000:   TIME SINCE CIRCLN
~Curve Information Block
#MNEM.UNIT                    API CODE    No Description
#=========                    ========    == ===========
DEPT.F                   00 001 00 00:     1  DEPTH
NPHI.%                               :     2  Neutron Porosity
ASFL.OHMM                            :     3  Shallow Resistivity
DT.US/F                              :     4  Sonic Transit Time
GR.GAPI                              :     5  Gamma Ray
ILD.OHMM                             :     6  Deep Induction Resistivity
SFL.OHMM                             :     7  Medium Resistivity
SP.MV                                :     8  Spontaneous Potential
CALI.IN                              :     9  Caliper
DRHO.G/C3                            :    10  Bulk Density Correction
GR.GAPI                              :    11  Gamma Ray
RHOB.G/C3                            :    12  Bulk Density
~ASCII
# ...
 3975.5000    46.2187     1.0863  -999.2500  -999.2500      .9874  -999.2500   -76.2187    12.5599      .0039    74.9442     2.2664
 3976.0000    46.0972     1.0934  -999.2500  -999.2500      .9894  -999.2500   -77.0273    12.5602      .0028    74.6122     2.2653
 3976.5000    45.3334     1.1034  -999.2500  -999.2500      .9913  -999.2500   -76.4886    12.5592      .0011    74.2874     2.2591
 3977.0000    45.1521     1.1163  -999.2500  -999.2500      .9933  -999.2500   -75.8132    12.5552      .0005    74.8179     2.2567
 3977.5000    46.9072     1.1291  -999.2500  -999.2500      .9953  -999.2500   -75.1377    12.5513      .0005    75.3895     2.2546
 3978.0000    48.9979     1.1215  -999.2500  -999.2500      .9972  -999.2500   -74.4622    12.5490      .0006    75.3241     2.2505
 3978.5000    49.3889     1.1121  -999.2500  -999.2500      .9992  -999.2500   -73.9774    12.5546      .0002    74.2322     2.2419
 3979.0000    47.9048     1.1026  -999.2500  -999.2500     1.0024  -999.2500   -73.8641    12.5602     -.0026    73.1532     2.2346
 3979.5000    46.4120     1.0932  -999.2500  -999.2500     1.0092  -999.2500   -73.9662    12.5627     -.0048    72.4847     2.2332
 3980.0000    45.9091     1.0860  -999.2500  -999.2500     1.0160  -999.2500   -74.0801    12.5651     -.0003    71.6974     2.2394
 3980.5000    45.8632     1.0992  -999.2500  -999.2500     1.0228  -999.2500   -74.1941    12.5648      .0081    70.6167     2.2479
 3981.0000    45.9471     1.1123  -999.2500  -999.2500     1.0295  -999.2500   -74.2377    12.5617      .0145    70.8142     2.2550
 3981.5000    46.0310     1.1255  -999.2500  -999.2500     1.0363  -999.2500   -74.1521    12.5606      .0164    72.1531     2.2556
 3982.0000    46.1023     1.1386  -999.2500  -999.2500     1.0431  -999.2500   -74.0664    12.5631      .0117    73.2917     2.2452
 3982.5000    45.8313     1.1466  -999.2500  -999.2500     1.0499  -999.2500   -73.9808    12.5715      .0061    74.1392     2.2356
 3983.0000    45.5523     1.1527  -999.2500  -999.2500     1.0567  -999.2500   -73.8953    12.5889      .0022    74.7501     2.2359
 3983.5000    46.4253     1.1587  -999.2500  -999.2500     1.0634  -999.2500   -73.8954    12.6123     -.0001    75.0238     2.2383
 3984.0000    47.6684     1.1648  -999.2500  -999.2500     1.0702  -999.2500   -73.9200    12.6374     -.0015    73.8202     2.2409
 3984.5000    48.4972     1.1709  -999.2500  -999.2500     1.0759  -999.2500   -74.1337    12.6577     -.0040    73.2472     2.2399
 3985.0000    48.2333     1.1698  -999.2500  -999.2500     1.0680  -999.2500   -74.3500    12.6779     -.0064    73.6930     2.2352
 3985.5000    47.7227     1.1683  -999.2500  -999.2500     1.0601  -999.2500   -74.5664    12.6925     -.0056    75.9172     2.2351
 3986.0000    47.4230     1.1355  -999.2500  -999.2500     1.0522  -999.2500   -74.0419    12.7041     -.0020    77.4913     2.2395
 3986.5000    46.8104     1.0946  -999.2500  -999.2500     1.0444  -999.2500   -73.5055    12.7139      .0020    78.1385     2.2456
 3987.0000    45.0773     1.0714  -999.2500  -999.2500     1.0365  -999.2500   -73.2632    12.7033      .0063    77.5265     2.2522
 3987.5000    44.1463     1.0481  -999.2500  -999.2500     1.0255  -999.2500   -74.0378    12.6927      .0130    77.4272     2.2576
 3988.0000    44.1033     1.0272  -999.2500  -999.2500     1.0142  -999.2500   -74.4915    12.6720      .0100    77.4697     2.2569
 3988.5000    45.6996     1.0313  -999.2500  -999.2500     1.0028  -999.2500   -74.4712    12.6465      .0072    77.7900     2.2553
 3989.0000    47.2286     1.0501  -999.2500  -999.2500      .9965  -999.2500   -74.2302    12.6215      .0066    76.4752     2.2565
 3989.5000    47.8291     1.0708  -999.2500  -999.2500     1.0036  -999.2500   -73.8485    12.5971      .0090    73.9686     2.2604
 3990.0000    47.2937     1.0915  -999.2500  -999.2500     1.0107  -999.2500   -74.5852    12.5752      .0132    71.6875     2.2676
 3990.5000    45.9745     1.1332  -999.2500  -999.2500     1.0177  -999.2500   -75.5482    12.5618      .0154    69.4100     2.2737
 3991.0000    43.2652     1.1935  -999.2500  -999.2500     1.0248  -999.2500   -76.5106    12.5524      .0106    67.0537     2.2714
 3991.5000    39.2751     1.2599  -999.2500  -999.2500     1.0318  -999.2500   -76.9592    12.5429      .0068    67.0402     2.2635
 3992.0000    38.8391     1.2926  -999.2500  -999.2500     1.0389  -999.2500   -76.2483    12.5321      .0063    68.8298     2.2569
 3992.5000    40.1220     1.2685  -999.2500  -999.2500     1.0437  -999.2500   -75.5181    12.5211      .0120    70.6110     2.2618
 3993.0000    43.2001     1.2440  -999.2500  -999.2500     1.0460  -999.2500   -74.7880    12.5177      .0274    71.6321     2.2709
 3993.5000    46.4571     1.2190  -999.2500  -999.2500     1.0483  -999.2500   -74.2754    12.5156      .0340    70.8401     2.2791
 3994.0000    45.9102     1.1939  -999.2500  -999.2500     1.0507  -999.2500   -74.4033    12.5214      .0234    70.0228     2.2696
 3994.5000    44.3434     1.1689  -999.2500  -999.2500     1.0530  -999.2500   -74.8401    12.5304      .0092    69.3552     2.2575
 3995.0000    43.8511     1.1449  -999.2500  -999.2500     1.0510  -999.2500   -75.4403    12.5470      .0022    68.7618     2.2499
 3995.5000    46.0809     1.1226  -999.2500  -999.2500     1.0446  -999.2500   -75.5822    12.5611      .0021    68.3094     2.2506
 3996.0000    47.5235     1.1063  -999.2500  -999.2500     1.0381  -999.2500   -75.1339    12.5718      .0049    68.6298     2.2526
 3996.5000    47.3949     1.1265  -999.2500  -999.2500     1.0317  -999.2500   -74.6857    12.5817      .0085    70.1490     2.2534
 3997.0000    44.8319     1.1467  -999.2500  -999.2500     1.0253  -999.2500   -74.5629    12.5855      .0121    71.6689     2.2541
 3997.5000    43.4921     1.1669  -999.2500  -999.2500     1.0188  -999.2500   -74.5986    12.5894      .0159    73.0110     2.2528
 3998.0000    43.6207     1.1694  -999.2500  -999.2500     1.0138  -999.2500   -74.6344    12.5936      .0200    73.6561     2.2510
 3998.5000    44.7558     1.1714  -999.2500  -999.2500     1.0219  -999.2500   -74.6703    12.5926      .0190    74.2045     2.2496
 3999.0000    45.9316     1.1734  -999.2500  -999.2500     1.0300  -999.2500   -74.7061    12.5894      .0163    74.9681     2.2481
 3999.5000    46.7741     1.1698  -999.2500  -999.2500     1.0381  -999.2500   -74.7418    12.5743      .0144    75.8218     2.2475
 4000.0000    47.1040     1.1571  -999.2500  -999.2500     1.0462  -999.2500   -74.2747    12.5589      .0137    75.9393     2.2480
 4000.5000    46.8214     1.1515  -999.2500  -999.2500     1.0543  -999.2500   -74.1783    12.5406      .0164    74.5389     2.2490
 4001.0000    45.1261     1.1564  -999.2500  -999.2500     1.0623  -999.2500   -74.2025    12.5314      .0190    73.1544     2.2477
 4001.5000    43.3280     1.1612  -999.2500  -999.2500     1.0704  -999.2500   -74.2267    12.5307      .0215    72.4672     2.2514
 4002.0000    42.3757     1.1661  -999.2500  -999.2500     1.0785  -999.2500   -74.2509    12.5426      .0233    71.9514     2.2542
 4002.5000    42.9067     1.1709  -999.2500  -999.2500     1.0866  -999.2500   -74.2750    12.5551      .0257    71.3469     2.2579
 4003.0000    44.0035     1.1756  -999.2500  -999.2500     1.0944  -999.2500   -74.2992    12.5721      .0294    70.5962     2.2652
 4003.5000    44.8268     1.1803  -999.2500  -999.2500     1.1003  -999.2500   -74.3234    12.5897      .0333    70.8737     2.2741
 4004.0000    45.1196     1.1850  -999.2500  -999.2500     1.1063  -999.2500   -74.1399    12.6117      .0363    71.2098     2.2782
 4004.5000    45.2249     1.1896  -999.2500  -999.2500     1.1123  -999.2500   -73.9211    12.6259      .0260    70.5216     2.2692
 4005.0000    45.3503     1.1943  -999.2500  -999.2500     1.1182  -999.2500   -73.7024    12.6275      .0173    68.9999     2.2616
 4005.5000    45.5674     1.1990  -999.2500  -999.2500     1.1242  -999.2500   -73.4836    12.6028      .0114    67.7953     2.2576
