~VERSION INFORMATION
VERS.                             2.0:   CWLS Log ASCII Standard-VERSION 2.0
WRAP.                              NO:   One line per depth step
~Well Information Block
STRT.F                      1238.0000:   Top Depth
STOP.F                      5786.0000:   Bottom Depth
STEP.F                         .50000:   Depth Increment
NULL.                        -999.250:   Null Value
FLD .                     MU BLK A 18:   Field Name
WELL.       OCSG05167   001 ST00 BP00:   NAME
API .                    427024015100:   WELL API
R1  .            STANDARD OIL PROD CO:   COMMENT  1
EDF .F                       884.0000:   ELEV DRILL FLOOR
COMP.            STANDARD OIL PROD CO:   OPERATOR
BN  .                            A 18:   BLOCK
CTRY.                             USA:   COUNTRY NAME
CNTY.                        MG ILD L:   COUNTY NAME
EKB .F                        85.0000:   ELEV KELLY BUSHING
TDD .F                       5792.000:   FINAL TD DRILLER
STAT.                           TEXAS:   STATE NAME
UWI .                    427024015100:   WELL API
DICO.               IHS : Digitizing Company
~PARAMETER INFORMATION (zones)
#MNEM.UNIT                       Value     Description
#=========                       =====     ===========
#ZONATION                          CNL:   ZONATION NAME
#ZONE                            RUN_0:   ZONE NAME
TOP .                       3294.0000:   TOP DEPTH
BOT .                       5786.5000:   BOTTOM DEPTH
RUN .                               0:   RUN NUMBER
LCCD.                             440:   LOGGING CONTRACTOR
SRVC.                    Schlumberger:   LOGGING CONT NAME
DICO.          QC Data Collectors Ltd:   DIG COMPANY NAME
LDAT.                      11/28/1987:   DATE LOGGED
ELD .F                        85.0000:   LOG DATUM ELEVATION
TDD .F                      5785.0000:   TOTAL DEPTH DRILLER
TDL .F                      5792.0000:   TOTAL DEPTH LOGGER
BOTL.F                      5786.0000:   BOTTOM DEPTH LOGGED
TOPL.F                      3300.0000:   TOP DEPTH LOGGED
CS1 .IN                       10.7500:   CASING SIZE 1
BS1 .IN                        9.8750:   BIT SIZE 1
DDB1.F                      5785.0000:   DEPTH DRILLED BIT 1
BHF .                              81:   FLUID CODE
DPT .          Lignosulfonate (Ligno):   DRILLING FLUID TYPE
MUDD.                         11.0000:   FLUID DENSITY
MUDV.                         41.0000:   FLUID VISCOSITY
DFPH.                         10.0000:   FLUID PH
FL  .                         10.0000:   FLUID LOSS
RM  .OHMM                       .9400:   RM
~PARAMETER INFORMATION (zones)
#MNEM.UNIT                       Value     Description
#=========                       =====     ===========
#ZONATION                          DIL:   ZONATION NAME
#ZONE                            RUN_1:   ZONE NAME
TOP .                       1238.0000:   TOP DEPTH
BOT .                       5786.5000:   BOTTOM DEPTH
RUN .                               1:   RUN NUMBER
LCCD.                             440:   LOGGING CONTRACTOR
SRVC.                    Schlumberger:   LOGGING CONT NAME
DICO.          QC Data Collectors Ltd:   DIG COMPANY NAME
LDAT.                      11/23/1987:   DATE LOGGED
ELD .F                        85.0000:   LOG DATUM ELEVATION
TDD .F                      3540.0000:   TOTAL DEPTH DRILLER
TDL .F                      3539.0000:   TOTAL DEPTH LOGGER
BOTL.F                      3533.0000:   BOTTOM DEPTH LOGGED
TOPL.F                      1294.0000:   TOP DEPTH LOGGED
CS1 .IN                       16.0000:   CASING SIZE 1
BS1 .IN                       13.5000:   BIT SIZE 1
DDB1.F                      3540.0000:   DEPTH DRILLED BIT 1
BHF .                              81:   FLUID CODE
DPT .          Lignosulfonate (Ligno):   DRILLING FLUID TYPE
MUDV.                         38.0000:   FLUID VISCOSITY
DFPH.                          8.0000:   FLUID PH
FL  .                         29.2000:   FLUID LOSS
RMF .OHMM                       .2400:   RMF
FSC .                               C:   RMF CODE
TMAX.DEGF                    120.0000:   MAX REC TEMP
TIMC.                          4.0000:   TIME SINCE CIRCLN
~PARAMETER INFORMATION (zones)
#MNEM.UNIT                       Value     Description
#=========                       =====     ===========
#ZONATION                          FDC:   ZONATION NAME
#ZONE                            RUN_0:   ZONE NAME
TOP .                       3294.0000:   TOP DEPTH
BOT .                       5786.5000:   BOTTOM DEPTH
RUN .                               0:   RUN NUMBER
LCCD.                             440:   LOGGING CONTRACTOR
SRVC.                    Schlumberger:   LOGGING CONT NAME
DICO.          QC Data Collectors Ltd:   DIG COMPANY NAME
LDAT.                      11/28/1987:   DATE LOGGED
ELD .F                        85.0000:   LOG DATUM ELEVATION
TDD .F                      5785.0000:   TOTAL DEPTH DRILLER
TDL .F                      5792.0000:   TOTAL DEPTH LOGGER
BOTL.F                      5786.0000:   BOTTOM DEPTH LOGGED
TOPL.F                      3300.0000:   TOP DEPTH LOGGED
CS1 .IN                       10.7500:   CASING SIZE 1
BS1 .IN                        9.8750:   BIT SIZE 1
DDB1.F                      5785.0000:   DEPTH DRILLED BIT 1
BHF .                              81:   FLUID CODE
DPT .          Lignosulfonate (Ligno):   DRILLING FLUID TYPE
MUDD.                         11.0000:   FLUID DENSITY
MUDV.                         41.0000:   FLUID VISCOSITY
DFPH.                         10.0000:   FLUID PH
FL  .                         10.0000:   FLUID LOSS
RM  .OHMM                       .9400:   RM
~Curve Information Block
#MNEM.UNIT                    API CODE    No Description
#=========                    ========    == ===========
DEPT.F                   00 001 00 00:     1  DEPTH
NPHI.DEC                              :     2  Neutron Porosity
DT.US/F                              :     3  Sonic Transit Time
GR.GAPI                              :     4  Gamma Ray
ILD.OHMM                             :     5  Deep Induction Resistivity
ILM.OHMM                             :     6  Medium Induction Resistivity
SFL.OHMM                             :     7  Medium Resistivity
SP.MV                                :     8  Spontaneous Potential
CALI.IN                              :     9  Caliper
DPHI.DEC                              :    10  Porosity
DRHO.G/C3                            :    11  Bulk Density Correction
GR.GAPI                              :    12  Gamma Ray
~ASCII
# ...
 5599.5000      .4321   119.0090  -999.2500     1.0693     1.0858     1.2067   -39.6255    10.1556      .2053      .0455    78.0972
 5600.0000      .3983   119.1603  -999.2500     1.0409     1.0497     1.1955   -39.6489    10.1944      .2144      .0480    79.8201
 5600.5000      .3686   118.4884  -999.2500     1.0175     1.0131     1.2383   -39.6808    10.2784      .2142      .0492    79.4824
 5601.0000      .3596   117.8256  -999.2500      .9999      .9857     1.3033   -39.6954    10.3221      .2008      .0505    77.6052
 5601.5000      .3661   117.7698  -999.2500      .9874      .9728     1.3234   -39.7055    10.2698      .1830      .0498    76.9031
 5602.0000      .3785   118.0996  -999.2500      .9834      .9760     1.3065   -39.7411    10.1811      .1720      .0446    76.8888
 5602.5000      .3897   118.2983  -999.2500      .9842      .9871     1.2879   -39.7536    10.1569      .1742      .0401    76.2332
 5603.0000      .3915   118.3313  -999.2500      .9876      .9941     1.2703   -39.7401    10.1977      .1786      .0372    74.6924
 5603.5000      .3889   118.1458  -999.2500      .9925     1.0007     1.2625   -39.6802    10.2269      .1800      .0397    74.0281
 5604.0000      .3938   117.6868  -999.2500      .9966     1.0012     1.2734   -39.6054    10.2268      .1773      .0425    73.3300
 5604.5000      .4008   117.3534  -999.2500      .9976      .9968     1.3072   -39.5165    10.2165      .1752      .0428    72.5861
 5605.0000      .3998   117.8312  -999.2500      .9961      .9915     1.3486   -39.4260    10.2180      .1779      .0416    71.8331
 5605.5000      .3916   118.5769  -999.2500      .9923      .9899     1.3365   -39.3453    10.2425      .1821      .0405    70.6461
 5606.0000      .3756   119.1278  -999.2500      .9846      .9885     1.2573   -39.2816    10.2821      .1833      .0396    68.5194
 5606.5000      .3747   118.7533  -999.2500      .9776      .9865     1.2088   -39.2812    10.2905      .1808      .0388    67.2836
 5607.0000      .3879   118.1613  -999.2500      .9705      .9840     1.2694   -39.3014    10.2896      .1794      .0388    69.1632
 5607.5000      .3999   118.8309  -999.2500      .9621      .9791     1.3089   -39.3407    10.3165      .1821      .0408    70.8746
 5608.0000      .4051   119.6375  -999.2500      .9559      .9695     1.2641   -39.3352    10.3734      .1871      .0423    70.6155
 5608.5000      .4025   119.4136  -999.2500      .9583      .9783     1.2105   -39.2885    10.4594      .1943      .0410    70.2152
 5609.0000      .3914   117.6260  -999.2500      .9705      .9906     1.1951   -39.1695    10.5881      .1943      .0389    70.4604
 5609.5000      .3813   115.4110  -999.2500      .9810     1.0107     1.2486   -38.9905    10.6367      .1940      .0379    73.1901
 5610.0000      .3783   114.7588  -999.2500      .9841     1.0256     1.3966   -38.8040    10.5640      .1975      .0369    75.2252
 5610.5000      .3909   114.6201  -999.2500      .9847     1.0251     1.4757   -38.7047    10.5506      .2026      .0367    76.4502
 5611.0000      .4106   116.1765  -999.2500      .9851      .9994     1.3896   -38.7005    10.7395      .2055      .0368    76.0626
 5611.5000      .4146   118.5360  -999.2500      .9863      .9799     1.2816   -38.7503    10.8820      .2067      .0348    75.3000
 5612.0000      .4103   119.9221  -999.2500      .9876      .9769     1.1983   -38.8628    10.9466      .2042      .0288    74.6508
 5612.5000      .3964   119.5833  -999.2500      .9868      .9756     1.1803   -39.0527    10.9800      .2022      .0246    74.3397
 5613.0000      .3933   119.2294  -999.2500      .9869      .9755     1.1992   -39.3049    11.0387      .2016      .0257    74.9384
 5613.5000      .4011   118.7225  -999.2500      .9917      .9802     1.2060   -39.5758    11.1068      .2013      .0282    75.4882
 5614.0000      .4149   117.6548  -999.2500     1.0083      .9937     1.2056   -39.6668    11.1252      .1973      .0253    75.1433
 5614.5000      .4134   115.6469  -999.2500     1.0391     1.0307     1.2312   -39.2510    10.8472      .1858      .0194    74.9192
 5615.0000      .3855   112.2764  -999.2500     1.0803     1.1002     1.3173   -38.6876    10.3750      .1746      .0133    74.7743
 5615.5000      .3595   109.4233  -999.2500     1.1304     1.1609     1.5338   -38.4316    10.1883      .1647      .0076    74.5736
 5616.0000      .3328   107.9590  -999.2500     1.1811     1.2030     1.7665   -38.3556    10.1253      .1544      .0034    74.3649
 5616.5000      .3377   107.6827  -999.2500     1.1987     1.2164     1.8674   -38.3380    10.1458      .1529      .0047    74.2484
 5617.0000      .3781   109.5931  -999.2500     1.1902     1.1868     1.7716   -38.3433    10.1806      .1589      .0070    74.5221
 5617.5000      .3959   112.1415  -999.2500     1.1744     1.1567     1.6190   -38.3283    10.1926      .1675      .0086    75.3615
 5618.0000      .4057   116.1718  -999.2500     1.1448     1.1259     1.4624   -38.3018    10.1921      .1750      .0096    77.1375
 5618.5000      .3957   119.1571  -999.2500     1.1021     1.0898     1.2867   -38.2595    10.1930      .1804      .0070    79.2389
 5619.0000      .3873   120.2020  -999.2500     1.0462     1.0451     1.1954   -38.2501    10.1945      .1807      .0030    80.7798
 5619.5000      .3891   120.6077  -999.2500      .9815      .9866     1.1887   -38.2608    10.1810      .1798      .0010    80.5989
 5620.0000      .4016   121.5984  -999.2500      .8992      .9335     1.1839   -38.2922    10.1689      .1830      .0040    79.9346
 5620.5000      .4157   122.8600  -999.2500      .8435      .8760     1.1109   -38.3689    10.1641      .1879      .0085    79.2046
 5621.0000      .4264   124.2913  -999.2500      .8160      .8443     1.0180   -38.4851    10.1593      .1913      .0116    78.9935
 5621.5000      .4326   125.3281  -999.2500      .8099      .8270      .9684   -38.6716    10.1545      .1906      .0131    79.7513
 5622.0000      .4374   124.5139  -999.2500      .8183      .8173      .9513   -38.8201    10.1546      .1876      .0152    81.6008
 5622.5000      .4326   122.3375  -999.2500      .8346      .8362      .9827   -38.9351    10.1582      .1833      .0188    83.4672
 5623.0000      .4019   118.6178  -999.2500      .8586      .8863     1.0858   -39.0123    10.1603      .1771      .0239    84.1571
 5623.5000      .3729   114.0338  -999.2500      .9035      .9729     1.2701   -39.0416    10.1618      .1716      .0253    81.0342
 5624.0000      .3388   108.9539  -999.2500      .9551     1.0636     1.5127   -39.0519    10.1653      .1671      .0206    78.1423
 5624.5000      .3254   106.5614  -999.2500     1.0163     1.1274     1.7508   -39.1938    10.1686      .1632      .0159    76.6527
 5625.0000      .3382   106.5942  -999.2500     1.0996     1.1542     1.8441   -39.4113    10.1702      .1662      .0126    74.8105
 5625.5000      .3669   107.7189  -999.2500     1.1857     1.1768     1.7398   -39.7042    10.1728      .1708      .0153    73.8954
 5626.0000      .3796   107.9680  -999.2500     1.2813     1.2675     1.5915   -40.1914    10.1768      .1693      .0226    72.8995
 5626.5000      .3238   105.4894  -999.2500     1.3850     1.4288     1.4524   -40.5306    10.1760      .1606      .0259    71.4877
 5627.0000      .2800   101.1919  -999.2500     1.4911     1.5612     1.6567   -40.9121    10.1673      .1462      .0205    69.9818
 5627.5000      .2524    96.7548  -999.2500     1.5884     1.6526     1.9537   -41.1561    10.1503      .1161      .0165    67.6730
 5628.0000      .2469    93.3770  -999.2500     1.6594     1.7580     2.4943   -41.2919    10.1291      .1097      .0141    64.5238
 5628.5000      .2704    90.8383  -999.2500     1.7083     1.8092     2.8057   -41.2145    10.1049      .1248      .0113    61.1371
 5629.0000      .2859    90.3127  -999.2500     1.7600     1.8239     2.9336   -41.0560    10.0834      .1449      .0068    60.8659
 5629.5000      .3005    92.7029  -999.2500     1.7857     1.8271     2.6906   -40.8439    10.0795      .1612      .0006    63.2242
