~VERSION INFORMATION
VERS.                             2.0:   CWLS Log ASCII Standard-VERSION 2.0
WRAP.                              NO:   One line per depth step
~Well Information Block
STRT.F                      3964.0000:   Top Depth
STOP.F                      6748.0000:   Bottom Depth
STEP.F                         .50000:   Depth Increment
NULL.                        -999.250:   Null Value
FLD .                     MU BLK A 26:   Field Name
WELL.       OCSG13276   001 ST00 BP00:   NAME
API .                    427024021500:   WELL API
EDF .F                        73.0000:   ELEV DRILL FLOOR
COMP.                  ORYX ENERGY CO:   OPERATOR
BN  .                            A 26:   BLOCK
CTRY.                             USA:   COUNTRY NAME
CNTY.                        MG ILD L:   COUNTY NAME
EGL .F                      -290.0000:   ELEV GROUND LEVEL
TDD .F                       6750.000:   FINAL TD DRILLER
STAT.                           TEXAS:   STATE NAME
UWI .                    427024021500:   WELL API
DICO.               IHS : Digitizing Company
~PARAMETER INFORMATION (zones)
#MNEM.UNIT                       Value     Description
#=========                       =====     ===========
#ZONATION                          CNL:   ZONATION NAME
#ZONE                            RUN_1:   ZONE NAME
TOP .                       3970.0000:   TOP DEPTH
BOT .                       6744.5000:   BOTTOM DEPTH
RUN .                               1:   RUN NUMBER
LCCD.                             510:   LOGGING CONTRACTOR
SRVC.                   Western Atlas:   LOGGING CONT NAME
DICO.          QC Data Collectors Ltd:   DIG COMPANY NAME
LDAT.                      08/29/1993:   DATE LOGGED
TDD .F                      6750.0000:   TOTAL DEPTH DRILLER
TDL .F                      6749.0000:   TOTAL DEPTH LOGGER
BOTL.F                      6746.0000:   BOTTOM DEPTH LOGGED
TOPL.F                      3998.0000:   TOP DEPTH LOGGED
CS1 .IN                       13.3750:   CASING SIZE 1
BS1 .IN                       12.2500:   BIT SIZE 1
DDB1.F                      6750.0000:   DEPTH DRILLED BIT 1
BHF .                              32:   FLUID CODE
DPT .                          low PH:   DRILLING FLUID TYPE
MUDD.                         11.5000:   FLUID DENSITY
MUDV.                         46.0000:   FLUID VISCOSITY
DFPH.                          8.8000:   FLUID PH
FL  .                          5.0000:   FLUID LOSS
RM  .OHMM                      1.2400:   RM
RMT .DEGF                     75.0000:   RM TEMP
RMF .OHMM                      1.1400:   RMF
RMFT.DEGF                     75.0000:   RMF TEMP
FSC .                               M:   RMF CODE
RMC .OHMM                      1.8000:   RMC
RMCT.DEGF                     75.0000:   RMC TEMP
CMC .                               M:   RMC CODE
TMAX.DEGF                    164.0000:   MAX REC TEMP
TIMC.                         10.0000:   TIME SINCE CIRCLN
~PARAMETER INFORMATION (zones)
#MNEM.UNIT                       Value     Description
#=========                       =====     ===========
#ZONATION                          DIL:   ZONATION NAME
#ZONE                            RUN_1:   ZONE NAME
TOP .                       3986.0000:   TOP DEPTH
BOT .                       6748.5000:   BOTTOM DEPTH
RUN .                               1:   RUN NUMBER
LCCD.                             510:   LOGGING CONTRACTOR
SRVC.                   Western Atlas:   LOGGING CONT NAME
DICO.          QC Data Collectors Ltd:   DIG COMPANY NAME
LDAT.                      08/29/1993:   DATE LOGGED
TDD .F                      6750.0000:   TOTAL DEPTH DRILLER
TDL .F                      6750.0000:   TOTAL DEPTH LOGGER
BOTL.F                      6748.0000:   BOTTOM DEPTH LOGGED
TOPL.F                      3998.0000:   TOP DEPTH LOGGED
CS1 .IN                       13.3750:   CASING SIZE 1
BS1 .IN                       12.2500:   BIT SIZE 1
DDB1.F                      6750.0000:   DEPTH DRILLED BIT 1
BHF .                              32:   FLUID CODE
DPT .                          low PH:   DRILLING FLUID TYPE
MUDD.                         11.5000:   FLUID DENSITY
MUDV.                         46.0000:   FLUID VISCOSITY
DFPH.                          8.8000:   FLUID PH
FL  .                          5.0000:   FLUID LOSS
RM  .OHMM                      1.2400:   RM
RMT .DEGF                     75.0000:   RM TEMP
RMF .OHMM                      1.1400:   RMF
RMFT.DEGF                     75.0000:   RMF TEMP
FSC .                               M:   RMF CODE
RMC .OHMM                      1.8000:   RMC
RMCT.DEGF                     75.0000:   RMC TEMP
CMC .                               M:   RMC CODE
TMAX.DEGF                    158.0000:   MAX REC TEMP
TIMC.                          6.0000:   TIME SINCE CIRCLN
~PARAMETER INFORMATION (zones)
#MNEM.UNIT                       Value     Description
#=========                       =====     ===========
#ZONATION                          FDC:   ZONATION NAME
#ZONE                            RUN_1:   ZONE NAME
TOP .                       3964.0000:   TOP DEPTH
BOT .                       6746.5000:   BOTTOM DEPTH
RUN .                               1:   RUN NUMBER
LCCD.                             510:   LOGGING CONTRACTOR
SRVC.                   Western Atlas:   LOGGING CONT NAME
DICO.          QC Data Collectors Ltd:   DIG COMPANY NAME
LDAT.                      08/29/1993:   DATE LOGGED
TDD .F                      6750.0000:   TOTAL DEPTH DRILLER
TDL .F                      6749.0000:   TOTAL DEPTH LOGGER
BOTL.F                      6746.0000:   BOTTOM DEPTH LOGGED
TOPL.F                      3998.0000:   TOP DEPTH LOGGED
CS1 .IN                       13.3750:   CASING SIZE 1
BS1 .IN                       12.2500:   BIT SIZE 1
DDB1.F                      6750.0000:   DEPTH DRILLED BIT 1
BHF .                              32:   FLUID CODE
DPT .                          low PH:   DRILLING FLUID TYPE
MUDD.                         11.5000:   FLUID DENSITY
MUDV.                         46.0000:   FLUID VISCOSITY
DFPH.                          8.8000:   FLUID PH
FL  .                          5.0000:   FLUID LOSS
RM  .OHMM                      1.2400:   RM
RMT .DEGF                     75.0000:   RM TEMP
RMF .OHMM                      1.1400:   RMF
RMFT.DEGF                     75.0000:   RMF TEMP
FSC .                               M:   RMF CODE
RMC .OHMM                      1.8000:   RMC
RMCT.DEGF                     75.0000:   RMC TEMP
CMC .                               M:   RMC CODE
TMAX.DEGF                    164.0000:   MAX REC TEMP
TIMC.                         10.0000:   TIME SINCE CIRCLN
~Curve Information Block
#MNEM.UNIT                    API CODE    No Description
#=========                    ========    == ===========
DEPT.F                   00 001 00 00:     1  DEPTH
NPHI.%                               :     2  Neutron Porosity
DT.US/F                              :     3  Sonic Transit Time
GR.GAPI                              :     4  Gamma Ray
ILD.OHMM                             :     5  Deep Induction Resistivity
ILM.OHMM                             :     6  Medium Induction Resistivity
RFOC.OHMM                            :     7  Medium Resistivity
SP.MV                                :     8  Spontaneous Potential
CALI.IN                              :     9  Caliper
DPHI.%                               :    10  Porosity
DRHO.G/C3                            :    11  Bulk Density Correction
GRD.GAPI                             :    12  Gamma Ray
~ASCII
# ...
 4543.5000    37.8419   124.1598    60.5179     1.0572     1.0396     1.3806   -84.7045    12.4152    24.0563      .0542    68.9757
 4544.0000    37.7482   123.6323    67.2047     1.0504     1.0342     1.3665   -85.2964    12.4566    25.0550      .0622    69.0518
 4544.5000    37.9247   122.9238    68.4835     1.0436     1.0311     1.3610   -85.3999    12.4801    25.6963      .0707    68.3755
 4545.0000    38.3218   122.5900    66.6538     1.0368     1.0200     1.3588   -85.2391    12.4881    25.5838      .0785    67.3649
 4545.5000    38.8663   123.0250    62.2906     1.0300     1.0197     1.3528   -85.1439    12.4790    24.8855      .0844    66.3492
 4546.0000    39.4105   123.3923    57.5944     1.0232     1.0168     1.3547   -85.1967    12.4617    23.8764      .0853    65.4314
 4546.5000    39.9546   123.5247    55.9450     1.0164     1.0139     1.3578   -85.1787    12.4456    23.0345      .0767    65.6295
 4547.0000    40.4295   123.4091    58.1820     1.0096     1.0120     1.3610   -84.8759    12.4628    22.8868      .0574    66.9370
 4547.5000    40.7443   123.5150    61.6271     1.0094     1.0110     1.3631   -84.0819    12.5110    23.1341      .0415    68.2828
 4548.0000    40.9199   124.0120    63.3802     1.0106     1.0126     1.3654   -83.5811    12.5405    23.5062      .0530    68.2705
 4548.5000    40.5745   125.0405    62.3457     1.0141     1.0117     1.3663   -83.9858    12.5736    24.0078      .0664    66.5604
 4549.0000    40.1703   125.8411    60.8337     1.0195     1.0148     1.3665   -84.6062    12.5656    24.3020      .0660    64.9751
 4549.5000    39.7020   125.2278    58.8394     1.0245     1.0199     1.3675   -84.8911    12.5109    24.2798      .0632    64.4310
 4550.0000    39.0776   123.8308    59.3683     1.0248     1.0282     1.3748   -84.3929    12.4660    24.4071      .0724    65.3097
 4550.5000    38.4637   122.7184    61.3492     1.0222     1.0396     1.3898   -83.9749    12.4569    24.7784      .0826    66.4987
 4551.0000    38.4266   121.9847    61.3920     1.0186     1.0472     1.4014   -83.6578    12.4626    25.1628      .0773    65.8492
 4551.5000    38.7969   121.9043    58.9680     1.0210     1.0506     1.4049   -83.4127    12.3863    25.5737      .0630    64.0873
 4552.0000    39.1500   121.7791    55.0308     1.0262     1.0519     1.4067   -83.2631    12.2959    25.7060      .0578    63.0984
 4552.5000    38.9500   121.6504    56.0396     1.0315     1.0514     1.4082   -83.3590    12.1823    25.6600      .0592    64.4293
 4553.0000    37.8788   121.6310    60.9390     1.0379     1.0513     1.4031   -83.7452    12.0870    25.5580      .0613    65.6320
 4553.5000    37.1780   121.7924    64.2751     1.0455     1.0582     1.3977   -84.4799    12.0319    25.3589      .0636    66.1250
 4554.0000    37.3157   121.9822    64.6821     1.0686     1.0798     1.3932   -85.3514    12.0484    24.9236      .0633    65.6439
 4554.5000    37.4577   122.1914    64.2957     1.0957     1.1092     1.3884   -86.1949    12.0578    24.4306      .0604    65.5986
 4555.0000    37.2791   122.5066    63.4604     1.1258     1.1370     1.3831   -86.7968    12.0632    24.4518      .0571    65.9332
 4555.5000    36.8182   122.8828    61.4483     1.1489     1.1563     1.3909   -87.2837    12.0636    24.4632      .0523    65.8715
 4556.0000    35.8576   122.0405    55.3344     1.1608     1.1679     1.4243   -87.3918    12.0551    24.1544      .0504    64.7281
 4556.5000    34.5820   119.1589    55.3378     1.1645     1.1726     1.4864   -87.2494    12.0474    23.6988      .0474    63.2465
 4557.0000    34.0953   116.6958    59.8813     1.1474     1.1643     1.5467   -86.7328    12.0764    23.3102      .0434    62.0933
 4557.5000    35.0134   115.1774    62.7803     1.1302     1.1531     1.4865   -86.0745    12.1879    23.2808      .0391    61.8937
 4558.0000    36.4540   116.3575    61.0958     1.1066     1.1317     1.4165   -85.1918    12.2511    23.7088      .0411    62.5156
 4558.5000    38.0349   120.2439    58.6644     1.0812     1.1079     1.3568   -84.2906    12.2015    24.1160      .0423    62.8063
 4559.0000    39.6143   123.2333    56.9602     1.0567     1.0888     1.3488   -83.7097    12.0793    24.3175      .0431    62.1982
 4559.5000    40.3286   124.3903    57.1524     1.0330     1.0704     1.3537   -83.4532    11.9662    24.3843      .0496    61.2587
 4560.0000    40.2913   124.8232    59.1467     1.0170     1.0500     1.3571   -83.4349    11.8755    24.4122      .0622    61.4019
 4560.5000    39.2597   124.9756    63.3802     1.0018     1.0295     1.3595   -83.5095    11.8098    24.4344      .0629    63.3181
 4561.0000    38.2902   124.9995    65.4082      .9901     1.0241     1.3610   -83.5870    11.7967    24.5149      .0618    65.4789
 4561.5000    38.0005   125.1263    65.4386      .9824     1.0203     1.3598   -83.5256    11.7882    25.0300      .0651    66.2095
 4562.0000    38.4312   125.3040    65.0219      .9856     1.0192     1.3559   -83.0808    11.7728    26.1850      .0717    66.0029
 4562.5000    38.5071   125.4702    64.4122      .9918     1.0175     1.3543   -82.6790    11.7643    27.8987      .0749    67.1173
 4563.0000    37.9333   125.6600    63.7542     1.0015     1.0153     1.3538   -82.4586    11.7667    28.5925      .0729    69.0520
 4563.5000    36.6100   125.8812    63.1883     1.0115     1.0225     1.3545   -82.3221    11.7944    28.4906      .0730    70.5522
 4564.0000    35.8387   126.1217    62.6377     1.0221     1.0324     1.3615   -82.3792    11.8803    27.6121      .0742    70.9066
 4564.5000    36.2499   126.2914    62.2187     1.0329     1.0479     1.3694   -82.5929    11.9819    26.7918      .0695    68.9952
 4565.0000    36.8585   125.9156    62.3879     1.0474     1.0635     1.3801   -83.0303    12.0696    26.1429      .0645    67.1222
 4565.5000    37.5758   124.4022    63.8662     1.0626     1.0780     1.3934   -83.6890    12.1144    25.5278      .0648    65.6505
 4566.0000    38.2812   123.0791    65.2257     1.0756     1.0908     1.4114   -84.3452    12.0813    25.0572      .0684    66.1875
 4566.5000    38.8921   121.9803    64.2268     1.0858     1.1034     1.4269   -84.3489    11.9984    24.6803      .0706    67.1759
 4567.0000    39.3295   121.2488    62.2294     1.0960     1.1167     1.4418   -84.4397    11.8814    24.8601      .0680    67.5402
 4567.5000    39.6542   120.9156    61.5356     1.1053     1.1284     1.4552   -84.5814    11.8088    25.1167      .0661    65.6788
 4568.0000    39.9164   120.8607    61.7544     1.1143     1.1394     1.4496   -84.8002    11.8008    25.2010      .0657    62.7996
 4568.5000    39.9783   121.5613    62.0943     1.1210     1.1497     1.4245   -85.0978    11.8320    25.0805      .0657    62.7897
 4569.0000    39.7374   122.6238    61.6014     1.1278     1.1608     1.4004   -85.5321    11.8691    24.6586      .0640    65.0912
 4569.5000    39.7180   123.6937    59.9376     1.1254     1.1773     1.3888   -86.1907    11.9042    24.4085      .0633    66.9604
 4570.0000    38.7634   124.5043    55.9514     1.1216     1.1902     1.4071   -87.1854    11.9042    24.5472      .0718    65.7949
 4570.5000    36.9571   121.8275    51.1646     1.1127     1.1811     1.4663   -89.3505    11.8799    24.6120      .0829    62.2736
 4571.0000    34.6432   116.4553    47.8212     1.1041     1.1543     1.5431   -94.5511    11.8360    23.9615      .0734    58.7769
 4571.5000    32.6638   110.7523    48.2753     1.0965     1.1317     1.6267  -100.0321    11.8313    23.2882      .0487    55.2803
 4572.0000    32.2913   105.6356    56.9235     1.0895     1.1171     1.7059  -101.1688    11.9321    23.4830      .0173    51.9243
 4572.5000    33.5990   105.0367    62.6824     1.0831     1.1164     1.6350   -98.6549    12.0300    24.1164      .0068    53.0800
 4573.0000    34.8657   109.7650    64.2249     1.0806     1.1225     1.4827   -93.4297    12.0806    24.4853      .0188    57.9299
 4573.5000    35.8770   116.8362    63.6385     1.0824     1.1328     1.3808   -88.2487    12.1063    24.5092      .0336    61.9600
