~VERSION INFORMATION
VERS.                             2.0:   CWLS Log ASCII Standard-VERSION 2.0
WRAP.                              NO:   One line per depth step
~Well Information Block
STRT.F                      1238.0000:   Top Depth
STOP.F                      5786.0000:   Bottom Depth
STEP.F                         .50000:   Depth Increment
NULL.                        -999.250:   Null Value
FLD .                     MU BLK A 18:   Field Name
WELL.       OCSG05167   001 ST00 BP00:   NAME
API .                    427024015100:   WELL API
R1  .            STANDARD OIL PROD CO:   COMMENT  1
EDF .F                       884.0000:   ELEV DRILL FLOOR
COMP.            STANDARD OIL PROD CO:   OPERATOR
BN  .                            A 18:   BLOCK
CTRY.                             USA:   COUNTRY NAME
CNTY.                        MG ILD L:   COUNTY NAME
EKB .F                        85.0000:   ELEV KELLY BUSHING
TDD .F                       5792.000:   FINAL TD DRILLER
STAT.                           TEXAS:   STATE NAME
UWI .                    427024015100:   WELL API
DICO.               IHS : Digitizing Company
~PARAMETER INFORMATION (zones)
#MNEM.UNIT                       Value     Description
#=========                       =====     ===========
#ZONATION                          CNL:   ZONATION NAME
#ZONE                            RUN_0:   ZONE NAME
TOP .                       3294.0000:   TOP DEPTH
BOT .                       5786.5000:   BOTTOM DEPTH
RUN .                               0:   RUN NUMBER
LCCD.                             440:   LOGGING CONTRACTOR
SRVC.                    Schlumberger:   LOGGING CONT NAME
DICO.          QC Data Collectors Ltd:   DIG COMPANY NAME
LDAT.                      11/28/1987:   DATE LOGGED
ELD .F                        85.0000:   LOG DATUM ELEVATION
TDD .F                      5785.0000:   TOTAL DEPTH DRILLER
TDL .F                      5792.0000:   TOTAL DEPTH LOGGER
BOTL.F                      5786.0000:   BOTTOM DEPTH LOGGED
TOPL.F                      3300.0000:   TOP DEPTH LOGGED
CS1 .IN                       10.7500:   CASING SIZE 1
BS1 .IN                        9.8750:   BIT SIZE 1
DDB1.F                      5785.0000:   DEPTH DRILLED BIT 1
BHF .                              81:   FLUID CODE
DPT .          Lignosulfonate (Ligno):   DRILLING FLUID TYPE
MUDD.                         11.0000:   FLUID DENSITY
MUDV.                         41.0000:   FLUID VISCOSITY
DFPH.                         10.0000:   FLUID PH
FL  .                         10.0000:   FLUID LOSS
RM  .OHMM                       .9400:   RM
~PARAMETER INFORMATION (zones)
#MNEM.UNIT                       Value     Description
#=========                       =====     ===========
#ZONATION                          DIL:   ZONATION NAME
#ZONE                            RUN_1:   ZONE NAME
TOP .                       1238.0000:   TOP DEPTH
BOT .                       5786.5000:   BOTTOM DEPTH
RUN .                               1:   RUN NUMBER
LCCD.                             440:   LOGGING CONTRACTOR
SRVC.                    Schlumberger:   LOGGING CONT NAME
DICO.          QC Data Collectors Ltd:   DIG COMPANY NAME
LDAT.                      11/23/1987:   DATE LOGGED
ELD .F                        85.0000:   LOG DATUM ELEVATION
TDD .F                      3540.0000:   TOTAL DEPTH DRILLER
TDL .F                      3539.0000:   TOTAL DEPTH LOGGER
BOTL.F                      3533.0000:   BOTTOM DEPTH LOGGED
TOPL.F                      1294.0000:   TOP DEPTH LOGGED
CS1 .IN                       16.0000:   CASING SIZE 1
BS1 .IN                       13.5000:   BIT SIZE 1
DDB1.F                      3540.0000:   DEPTH DRILLED BIT 1
BHF .                              81:   FLUID CODE
DPT .          Lignosulfonate (Ligno):   DRILLING FLUID TYPE
MUDV.                         38.0000:   FLUID VISCOSITY
DFPH.                          8.0000:   FLUID PH
FL  .                         29.2000:   FLUID LOSS
RMF .OHMM                       .2400:   RMF
FSC .                               C:   RMF CODE
TMAX.DEGF                    120.0000:   MAX REC TEMP
TIMC.                          4.0000:   TIME SINCE CIRCLN
~PARAMETER INFORMATION (zones)
#MNEM.UNIT                       Value     Description
#=========                       =====     ===========
#ZONATION                          FDC:   ZONATION NAME
#ZONE                            RUN_0:   ZONE NAME
TOP .                       3294.0000:   TOP DEPTH
BOT .                       5786.5000:   BOTTOM DEPTH
RUN .                               0:   RUN NUMBER
LCCD.                             440:   LOGGING CONTRACTOR
SRVC.                    Schlumberger:   LOGGING CONT NAME
DICO.          QC Data Collectors Ltd:   DIG COMPANY NAME
LDAT.                      11/28/1987:   DATE LOGGED
ELD .F                        85.0000:   LOG DATUM ELEVATION
TDD .F                      5785.0000:   TOTAL DEPTH DRILLER
TDL .F                      5792.0000:   TOTAL DEPTH LOGGER
BOTL.F                      5786.0000:   BOTTOM DEPTH LOGGED
TOPL.F                      3300.0000:   TOP DEPTH LOGGED
CS1 .IN                       10.7500:   CASING SIZE 1
BS1 .IN                        9.8750:   BIT SIZE 1
DDB1.F                      5785.0000:   DEPTH DRILLED BIT 1
BHF .                              81:   FLUID CODE
DPT .          Lignosulfonate (Ligno):   DRILLING FLUID TYPE
MUDD.                         11.0000:   FLUID DENSITY
MUDV.                         41.0000:   FLUID VISCOSITY
DFPH.                         10.0000:   FLUID PH
FL  .                         10.0000:   FLUID LOSS
RM  .OHMM                       .9400:   RM
~Curve Information Block
#MNEM.UNIT                    API CODE    No Description
#=========                    ========    == ===========
DEPT.F                   00 001 00 00:     1  DEPTH
NPHI.DEC                              :     2  Neutron Porosity
DT.US/F                              :     3  Sonic Transit Time
GR.GAPI                              :     4  Gamma Ray
ILD.OHMM                             :     5  Deep Induction Resistivity
ILM.OHMM                             :     6  Medium Induction Resistivity
SFL.OHMM                             :     7  Medium Resistivity
SP.MV                                :     8  Spontaneous Potential
CALI.IN                              :     9  Caliper
DPHI.DEC                              :    10  Porosity
DRHO.G/C3                            :    11  Bulk Density Correction
GR.GAPI                              :    12  Gamma Ray
~ASCII
# ...
 3617.0000      .4408   118.1210  -999.2500     1.2074     1.2046     1.4094   -69.3646    10.5845      .2902      .0175    64.6573
 3617.5000      .4383   120.9323  -999.2500     1.1958     1.1978     1.3101   -69.3136    10.5282      .2925      .0134    64.7629
 3618.0000      .4362   122.0143  -999.2500     1.1827     1.1898     1.2539   -69.2644    10.5332      .2936      .0071    64.9271
 3618.5000      .4352   121.0737  -999.2500     1.1676     1.1803     1.2167   -69.1937    10.5592      .2901      .0017    67.0834
 3619.0000      .4378   120.1182  -999.2500     1.1534     1.1692     1.2455   -69.1249    10.5833      .2811      .0003    69.0551
 3619.5000      .4436   119.5923  -999.2500     1.1408     1.1600     1.2880   -69.1079    10.5737      .2733      .0062    70.3246
 3620.0000      .4577   119.2769  -999.2500     1.1338     1.1540     1.2877   -69.1276    10.5503      .2718      .0117    69.1395
 3620.5000      .4633   119.7130  -999.2500     1.1288     1.1440     1.2736   -69.2145    10.5326      .2845      .0159    66.5573
 3621.0000      .4441   121.7771  -999.2500     1.1243     1.1333     1.2597   -69.3378    10.5458      .3009      .0153    64.8364
 3621.5000      .4264   123.3619  -999.2500     1.1204     1.1293     1.2477   -69.4252    10.5887      .3092      .0095    64.5516
 3622.0000      .4254   123.0400  -999.2500     1.1198     1.1301     1.2321   -69.5171    10.6145      .2990      .0053    65.9243
 3622.5000      .4388   122.5017  -999.2500     1.1210     1.1346     1.2288   -69.6124    10.5985      .2922      .0053    66.9540
 3623.0000      .4494   121.0714  -999.2500     1.1247     1.1425     1.2566   -69.7128    10.5818      .3048      .0033    66.3629
 3623.5000      .4504   118.0319  -999.2500     1.1318     1.1504     1.2958   -69.8302    10.6383      .3329     -.0012    64.7472
 3624.0000      .4278   117.2476  -999.2500     1.1413     1.1597     1.3280   -70.1525    10.6752      .3525     -.0040    63.6763
 3624.5000      .4163   117.7290  -999.2500     1.1488     1.1691     1.3287   -70.4587    10.6671      .3614     -.0097    64.1317
 3625.0000      .4136   118.7134  -999.2500     1.1583     1.1719     1.3102   -70.6909    10.6263      .3531     -.0146    65.7330
 3625.5000      .4209   119.5874  -999.2500     1.1670     1.1708     1.2984   -70.8442    10.5876      .3387     -.0152    66.8746
 3626.0000      .4383   119.1018  -999.2500     1.1738     1.1677     1.3026   -70.9550    10.6083      .3314     -.0055    67.7410
 3626.5000      .4575   120.3524  -999.2500     1.1719     1.1632     1.3172   -71.0066    10.6441      .3294      .0007    66.6924
 3627.0000      .4692   121.4020  -999.2500     1.1677     1.1629     1.3105   -71.0162    10.7548      .3342      .0051    64.6289
 3627.5000      .4763   122.4502  -999.2500     1.1662     1.1715     1.2938   -71.0100    10.9519      .3396     -.0041    63.4204
 3628.0000      .4487   123.6830  -999.2500     1.1732     1.1889     1.2650   -70.9537    11.1924      .3440     -.0111    62.9631
 3628.5000      .4145   122.2299  -999.2500     1.1960     1.2162     1.2327   -70.8641    11.3442      .3341     -.0154    63.6400
 3629.0000      .3942   117.9716  -999.2500     1.2280     1.2414     1.2505   -70.6892    11.1622      .3086     -.0184    62.4472
 3629.5000      .3869   114.5997  -999.2500     1.2614     1.2640     1.3327   -70.4495    10.8511      .2863     -.0195    60.5394
 3630.0000      .3931   112.7367  -999.2500     1.2720     1.2680     1.4769   -70.5654    10.5696      .2670     -.0173    58.6727
 3630.5000      .3950   112.4110  -999.2500     1.2657     1.2743     1.5777   -70.9998    10.3401      .2675     -.0163    57.7495
 3631.0000      .3502   112.8894  -999.2500     1.2716     1.2871     1.5587   -71.6156    10.2735      .2732     -.0172    58.0814
 3631.5000      .3393   112.8864  -999.2500     1.2793     1.3061     1.5322   -72.2778    10.3465      .2731     -.0169    61.9247
 3632.0000      .3607   111.9955  -999.2500     1.2844     1.3173     1.5711   -72.8265    10.3401      .2616     -.0152    65.4000
 3632.5000      .3756   111.6123  -999.2500     1.2868     1.3087     1.5743   -72.9910    10.1576      .2323     -.0118    68.3914
 3633.0000      .3725   112.4592  -999.2500     1.2877     1.2943     1.5159   -72.8715    10.0347      .2260     -.0047    69.6947
 3633.5000      .3668   113.0059  -999.2500     1.2842     1.2793     1.4507   -72.7252    10.0412      .2285      .0039    68.9066
 3634.0000      .3942   111.2483  -999.2500     1.2756     1.2658     1.4780   -72.6555    10.1636      .2376      .0003    65.5255
 3634.5000      .4254   109.6824  -999.2500     1.2576     1.2559     1.6628   -72.4866    10.1420      .2511     -.0051    63.0904
 3635.0000      .4426   111.0953  -999.2500     1.2313     1.2400     1.7302   -71.9865    10.0332      .2645     -.0008    63.3281
 3635.5000      .4406   115.3367  -999.2500     1.2101     1.2138     1.5525   -71.4697    10.1814      .2751      .0127    64.4678
 3636.0000      .4262   118.3787  -999.2500     1.1974     1.1922     1.3558   -71.0536    10.3645      .2838      .0236    64.3387
 3636.5000      .4202   120.9495  -999.2500     1.1885     1.1777     1.2717   -70.7955    10.6028      .2914      .0295    63.3800
 3637.0000      .4286   121.1819  -999.2500     1.1776     1.1655     1.2599   -70.5966    10.7762      .3009      .0263    62.7887
 3637.5000      .4397   121.1151  -999.2500     1.1638     1.1535     1.2564   -70.4415    10.9339      .3089      .0252    63.6014
 3638.0000      .4453   121.2778  -999.2500     1.1461     1.1402     1.2553   -70.2701    11.0483      .3156      .0239    64.6217
 3638.5000      .4399   122.2262  -999.2500     1.1311     1.1457     1.2555   -70.1063    10.9890      .3222      .0227    65.7343
 3639.0000      .4318   123.4491  -999.2500     1.1273     1.1384     1.2576   -69.9641    10.8834      .3270      .0165    67.0930
 3639.5000      .4260   124.2913  -999.2500     1.1241     1.1337     1.2588   -69.8135    10.7951      .3224      .0083    69.2880
 3640.0000      .4212   124.5808  -999.2500     1.1229     1.1349     1.2488   -69.8013    10.7000      .3076      .0029    73.6080
 3640.5000      .4230   124.3042  -999.2500     1.1231     1.1388     1.2481   -69.8268    10.6351      .2939     -.0005    76.5450
 3641.0000      .4252   123.5907  -999.2500     1.1242     1.1390     1.2626   -69.8389    10.5874      .2870     -.0036    76.1132
 3641.5000      .4380   122.4948  -999.2500     1.1227     1.1357     1.2812   -69.7522    10.4878      .2925     -.0056    72.7584
 3642.0000      .4541   121.7722  -999.2500     1.1181     1.1267     1.2972   -69.6719    10.4162      .3015     -.0045    69.8647
 3642.5000      .4643   124.2939  -999.2500     1.1115     1.1194     1.3005   -69.6400    10.3795      .3148     -.0024    68.6364
 3643.0000      .4646   127.2227  -999.2500     1.1061     1.1143     1.2892   -69.7335    10.3916      .3213     -.0003    69.8744
 3643.5000      .4506   129.1067  -999.2500     1.1004     1.1114     1.2665   -69.7531    10.5074      .3207      .0001    68.8113
 3644.0000      .4415   129.5676  -999.2500     1.0943     1.1056     1.2252   -69.7627    10.6319      .3193     -.0024    67.0961
 3644.5000      .4370   129.3513  -999.2500     1.0879     1.0993     1.2061   -69.6913    10.8383      .3179     -.0071    66.5780
 3645.0000      .4349   128.7024  -999.2500     1.0826     1.0926     1.2032   -69.5470    10.9732      .3168     -.0100    67.6185
 3645.5000      .4364   127.9801  -999.2500     1.0811     1.0913     1.2011   -69.3964    10.8458      .3138     -.0070    68.5242
 3646.0000      .4461   127.0950  -999.2500     1.0795     1.0914     1.2009   -69.1622    10.6815      .3120     -.0045    69.7056
 3646.5000      .4520   126.2671  -999.2500     1.0784     1.0898     1.2022   -68.9188    10.5508      .3089     -.0035    72.2251
 3647.0000      .4527   125.4573  -999.2500     1.0792     1.0899     1.2049   -68.7531    10.4670      .3038     -.0032    73.8156
