~VERSION INFORMATION
VERS.                             2.0:   CWLS Log ASCII Standard-VERSION 2.0
WRAP.                              NO:   One line per depth step
~Well Information Block
STRT.F                      1238.0000:   Top Depth
STOP.F                      5786.0000:   Bottom Depth
STEP.F                         .50000:   Depth Increment
NULL.                        -999.250:   Null Value
FLD .                     MU BLK A 18:   Field Name
WELL.       OCSG05167   001 ST00 BP00:   NAME
API .                    427024015100:   WELL API
R1  .            STANDARD OIL PROD CO:   COMMENT  1
EDF .F                       884.0000:   ELEV DRILL FLOOR
COMP.            STANDARD OIL PROD CO:   OPERATOR
BN  .                            A 18:   BLOCK
CTRY.                             USA:   COUNTRY NAME
CNTY.                        MG ILD L:   COUNTY NAME
EKB .F                        85.0000:   ELEV KELLY BUSHING
TDD .F                       5792.000:   FINAL TD DRILLER
STAT.                           TEXAS:   STATE NAME
UWI .                    427024015100:   WELL API
DICO.               IHS : Digitizing Company
~PARAMETER INFORMATION (zones)
#MNEM.UNIT                       Value     Description
#=========                       =====     ===========
#ZONATION                          CNL:   ZONATION NAME
#ZONE                            RUN_0:   ZONE NAME
TOP .                       3294.0000:   TOP DEPTH
BOT .                       5786.5000:   BOTTOM DEPTH
RUN .                               0:   RUN NUMBER
LCCD.                             440:   LOGGING CONTRACTOR
SRVC.                    Schlumberger:   LOGGING CONT NAME
DICO.          QC Data Collectors Ltd:   DIG COMPANY NAME
LDAT.                      11/28/1987:   DATE LOGGED
ELD .F                        85.0000:   LOG DATUM ELEVATION
TDD .F                      5785.0000:   TOTAL DEPTH DRILLER
TDL .F                      5792.0000:   TOTAL DEPTH LOGGER
BOTL.F                      5786.0000:   BOTTOM DEPTH LOGGED
TOPL.F                      3300.0000:   TOP DEPTH LOGGED
CS1 .IN                       10.7500:   CASING SIZE 1
BS1 .IN                        9.8750:   BIT SIZE 1
DDB1.F                      5785.0000:   DEPTH DRILLED BIT 1
BHF .                              81:   FLUID CODE
DPT .          Lignosulfonate (Ligno):   DRILLING FLUID TYPE
MUDD.                         11.0000:   FLUID DENSITY
MUDV.                         41.0000:   FLUID VISCOSITY
DFPH.                         10.0000:   FLUID PH
FL  .                         10.0000:   FLUID LOSS
RM  .OHMM                       .9400:   RM
~PARAMETER INFORMATION (zones)
#MNEM.UNIT                       Value     Description
#=========                       =====     ===========
#ZONATION                          DIL:   ZONATION NAME
#ZONE                            RUN_1:   ZONE NAME
TOP .                       1238.0000:   TOP DEPTH
BOT .                       5786.5000:   BOTTOM DEPTH
RUN .                               1:   RUN NUMBER
LCCD.                             440:   LOGGING CONTRACTOR
SRVC.                    Schlumberger:   LOGGING CONT NAME
DICO.          QC Data Collectors Ltd:   DIG COMPANY NAME
LDAT.                      11/23/1987:   DATE LOGGED
ELD .F                        85.0000:   LOG DATUM ELEVATION
TDD .F                      3540.0000:   TOTAL DEPTH DRILLER
TDL .F                      3539.0000:   TOTAL DEPTH LOGGER
BOTL.F                      3533.0000:   BOTTOM DEPTH LOGGED
TOPL.F                      1294.0000:   TOP DEPTH LOGGED
CS1 .IN                       16.0000:   CASING SIZE 1
BS1 .IN                       13.5000:   BIT SIZE 1
DDB1.F                      3540.0000:   DEPTH DRILLED BIT 1
BHF .                              81:   FLUID CODE
DPT .          Lignosulfonate (Ligno):   DRILLING FLUID TYPE
MUDV.                         38.0000:   FLUID VISCOSITY
DFPH.                          8.0000:   FLUID PH
FL  .                         29.2000:   FLUID LOSS
RMF .OHMM                       .2400:   RMF
FSC .                               C:   RMF CODE
TMAX.DEGF                    120.0000:   MAX REC TEMP
TIMC.                          4.0000:   TIME SINCE CIRCLN
~PARAMETER INFORMATION (zones)
#MNEM.UNIT                       Value     Description
#=========                       =====     ===========
#ZONATION                          FDC:   ZONATION NAME
#ZONE                            RUN_0:   ZONE NAME
TOP .                       3294.0000:   TOP DEPTH
BOT .                       5786.5000:   BOTTOM DEPTH
RUN .                               0:   RUN NUMBER
LCCD.                             440:   LOGGING CONTRACTOR
SRVC.                    Schlumberger:   LOGGING CONT NAME
DICO.          QC Data Collectors Ltd:   DIG COMPANY NAME
LDAT.                      11/28/1987:   DATE LOGGED
ELD .F                        85.0000:   LOG DATUM ELEVATION
TDD .F                      5785.0000:   TOTAL DEPTH DRILLER
TDL .F                      5792.0000:   TOTAL DEPTH LOGGER
BOTL.F                      5786.0000:   BOTTOM DEPTH LOGGED
TOPL.F                      3300.0000:   TOP DEPTH LOGGED
CS1 .IN                       10.7500:   CASING SIZE 1
BS1 .IN                        9.8750:   BIT SIZE 1
DDB1.F                      5785.0000:   DEPTH DRILLED BIT 1
BHF .                              81:   FLUID CODE
DPT .          Lignosulfonate (Ligno):   DRILLING FLUID TYPE
MUDD.                         11.0000:   FLUID DENSITY
MUDV.                         41.0000:   FLUID VISCOSITY
DFPH.                         10.0000:   FLUID PH
FL  .                         10.0000:   FLUID LOSS
RM  .OHMM                       .9400:   RM
~Curve Information Block
#MNEM.UNIT                    API CODE    No Description
#=========                    ========    == ===========
DEPT.F                   00 001 00 00:     1  DEPTH
NPHI.DEC                              :     2  Neutron Porosity
DT.US/F                              :     3  Sonic Transit Time
GR.GAPI                              :     4  Gamma Ray
ILD.OHMM                             :     5  Deep Induction Resistivity
ILM.OHMM                             :     6  Medium Induction Resistivity
SFL.OHMM                             :     7  Medium Resistivity
SP.MV                                :     8  Spontaneous Potential
CALI.IN                              :     9  Caliper
DPHI.DEC                              :    10  Porosity
DRHO.G/C3                            :    11  Bulk Density Correction
GR.GAPI                              :    12  Gamma Ray
~ASCII
# ...
 4257.5000      .4340   122.1613  -999.2500      .9073      .9132     1.2274   -69.5758    10.3607      .2918     -.0044    65.0546
 4258.0000      .4421   124.0386  -999.2500      .9156      .9252     1.1263   -68.9056    10.6768      .3051     -.0050    63.2315
 4258.5000      .4473   124.9268  -999.2500      .9212      .9374     1.1162   -68.0554    10.8547      .3092     -.0089    62.2799
 4259.0000      .4418   125.2445  -999.2500      .9205      .9428     1.1345   -67.1069    10.6970      .3076     -.0117    63.4861
 4259.5000      .4274   125.1228  -999.2500      .9178      .9384     1.1417   -66.1982    10.4653      .2941     -.0077    66.3032
 4260.0000      .4181   125.3699  -999.2500      .9158      .9345     1.1370   -65.4045    10.3664      .2741     -.0008    69.1699
 4260.5000      .4220   126.6603  -999.2500      .9171      .9385     1.1164   -64.9922    10.3545      .2660      .0064    70.9651
 4261.0000      .4315   127.9218  -999.2500      .9228      .9444     1.0665   -64.9067    10.5226      .2731      .0060    71.3645
 4261.5000      .4289   126.9360  -999.2500      .9258      .9516     1.0409   -65.0665    10.6964      .2833      .0038    69.3364
 4262.0000      .4148   123.3306  -999.2500      .9242      .9572     1.1192   -65.7306    10.6903      .2887      .0018    66.9041
 4262.5000      .4081   121.2544  -999.2500      .9193      .9597     1.2111   -66.6224    10.5274      .2859     -.0027    65.4991
 4263.0000      .4277   121.2460  -999.2500      .9118      .9588     1.2513   -67.3721    10.3880      .2852     -.0136    65.4004
 4263.5000      .4413   122.1365  -999.2500      .9051      .9573     1.2218   -68.2217    10.3250      .3086     -.0204    65.5789
 4264.0000      .4322   122.3119  -999.2500      .8988      .9557     1.1465   -69.4968    10.3738      .3308     -.0230    65.2144
 4264.5000      .4131   121.5807  -999.2500      .8930      .9500     1.1378   -70.8683    10.7081      .3312     -.0185    63.9434
 4265.0000      .4025   120.9045  -999.2500      .8893      .9297     1.2025   -71.7999    10.6338      .3158     -.0155    62.5016
 4265.5000      .4076   121.4628  -999.2500      .8845      .9073     1.2721   -72.1820    10.3141      .2968     -.0111    63.2605
 4266.0000      .4276   122.7321  -999.2500      .8785      .8930     1.2747   -71.1082    10.0490      .2862     -.0005    66.4119
 4266.5000      .4650   123.2468  -999.2500      .8750      .9011     1.1297   -68.9388    10.1484      .2811      .0108    68.7826
 4267.0000      .4599   122.8750  -999.2500      .8725      .9172     1.0681   -67.3239    10.3012      .2767      .0167    68.0889
 4267.5000      .4420   122.4822  -999.2500      .8718      .9284     1.1295   -67.1760    10.3861      .2708      .0104    66.4758
 4268.0000      .4359   123.0162  -999.2500      .8715      .9323     1.2662   -67.1523    10.3534      .2634      .0018    66.1461
 4268.5000      .4743   124.3710  -999.2500      .8716      .9327     1.2889   -67.2777    10.2884      .2639     -.0012    66.5411
 4269.0000      .4781   125.1592  -999.2500      .8725      .9298     1.2045   -67.7083    10.3472      .2794      .0008    65.4792
 4269.5000      .4448   125.4187  -999.2500      .8743      .9251     1.1215   -68.8075    10.6368      .2890      .0016    62.9432
 4270.0000      .4061   124.8768  -999.2500      .8757      .9203     1.0756   -69.9458    10.7133      .2959      .0017    62.0233
 4270.5000      .3841   123.2499  -999.2500      .8770      .9176     1.1360   -70.5842    10.5433      .2922      .0003    62.5173
 4271.0000      .3954   122.0564  -999.2500      .8778      .9156     1.1948   -70.1067    10.2933      .2750      .0003    64.4790
 4271.5000      .4134   121.3628  -999.2500      .8815      .9156     1.1889   -68.9316    10.0633      .2602      .0009    68.0743
 4272.0000      .4293   120.7670  -999.2500      .8889      .9229     1.1734   -67.2323    10.0906      .2541      .0037    71.3295
 4272.5000      .4489   120.4442  -999.2500      .9058      .9363     1.1833   -66.6431    10.1947      .2559      .0046    70.9156
 4273.0000      .4599   119.5997  -999.2500      .9340      .9527     1.2003   -66.6549    10.1528      .2677      .0014    68.3977
 4273.5000      .4445   116.9794  -999.2500      .9573      .9815     1.2169   -67.0111    10.0620      .2715     -.0020    64.3632
 4274.0000      .4005   113.5015  -999.2500      .9771     1.0112     1.2319   -67.5176    10.0079      .2537     -.0040    60.8162
 4274.5000      .3729   109.8864  -999.2500      .9796     1.0448     1.3176   -67.7942    10.0168      .2214     -.0044    59.1246
 4275.0000      .3712   108.2782  -999.2500      .9719     1.0727     1.4674   -67.8116    10.0554      .2076     -.0038    61.4122
 4275.5000      .3843   111.0978  -999.2500      .9661     1.0589     1.6317   -67.5535    10.0937      .2195     -.0026    65.0485
 4276.0000      .4062   116.2472  -999.2500      .9597     1.0291     1.5429   -66.7460    10.1378      .2607     -.0004    68.0201
 4276.5000      .4263   124.1229  -999.2500      .9522      .9983     1.3705   -65.7462    10.2240      .2803      .0029    68.5762
 4277.0000      .4365   130.1345  -999.2500      .9462      .9699     1.1505   -64.9816    10.3650      .2951      .0075    67.9175
 4277.5000      .4364   131.9167  -999.2500      .9389      .9468     1.0422   -64.3542    10.5849      .3020      .0123    66.7117
 4278.0000      .4284   131.8638  -999.2500      .9286      .9265     1.0315   -63.8755    10.6921      .3053      .0136    65.9899
 4278.5000      .4251   130.3669  -999.2500      .9137      .9088     1.0400   -63.7026    10.6154      .3179      .0072    65.8815
 4279.0000      .4319   129.3577  -999.2500      .9024      .8938     1.0521   -63.6912    10.5031      .3262     -.0025    65.3755
 4279.5000      .4373   128.3462  -999.2500      .9057      .8858     1.0683   -63.7573    10.4144      .3252     -.0095    64.3240
 4280.0000      .4342   127.2949  -999.2500      .9102      .8891     1.0910   -63.9550    10.4056      .3176     -.0145    63.7992
 4280.5000      .4350   126.6440  -999.2500      .9086      .8947     1.1275   -64.1459    10.3905      .3099     -.0185    64.9484
 4281.0000      .4448   126.5585  -999.2500      .9048      .8983     1.1616   -64.3145    10.4192      .3067     -.0184    65.3079
 4281.5000      .4441   127.0613  -999.2500      .9018      .8957     1.1441   -64.5575    10.6044      .3142     -.0139    64.1749
 4282.0000      .4416   127.6405  -999.2500      .9006      .8942     1.1039   -64.8544    10.7534      .3248     -.0104    63.3486
 4282.5000      .4424   127.8871  -999.2500      .8992      .8982     1.0885   -65.2892    10.7708      .3305     -.0092    64.7734
 4283.0000      .4502   128.0679  -999.2500      .8962      .9027     1.1012   -65.5851    10.6923      .3334     -.0091    66.6121
 4283.5000      .4621   128.3142  -999.2500      .8963      .9089     1.1005   -65.5447    10.5094      .3351     -.0110    67.0736
 4284.0000      .4814   128.7881  -999.2500      .8977      .9192     1.0861   -65.0128    10.3801      .3292     -.0079    66.0577
 4284.5000      .4867   128.8857  -999.2500      .9002      .9292     1.0686   -64.4908    10.3374      .3176     -.0036    65.7147
 4285.0000      .4781   126.6254  -999.2500      .9038      .9396     1.0591   -64.2402    10.3917      .3065     -.0030    65.8242
 4285.5000      .4674   124.7178  -999.2500      .9070      .9479     1.0925   -64.6110    10.6176      .2986     -.0018    65.5236
 4286.0000      .4509   123.7026  -999.2500      .9093      .9540     1.1492   -65.5317    10.7683      .3022     -.0008    64.0387
 4286.5000      .4230   123.3993  -999.2500      .9064      .9557     1.1953   -66.6881    10.8544      .3147      .0001    61.6945
 4287.0000      .4002   123.4347  -999.2500      .8989      .9499     1.2002   -68.0916    10.8138      .3186      .0012    61.5991
 4287.5000      .3936   123.4309  -999.2500      .8886      .9383     1.1908   -69.3347    10.6023      .3144     -.0041    64.0037
