~VERSION INFORMATION
VERS.                             2.0:   CWLS Log ASCII Standard-VERSION 2.0
WRAP.                              NO:   One line per depth step
~Well Information Block
STRT.F                      1238.0000:   Top Depth
STOP.F                      5786.0000:   Bottom Depth
STEP.F                         .50000:   Depth Increment
NULL.                        -999.250:   Null Value
FLD .                     MU BLK A 18:   Field Name
WELL.       OCSG05167   001 ST00 BP00:   NAME
API .                    427024015100:   WELL API
R1  .            STANDARD OIL PROD CO:   COMMENT  1
EDF .F                       884.0000:   ELEV DRILL FLOOR
COMP.            STANDARD OIL PROD CO:   OPERATOR
BN  .                            A 18:   BLOCK
CTRY.                             USA:   COUNTRY NAME
CNTY.                        MG ILD L:   COUNTY NAME
EKB .F                        85.0000:   ELEV KELLY BUSHING
TDD .F                       5792.000:   FINAL TD DRILLER
STAT.                           TEXAS:   STATE NAME
UWI .                    427024015100:   WELL API
DICO.               IHS : Digitizing Company
~PARAMETER INFORMATION (zones)
#MNEM.UNIT                       Value     Description
#=========                       =====     ===========
#ZONATION                          CNL:   ZONATION NAME
#ZONE                            RUN_0:   ZONE NAME
TOP .                       3294.0000:   TOP DEPTH
BOT .                       5786.5000:   BOTTOM DEPTH
RUN .                               0:   RUN NUMBER
LCCD.                             440:   LOGGING CONTRACTOR
SRVC.                    Schlumberger:   LOGGING CONT NAME
DICO.          QC Data Collectors Ltd:   DIG COMPANY NAME
LDAT.                      11/28/1987:   DATE LOGGED
ELD .F                        85.0000:   LOG DATUM ELEVATION
TDD .F                      5785.0000:   TOTAL DEPTH DRILLER
TDL .F                      5792.0000:   TOTAL DEPTH LOGGER
BOTL.F                      5786.0000:   BOTTOM DEPTH LOGGED
TOPL.F                      3300.0000:   TOP DEPTH LOGGED
CS1 .IN                       10.7500:   CASING SIZE 1
BS1 .IN                        9.8750:   BIT SIZE 1
DDB1.F                      5785.0000:   DEPTH DRILLED BIT 1
BHF .                              81:   FLUID CODE
DPT .          Lignosulfonate (Ligno):   DRILLING FLUID TYPE
MUDD.                         11.0000:   FLUID DENSITY
MUDV.                         41.0000:   FLUID VISCOSITY
DFPH.                         10.0000:   FLUID PH
FL  .                         10.0000:   FLUID LOSS
RM  .OHMM                       .9400:   RM
~PARAMETER INFORMATION (zones)
#MNEM.UNIT                       Value     Description
#=========                       =====     ===========
#ZONATION                          DIL:   ZONATION NAME
#ZONE                            RUN_1:   ZONE NAME
TOP .                       1238.0000:   TOP DEPTH
BOT .                       5786.5000:   BOTTOM DEPTH
RUN .                               1:   RUN NUMBER
LCCD.                             440:   LOGGING CONTRACTOR
SRVC.                    Schlumberger:   LOGGING CONT NAME
DICO.          QC Data Collectors Ltd:   DIG COMPANY NAME
LDAT.                      11/23/1987:   DATE LOGGED
ELD .F                        85.0000:   LOG DATUM ELEVATION
TDD .F                      3540.0000:   TOTAL DEPTH DRILLER
TDL .F                      3539.0000:   TOTAL DEPTH LOGGER
BOTL.F                      3533.0000:   BOTTOM DEPTH LOGGED
TOPL.F                      1294.0000:   TOP DEPTH LOGGED
CS1 .IN                       16.0000:   CASING SIZE 1
BS1 .IN                       13.5000:   BIT SIZE 1
DDB1.F                      3540.0000:   DEPTH DRILLED BIT 1
BHF .                              81:   FLUID CODE
DPT .          Lignosulfonate (Ligno):   DRILLING FLUID TYPE
MUDV.                         38.0000:   FLUID VISCOSITY
DFPH.                          8.0000:   FLUID PH
FL  .                         29.2000:   FLUID LOSS
RMF .OHMM                       .2400:   RMF
FSC .                               C:   RMF CODE
TMAX.DEGF                    120.0000:   MAX REC TEMP
TIMC.                          4.0000:   TIME SINCE CIRCLN
~PARAMETER INFORMATION (zones)
#MNEM.UNIT                       Value     Description
#=========                       =====     ===========
#ZONATION                          FDC:   ZONATION NAME
#ZONE                            RUN_0:   ZONE NAME
TOP .                       3294.0000:   TOP DEPTH
BOT .                       5786.5000:   BOTTOM DEPTH
RUN .                               0:   RUN NUMBER
LCCD.                             440:   LOGGING CONTRACTOR
SRVC.                    Schlumberger:   LOGGING CONT NAME
DICO.          QC Data Collectors Ltd:   DIG COMPANY NAME
LDAT.                      11/28/1987:   DATE LOGGED
ELD .F                        85.0000:   LOG DATUM ELEVATION
TDD .F                      5785.0000:   TOTAL DEPTH DRILLER
TDL .F                      5792.0000:   TOTAL DEPTH LOGGER
BOTL.F                      5786.0000:   BOTTOM DEPTH LOGGED
TOPL.F                      3300.0000:   TOP DEPTH LOGGED
CS1 .IN                       10.7500:   CASING SIZE 1
BS1 .IN                        9.8750:   BIT SIZE 1
DDB1.F                      5785.0000:   DEPTH DRILLED BIT 1
BHF .                              81:   FLUID CODE
DPT .          Lignosulfonate (Ligno):   DRILLING FLUID TYPE
MUDD.                         11.0000:   FLUID DENSITY
MUDV.                         41.0000:   FLUID VISCOSITY
DFPH.                         10.0000:   FLUID PH
FL  .                         10.0000:   FLUID LOSS
RM  .OHMM                       .9400:   RM
~Curve Information Block
#MNEM.UNIT                    API CODE    No Description
#=========                    ========    == ===========
DEPT.F                   00 001 00 00:     1  DEPTH
NPHI.DEC                              :     2  Neutron Porosity
DT.US/F                              :     3  Sonic Transit Time
GR.GAPI                              :     4  Gamma Ray
ILD.OHMM                             :     5  Deep Induction Resistivity
ILM.OHMM                             :     6  Medium Induction Resistivity
SFL.OHMM                             :     7  Medium Resistivity
SP.MV                                :     8  Spontaneous Potential
CALI.IN                              :     9  Caliper
DPHI.DEC                              :    10  Porosity
DRHO.G/C3                            :    11  Bulk Density Correction
GR.GAPI                              :    12  Gamma Ray
~ASCII
# ...
 3281.5000  -999.2500   133.4707    61.6427      .9845      .9858      .9543  -999.2500  -999.2500  -999.2500  -999.2500  -999.2500
 3282.0000  -999.2500   134.4595    58.6464      .9783      .9824      .9601  -999.2500  -999.2500  -999.2500  -999.2500  -999.2500
 3282.5000  -999.2500   135.1738    56.4662      .9723      .9807      .9584  -999.2500  -999.2500  -999.2500  -999.2500  -999.2500
 3283.0000  -999.2500   135.5615    56.5549      .9670      .9786      .9556  -999.2500  -999.2500  -999.2500  -999.2500  -999.2500
 3283.5000  -999.2500   134.3213    58.8389      .9637      .9742      .9537  -999.2500  -999.2500  -999.2500  -999.2500  -999.2500
 3284.0000  -999.2500   132.2617    62.2010      .9564      .9669      .9472  -999.2500  -999.2500  -999.2500  -999.2500  -999.2500
 3284.5000  -999.2500   131.8672    64.9392      .9444      .9595      .9438  -999.2500  -999.2500  -999.2500  -999.2500  -999.2500
 3285.0000  -999.2500   144.7920    65.2365      .9360      .9562      .9436  -999.2500  -999.2500  -999.2500  -999.2500  -999.2500
 3285.5000  -999.2500   152.3770    63.7840      .9311      .9550      .9521  -999.2500  -999.2500  -999.2500  -999.2500  -999.2500
 3286.0000  -999.2500   150.7734    62.6279      .9277      .9510      .9487  -999.2500  -999.2500  -999.2500  -999.2500  -999.2500
 3286.5000  -999.2500   144.4229    62.7559      .9241      .9475      .9431  -999.2500  -999.2500  -999.2500  -999.2500  -999.2500
 3287.0000  -999.2500   140.2053    62.9494      .9197      .9447      .9390  -999.2500  -999.2500  -999.2500  -999.2500  -999.2500
 3287.5000  -999.2500   139.4834    62.4904      .9132      .9443      .9366  -999.2500  -999.2500  -999.2500  -999.2500  -999.2500
 3288.0000  -999.2500   139.5396    61.7179      .9038      .9432      .9371  -999.2500  -999.2500  -999.2500  -999.2500  -999.2500
 3288.5000  -999.2500   137.8267    61.1635      .9065      .9406      .9386  -999.2500  -999.2500  -999.2500  -999.2500  -999.2500
 3289.0000  -999.2500   134.9302    62.0007      .9097      .9361      .9359  -999.2500  -999.2500  -999.2500  -999.2500  -999.2500
 3289.5000  -999.2500   133.5896    62.9086      .9077      .9323      .9053  -999.2500  -999.2500  -999.2500  -999.2500  -999.2500
 3290.0000  -999.2500   134.3320    62.4417      .9048      .9299      .8832  -999.2500  -999.2500  -999.2500  -999.2500  -999.2500
 3290.5000  -999.2500   135.4800    61.2714      .9053      .9274      .8704  -999.2500  -999.2500  -999.2500  -999.2500  -999.2500
 3291.0000  -999.2500   135.7874    60.8473      .9058      .9242      .8625  -999.2500  -999.2500  -999.2500  -999.2500  -999.2500
 3291.5000  -999.2500   135.8523    62.2299      .9071      .9213      .8609  -999.2500  -999.2500  -999.2500  -999.2500  -999.2500
 3292.0000  -999.2500   135.8042    64.9037      .9087      .9196      .8750  -999.2500  -999.2500  -999.2500  -999.2500  -999.2500
 3292.5000  -999.2500   135.7815    64.2467      .9120      .9209      .8921  -999.2500  -999.2500  -999.2500  -999.2500  -999.2500
 3293.0000  -999.2500   136.0557    61.3719      .9163      .9255      .9173  -999.2500  -999.2500  -999.2500  -999.2500  -999.2500
 3293.5000  -999.2500   136.7727    58.8575      .9224      .9302      .9358  -999.2500  -999.2500  -999.2500  -999.2500  -999.2500
 3294.0000      .5830   137.4553    58.8431      .9554      .9285      .9428  -999.2500  -999.2500  -999.2500  -999.2500    45.9498
 3294.5000      .5824   137.7427  -999.2500      .9525      .9309      .9423  -999.2500  -999.2500  -999.2500  -999.2500    46.8480
 3295.0000      .5894   137.0203  -999.2500      .9409      .9291      .9235  -999.2500  -999.2500  -999.2500  -999.2500    47.3049
 3295.5000      .5900   134.8225  -999.2500      .9207      .9197      .9052  -999.2500  -999.2500  -999.2500  -999.2500    47.1232
 3296.0000      .5850   132.3984  -999.2500      .9073      .9082      .9005  -999.2500  -999.2500  -999.2500  -999.2500    44.1802
 3296.5000      .5831   131.2795  -999.2500      .9117      .9066      .9037  -999.2500  -999.2500  -999.2500  -999.2500    41.9623
 3297.0000      .5766   132.2998  -999.2500      .9138      .9068      .9108  -999.2500  -999.2500  -999.2500  -999.2500    42.5240
 3297.5000      .5561   134.1011  -999.2500      .9157      .9082      .9112  -999.2500  -999.2500  -999.2500  -999.2500    45.5975
 3298.0000      .5394   136.4360  -999.2500      .9189      .9094      .9074  -999.2500  -999.2500  -999.2500  -999.2500    48.1118
 3298.5000      .5464   138.1260  -999.2500      .9202      .9093      .8963  -999.2500  -999.2500  -999.2500  -999.2500    49.4721
 3299.0000      .5559   138.1228  -999.2500      .9198      .9137      .8813  -999.2500  -999.2500  -999.2500  -999.2500    47.3845
 3299.5000      .5593   137.2080  -999.2500      .9197      .9244      .8679  -999.2500  -999.2500  -999.2500  -999.2500    45.0118
 3300.0000      .5564   136.1895  -999.2500      .9304      .9357      .8833  -999.2500  -999.2500  -999.2500  -999.2500    44.0576
 3300.5000      .5363   135.0774  -999.2500      .9493      .9453      .9122  -999.2500  -999.2500  -999.2500  -999.2500    44.4640
 3301.0000      .5275   134.0686  -999.2500      .9710      .9515      .9488  -999.2500  -999.2500  -999.2500  -999.2500    45.3815
 3301.5000      .5273   133.2273  -999.2500      .9845      .9585      .9697  -999.2500  -999.2500  -999.2500  -999.2500    45.9562
 3302.0000      .5707   132.8601  -999.2500      .9962      .9663      .9819  -999.2500  -999.2500  -999.2500  -999.2500    45.5099
 3302.5000      .5993   132.5010  -999.2500     1.0027      .9789      .9879  -999.2500  -999.2500  -999.2500  -999.2500    44.4832
 3303.0000      .5993   131.9995  -999.2500     1.0078      .9927      .9912  -999.2500  -999.2500  -999.2500  -999.2500    43.5057
 3303.5000      .5930   131.4016  -999.2500     1.0095     1.0071      .9709  -999.2500  -999.2500  -999.2500  -999.2500    43.4529
 3304.0000      .5774   130.8020  -999.2500     1.0130     1.0187      .9468  -999.2500  -999.2500  -999.2500  -999.2500    45.2471
 3304.5000      .5778   130.3064  -999.2500     1.0191     1.0271      .9302  -999.2500  -999.2500  -999.2500  -999.2500    47.8525
 3305.0000      .5723   131.0061  -999.2500     1.0283     1.0310      .9256  -999.2500  -999.2500  -999.2500  -999.2500    49.4619
 3305.5000      .5412   132.0076  -999.2500     1.0393     1.0355      .9283  -999.2500  -999.2500  -999.2500  -999.2500    49.8374
 3306.0000      .5226   132.7271  -999.2500     1.0501     1.0409      .9374  -999.2500  -999.2500  -999.2500  -999.2500    48.5858
 3306.5000      .5162   133.0061  -999.2500     1.0610     1.0479      .9545  -999.2500  -999.2500  -999.2500  -999.2500    46.3956
 3307.0000      .5197   133.1704  -999.2500     1.0677     1.0566      .9924  -999.2500  -999.2500  -999.2500  -999.2500    44.2486
 3307.5000      .5313   133.5129  -999.2500     1.0725     1.0676     1.0530  -999.2500  -999.2500  -999.2500  -999.2500    42.1135
 3308.0000      .5412   136.3313  -999.2500     1.0700     1.0750     1.0786  -999.2500  -999.2500  -999.2500  -999.2500    40.7466
 3308.5000      .5470   139.1833  -999.2500     1.0607     1.0775     1.0642  -999.2500  -999.2500  -999.2500  -999.2500    39.6155
 3309.0000      .5527   140.9016  -999.2500     1.0455     1.0740     1.0479  -999.2500  -999.2500  -999.2500  -999.2500    38.4825
 3309.5000      .5657   137.7068  -999.2500     1.0330     1.0653     1.0396  -999.2500  -999.2500  -999.2500  -999.2500    37.6815
 3310.0000      .5896   132.3901  -999.2500     1.0228     1.0587     1.0357  -999.2500  -999.2500  -999.2500  -999.2500    37.0313
 3310.5000      .6085   127.8837  -999.2500     1.0155     1.0612     1.0269  -999.2500  -999.2500  -999.2500  -999.2500    37.4006
 3311.0000      .6207   124.8284  -999.2500     1.0139     1.0630     1.0114  -999.2500  -999.2500  -999.2500  -999.2500    38.3992
 3311.5000      .6235   123.7120  -999.2500     1.0129     1.0615      .9893  -999.2500  -999.2500  -999.2500  -999.2500    37.7457
