~VERSION INFORMATION
VERS.                             2.0:   CWLS Log ASCII Standard-VERSION 2.0
WRAP.                              NO:   One line per depth step
~Well Information Block
STRT.F                      1238.0000:   Top Depth
STOP.F                      5786.0000:   Bottom Depth
STEP.F                         .50000:   Depth Increment
NULL.                        -999.250:   Null Value
FLD .                     MU BLK A 18:   Field Name
WELL.       OCSG05167   001 ST00 BP00:   NAME
API .                    427024015100:   WELL API
R1  .            STANDARD OIL PROD CO:   COMMENT  1
EDF .F                       884.0000:   ELEV DRILL FLOOR
COMP.            STANDARD OIL PROD CO:   OPERATOR
BN  .                            A 18:   BLOCK
CTRY.                             USA:   COUNTRY NAME
CNTY.                        MG ILD L:   COUNTY NAME
EKB .F                        85.0000:   ELEV KELLY BUSHING
TDD .F                       5792.000:   FINAL TD DRILLER
STAT.                           TEXAS:   STATE NAME
UWI .                    427024015100:   WELL API
DICO.               IHS : Digitizing Company
~PARAMETER INFORMATION (zones)
#MNEM.UNIT                       Value     Description
#=========                       =====     ===========
#ZONATION                          CNL:   ZONATION NAME
#ZONE                            RUN_0:   ZONE NAME
TOP .                       3294.0000:   TOP DEPTH
BOT .                       5786.5000:   BOTTOM DEPTH
RUN .                               0:   RUN NUMBER
LCCD.                             440:   LOGGING CONTRACTOR
SRVC.                    Schlumberger:   LOGGING CONT NAME
DICO.          QC Data Collectors Ltd:   DIG COMPANY NAME
LDAT.                      11/28/1987:   DATE LOGGED
ELD .F                        85.0000:   LOG DATUM ELEVATION
TDD .F                      5785.0000:   TOTAL DEPTH DRILLER
TDL .F                      5792.0000:   TOTAL DEPTH LOGGER
BOTL.F                      5786.0000:   BOTTOM DEPTH LOGGED
TOPL.F                      3300.0000:   TOP DEPTH LOGGED
CS1 .IN                       10.7500:   CASING SIZE 1
BS1 .IN                        9.8750:   BIT SIZE 1
DDB1.F                      5785.0000:   DEPTH DRILLED BIT 1
BHF .                              81:   FLUID CODE
DPT .          Lignosulfonate (Ligno):   DRILLING FLUID TYPE
MUDD.                         11.0000:   FLUID DENSITY
MUDV.                         41.0000:   FLUID VISCOSITY
DFPH.                         10.0000:   FLUID PH
FL  .                         10.0000:   FLUID LOSS
RM  .OHMM                       .9400:   RM
~PARAMETER INFORMATION (zones)
#MNEM.UNIT                       Value     Description
#=========                       =====     ===========
#ZONATION                          DIL:   ZONATION NAME
#ZONE                            RUN_1:   ZONE NAME
TOP .                       1238.0000:   TOP DEPTH
BOT .                       5786.5000:   BOTTOM DEPTH
RUN .                               1:   RUN NUMBER
LCCD.                             440:   LOGGING CONTRACTOR
SRVC.                    Schlumberger:   LOGGING CONT NAME
DICO.          QC Data Collectors Ltd:   DIG COMPANY NAME
LDAT.                      11/23/1987:   DATE LOGGED
ELD .F                        85.0000:   LOG DATUM ELEVATION
TDD .F                      3540.0000:   TOTAL DEPTH DRILLER
TDL .F                      3539.0000:   TOTAL DEPTH LOGGER
BOTL.F                      3533.0000:   BOTTOM DEPTH LOGGED
TOPL.F                      1294.0000:   TOP DEPTH LOGGED
CS1 .IN                       16.0000:   CASING SIZE 1
BS1 .IN                       13.5000:   BIT SIZE 1
DDB1.F                      3540.0000:   DEPTH DRILLED BIT 1
BHF .                              81:   FLUID CODE
DPT .          Lignosulfonate (Ligno):   DRILLING FLUID TYPE
MUDV.                         38.0000:   FLUID VISCOSITY
DFPH.                          8.0000:   FLUID PH
FL  .                         29.2000:   FLUID LOSS
RMF .OHMM                       .2400:   RMF
FSC .                               C:   RMF CODE
TMAX.DEGF                    120.0000:   MAX REC TEMP
TIMC.                          4.0000:   TIME SINCE CIRCLN
~PARAMETER INFORMATION (zones)
#MNEM.UNIT                       Value     Description
#=========                       =====     ===========
#ZONATION                          FDC:   ZONATION NAME
#ZONE                            RUN_0:   ZONE NAME
TOP .                       3294.0000:   TOP DEPTH
BOT .                       5786.5000:   BOTTOM DEPTH
RUN .                               0:   RUN NUMBER
LCCD.                             440:   LOGGING CONTRACTOR
SRVC.                    Schlumberger:   LOGGING CONT NAME
DICO.          QC Data Collectors Ltd:   DIG COMPANY NAME
LDAT.                      11/28/1987:   DATE LOGGED
ELD .F                        85.0000:   LOG DATUM ELEVATION
TDD .F                      5785.0000:   TOTAL DEPTH DRILLER
TDL .F                      5792.0000:   TOTAL DEPTH LOGGER
BOTL.F                      5786.0000:   BOTTOM DEPTH LOGGED
TOPL.F                      3300.0000:   TOP DEPTH LOGGED
CS1 .IN                       10.7500:   CASING SIZE 1
BS1 .IN                        9.8750:   BIT SIZE 1
DDB1.F                      5785.0000:   DEPTH DRILLED BIT 1
BHF .                              81:   FLUID CODE
DPT .          Lignosulfonate (Ligno):   DRILLING FLUID TYPE
MUDD.                         11.0000:   FLUID DENSITY
MUDV.                         41.0000:   FLUID VISCOSITY
DFPH.                         10.0000:   FLUID PH
FL  .                         10.0000:   FLUID LOSS
RM  .OHMM                       .9400:   RM
~Curve Information Block
#MNEM.UNIT                    API CODE    No Description
#=========                    ========    == ===========
DEPT.F                   00 001 00 00:     1  DEPTH
NPHI.DEC                              :     2  Neutron Porosity
DT.US/F                              :     3  Sonic Transit Time
GR.GAPI                              :     4  Gamma Ray
ILD.OHMM                             :     5  Deep Induction Resistivity
ILM.OHMM                             :     6  Medium Induction Resistivity
SFL.OHMM                             :     7  Medium Resistivity
SP.MV                                :     8  Spontaneous Potential
CALI.IN                              :     9  Caliper
DPHI.DEC                              :    10  Porosity
DRHO.G/C3                            :    11  Bulk Density Correction
GR.GAPI                              :    12  Gamma Ray
~ASCII
# ...
 4105.0000      .3867   118.6995  -999.2500     1.1963     1.1947     1.4266   -64.6448    10.8521      .2450      .0370    70.4017
 4105.5000      .3837   118.8246  -999.2500     1.1941     1.1978     1.4477   -64.6112    10.9196      .2373      .0406    68.1588
 4106.0000      .3943   119.1843  -999.2500     1.1956     1.1991     1.3855   -64.4281    10.9654      .2379      .0329    67.0636
 4106.5000      .4036   119.6777  -999.2500     1.1945     1.2045     1.3305   -64.2203    10.9300      .2415      .0271    66.7587
 4107.0000      .4041   119.6437  -999.2500     1.1958     1.2054     1.3136   -64.0303    10.8815      .2407      .0297    65.6288
 4107.5000      .3967   119.0790  -999.2500     1.1966     1.2058     1.3154   -64.0231    10.8476      .2381      .0371    64.0338
 4108.0000      .3879   118.2341  -999.2500     1.1944     1.2062     1.3338   -64.0613    10.8210      .2368      .0340    62.6428
 4108.5000      .3828   117.4543  -999.2500     1.1948     1.2066     1.3738   -64.1393    10.8180      .2424      .0258    61.7184
 4109.0000      .3869   117.5634  -999.2500     1.1969     1.2052     1.4204   -64.2784    10.8583      .2608      .0177    61.9605
 4109.5000      .3962   118.7622  -999.2500     1.1987     1.1979     1.4672   -64.4979    10.9348      .2853      .0117    62.9408
 4110.0000      .4040   119.9171  -999.2500     1.1938     1.1910     1.3857   -64.8151    10.9648      .2966      .0108    64.2479
 4110.5000      .4081   120.9557  -999.2500     1.1856     1.1848     1.3232   -65.1090    10.9918      .2927      .0103    64.6606
 4111.0000      .4096   121.2800  -999.2500     1.1725     1.1703     1.2994   -65.3396    11.0110      .2817      .0109    64.1382
 4111.5000      .4114   121.1046  -999.2500     1.1503     1.1540     1.2939   -65.4418    10.9668      .2745      .0127    64.3553
 4112.0000      .4183   121.3956  -999.2500     1.1290     1.1356     1.2959   -65.5282    10.8537      .2742      .0227    65.9124
 4112.5000      .4299   122.5032  -999.2500     1.1181     1.1188     1.2889   -65.6058    10.7451      .2801      .0324    68.8357
 4113.0000      .4327   123.8688  -999.2500     1.1084     1.1063     1.2701   -65.6027    10.6726      .2821      .0346    70.3667
 4113.5000      .4326   125.1520  -999.2500     1.0986     1.1002     1.2427   -65.5494    10.6485      .2834      .0340    71.4478
 4114.0000      .4393   125.1429  -999.2500     1.0907     1.0982     1.2284   -65.4668    10.6412      .2851      .0352    72.6156
 4114.5000      .4416   124.2422  -999.2500     1.0907     1.0936     1.2276   -65.3351    10.6302      .2894      .0400    73.3771
 4115.0000      .4290   123.2161  -999.2500     1.0920     1.0931     1.2380   -65.1722    10.6138      .2955      .0424    71.2173
 4115.5000      .4135   122.7988  -999.2500     1.0946     1.0983     1.2574   -64.9880    10.5889      .3010      .0324    68.6873
 4116.0000      .4102   122.8051  -999.2500     1.0998     1.0996     1.2727   -64.7932    10.5565      .3015      .0224    66.6399
 4116.5000      .4233   123.0007  -999.2500     1.1053     1.1000     1.2890   -64.6874    10.5185      .3005      .0211    65.2910
 4117.0000      .4338   123.1771  -999.2500     1.1102     1.1003     1.3035   -64.6307    10.4751      .3018      .0227    65.1914
 4117.5000      .4421   123.3723  -999.2500     1.1106     1.1007     1.3065   -64.5807    10.4500      .3044      .0230    67.1743
 4118.0000      .4490   123.4325  -999.2500     1.1072     1.1011     1.2849   -64.5167    10.4629      .3038      .0200    68.8513
 4118.5000      .4448   123.3502  -999.2500     1.1042     1.0988     1.2708   -64.4568    10.5100      .3009      .0154    69.2382
 4119.0000      .4342   123.3365  -999.2500     1.1020     1.0945     1.2643   -64.4473    10.5672      .2964      .0106    68.2469
 4119.5000      .4227   123.5696  -999.2500     1.0944     1.0903     1.2580   -64.4442    10.6020      .2908      .0065    66.9381
 4120.0000      .4184   124.0870  -999.2500     1.0845     1.0892     1.2509   -64.4504    10.6192      .2913      .0038    66.7631
 4120.5000      .4415   125.0165  -999.2500     1.0728     1.0795     1.2458   -64.4766    10.6283      .2933      .0019    67.1110
 4121.0000      .4727   125.8907  -999.2500     1.0612     1.0689     1.2424   -64.4735    10.5737      .2949      .0005    67.9513
 4121.5000      .4972   126.9373  -999.2500     1.0483     1.0592     1.2355   -64.5231    10.4917      .2965      .0010    68.6854
 4122.0000      .5014   127.3707  -999.2500     1.0378     1.0505     1.2226   -64.5609    10.4351      .2978      .0040    68.8278
 4122.5000      .4749   127.1923  -999.2500     1.0359     1.0413     1.2008   -64.5736    10.4035      .2977      .0090    68.9459
 4123.0000      .4424   126.6644  -999.2500     1.0382     1.0408     1.1709   -64.5396    10.3973      .2961      .0145    69.4962
 4123.5000      .4308   125.8437  -999.2500     1.0423     1.0476     1.1793   -64.5701    10.4141      .2962      .0206    70.1481
 4124.0000      .4412   124.9063  -999.2500     1.0443     1.0518     1.2285   -64.5793    10.4332      .3001      .0253    70.4973
 4124.5000      .4509   124.5420  -999.2500     1.0447     1.0503     1.2835   -64.6421    10.4753      .3062      .0255    70.0011
 4125.0000      .4541   125.0833  -999.2500     1.0450     1.0470     1.3008   -64.6802    10.5898      .3117      .0164    69.3154
 4125.5000      .4438   126.0308  -999.2500     1.0525     1.0492     1.2759   -64.6276    10.5980      .3149      .0110    69.9517
 4126.0000      .4326   126.2168  -999.2500     1.0597     1.0554     1.2416   -64.4619    10.5581      .3147      .0131    71.2993
 4126.5000      .4254   125.5391  -999.2500     1.0661     1.0595     1.2356   -64.2428    10.5662      .3100      .0188    72.0728
 4127.0000      .4228   124.5739  -999.2500     1.0784     1.0640     1.2448   -64.0103    10.6242      .2992      .0236    71.0333
 4127.5000      .4350   124.0911  -999.2500     1.0842     1.0697     1.2577   -63.9008    10.6833      .2861      .0224    69.4788
 4128.0000      .4498   124.0292  -999.2500     1.0820     1.0725     1.2719   -63.7780    10.7371      .2720      .0217    69.1831
 4128.5000      .4552   123.8707  -999.2500     1.0792     1.0746     1.2830   -63.6270    10.8288      .2567      .0247    71.1371
 4129.0000      .4501   123.6488  -999.2500     1.0763     1.0761     1.2913   -63.5088    10.7165      .2441      .0280    71.0266
 4129.5000      .4404   123.4952  -999.2500     1.0777     1.0816     1.2988   -63.4026    10.6733      .2466      .0233    69.0504
 4130.0000      .4348   123.5598  -999.2500     1.0785     1.0859     1.2883   -63.2635    10.7162      .2548      .0143    66.9982
 4130.5000      .4370   123.8300  -999.2500     1.0777     1.0748     1.2734   -63.1287    10.7186      .2607      .0048    65.9359
 4131.0000      .4328   124.1241  -999.2500     1.0801     1.0657     1.2597   -62.9628    10.7287      .2567      .0001    65.7502
 4131.5000      .4283   124.3783  -999.2500     1.0838     1.0629     1.2498   -62.8234    10.7566      .2496      .0032    65.8767
 4132.0000      .4387   124.4839  -999.2500     1.0842     1.0613     1.2396   -62.7236    10.8143      .2472      .0069    66.0886
 4132.5000      .4562   124.2822  -999.2500     1.0837     1.0616     1.2307   -62.6525    10.9374      .2504      .0100    66.3174
 4133.0000      .4779   123.7875  -999.2500     1.0825     1.0626     1.2275   -62.5217    10.8696      .2543      .0125    66.5544
 4133.5000      .4628   123.1514  -999.2500     1.0802     1.0694     1.2355   -62.3099    10.8128      .2529      .0146    66.3002
 4134.0000      .4358   122.5950  -999.2500     1.0784     1.0745     1.2512   -62.1406    10.7931      .2480      .0139    65.2180
 4134.5000      .4125   122.3444  -999.2500     1.0790     1.0833     1.2656   -62.0762    10.8098      .2425      .0124    64.1960
 4135.0000      .4062   122.3871  -999.2500     1.0815     1.0918     1.2763   -62.0609    10.8653      .2431      .0106    63.9808
