~VERSION INFORMATION
VERS.                             2.0:   CWLS Log ASCII Standard-VERSION 2.0
WRAP.                              NO:   One line per depth step
~Well Information Block
STRT.F                       590.0000:   Top Depth
STOP.F                      5513.0000:   Bottom Depth
STEP.F                         .50000:   Depth Increment
NULL.                        -999.250:   Null Value
FLD .                     MU BLK A 16:   Field Name
WELL.       OCSG03011  A001 ST00 BP00:   NAME
API .                    427024004100:   WELL API
R1  .                           13904:   COMMENT  1
EDF .F                       102.0000:   ELEV DRILL FLOOR
COMP.       CITIES SERVICE OIL COMPAN:   OPERATOR
BN  .                            A 16:   BLOCK
CTRY.                             USA:   COUNTRY NAME
CNTY.                        MG ILD L:   COUNTY NAME
EKB .F                       103.0000:   ELEV KELLY BUSHING
TDD .F                       5519.000:   FINAL TD DRILLER
STAT.                           TEXAS:   STATE NAME
UWI .                    427024004100:   WELL API
DICO.               IHS : Digitizing Company
~PARAMETER INFORMATION (zones)
#MNEM.UNIT                       Value     Description
#=========                       =====     ===========
#ZONATION                          CNL:   ZONATION NAME
#ZONE                            RUN_1:   ZONE NAME
TOP .                       3234.0000:   TOP DEPTH
BOT .                       5513.5000:   BOTTOM DEPTH
RUN .                               1:   RUN NUMBER
LCCD.                             440:   LOGGING CONTRACTOR
SRVC.                    Schlumberger:   LOGGING CONT NAME
DICO.          QC Data Collectors Ltd:   DIG COMPANY NAME
LDAT.                      03/04/1980:   DATE LOGGED
ELD .F                       103.0000:   LOG DATUM ELEVATION
TDD .F                      5512.0000:   TOTAL DEPTH DRILLER
TDL .F                      5519.0000:   TOTAL DEPTH LOGGER
BOTL.F                      5513.0000:   BOTTOM DEPTH LOGGED
TOPL.F                      3240.0000:   TOP DEPTH LOGGED
CS1 .IN                       13.3750:   CASING SIZE 1
BS1 .IN                       12.2500:   BIT SIZE 1
DDB1.F                      5512.0000:   DEPTH DRILLED BIT 1
BHF .                              99:   FLUID CODE
DPT .                   Miscellaneous:   DRILLING FLUID TYPE
MUDD.                         13.1000:   FLUID DENSITY
MUDV.                         38.0000:   FLUID VISCOSITY
DFPH.                         11.5000:   FLUID PH
FL  .                          4.0000:   FLUID LOSS
RM  .OHMM                       .8600:   RM
RMT .DEGF                     70.0000:   RM TEMP
RMF .OHMM                       .6600:   RMF
RMFT.DEGF                     70.0000:   RMF TEMP
FSC .                               M:   RMF CODE
RMC .OHMM                      1.8600:   RMC
RMCT.DEGF                     70.0000:   RMC TEMP
CMC .                               M:   RMC CODE
TMAX.DEGF                    145.0000:   MAX REC TEMP
TIMC.                          6.5000:   TIME SINCE CIRCLN
~PARAMETER INFORMATION (zones)
#MNEM.UNIT                       Value     Description
#=========                       =====     ===========
#ZONATION                          DIL:   ZONATION NAME
#ZONE                            RUN_1:   ZONE NAME
TOP .                       3240.0000:   TOP DEPTH
BOT .                       5513.5000:   BOTTOM DEPTH
RUN .                               1:   RUN NUMBER
LCCD.                             440:   LOGGING CONTRACTOR
SRVC.                    Schlumberger:   LOGGING CONT NAME
DICO.          QC Data Collectors Ltd:   DIG COMPANY NAME
LDAT.                      03/04/1980:   DATE LOGGED
ELD .F                       103.0000:   LOG DATUM ELEVATION
TDD .F                      5512.0000:   TOTAL DEPTH DRILLER
TDL .F                      5519.0000:   TOTAL DEPTH LOGGER
BOTL.F                      5513.0000:   BOTTOM DEPTH LOGGED
TOPL.F                      3240.0000:   TOP DEPTH LOGGED
CS1 .IN                       13.3750:   CASING SIZE 1
BS1 .IN                       12.2500:   BIT SIZE 1
DDB1.F                      5512.0000:   DEPTH DRILLED BIT 1
BHF .                              99:   FLUID CODE
DPT .                   Miscellaneous:   DRILLING FLUID TYPE
MUDD.                         13.1000:   FLUID DENSITY
MUDV.                         38.0000:   FLUID VISCOSITY
DFPH.                         11.5000:   FLUID PH
FL  .                          4.0000:   FLUID LOSS
RM  .OHMM                       .8600:   RM
RMT .DEGF                     70.0000:   RM TEMP
RMF .OHMM                       .6600:   RMF
RMFT.DEGF                     70.0000:   RMF TEMP
FSC .                               M:   RMF CODE
RMC .OHMM                      1.8600:   RMC
RMCT.DEGF                     70.0000:   RMC TEMP
CMC .                               M:   RMC CODE
TMAX.DEGF                    145.0000:   MAX REC TEMP
TIMC.                          6.5000:   TIME SINCE CIRCLN
~PARAMETER INFORMATION (zones)
#MNEM.UNIT                       Value     Description
#=========                       =====     ===========
#ZONATION                          DIL:   ZONATION NAME
#ZONE                          RUN_1_1:   ZONE NAME
TOP .                        590.0000:   TOP DEPTH
BOT .                       1046.5000:   BOTTOM DEPTH
RUN .                               1:   RUN NUMBER
LCCD.                             440:   LOGGING CONTRACTOR
SRVC.                    Schlumberger:   LOGGING CONT NAME
DICO.          QC Data Collectors Ltd:   DIG COMPANY NAME
LDAT.                      02/20/1980:   DATE LOGGED
ELD .F                       103.0000:   LOG DATUM ELEVATION
TDD .F                      1050.0000:   TOTAL DEPTH DRILLER
TDL .F                      1050.0000:   TOTAL DEPTH LOGGER
BOTL.F                      1046.0000:   BOTTOM DEPTH LOGGED
TOPL.F                       597.0000:   TOP DEPTH LOGGED
CS1 .IN                       30.0000:   CASING SIZE 1
BS1 .IN                       12.5000:   BIT SIZE 1
DDB1.F                      1050.0000:   DEPTH DRILLED BIT 1
BHF .                              99:   FLUID CODE
DPT .                   Miscellaneous:   DRILLING FLUID TYPE
MUDD.                          8.6000:   FLUID DENSITY
MUDV.                         39.0000:   FLUID VISCOSITY
DFPH.                         12.3000:   FLUID PH
FL  .                            NULL:   FLUID LOSS
RM  .OHMM                       .3900:   RM
RMT .DEGF                     80.0000:   RM TEMP
RMF .OHMM                       .2400:   RMF
RMFT.DEGF                     80.0000:   RMF TEMP
FSC .                               M:   RMF CODE
RMC .OHMM                       .4500:   RMC
RMCT.DEGF                     80.0000:   RMC TEMP
CMC .                               M:   RMC CODE
TMAX.DEGF                     90.0000:   MAX REC TEMP
TIMC.                          1.5000:   TIME SINCE CIRCLN
~PARAMETER INFORMATION (zones)
#MNEM.UNIT                       Value     Description
#=========                       =====     ===========
#ZONATION                          FDC:   ZONATION NAME
#ZONE                            RUN_1:   ZONE NAME
TOP .                       3234.0000:   TOP DEPTH
BOT .                       5513.5000:   BOTTOM DEPTH
RUN .                               1:   RUN NUMBER
LCCD.                             440:   LOGGING CONTRACTOR
SRVC.                    Schlumberger:   LOGGING CONT NAME
DICO.          QC Data Collectors Ltd:   DIG COMPANY NAME
LDAT.                      03/04/1980:   DATE LOGGED
ELD .F                       103.0000:   LOG DATUM ELEVATION
TDD .F                      5512.0000:   TOTAL DEPTH DRILLER
TDL .F                      5519.0000:   TOTAL DEPTH LOGGER
BOTL.F                      5513.0000:   BOTTOM DEPTH LOGGED
TOPL.F                      3240.0000:   TOP DEPTH LOGGED
CS1 .IN                       13.3750:   CASING SIZE 1
BS1 .IN                       12.2500:   BIT SIZE 1
DDB1.F                      5512.0000:   DEPTH DRILLED BIT 1
BHF .                              99:   FLUID CODE
DPT .                   Miscellaneous:   DRILLING FLUID TYPE
MUDD.                         13.1000:   FLUID DENSITY
MUDV.                         38.0000:   FLUID VISCOSITY
DFPH.                         11.5000:   FLUID PH
FL  .                          4.0000:   FLUID LOSS
RM  .OHMM                       .8600:   RM
RMT .DEGF                     70.0000:   RM TEMP
RMF .OHMM                       .6600:   RMF
RMFT.DEGF                     70.0000:   RMF TEMP
FSC .                               M:   RMF CODE
RMC .OHMM                      1.8600:   RMC
RMCT.DEGF                     70.0000:   RMC TEMP
CMC .                               M:   RMC CODE
TMAX.DEGF                    145.0000:   MAX REC TEMP
TIMC.                          6.5000:   TIME SINCE CIRCLN
~Curve Information Block
#MNEM.UNIT                    API CODE    No Description
#=========                    ========    == ===========
DEPT.F                   00 001 00 00:     1  DEPTH
NPHI.%                               :     2  Neutron Porosity
ASFL.OHMM                            :     3  Shallow Resistivity
DT.US/F                              :     4  Sonic Transit Time
GR.GAPI                              :     5  Gamma Ray
ILD.OHMM                             :     6  Deep Induction Resistivity
SFL.OHMM                             :     7  Medium Resistivity
SP.MV                                :     8  Spontaneous Potential
CALI.IN                              :     9  Caliper
DRHO.G/C3                            :    10  Bulk Density Correction
GR.GAPI                              :    11  Gamma Ray
RHOB.G/C3                            :    12  Bulk Density
~ASCII
# ...
 4280.5000    40.6876      .9789  -999.2500  -999.2500      .7615  -999.2500  -106.4988    12.3973     -.0149    44.1694     2.0788
 4281.0000    41.2329      .9601  -999.2500  -999.2500      .6623  -999.2500  -105.3763    12.3971     -.0138    44.1212     2.0957
 4281.5000    40.3776      .9874  -999.2500  -999.2500      .5729  -999.2500  -104.0636    12.3936     -.0127    45.6151     2.1149
 4282.0000    39.2744     1.0309  -999.2500  -999.2500      .5594  -999.2500  -102.4753    12.3914     -.0122    49.2267     2.1366
 4282.5000    38.3159     1.0656  -999.2500  -999.2500      .5758  -999.2500  -100.8871    12.3892     -.0118    52.7192     2.1716
 4283.0000    37.4850     1.0896  -999.2500  -999.2500      .5950  -999.2500   -99.2284    12.3871     -.0117    55.0940     2.1997
 4283.5000    36.6891     1.1099  -999.2500  -999.2500      .6142  -999.2500   -97.4971    12.3825     -.0130    54.6497     2.2078
 4284.0000    37.1883     1.1124  -999.2500  -999.2500      .6394  -999.2500   -97.3636    12.3763     -.0165    52.7573     2.2017
 4284.5000    38.3151     1.1137  -999.2500  -999.2500      .6773  -999.2500   -97.7330    12.3745     -.0202    50.4875     2.1813
 4285.0000    40.0648     1.1272  -999.2500  -999.2500      .7151  -999.2500   -98.1025    12.3813     -.0232    48.9134     2.1673
 4285.5000    39.9415     1.1418  -999.2500  -999.2500      .7530  -999.2500   -98.4719    12.3884     -.0235    50.4434     2.1838
 4286.0000    37.1241     1.1564  -999.2500  -999.2500      .7908  -999.2500   -95.2810    12.4093     -.0205    53.0190     2.2162
 4286.5000    34.1252     1.1833  -999.2500  -999.2500      .8286  -999.2500   -92.2889    12.4519     -.0142    55.7668     2.2581
 4287.0000    32.5120     1.2139  -999.2500  -999.2500      .8664  -999.2500   -88.5424    12.5149     -.0075    59.0896     2.2850
 4287.5000    34.5266     1.2226  -999.2500  -999.2500      .8989  -999.2500   -84.7982    12.5822     -.0010    62.9310     2.2976
 4288.0000    37.6584     1.2026  -999.2500  -999.2500      .9275  -999.2500   -81.0516    12.6607      .0051    65.8397     2.3073
 4288.5000    40.5134     1.1825  -999.2500  -999.2500      .9560  -999.2500   -78.2581    12.7389      .0109    67.4207     2.3148
 4289.0000    41.5174     1.1625  -999.2500  -999.2500      .9846  -999.2500   -76.3834    12.8035      .0157    68.5850     2.3109
 4289.5000    42.0343     1.1365  -999.2500  -999.2500      .9924  -999.2500   -73.8579    12.8512      .0190    69.8766     2.3020
 4290.0000    42.6689     1.0996  -999.2500  -999.2500      .9863  -999.2500   -72.9282    12.8959      .0147    71.0980     2.2909
 4290.5000    43.5330     1.0627  -999.2500  -999.2500      .9764  -999.2500   -71.9978    12.9554      .0072    72.2280     2.2792
 4291.0000    44.3130     1.0400  -999.2500  -999.2500      .9639  -999.2500   -71.4626    13.0069      .0028    73.1724     2.2663
 4291.5000    44.9869     1.0250  -999.2500  -999.2500      .9513  -999.2500   -70.9946    13.0108      .0014    72.2520     2.2622
 4292.0000    45.0953     1.0102  -999.2500  -999.2500      .9388  -999.2500   -70.5122    12.9993      .0013    70.9167     2.2647
 4292.5000    45.2836     1.0202  -999.2500  -999.2500      .9262  -999.2500   -69.9933    12.9745      .0076    70.1859     2.2703
 4293.0000    45.7634     1.0302  -999.2500  -999.2500      .9137  -999.2500   -69.8893    12.9479      .0131    71.0464     2.2711
 4293.5000    46.3922     1.0402  -999.2500  -999.2500      .9012  -999.2500   -69.8960    12.9530      .0157    72.6722     2.2654
 4294.0000    46.3195     1.0568  -999.2500  -999.2500      .8918  -999.2500   -69.7789    12.9784      .0122    72.9161     2.2610
 4294.5000    45.3328     1.0747  -999.2500  -999.2500      .8971  -999.2500   -69.9110    12.9749      .0079    71.6743     2.2613
 4295.0000    44.4211     1.0838  -999.2500  -999.2500      .9023  -999.2500   -70.5815    12.9354      .0058    70.7622     2.2640
 4295.5000    45.1757     1.0836  -999.2500  -999.2500      .9076  -999.2500   -71.2003    12.9008      .0047    70.4166     2.2626
 4296.0000    46.3911     1.0834  -999.2500  -999.2500      .9128  -999.2500   -71.3352    12.8870      .0046    70.7946     2.2581
 4296.5000    46.5482     1.0832  -999.2500  -999.2500      .9181  -999.2500   -71.3003    12.8955      .0053    71.0350     2.2555
 4297.0000    45.6531     1.0834  -999.2500  -999.2500      .9233  -999.2500   -71.2461    12.9104      .0081    70.9962     2.2550
 4297.5000    44.3986     1.0871  -999.2500  -999.2500      .9252  -999.2500   -71.4912    12.9185      .0110    70.5752     2.2561
 4298.0000    43.4895     1.0908  -999.2500  -999.2500      .9269  -999.2500   -71.8606    12.9150      .0131    69.8311     2.2573
 4298.5000    44.3920     1.0945  -999.2500  -999.2500      .9287  -999.2500   -72.2301    12.9039      .0140    68.1537     2.2570
 4299.0000    45.4362     1.0983  -999.2500  -999.2500      .9305  -999.2500   -72.5995    12.8991      .0101    67.5983     2.2519
 4299.5000    46.0123     1.0969  -999.2500  -999.2500      .9323  -999.2500   -72.1271    12.9037      .0032    68.4357     2.2447
 4300.0000    45.4760     1.0906  -999.2500  -999.2500      .9341  -999.2500   -71.5527    12.9147     -.0030    70.2955     2.2358
 4300.5000    44.7227     1.0842  -999.2500  -999.2500      .9360  -999.2500   -71.0037    12.9246     -.0070    71.6812     2.2374
 4301.0000    44.6454     1.0779  -999.2500  -999.2500      .9389  -999.2500   -70.4585    12.9285     -.0015    72.2419     2.2483
 4301.5000    44.8495     1.0719  -999.2500  -999.2500      .9417  -999.2500   -70.5386    12.9272      .0058    71.8015     2.2601
 4302.0000    45.2873     1.0683  -999.2500  -999.2500      .9445  -999.2500   -70.6971    12.9206      .0136    70.8296     2.2663
 4302.5000    45.4509     1.0670  -999.2500  -999.2500      .9473  -999.2500   -70.8191    12.8724      .0125    70.2329     2.2581
 4303.0000    45.5681     1.0768  -999.2500  -999.2500      .9501  -999.2500   -70.4873    12.8084      .0102    69.6062     2.2517
 4303.5000    45.8653     1.0866  -999.2500  -999.2500      .9530  -999.2500   -70.1556    12.8216      .0089    68.9119     2.2516
 4304.0000    45.8796     1.0964  -999.2500  -999.2500      .9558  -999.2500   -69.8239    12.8654      .0087    68.1328     2.2538
 4304.5000    45.7589     1.1062  -999.2500  -999.2500      .9586  -999.2500   -69.4921    12.8949      .0069    68.7903     2.2561
 4305.0000    45.6951     1.1161  -999.2500  -999.2500      .9622  -999.2500   -69.2985    12.8962      .0029    70.0486     2.2583
 4305.5000    45.6466     1.1259  -999.2500  -999.2500      .9662  -999.2500   -69.2454    12.8795     -.0005    70.9644     2.2615
 4306.0000    45.4708     1.1361  -999.2500  -999.2500      .9703  -999.2500   -69.3976    12.8582     -.0027    70.9927     2.2655
 4306.5000    44.7130     1.1466  -999.2500  -999.2500      .9743  -999.2500   -70.0454    12.8348     -.0043    69.4452     2.2693
 4307.0000    44.0338     1.1571  -999.2500  -999.2500      .9784  -999.2500   -70.6932    12.8044     -.0057    67.3759     2.2776
 4307.5000    43.4065     1.1678  -999.2500  -999.2500      .9825  -999.2500   -71.3474    12.7377     -.0079    66.4739     2.2843
 4308.0000    42.9211     1.1801  -999.2500  -999.2500      .9820  -999.2500   -72.0216    12.6441     -.0083    67.4464     2.2883
 4308.5000    42.8346     1.1894  -999.2500  -999.2500      .9789  -999.2500   -72.4059    12.5362     -.0066    68.7583     2.2843
 4309.0000    43.6179     1.1794  -999.2500  -999.2500      .9758  -999.2500   -71.7385    12.4730     -.0033    69.8422     2.2846
 4309.5000    44.4226     1.1694  -999.2500  -999.2500      .9727  -999.2500   -71.0712    12.4669      .0014    70.0784     2.2850
 4310.0000    44.3204     1.1594  -999.2500  -999.2500      .9696  -999.2500   -70.4032    12.5113      .0087    69.8177     2.2873
 4310.5000    43.9788     1.1493  -999.2500  -999.2500      .9665  -999.2500   -69.2330    12.5562      .0173    70.4308     2.2895
