~VERSION INFORMATION
VERS.                             2.0:   CWLS Log ASCII Standard-VERSION 2.0
WRAP.                              NO:   One line per depth step
~Well Information Block
STRT.F                      1238.0000:   Top Depth
STOP.F                      5786.0000:   Bottom Depth
STEP.F                         .50000:   Depth Increment
NULL.                        -999.250:   Null Value
FLD .                     MU BLK A 18:   Field Name
WELL.       OCSG05167   001 ST00 BP00:   NAME
API .                    427024015100:   WELL API
R1  .            STANDARD OIL PROD CO:   COMMENT  1
EDF .F                       884.0000:   ELEV DRILL FLOOR
COMP.            STANDARD OIL PROD CO:   OPERATOR
BN  .                            A 18:   BLOCK
CTRY.                             USA:   COUNTRY NAME
CNTY.                        MG ILD L:   COUNTY NAME
EKB .F                        85.0000:   ELEV KELLY BUSHING
TDD .F                       5792.000:   FINAL TD DRILLER
STAT.                           TEXAS:   STATE NAME
UWI .                    427024015100:   WELL API
DICO.               IHS : Digitizing Company
~PARAMETER INFORMATION (zones)
#MNEM.UNIT                       Value     Description
#=========                       =====     ===========
#ZONATION                          CNL:   ZONATION NAME
#ZONE                            RUN_0:   ZONE NAME
TOP .                       3294.0000:   TOP DEPTH
BOT .                       5786.5000:   BOTTOM DEPTH
RUN .                               0:   RUN NUMBER
LCCD.                             440:   LOGGING CONTRACTOR
SRVC.                    Schlumberger:   LOGGING CONT NAME
DICO.          QC Data Collectors Ltd:   DIG COMPANY NAME
LDAT.                      11/28/1987:   DATE LOGGED
ELD .F                        85.0000:   LOG DATUM ELEVATION
TDD .F                      5785.0000:   TOTAL DEPTH DRILLER
TDL .F                      5792.0000:   TOTAL DEPTH LOGGER
BOTL.F                      5786.0000:   BOTTOM DEPTH LOGGED
TOPL.F                      3300.0000:   TOP DEPTH LOGGED
CS1 .IN                       10.7500:   CASING SIZE 1
BS1 .IN                        9.8750:   BIT SIZE 1
DDB1.F                      5785.0000:   DEPTH DRILLED BIT 1
BHF .                              81:   FLUID CODE
DPT .          Lignosulfonate (Ligno):   DRILLING FLUID TYPE
MUDD.                         11.0000:   FLUID DENSITY
MUDV.                         41.0000:   FLUID VISCOSITY
DFPH.                         10.0000:   FLUID PH
FL  .                         10.0000:   FLUID LOSS
RM  .OHMM                       .9400:   RM
~PARAMETER INFORMATION (zones)
#MNEM.UNIT                       Value     Description
#=========                       =====     ===========
#ZONATION                          DIL:   ZONATION NAME
#ZONE                            RUN_1:   ZONE NAME
TOP .                       1238.0000:   TOP DEPTH
BOT .                       5786.5000:   BOTTOM DEPTH
RUN .                               1:   RUN NUMBER
LCCD.                             440:   LOGGING CONTRACTOR
SRVC.                    Schlumberger:   LOGGING CONT NAME
DICO.          QC Data Collectors Ltd:   DIG COMPANY NAME
LDAT.                      11/23/1987:   DATE LOGGED
ELD .F                        85.0000:   LOG DATUM ELEVATION
TDD .F                      3540.0000:   TOTAL DEPTH DRILLER
TDL .F                      3539.0000:   TOTAL DEPTH LOGGER
BOTL.F                      3533.0000:   BOTTOM DEPTH LOGGED
TOPL.F                      1294.0000:   TOP DEPTH LOGGED
CS1 .IN                       16.0000:   CASING SIZE 1
BS1 .IN                       13.5000:   BIT SIZE 1
DDB1.F                      3540.0000:   DEPTH DRILLED BIT 1
BHF .                              81:   FLUID CODE
DPT .          Lignosulfonate (Ligno):   DRILLING FLUID TYPE
MUDV.                         38.0000:   FLUID VISCOSITY
DFPH.                          8.0000:   FLUID PH
FL  .                         29.2000:   FLUID LOSS
RMF .OHMM                       .2400:   RMF
FSC .                               C:   RMF CODE
TMAX.DEGF                    120.0000:   MAX REC TEMP
TIMC.                          4.0000:   TIME SINCE CIRCLN
~PARAMETER INFORMATION (zones)
#MNEM.UNIT                       Value     Description
#=========                       =====     ===========
#ZONATION                          FDC:   ZONATION NAME
#ZONE                            RUN_0:   ZONE NAME
TOP .                       3294.0000:   TOP DEPTH
BOT .                       5786.5000:   BOTTOM DEPTH
RUN .                               0:   RUN NUMBER
LCCD.                             440:   LOGGING CONTRACTOR
SRVC.                    Schlumberger:   LOGGING CONT NAME
DICO.          QC Data Collectors Ltd:   DIG COMPANY NAME
LDAT.                      11/28/1987:   DATE LOGGED
ELD .F                        85.0000:   LOG DATUM ELEVATION
TDD .F                      5785.0000:   TOTAL DEPTH DRILLER
TDL .F                      5792.0000:   TOTAL DEPTH LOGGER
BOTL.F                      5786.0000:   BOTTOM DEPTH LOGGED
TOPL.F                      3300.0000:   TOP DEPTH LOGGED
CS1 .IN                       10.7500:   CASING SIZE 1
BS1 .IN                        9.8750:   BIT SIZE 1
DDB1.F                      5785.0000:   DEPTH DRILLED BIT 1
BHF .                              81:   FLUID CODE
DPT .          Lignosulfonate (Ligno):   DRILLING FLUID TYPE
MUDD.                         11.0000:   FLUID DENSITY
MUDV.                         41.0000:   FLUID VISCOSITY
DFPH.                         10.0000:   FLUID PH
FL  .                         10.0000:   FLUID LOSS
RM  .OHMM                       .9400:   RM
~Curve Information Block
#MNEM.UNIT                    API CODE    No Description
#=========                    ========    == ===========
DEPT.F                   00 001 00 00:     1  DEPTH
NPHI.DEC                              :     2  Neutron Porosity
DT.US/F                              :     3  Sonic Transit Time
GR.GAPI                              :     4  Gamma Ray
ILD.OHMM                             :     5  Deep Induction Resistivity
ILM.OHMM                             :     6  Medium Induction Resistivity
SFL.OHMM                             :     7  Medium Resistivity
SP.MV                                :     8  Spontaneous Potential
CALI.IN                              :     9  Caliper
DPHI.DEC                              :    10  Porosity
DRHO.G/C3                            :    11  Bulk Density Correction
GR.GAPI                              :    12  Gamma Ray
~ASCII
# ...
 5416.5000      .4418   114.9438  -999.2500     1.0761     1.0688     1.4736   -42.0701    10.6698      .2233      .0289    77.7788
 5417.0000      .4243   117.7487  -999.2500     1.0643     1.0575     1.3177   -42.0827    10.6321      .2255      .0350    79.8043
 5417.5000      .4008   118.9143  -999.2500     1.0516     1.0477     1.2253   -42.0955    10.6022      .2237      .0450    79.8574
 5418.0000      .3912   118.7280  -999.2500     1.0371     1.0334     1.1908   -42.0858    10.5955      .2204      .0591    78.1550
 5418.5000      .3884   118.1598  -999.2500     1.0198     1.0175     1.1912   -42.0500    10.5961      .2148      .0701    75.8799
 5419.0000      .3862   117.6832  -999.2500     1.0000     1.0016     1.2031   -42.0107    10.5974      .2102      .0730    74.1462
 5419.5000      .3851   118.1887  -999.2500      .9880      .9916     1.2183   -41.9484    10.6108      .2071      .0627    73.2419
 5420.0000      .3871   118.4391  -999.2500      .9818      .9843     1.2335   -41.8622    10.6565      .2066      .0468    72.8253
 5420.5000      .3945   118.1204  -999.2500      .9796      .9850     1.2516   -41.7299    10.7241      .2049      .0355    72.4915
 5421.0000      .3997   117.8318  -999.2500      .9790      .9897     1.2711   -41.7407    10.8124      .1997      .0327    71.0706
 5421.5000      .4062   117.6431  -999.2500      .9794      .9912     1.2810   -41.7781    10.8914      .1918      .0369    69.5261
 5422.0000      .4104   117.5570  -999.2500      .9780      .9889     1.2744   -41.8144    10.9151      .1861      .0419    70.2050
 5422.5000      .4098   117.6627  -999.2500      .9765      .9831     1.2585   -41.8412    10.9516      .1885      .0439    71.3219
 5423.0000      .4106   117.5480  -999.2500      .9758      .9779     1.2420   -41.7975    11.0208      .1922      .0431    71.8699
 5423.5000      .4188   117.3856  -999.2500      .9801      .9798     1.2285   -41.7438    11.0323      .1943      .0426    70.5160
 5424.0000      .4267   117.3743  -999.2500      .9876      .9830     1.2222   -41.6797    11.0389      .1978      .0392    68.5754
 5424.5000      .4303   117.3308  -999.2500      .9973      .9870     1.2215   -41.6194    11.0432      .2013      .0331    68.5381
 5425.0000      .4277   117.0861  -999.2500     1.0075      .9983     1.2323   -41.5604    11.0473      .2018      .0313    69.2163
 5425.5000      .4214   116.4727  -999.2500     1.0195     1.0146     1.2515   -41.4889    10.9852      .1990      .0332    70.6908
 5426.0000      .4150   115.7203  -999.2500     1.0322     1.0326     1.2816   -41.4149    10.9132      .1957      .0392    70.6052
 5426.5000      .4085   115.2993  -999.2500     1.0442     1.0459     1.3278   -41.3561    10.8863      .1926      .0491    69.4406
 5427.0000      .4066   115.5168  -999.2500     1.0531     1.0494     1.3545   -41.3032    10.9099      .1895      .0585    67.4017
 5427.5000      .4113   116.0724  -999.2500     1.0590     1.0466     1.3401   -41.2565    11.0133      .1871      .0684    66.2305
 5428.0000      .4141   116.5621  -999.2500     1.0558     1.0443     1.3000   -41.2184    11.0849      .1862      .0750    65.5209
 5428.5000      .4195   116.5331  -999.2500     1.0503     1.0428     1.2722   -41.2040    11.0240      .1893      .0649    64.1537
 5429.0000      .4295   116.2299  -999.2500     1.0432     1.0418     1.2771   -41.2286    10.9383      .1932      .0453    64.7264
 5429.5000      .4308   115.7863  -999.2500     1.0384     1.0394     1.2959   -41.2911    10.8625      .1949      .0355    66.9014
 5430.0000      .4132   115.3595  -999.2500     1.0306     1.0380     1.3071   -41.3771    10.9168      .1905      .0328    68.2831
 5430.5000      .4044   115.8846  -999.2500     1.0217     1.0275     1.3023   -41.4653    10.9900      .1849      .0380    68.1399
 5431.0000      .4017   116.7472  -999.2500     1.0130     1.0135     1.2845   -41.6048    11.0282      .1827      .0419    67.6713
 5431.5000      .4051   117.4128  -999.2500     1.0069     1.0133     1.2667   -41.7534    10.9645      .1900      .0356    68.7075
 5432.0000      .4110   117.5638  -999.2500     1.0028     1.0104     1.2415   -41.8236    10.8584      .1992      .0296    70.7546
 5432.5000      .4167   117.5677  -999.2500     1.0004     1.0030     1.2432   -41.8044    10.7509      .2083      .0243    72.0206
 5433.0000      .4242   117.6611  -999.2500      .9965      .9894     1.2556   -41.7084    10.7068      .2093      .0213    71.7551
 5433.5000      .4308   117.7770  -999.2500      .9914      .9773     1.2564   -41.6501    10.7599      .2063      .0215    71.7319
 5434.0000      .4353   118.1860  -999.2500      .9826      .9730     1.2273   -41.6309    10.8146      .2027      .0268    72.1821
 5434.5000      .4362   119.0283  -999.2500      .9765      .9683     1.2070   -41.6953    10.8497      .1984      .0411    72.7769
 5435.0000      .4278   119.8981  -999.2500      .9701      .9669     1.1969   -41.7465    10.8734      .1923      .0534    72.8420
 5435.5000      .4211   119.7463  -999.2500      .9676      .9663     1.2036   -41.7272    10.9104      .1878      .0586    72.1930
 5436.0000      .4156   118.8875  -999.2500      .9713      .9693     1.2189   -41.7261    10.9696      .1934      .0397    71.1840
 5436.5000      .4044   117.7957  -999.2500      .9813      .9757     1.2381   -41.7535    11.0335      .2038      .0207    72.6162
 5437.0000      .4003   117.0186  -999.2500      .9839     1.0153     1.3246   -41.7465    10.9847      .2080      .0146    74.9456
 5437.5000      .4059   117.5297  -999.2500      .9650     1.0209     1.4375   -41.7334    10.7644      .2048      .0135    76.5443
 5438.0000      .4339   119.3834  -999.2500      .9431      .9975     1.4029   -41.7827    10.7212      .2014      .0171    77.8820
 5438.5000      .4755   122.1907  -999.2500      .9220      .9634     1.2874   -41.7842    10.6355      .2011      .0264    78.5385
 5439.0000      .4959   124.2810  -999.2500      .9010      .9321     1.1678   -41.7149    10.6362      .2086      .0394    79.1497
 5439.5000      .5000   125.0280  -999.2500      .8790      .8983     1.0960   -41.6387    10.7845      .2197      .0468    79.8195
 5440.0000      .4871   125.3097  -999.2500      .8537      .8668     1.0555   -41.5750    10.8364      .2278      .0276    79.7031
 5440.5000      .4764   125.3350  -999.2500      .8359      .8571     1.0417   -41.5466    10.7885      .2334      .0128    79.2600
 5441.0000      .4704   125.2191  -999.2500      .8237      .8548     1.0535   -41.5746    10.7746      .2291      .0096    78.8031
 5441.5000      .4619   125.0999  -999.2500      .8172      .8599     1.0687   -41.6425    10.8211      .2235      .0113    79.6018
 5442.0000      .4486   124.6626  -999.2500      .8176      .8581     1.0830   -41.7744    10.8236      .2225      .0161    79.9297
 5442.5000      .4303   124.0962  -999.2500      .8193      .8547     1.1040   -41.8555    10.7883      .2204      .0211    78.4806
 5443.0000      .4194   123.4866  -999.2500      .8215      .8635     1.1252   -41.8532    10.7267      .2143      .0257    76.5081
 5443.5000      .4236   123.2234  -999.2500      .8240      .8713     1.1431   -41.7208    10.6599      .2055      .0301    74.7322
 5444.0000      .4375   123.0083  -999.2500      .8344      .8776     1.1304   -41.6344    10.7569      .2006      .0349    73.7965
 5444.5000      .4453   122.7360  -999.2500      .8525      .8991     1.1359   -41.5765    10.9328      .1970      .0381    72.7483
 5445.0000      .4321   122.1486  -999.2500      .8781      .9277     1.1427   -41.5816    11.0707      .1935      .0385    71.6384
 5445.5000      .4198   120.2213  -999.2500      .9069      .9503     1.1478   -41.5594    11.0320      .1901      .0372    70.5558
 5446.0000      .4152   118.0894  -999.2500      .9320      .9672     1.2211   -41.5156    10.9813      .1869      .0370    70.6992
 5446.5000      .4210   117.0530  -999.2500      .9531      .9870     1.3085   -41.3374    10.9342      .1837      .0379    73.1492
