~VERSION INFORMATION
VERS.                             2.0:   CWLS Log ASCII Standard-VERSION 2.0
WRAP.                              NO:   One line per depth step
~Well Information Block
STRT.F                      3964.0000:   Top Depth
STOP.F                      6748.0000:   Bottom Depth
STEP.F                         .50000:   Depth Increment
NULL.                        -999.250:   Null Value
FLD .                     MU BLK A 26:   Field Name
WELL.       OCSG13276   001 ST00 BP00:   NAME
API .                    427024021500:   WELL API
EDF .F                        73.0000:   ELEV DRILL FLOOR
COMP.                  ORYX ENERGY CO:   OPERATOR
BN  .                            A 26:   BLOCK
CTRY.                             USA:   COUNTRY NAME
CNTY.                        MG ILD L:   COUNTY NAME
EGL .F                      -290.0000:   ELEV GROUND LEVEL
TDD .F                       6750.000:   FINAL TD DRILLER
STAT.                           TEXAS:   STATE NAME
UWI .                    427024021500:   WELL API
DICO.               IHS : Digitizing Company
~PARAMETER INFORMATION (zones)
#MNEM.UNIT                       Value     Description
#=========                       =====     ===========
#ZONATION                          CNL:   ZONATION NAME
#ZONE                            RUN_1:   ZONE NAME
TOP .                       3970.0000:   TOP DEPTH
BOT .                       6744.5000:   BOTTOM DEPTH
RUN .                               1:   RUN NUMBER
LCCD.                             510:   LOGGING CONTRACTOR
SRVC.                   Western Atlas:   LOGGING CONT NAME
DICO.          QC Data Collectors Ltd:   DIG COMPANY NAME
LDAT.                      08/29/1993:   DATE LOGGED
TDD .F                      6750.0000:   TOTAL DEPTH DRILLER
TDL .F                      6749.0000:   TOTAL DEPTH LOGGER
BOTL.F                      6746.0000:   BOTTOM DEPTH LOGGED
TOPL.F                      3998.0000:   TOP DEPTH LOGGED
CS1 .IN                       13.3750:   CASING SIZE 1
BS1 .IN                       12.2500:   BIT SIZE 1
DDB1.F                      6750.0000:   DEPTH DRILLED BIT 1
BHF .                              32:   FLUID CODE
DPT .                          low PH:   DRILLING FLUID TYPE
MUDD.                         11.5000:   FLUID DENSITY
MUDV.                         46.0000:   FLUID VISCOSITY
DFPH.                          8.8000:   FLUID PH
FL  .                          5.0000:   FLUID LOSS
RM  .OHMM                      1.2400:   RM
RMT .DEGF                     75.0000:   RM TEMP
RMF .OHMM                      1.1400:   RMF
RMFT.DEGF                     75.0000:   RMF TEMP
FSC .                               M:   RMF CODE
RMC .OHMM                      1.8000:   RMC
RMCT.DEGF                     75.0000:   RMC TEMP
CMC .                               M:   RMC CODE
TMAX.DEGF                    164.0000:   MAX REC TEMP
TIMC.                         10.0000:   TIME SINCE CIRCLN
~PARAMETER INFORMATION (zones)
#MNEM.UNIT                       Value     Description
#=========                       =====     ===========
#ZONATION                          DIL:   ZONATION NAME
#ZONE                            RUN_1:   ZONE NAME
TOP .                       3986.0000:   TOP DEPTH
BOT .                       6748.5000:   BOTTOM DEPTH
RUN .                               1:   RUN NUMBER
LCCD.                             510:   LOGGING CONTRACTOR
SRVC.                   Western Atlas:   LOGGING CONT NAME
DICO.          QC Data Collectors Ltd:   DIG COMPANY NAME
LDAT.                      08/29/1993:   DATE LOGGED
TDD .F                      6750.0000:   TOTAL DEPTH DRILLER
TDL .F                      6750.0000:   TOTAL DEPTH LOGGER
BOTL.F                      6748.0000:   BOTTOM DEPTH LOGGED
TOPL.F                      3998.0000:   TOP DEPTH LOGGED
CS1 .IN                       13.3750:   CASING SIZE 1
BS1 .IN                       12.2500:   BIT SIZE 1
DDB1.F                      6750.0000:   DEPTH DRILLED BIT 1
BHF .                              32:   FLUID CODE
DPT .                          low PH:   DRILLING FLUID TYPE
MUDD.                         11.5000:   FLUID DENSITY
MUDV.                         46.0000:   FLUID VISCOSITY
DFPH.                          8.8000:   FLUID PH
FL  .                          5.0000:   FLUID LOSS
RM  .OHMM                      1.2400:   RM
RMT .DEGF                     75.0000:   RM TEMP
RMF .OHMM                      1.1400:   RMF
RMFT.DEGF                     75.0000:   RMF TEMP
FSC .                               M:   RMF CODE
RMC .OHMM                      1.8000:   RMC
RMCT.DEGF                     75.0000:   RMC TEMP
CMC .                               M:   RMC CODE
TMAX.DEGF                    158.0000:   MAX REC TEMP
TIMC.                          6.0000:   TIME SINCE CIRCLN
~PARAMETER INFORMATION (zones)
#MNEM.UNIT                       Value     Description
#=========                       =====     ===========
#ZONATION                          FDC:   ZONATION NAME
#ZONE                            RUN_1:   ZONE NAME
TOP .                       3964.0000:   TOP DEPTH
BOT .                       6746.5000:   BOTTOM DEPTH
RUN .                               1:   RUN NUMBER
LCCD.                             510:   LOGGING CONTRACTOR
SRVC.                   Western Atlas:   LOGGING CONT NAME
DICO.          QC Data Collectors Ltd:   DIG COMPANY NAME
LDAT.                      08/29/1993:   DATE LOGGED
TDD .F                      6750.0000:   TOTAL DEPTH DRILLER
TDL .F                      6749.0000:   TOTAL DEPTH LOGGER
BOTL.F                      6746.0000:   BOTTOM DEPTH LOGGED
TOPL.F                      3998.0000:   TOP DEPTH LOGGED
CS1 .IN                       13.3750:   CASING SIZE 1
BS1 .IN                       12.2500:   BIT SIZE 1
DDB1.F                      6750.0000:   DEPTH DRILLED BIT 1
BHF .                              32:   FLUID CODE
DPT .                          low PH:   DRILLING FLUID TYPE
MUDD.                         11.5000:   FLUID DENSITY
MUDV.                         46.0000:   FLUID VISCOSITY
DFPH.                          8.8000:   FLUID PH
FL  .                          5.0000:   FLUID LOSS
RM  .OHMM                      1.2400:   RM
RMT .DEGF                     75.0000:   RM TEMP
RMF .OHMM                      1.1400:   RMF
RMFT.DEGF                     75.0000:   RMF TEMP
FSC .                               M:   RMF CODE
RMC .OHMM                      1.8000:   RMC
RMCT.DEGF                     75.0000:   RMC TEMP
CMC .                               M:   RMC CODE
TMAX.DEGF                    164.0000:   MAX REC TEMP
TIMC.                         10.0000:   TIME SINCE CIRCLN
~Curve Information Block
#MNEM.UNIT                    API CODE    No Description
#=========                    ========    == ===========
DEPT.F                   00 001 00 00:     1  DEPTH
NPHI.%                               :     2  Neutron Porosity
DT.US/F                              :     3  Sonic Transit Time
GR.GAPI                              :     4  Gamma Ray
ILD.OHMM                             :     5  Deep Induction Resistivity
ILM.OHMM                             :     6  Medium Induction Resistivity
RFOC.OHMM                            :     7  Medium Resistivity
SP.MV                                :     8  Spontaneous Potential
CALI.IN                              :     9  Caliper
DPHI.%                               :    10  Porosity
DRHO.G/C3                            :    11  Bulk Density Correction
GRD.GAPI                             :    12  Gamma Ray
~ASCII
# ...
 6709.0000    40.6038   134.3367    78.5309      .4681      .4717      .8671   -57.9391    13.3352    28.5865      .0369    94.7941
 6709.5000    40.4579   133.5239    81.2676      .4677      .4723      .8613   -57.9660    13.4857    28.9445      .0386    94.9344
 6710.0000    40.1008   134.5774    82.1534      .4674      .4724      .8624   -58.1472    13.3891    29.1765      .0470    93.4646
 6710.5000    40.6840   135.7764    82.0020      .4665      .4723      .8642   -58.2004    13.1471    29.2509      .0546    92.6497
 6711.0000    41.9634   137.0488    80.8265      .4646      .4714      .8602   -58.1820    12.9346    29.1433      .0504    93.5680
 6711.5000    41.9709   138.3250    78.9242      .4612      .4694      .8552   -58.1456    12.8880    28.9371      .0415    95.1880
 6712.0000    41.0908   138.6794    77.9578      .4578      .4638      .8467   -57.9510    13.1040    28.6599      .0340    94.8778
 6712.5000    40.5242   138.4922    78.1710      .4541      .4570      .8324   -57.1300    13.3275    28.2718      .0351    93.6394
 6713.0000    40.5037   138.3713    78.8265      .4479      .4503      .8211   -56.5552    13.5464    28.3342      .0393    93.0098
 6713.5000    40.4857   138.5547    79.3867      .4413      .4442      .8133   -57.1850    13.7441    28.8178      .0349    93.5815
 6714.0000    42.0045   139.3032    78.3549      .4351      .4403      .8086   -57.8270    13.8923    29.6488      .0287    93.1630
 6714.5000    42.0629   140.5007    77.2526      .4303      .4371      .8082   -58.4562    13.9652    30.6250      .0269    92.2964
 6715.0000    41.7324   140.9580    77.4441      .4262      .4358      .8125   -59.0042    13.9753    31.8278      .0282    92.2594
 6715.5000    40.7987   140.8340    77.6145      .4232      .4354      .8185   -59.6108    13.9706    32.6360      .0282    93.5433
 6716.0000    39.8702   140.3748    77.6150      .4220      .4359      .8269   -60.1786    13.9972    32.3479      .0234    95.4908
 6716.5000    39.6324   141.2593  -999.2500      .4221      .4373      .8367   -60.0189    13.9978    32.2638      .0185    96.7428
 6717.0000    40.4857   142.8176  -999.2500      .4244      .4389      .8374   -59.2736    13.8732    33.2153      .0133    95.4810
 6717.5000    41.8069   144.1138  -999.2500      .4280      .4448      .8274   -58.4440    13.7515    34.0903      .0106    93.0387
 6718.0000    42.4874   145.4949  -999.2500      .4325      .4493      .8187   -58.1472    13.7970    34.0500      .0146    91.4839
 6718.5000    41.8531   143.1543  -999.2500      .4386      .4558      .8190   -58.4880    13.9476    32.8472      .0203    90.9607
 6719.0000    41.1378   141.0386  -999.2500      .4466      .4646      .8262   -58.8280    14.1142    32.1356      .0253    91.5190
 6719.5000    40.6798   138.4834  -999.2500      .4567      .4723      .8364   -58.8454    14.2523    31.5886      .0262    91.3374
 6720.0000    40.4537   137.0139  -999.2500      .4682      .4795      .8451   -57.6884    14.2838    31.7935      .0266    88.9025
 6720.5000    40.4380  -999.2500  -999.2500      .4803      .4842      .8460   -56.1721    14.5105    32.5760      .0266    86.3542
 6721.0000    40.7771  -999.2500  -999.2500      .4873      .4891      .8469   -53.9004    14.7592    33.5082      .0244    84.2615
 6721.5000    40.4209  -999.2500  -999.2500      .4899      .4952      .8517   -53.5187    14.9956    33.7620      .0206    84.7515
 6722.0000    39.9667  -999.2500  -999.2500      .4943      .5012      .8579   -53.3337    15.0296    33.7847      .0175    86.3542
 6722.5000    39.7153  -999.2500  -999.2500      .4983      .5068      .8634   -53.1908    15.0271    34.0441      .0164    87.6185
 6723.0000    39.8411  -999.2500  -999.2500      .5011      .5090      .8566   -52.7226    14.7959    34.4122      .0163    88.3768
 6723.5000    39.8362  -999.2500  -999.2500      .5014      .5089      .8441   -51.8417    14.4920    34.8660      .0166    89.2693
 6724.0000    39.8791  -999.2500  -999.2500      .4998      .5055      .8261   -51.1318    14.6925    35.2174      .0182    90.1156
 6724.5000    40.2267  -999.2500  -999.2500      .4980      .5018      .8192   -51.1840    15.0204    35.4297      .0201    90.5591
 6725.0000    40.7838  -999.2500  -999.2500      .4950      .4971      .8161   -51.5771    15.2556    35.3400      .0246    90.7745
 6725.5000    40.4946  -999.2500  -999.2500      .4916      .4920      .8174   -52.0121    15.1265    34.7117      .0285    90.5845
 6726.0000    39.7323  -999.2500  -999.2500      .4875      .4876      .8323   -52.4373    14.8693    33.7877      .0329    90.6689
 6726.5000    39.5775  -999.2500  -999.2500      .4831      .4840      .8280   -52.0115    14.5840    33.0536      .0239    93.1372
 6727.0000    39.6917  -999.2500  -999.2500      .4787      .4830      .8070   -50.8752    14.5668    33.7400      .0091    95.6436
 6727.5000    39.6272  -999.2500  -999.2500      .4781      .4846      .7745   -49.4628    14.7617    35.3854     -.0001    95.9537
 6728.0000    39.3798  -999.2500  -999.2500      .4789      .4881      .7632   -49.0282    14.7705    37.1814     -.0066    93.6123
 6728.5000    40.9000  -999.2500  -999.2500      .4819      .4935      .7729   -49.0440    14.3892    38.7963     -.0146    91.6021
 6729.0000    42.3174  -999.2500  -999.2500      .4868      .4993      .7879   -48.9641    13.9524    39.9492     -.0245    90.9657
 6729.5000    43.7363  -999.2500  -999.2500      .4940      .5036      .7983   -48.6259    13.5388    40.3866     -.0291    91.8895
 6730.0000    44.3713  -999.2500  -999.2500      .5025      .5077      .8011   -48.0786    13.2783    40.6966     -.0329    92.2991
 6730.5000    43.7438  -999.2500  -999.2500      .5119      .5120      .8013   -47.1048    13.0282    41.2458     -.0371    92.0514
 6731.0000    42.8853  -999.2500  -999.2500      .5216      .5151      .8031   -45.6875    12.8740    41.7239     -.0408    91.0641
 6731.5000    42.4538  -999.2500  -999.2500      .5287      .5181      .8070   -44.3765    12.7488    41.8304     -.0442    89.9181
 6732.0000    43.1595  -999.2500  -999.2500      .5343      .5212      .8107   -43.8472    12.6427    41.4940     -.0469    88.7240
 6732.5000    43.9718  -999.2500  -999.2500      .5384      .5239      .8117   -43.8643    12.4584    41.3116     -.0478    87.5299
 6733.0000    44.8967  -999.2500  -999.2500      .5410      .5259      .8068   -44.0739    11.8434    41.2638     -.0479    86.4441
 6733.5000    45.1415  -999.2500  -999.2500      .5412      .5274      .8032   -44.3973    11.1669    41.4284     -.0486    86.2189
 6734.0000    45.2715  -999.2500  -999.2500      .5411      .5284      .7991   -44.6680    10.7217    41.6357     -.0479    87.9989
 6734.5000    44.4517  -999.2500  -999.2500      .5407      .5298      .7957   -44.8677    10.4978    41.7930     -.0477    90.0571
 6735.0000    41.2383  -999.2500  -999.2500      .5396      .5322      .7921   -45.1133    10.4239    41.9972     -.0478    91.4302
 6735.5000    41.3144  -999.2500  -999.2500      .5382      .5341      .7895   -45.4882    10.3572    42.2109     -.0476    91.4331
 6736.0000    43.0105  -999.2500  -999.2500      .5372      .5358      .7871   -45.1793    10.2459    42.5034     -.0480    90.9200
 6736.5000    43.7617  -999.2500  -999.2500      .5360      .5363      .7811   -44.5317    10.1384    42.9374     -.0513    91.6415
 6737.0000    43.7628  -999.2500  -999.2500      .5330      .5322      .7799   -43.8665    10.0902    43.4017     -.0593    93.0337
 6737.5000    43.6278  -999.2500  -999.2500      .5285      .5281      .7794   -43.1816    10.0671    43.8686     -.0659    93.6912
 6738.0000    43.7554  -999.2500  -999.2500      .5228      .5244      .7853   -42.4889    10.0326    44.3407     -.0717    89.3456
 6738.5000    44.1328  -999.2500  -999.2500      .5163      .5193      .7986   -41.7839     9.9630    44.8333     -.0773  -999.2500
 6739.0000    44.5497  -999.2500  -999.2500      .5080      .5126      .8091   -41.0405     9.8239    45.2775     -.0819  -999.2500
