~VERSION INFORMATION
VERS.                             2.0:   CWLS Log ASCII Standard-VERSION 2.0
WRAP.                              NO:   One line per depth step
~Well Information Block
STRT.F                       590.0000:   Top Depth
STOP.F                      5513.0000:   Bottom Depth
STEP.F                         .50000:   Depth Increment
NULL.                        -999.250:   Null Value
FLD .                     MU BLK A 16:   Field Name
WELL.       OCSG03011  A001 ST00 BP00:   NAME
API .                    427024004100:   WELL API
R1  .                           13904:   COMMENT  1
EDF .F                       102.0000:   ELEV DRILL FLOOR
COMP.       CITIES SERVICE OIL COMPAN:   OPERATOR
BN  .                            A 16:   BLOCK
CTRY.                             USA:   COUNTRY NAME
CNTY.                        MG ILD L:   COUNTY NAME
EKB .F                       103.0000:   ELEV KELLY BUSHING
TDD .F                       5519.000:   FINAL TD DRILLER
STAT.                           TEXAS:   STATE NAME
UWI .                    427024004100:   WELL API
DICO.               IHS : Digitizing Company
~PARAMETER INFORMATION (zones)
#MNEM.UNIT                       Value     Description
#=========                       =====     ===========
#ZONATION                          CNL:   ZONATION NAME
#ZONE                            RUN_1:   ZONE NAME
TOP .                       3234.0000:   TOP DEPTH
BOT .                       5513.5000:   BOTTOM DEPTH
RUN .                               1:   RUN NUMBER
LCCD.                             440:   LOGGING CONTRACTOR
SRVC.                    Schlumberger:   LOGGING CONT NAME
DICO.          QC Data Collectors Ltd:   DIG COMPANY NAME
LDAT.                      03/04/1980:   DATE LOGGED
ELD .F                       103.0000:   LOG DATUM ELEVATION
TDD .F                      5512.0000:   TOTAL DEPTH DRILLER
TDL .F                      5519.0000:   TOTAL DEPTH LOGGER
BOTL.F                      5513.0000:   BOTTOM DEPTH LOGGED
TOPL.F                      3240.0000:   TOP DEPTH LOGGED
CS1 .IN                       13.3750:   CASING SIZE 1
BS1 .IN                       12.2500:   BIT SIZE 1
DDB1.F                      5512.0000:   DEPTH DRILLED BIT 1
BHF .                              99:   FLUID CODE
DPT .                   Miscellaneous:   DRILLING FLUID TYPE
MUDD.                         13.1000:   FLUID DENSITY
MUDV.                         38.0000:   FLUID VISCOSITY
DFPH.                         11.5000:   FLUID PH
FL  .                          4.0000:   FLUID LOSS
RM  .OHMM                       .8600:   RM
RMT .DEGF                     70.0000:   RM TEMP
RMF .OHMM                       .6600:   RMF
RMFT.DEGF                     70.0000:   RMF TEMP
FSC .                               M:   RMF CODE
RMC .OHMM                      1.8600:   RMC
RMCT.DEGF                     70.0000:   RMC TEMP
CMC .                               M:   RMC CODE
TMAX.DEGF                    145.0000:   MAX REC TEMP
TIMC.                          6.5000:   TIME SINCE CIRCLN
~PARAMETER INFORMATION (zones)
#MNEM.UNIT                       Value     Description
#=========                       =====     ===========
#ZONATION                          DIL:   ZONATION NAME
#ZONE                            RUN_1:   ZONE NAME
TOP .                       3240.0000:   TOP DEPTH
BOT .                       5513.5000:   BOTTOM DEPTH
RUN .                               1:   RUN NUMBER
LCCD.                             440:   LOGGING CONTRACTOR
SRVC.                    Schlumberger:   LOGGING CONT NAME
DICO.          QC Data Collectors Ltd:   DIG COMPANY NAME
LDAT.                      03/04/1980:   DATE LOGGED
ELD .F                       103.0000:   LOG DATUM ELEVATION
TDD .F                      5512.0000:   TOTAL DEPTH DRILLER
TDL .F                      5519.0000:   TOTAL DEPTH LOGGER
BOTL.F                      5513.0000:   BOTTOM DEPTH LOGGED
TOPL.F                      3240.0000:   TOP DEPTH LOGGED
CS1 .IN                       13.3750:   CASING SIZE 1
BS1 .IN                       12.2500:   BIT SIZE 1
DDB1.F                      5512.0000:   DEPTH DRILLED BIT 1
BHF .                              99:   FLUID CODE
DPT .                   Miscellaneous:   DRILLING FLUID TYPE
MUDD.                         13.1000:   FLUID DENSITY
MUDV.                         38.0000:   FLUID VISCOSITY
DFPH.                         11.5000:   FLUID PH
FL  .                          4.0000:   FLUID LOSS
RM  .OHMM                       .8600:   RM
RMT .DEGF                     70.0000:   RM TEMP
RMF .OHMM                       .6600:   RMF
RMFT.DEGF                     70.0000:   RMF TEMP
FSC .                               M:   RMF CODE
RMC .OHMM                      1.8600:   RMC
RMCT.DEGF                     70.0000:   RMC TEMP
CMC .                               M:   RMC CODE
TMAX.DEGF                    145.0000:   MAX REC TEMP
TIMC.                          6.5000:   TIME SINCE CIRCLN
~PARAMETER INFORMATION (zones)
#MNEM.UNIT                       Value     Description
#=========                       =====     ===========
#ZONATION                          DIL:   ZONATION NAME
#ZONE                          RUN_1_1:   ZONE NAME
TOP .                        590.0000:   TOP DEPTH
BOT .                       1046.5000:   BOTTOM DEPTH
RUN .                               1:   RUN NUMBER
LCCD.                             440:   LOGGING CONTRACTOR
SRVC.                    Schlumberger:   LOGGING CONT NAME
DICO.          QC Data Collectors Ltd:   DIG COMPANY NAME
LDAT.                      02/20/1980:   DATE LOGGED
ELD .F                       103.0000:   LOG DATUM ELEVATION
TDD .F                      1050.0000:   TOTAL DEPTH DRILLER
TDL .F                      1050.0000:   TOTAL DEPTH LOGGER
BOTL.F                      1046.0000:   BOTTOM DEPTH LOGGED
TOPL.F                       597.0000:   TOP DEPTH LOGGED
CS1 .IN                       30.0000:   CASING SIZE 1
BS1 .IN                       12.5000:   BIT SIZE 1
DDB1.F                      1050.0000:   DEPTH DRILLED BIT 1
BHF .                              99:   FLUID CODE
DPT .                   Miscellaneous:   DRILLING FLUID TYPE
MUDD.                          8.6000:   FLUID DENSITY
MUDV.                         39.0000:   FLUID VISCOSITY
DFPH.                         12.3000:   FLUID PH
FL  .                            NULL:   FLUID LOSS
RM  .OHMM                       .3900:   RM
RMT .DEGF                     80.0000:   RM TEMP
RMF .OHMM                       .2400:   RMF
RMFT.DEGF                     80.0000:   RMF TEMP
FSC .                               M:   RMF CODE
RMC .OHMM                       .4500:   RMC
RMCT.DEGF                     80.0000:   RMC TEMP
CMC .                               M:   RMC CODE
TMAX.DEGF                     90.0000:   MAX REC TEMP
TIMC.                          1.5000:   TIME SINCE CIRCLN
~PARAMETER INFORMATION (zones)
#MNEM.UNIT                       Value     Description
#=========                       =====     ===========
#ZONATION                          FDC:   ZONATION NAME
#ZONE                            RUN_1:   ZONE NAME
TOP .                       3234.0000:   TOP DEPTH
BOT .                       5513.5000:   BOTTOM DEPTH
RUN .                               1:   RUN NUMBER
LCCD.                             440:   LOGGING CONTRACTOR
SRVC.                    Schlumberger:   LOGGING CONT NAME
DICO.          QC Data Collectors Ltd:   DIG COMPANY NAME
LDAT.                      03/04/1980:   DATE LOGGED
ELD .F                       103.0000:   LOG DATUM ELEVATION
TDD .F                      5512.0000:   TOTAL DEPTH DRILLER
TDL .F                      5519.0000:   TOTAL DEPTH LOGGER
BOTL.F                      5513.0000:   BOTTOM DEPTH LOGGED
TOPL.F                      3240.0000:   TOP DEPTH LOGGED
CS1 .IN                       13.3750:   CASING SIZE 1
BS1 .IN                       12.2500:   BIT SIZE 1
DDB1.F                      5512.0000:   DEPTH DRILLED BIT 1
BHF .                              99:   FLUID CODE
DPT .                   Miscellaneous:   DRILLING FLUID TYPE
MUDD.                         13.1000:   FLUID DENSITY
MUDV.                         38.0000:   FLUID VISCOSITY
DFPH.                         11.5000:   FLUID PH
FL  .                          4.0000:   FLUID LOSS
RM  .OHMM                       .8600:   RM
RMT .DEGF                     70.0000:   RM TEMP
RMF .OHMM                       .6600:   RMF
RMFT.DEGF                     70.0000:   RMF TEMP
FSC .                               M:   RMF CODE
RMC .OHMM                      1.8600:   RMC
RMCT.DEGF                     70.0000:   RMC TEMP
CMC .                               M:   RMC CODE
TMAX.DEGF                    145.0000:   MAX REC TEMP
TIMC.                          6.5000:   TIME SINCE CIRCLN
~Curve Information Block
#MNEM.UNIT                    API CODE    No Description
#=========                    ========    == ===========
DEPT.F                   00 001 00 00:     1  DEPTH
NPHI.%                               :     2  Neutron Porosity
ASFL.OHMM                            :     3  Shallow Resistivity
DT.US/F                              :     4  Sonic Transit Time
GR.GAPI                              :     5  Gamma Ray
ILD.OHMM                             :     6  Deep Induction Resistivity
SFL.OHMM                             :     7  Medium Resistivity
SP.MV                                :     8  Spontaneous Potential
CALI.IN                              :     9  Caliper
DRHO.G/C3                            :    10  Bulk Density Correction
GR.GAPI                              :    11  Gamma Ray
RHOB.G/C3                            :    12  Bulk Density
~ASCII
# ...
 3548.5000    34.1373     1.5281  -999.2500  -999.2500     1.4047  -999.2500   -92.0879    12.5293     -.0073    61.6810     2.2411
 3549.0000    34.7551     1.4705  -999.2500  -999.2500     1.3821  -999.2500   -90.1198    12.5358     -.0045    63.8045     2.2463
 3549.5000    35.3818     1.4121  -999.2500  -999.2500     1.3595  -999.2500   -89.0437    12.5860     -.0026    65.5338     2.2439
 3550.0000    36.6404     1.3701  -999.2500  -999.2500     1.3368  -999.2500   -88.2512    12.6975      .0000    66.9854     2.2440
 3550.5000    38.4747     1.3284  -999.2500  -999.2500     1.3239  -999.2500   -87.6705    12.8787      .0042    66.3612     2.2519
 3551.0000    40.1996     1.2881  -999.2500  -999.2500     1.3121  -999.2500   -87.0955    13.0112      .0089    65.7712     2.2582
 3551.5000    41.4615     1.2825  -999.2500  -999.2500     1.3003  -999.2500   -87.0146    13.0718      .0085    65.4032     2.2611
 3552.0000    41.8306     1.2832  -999.2500  -999.2500     1.2885  -999.2500   -86.9337    13.1044      .0068    66.0419     2.2595
 3552.5000    41.8300     1.2925  -999.2500  -999.2500     1.2768  -999.2500   -86.8579    13.1025      .0058    67.1794     2.2563
 3553.0000    42.5202     1.3019  -999.2500  -999.2500     1.2650  -999.2500   -87.0166    13.0639      .0053    66.6498     2.2561
 3553.5000    43.6646     1.2999  -999.2500  -999.2500     1.2532  -999.2500   -87.1752    13.0450      .0041    65.6428     2.2561
 3554.0000    43.2563     1.2923  -999.2500  -999.2500     1.2491  -999.2500   -87.3337    13.0317      .0031    65.3234     2.2544
 3554.5000    41.8724     1.2820  -999.2500  -999.2500     1.2459  -999.2500   -87.4923    13.0072      .0023    65.3235     2.2537
 3555.0000    40.9139     1.2712  -999.2500  -999.2500     1.2427  -999.2500   -87.6434    12.9769      .0043    65.5956     2.2548
 3555.5000    41.4202     1.2604  -999.2500  -999.2500     1.2395  -999.2500   -87.7667    12.9294      .0035    64.9783     2.2488
 3556.0000    42.4142     1.2613  -999.2500  -999.2500     1.2363  -999.2500   -87.8901    12.9885      .0014    63.9191     2.2356
 3556.5000    42.3665     1.2697  -999.2500  -999.2500     1.2331  -999.2500   -87.7015    13.1130      .0002    62.5586     2.2342
 3557.0000    41.4017     1.2781  -999.2500  -999.2500     1.2299  -999.2500   -87.3154    13.1810     -.0008    61.7518     2.2409
 3557.5000    40.6841     1.2865  -999.2500  -999.2500     1.2267  -999.2500   -86.9297    13.1774      .0039    61.9757     2.2503
 3558.0000    40.0927     1.2786  -999.2500  -999.2500     1.2252  -999.2500   -86.5436    13.1762      .0119    62.4718     2.2581
 3558.5000    39.9432     1.2682  -999.2500  -999.2500     1.2243  -999.2500   -86.3074    13.1726      .0168    64.0668     2.2620
 3559.0000    40.3138     1.2578  -999.2500  -999.2500     1.2235  -999.2500   -86.1501    13.1554      .0201    65.7247     2.2614
 3559.5000    40.6078     1.2469  -999.2500  -999.2500     1.2227  -999.2500   -85.9928    13.1246      .0197    67.7885     2.2579
 3560.0000    40.7248     1.2351  -999.2500  -999.2500     1.2218  -999.2500   -85.8329    13.0803      .0108    68.4677     2.2495
 3560.5000    40.9664     1.2234  -999.2500  -999.2500     1.2210  -999.2500   -85.6396    13.0359      .0025    68.8062     2.2411
 3561.0000    41.9098     1.2168  -999.2500  -999.2500     1.2202  -999.2500   -85.4467    13.0052     -.0011    69.2761     2.2374
 3561.5000    43.8394     1.2140  -999.2500  -999.2500     1.2200  -999.2500   -85.2534    12.9758     -.0036    69.7106     2.2352
 3562.0000    45.6486     1.2112  -999.2500  -999.2500     1.2198  -999.2500   -85.0602    12.9456     -.0047    69.0134     2.2360
 3562.5000    46.0000     1.2174  -999.2500  -999.2500     1.2196  -999.2500   -85.1893    12.9164     -.0042    68.8889     2.2381
 3563.0000    44.8378     1.2238  -999.2500  -999.2500     1.2122  -999.2500   -85.4559    12.8905     -.0019    69.2419     2.2427
 3563.5000    43.4521     1.2172  -999.2500  -999.2500     1.1905  -999.2500   -85.7268    12.8592      .0038    69.9209     2.2479
 3564.0000    42.7364     1.2020  -999.2500  -999.2500     1.1688  -999.2500   -85.9984    12.8229      .0107    69.8193     2.2465
 3564.5000    43.4426     1.1868  -999.2500  -999.2500     1.1466  -999.2500   -86.2253    12.8001      .0127    69.6840     2.2394
 3565.0000    45.5680     1.1704  -999.2500  -999.2500     1.1200  -999.2500   -85.9619    12.7830      .0115    69.5327     2.2322
 3565.5000    47.4844     1.1515  -999.2500  -999.2500     1.0934  -999.2500   -85.8019    12.7839      .0085    69.9373     2.2271
 3566.0000    47.3210     1.1326  -999.2500  -999.2500     1.0858  -999.2500   -86.5847    12.7803      .0055    71.5760     2.2263
 3566.5000    46.1079     1.1520  -999.2500  -999.2500     1.0964  -999.2500   -87.3676    12.7672      .0026    72.2621     2.2404
 3567.0000    45.2898     1.1898  -999.2500  -999.2500     1.1069  -999.2500   -88.1504    12.7424      .0043    71.0685     2.2482
 3567.5000    45.5669     1.2275  -999.2500  -999.2500     1.1236  -999.2500   -88.9332    12.7138      .0028    70.3578     2.2476
 3568.0000    45.9586     1.3234  -999.2500  -999.2500     1.1806  -999.2500   -90.0726    12.6828     -.0018    69.7611     2.2416
 3568.5000    45.2769     1.4907  -999.2500  -999.2500     1.2376  -999.2500   -92.4482    12.6469     -.0058    69.2653     2.2338
 3569.0000    42.6769     1.6998  -999.2500  -999.2500     1.2947  -999.2500   -94.8237    12.6062     -.0095    67.0549     2.2264
 3569.5000    38.3964     1.9088  -999.2500  -999.2500     1.3518  -999.2500   -99.9388    12.5579     -.0126    64.0668     2.2158
 3570.0000    33.9178     2.1122  -999.2500  -999.2500     1.4564  -999.2500  -102.6447    12.4574     -.0153    60.7191     2.1972
 3570.5000    29.9943     2.3115  -999.2500  -999.2500     1.6225  -999.2500  -104.1746    12.4341     -.0178    55.9720     2.1698
 3571.0000    28.3292     2.5110  -999.2500  -999.2500     1.9235  -999.2500  -104.8437    12.4244     -.0201    51.9418     2.1024
 3571.5000    24.7641     2.7104  -999.2500  -999.2500     2.2245  -999.2500  -105.4166    12.4325     -.0261    49.9138     2.0342
 3572.0000    20.6048     2.9099  -999.2500  -999.2500     2.5252  -999.2500  -105.3278    12.4421     -.0421    49.2094     1.9732
 3572.5000    18.2421     3.1094  -999.2500  -999.2500     2.8262  -999.2500  -104.5775    12.4435     -.0536    49.3897     1.9228
 3573.0000    19.3262     2.9662  -999.2500  -999.2500     3.0586  -999.2500  -103.9501    12.4448     -.0573    49.9557     1.9526
 3573.5000    23.0835     2.7216  -999.2500  -999.2500     2.9047  -999.2500  -103.3726    12.4511     -.0494    50.5118     2.0011
 3574.0000    28.3928     2.4769  -999.2500  -999.2500     2.7509  -999.2500  -103.2297    12.4474     -.0401    51.0818     2.0583
 3574.5000    32.3835     2.2323  -999.2500  -999.2500     2.5923  -999.2500  -103.8907    12.4386     -.0313    51.6493     2.0939
 3575.0000    31.9697     1.9930  -999.2500  -999.2500     2.4175  -999.2500  -104.5907    12.4341     -.0239    51.6357     2.1118
 3575.5000    31.3552     1.9416  -999.2500  -999.2500     2.2426  -999.2500  -105.1124    12.4319     -.0279    51.0115     2.0654
 3576.0000    30.8868     1.8871  -999.2500  -999.2500     2.0749  -999.2500  -103.8719    12.4299     -.0346    51.5391     2.0172
 3576.5000    30.9790     1.8426  -999.2500  -999.2500     1.9151  -999.2500  -102.5015    12.4285     -.0421    53.5751     2.0176
 3577.0000    32.6836     1.7964  -999.2500  -999.2500     1.7554  -999.2500  -100.9044    12.4295     -.0422    55.8704     2.0493
 3577.5000    35.9871     1.7445  -999.2500  -999.2500     1.6632  -999.2500   -99.3074    12.4313     -.0375    56.6729     2.1118
 3578.0000    37.3795     1.6531  -999.2500  -999.2500     1.5727  -999.2500   -97.4830    12.4251     -.0322    57.0929     2.1581
 3578.5000    40.6445     1.5617  -999.2500  -999.2500     1.4846  -999.2500   -95.3988    12.4364     -.0251    57.8479     2.1874
