~VERSION INFORMATION
VERS.                             2.0:   CWLS Log ASCII Standard-VERSION 2.0
WRAP.                              NO:   One line per depth step
~Well Information Block
STRT.F                       590.0000:   Top Depth
STOP.F                      5513.0000:   Bottom Depth
STEP.F                         .50000:   Depth Increment
NULL.                        -999.250:   Null Value
FLD .                     MU BLK A 16:   Field Name
WELL.       OCSG03011  A001 ST00 BP00:   NAME
API .                    427024004100:   WELL API
R1  .                           13904:   COMMENT  1
EDF .F                       102.0000:   ELEV DRILL FLOOR
COMP.       CITIES SERVICE OIL COMPAN:   OPERATOR
BN  .                            A 16:   BLOCK
CTRY.                             USA:   COUNTRY NAME
CNTY.                        MG ILD L:   COUNTY NAME
EKB .F                       103.0000:   ELEV KELLY BUSHING
TDD .F                       5519.000:   FINAL TD DRILLER
STAT.                           TEXAS:   STATE NAME
UWI .                    427024004100:   WELL API
DICO.               IHS : Digitizing Company
~PARAMETER INFORMATION (zones)
#MNEM.UNIT                       Value     Description
#=========                       =====     ===========
#ZONATION                          CNL:   ZONATION NAME
#ZONE                            RUN_1:   ZONE NAME
TOP .                       3234.0000:   TOP DEPTH
BOT .                       5513.5000:   BOTTOM DEPTH
RUN .                               1:   RUN NUMBER
LCCD.                             440:   LOGGING CONTRACTOR
SRVC.                    Schlumberger:   LOGGING CONT NAME
DICO.          QC Data Collectors Ltd:   DIG COMPANY NAME
LDAT.                      03/04/1980:   DATE LOGGED
ELD .F                       103.0000:   LOG DATUM ELEVATION
TDD .F                      5512.0000:   TOTAL DEPTH DRILLER
TDL .F                      5519.0000:   TOTAL DEPTH LOGGER
BOTL.F                      5513.0000:   BOTTOM DEPTH LOGGED
TOPL.F                      3240.0000:   TOP DEPTH LOGGED
CS1 .IN                       13.3750:   CASING SIZE 1
BS1 .IN                       12.2500:   BIT SIZE 1
DDB1.F                      5512.0000:   DEPTH DRILLED BIT 1
BHF .                              99:   FLUID CODE
DPT .                   Miscellaneous:   DRILLING FLUID TYPE
MUDD.                         13.1000:   FLUID DENSITY
MUDV.                         38.0000:   FLUID VISCOSITY
DFPH.                         11.5000:   FLUID PH
FL  .                          4.0000:   FLUID LOSS
RM  .OHMM                       .8600:   RM
RMT .DEGF                     70.0000:   RM TEMP
RMF .OHMM                       .6600:   RMF
RMFT.DEGF                     70.0000:   RMF TEMP
FSC .                               M:   RMF CODE
RMC .OHMM                      1.8600:   RMC
RMCT.DEGF                     70.0000:   RMC TEMP
CMC .                               M:   RMC CODE
TMAX.DEGF                    145.0000:   MAX REC TEMP
TIMC.                          6.5000:   TIME SINCE CIRCLN
~PARAMETER INFORMATION (zones)
#MNEM.UNIT                       Value     Description
#=========                       =====     ===========
#ZONATION                          DIL:   ZONATION NAME
#ZONE                            RUN_1:   ZONE NAME
TOP .                       3240.0000:   TOP DEPTH
BOT .                       5513.5000:   BOTTOM DEPTH
RUN .                               1:   RUN NUMBER
LCCD.                             440:   LOGGING CONTRACTOR
SRVC.                    Schlumberger:   LOGGING CONT NAME
DICO.          QC Data Collectors Ltd:   DIG COMPANY NAME
LDAT.                      03/04/1980:   DATE LOGGED
ELD .F                       103.0000:   LOG DATUM ELEVATION
TDD .F                      5512.0000:   TOTAL DEPTH DRILLER
TDL .F                      5519.0000:   TOTAL DEPTH LOGGER
BOTL.F                      5513.0000:   BOTTOM DEPTH LOGGED
TOPL.F                      3240.0000:   TOP DEPTH LOGGED
CS1 .IN                       13.3750:   CASING SIZE 1
BS1 .IN                       12.2500:   BIT SIZE 1
DDB1.F                      5512.0000:   DEPTH DRILLED BIT 1
BHF .                              99:   FLUID CODE
DPT .                   Miscellaneous:   DRILLING FLUID TYPE
MUDD.                         13.1000:   FLUID DENSITY
MUDV.                         38.0000:   FLUID VISCOSITY
DFPH.                         11.5000:   FLUID PH
FL  .                          4.0000:   FLUID LOSS
RM  .OHMM                       .8600:   RM
RMT .DEGF                     70.0000:   RM TEMP
RMF .OHMM                       .6600:   RMF
RMFT.DEGF                     70.0000:   RMF TEMP
FSC .                               M:   RMF CODE
RMC .OHMM                      1.8600:   RMC
RMCT.DEGF                     70.0000:   RMC TEMP
CMC .                               M:   RMC CODE
TMAX.DEGF                    145.0000:   MAX REC TEMP
TIMC.                          6.5000:   TIME SINCE CIRCLN
~PARAMETER INFORMATION (zones)
#MNEM.UNIT                       Value     Description
#=========                       =====     ===========
#ZONATION                          DIL:   ZONATION NAME
#ZONE                          RUN_1_1:   ZONE NAME
TOP .                        590.0000:   TOP DEPTH
BOT .                       1046.5000:   BOTTOM DEPTH
RUN .                               1:   RUN NUMBER
LCCD.                             440:   LOGGING CONTRACTOR
SRVC.                    Schlumberger:   LOGGING CONT NAME
DICO.          QC Data Collectors Ltd:   DIG COMPANY NAME
LDAT.                      02/20/1980:   DATE LOGGED
ELD .F                       103.0000:   LOG DATUM ELEVATION
TDD .F                      1050.0000:   TOTAL DEPTH DRILLER
TDL .F                      1050.0000:   TOTAL DEPTH LOGGER
BOTL.F                      1046.0000:   BOTTOM DEPTH LOGGED
TOPL.F                       597.0000:   TOP DEPTH LOGGED
CS1 .IN                       30.0000:   CASING SIZE 1
BS1 .IN                       12.5000:   BIT SIZE 1
DDB1.F                      1050.0000:   DEPTH DRILLED BIT 1
BHF .                              99:   FLUID CODE
DPT .                   Miscellaneous:   DRILLING FLUID TYPE
MUDD.                          8.6000:   FLUID DENSITY
MUDV.                         39.0000:   FLUID VISCOSITY
DFPH.                         12.3000:   FLUID PH
FL  .                            NULL:   FLUID LOSS
RM  .OHMM                       .3900:   RM
RMT .DEGF                     80.0000:   RM TEMP
RMF .OHMM                       .2400:   RMF
RMFT.DEGF                     80.0000:   RMF TEMP
FSC .                               M:   RMF CODE
RMC .OHMM                       .4500:   RMC
RMCT.DEGF                     80.0000:   RMC TEMP
CMC .                               M:   RMC CODE
TMAX.DEGF                     90.0000:   MAX REC TEMP
TIMC.                          1.5000:   TIME SINCE CIRCLN
~PARAMETER INFORMATION (zones)
#MNEM.UNIT                       Value     Description
#=========                       =====     ===========
#ZONATION                          FDC:   ZONATION NAME
#ZONE                            RUN_1:   ZONE NAME
TOP .                       3234.0000:   TOP DEPTH
BOT .                       5513.5000:   BOTTOM DEPTH
RUN .                               1:   RUN NUMBER
LCCD.                             440:   LOGGING CONTRACTOR
SRVC.                    Schlumberger:   LOGGING CONT NAME
DICO.          QC Data Collectors Ltd:   DIG COMPANY NAME
LDAT.                      03/04/1980:   DATE LOGGED
ELD .F                       103.0000:   LOG DATUM ELEVATION
TDD .F                      5512.0000:   TOTAL DEPTH DRILLER
TDL .F                      5519.0000:   TOTAL DEPTH LOGGER
BOTL.F                      5513.0000:   BOTTOM DEPTH LOGGED
TOPL.F                      3240.0000:   TOP DEPTH LOGGED
CS1 .IN                       13.3750:   CASING SIZE 1
BS1 .IN                       12.2500:   BIT SIZE 1
DDB1.F                      5512.0000:   DEPTH DRILLED BIT 1
BHF .                              99:   FLUID CODE
DPT .                   Miscellaneous:   DRILLING FLUID TYPE
MUDD.                         13.1000:   FLUID DENSITY
MUDV.                         38.0000:   FLUID VISCOSITY
DFPH.                         11.5000:   FLUID PH
FL  .                          4.0000:   FLUID LOSS
RM  .OHMM                       .8600:   RM
RMT .DEGF                     70.0000:   RM TEMP
RMF .OHMM                       .6600:   RMF
RMFT.DEGF                     70.0000:   RMF TEMP
FSC .                               M:   RMF CODE
RMC .OHMM                      1.8600:   RMC
RMCT.DEGF                     70.0000:   RMC TEMP
CMC .                               M:   RMC CODE
TMAX.DEGF                    145.0000:   MAX REC TEMP
TIMC.                          6.5000:   TIME SINCE CIRCLN
~Curve Information Block
#MNEM.UNIT                    API CODE    No Description
#=========                    ========    == ===========
DEPT.F                   00 001 00 00:     1  DEPTH
NPHI.%                               :     2  Neutron Porosity
ASFL.OHMM                            :     3  Shallow Resistivity
DT.US/F                              :     4  Sonic Transit Time
GR.GAPI                              :     5  Gamma Ray
ILD.OHMM                             :     6  Deep Induction Resistivity
SFL.OHMM                             :     7  Medium Resistivity
SP.MV                                :     8  Spontaneous Potential
CALI.IN                              :     9  Caliper
DRHO.G/C3                            :    10  Bulk Density Correction
GR.GAPI                              :    11  Gamma Ray
RHOB.G/C3                            :    12  Bulk Density
~ASCII
# ...
 3701.0000    43.7137     1.3033  -999.2500  -999.2500     1.3175  -999.2500   -74.5413    12.8450      .0309    65.2598     2.2354
 3701.5000    42.1426     1.3066  -999.2500  -999.2500     1.3140  -999.2500   -75.2356    12.7803      .0251    64.5000     2.2270
 3702.0000    41.3241     1.3098  -999.2500  -999.2500     1.3049  -999.2500   -75.8904    12.7340      .0175    64.4253     2.2182
 3702.5000    41.5809     1.3137  -999.2500  -999.2500     1.2917  -999.2500   -76.4878    12.6911      .0148    65.0984     2.2122
 3703.0000    42.1980     1.3061  -999.2500  -999.2500     1.2784  -999.2500   -76.3296    12.6494      .0135    66.3184     2.2082
 3703.5000    43.3413     1.2938  -999.2500  -999.2500     1.2652  -999.2500   -76.1652    12.5983      .0111    67.6438     2.2046
 3704.0000    44.6527     1.2813  -999.2500  -999.2500     1.2520  -999.2500   -76.0123    12.5651      .0077    68.8638     2.1990
 3704.5000    45.0734     1.2686  -999.2500  -999.2500     1.2387  -999.2500   -75.9930    12.5473      .0074    69.5320     2.1940
 3705.0000    44.5844     1.2559  -999.2500  -999.2500     1.2255  -999.2500   -76.3942    12.5392      .0116    69.4579     2.1953
 3705.5000    43.2969     1.2432  -999.2500  -999.2500     1.2122  -999.2500   -76.7957    12.5372      .0179    69.3671     2.2014
 3706.0000    42.6015     1.2305  -999.2500  -999.2500     1.1990  -999.2500   -77.0236    12.5367      .0235    69.2740     2.2015
 3706.5000    41.8920     1.2203  -999.2500  -999.2500     1.1854  -999.2500   -76.6346    12.5005      .0188    68.9598     2.1926
 3707.0000    41.3006     1.2117  -999.2500  -999.2500     1.1699  -999.2500   -76.2704    12.4702      .0148    68.3578     2.1850
 3707.5000    42.0879     1.2030  -999.2500  -999.2500     1.1544  -999.2500   -76.2850    12.4601      .0211    68.1056     2.1895
 3708.0000    43.7086     1.1943  -999.2500  -999.2500     1.1388  -999.2500   -76.2997    12.4637      .0270    68.6118     2.1937
 3708.5000    47.9093     1.1837  -999.2500  -999.2500     1.1233  -999.2500   -76.3143    12.4746      .0271    69.3657     2.1875
 3709.0000    49.3464     1.1803  -999.2500  -999.2500     1.1279  -999.2500   -76.3315    12.4859      .0230    70.0702     2.1803
 3709.5000    48.7850     1.1882  -999.2500  -999.2500     1.1403  -999.2500   -76.3491    12.4677      .0221    70.5183     2.1770
 3710.0000    46.8865     1.1960  -999.2500  -999.2500     1.1526  -999.2500   -76.4655    12.4435      .0247    70.9651     2.1809
 3710.5000    45.3999     1.2066  -999.2500  -999.2500     1.1650  -999.2500   -76.8149    12.4191      .0268    71.4436     2.1842
 3711.0000    44.6354     1.2179  -999.2500  -999.2500     1.1773  -999.2500   -77.1643    12.4175      .0269    71.8151     2.1836
 3711.5000    44.3305     1.2292  -999.2500  -999.2500     1.1889  -999.2500   -77.5138    12.4182      .0236    70.5210     2.1828
 3712.0000    43.8231     1.2405  -999.2500  -999.2500     1.1948  -999.2500   -77.8326    12.4233      .0161    67.5797     2.1823
 3712.5000    42.6126     1.2500  -999.2500  -999.2500     1.2008  -999.2500   -78.1185    12.4397      .0108    65.3245     2.1826
 3713.0000    41.8283     1.2566  -999.2500  -999.2500     1.2067  -999.2500   -78.3488    12.4561      .0082    65.6841     2.1835
 3713.5000    42.2989     1.2503  -999.2500  -999.2500     1.2126  -999.2500   -77.9033    12.4781      .0110    68.0404     2.1853
 3714.0000    43.1469     1.2440  -999.2500  -999.2500     1.2186  -999.2500   -77.4576    12.5019      .0176    71.6567     2.1882
 3714.5000    44.3154     1.2377  -999.2500  -999.2500     1.2245  -999.2500   -77.6277    12.5399      .0238    73.6349     2.1917
 3715.0000    45.5074     1.2314  -999.2500  -999.2500     1.2123  -999.2500   -77.8495    12.5810      .0268    74.8881     2.1862
 3715.5000    46.1884     1.2251  -999.2500  -999.2500     1.1983  -999.2500   -78.0714    12.6352      .0248    75.5457     2.1762
 3716.0000    46.9032     1.2191  -999.2500  -999.2500     1.1844  -999.2500   -78.2936    12.6895      .0229    75.1920     2.1725
 3716.5000    46.7649     1.2136  -999.2500  -999.2500     1.1704  -999.2500   -78.4535    12.7533      .0225    74.1276     2.1767
 3717.0000    45.9412     1.2081  -999.2500  -999.2500     1.1565  -999.2500   -78.5897    12.8099      .0201    72.2849     2.1824
 3717.5000    45.3638     1.2026  -999.2500  -999.2500     1.1425  -999.2500   -78.7261    12.8700      .0113    70.1121     2.1783
 3718.0000    45.4000     1.1972  -999.2500  -999.2500     1.1286  -999.2500   -78.8624    12.9465     -.0008    68.4880     2.1600
 3718.5000    45.5842     1.1740  -999.2500  -999.2500     1.1063  -999.2500   -78.8394    13.3570     -.0102    67.9840     2.1255
 3719.0000    45.5139     1.1500  -999.2500  -999.2500     1.0801  -999.2500   -78.6769    13.9389     -.0154    67.6000     2.1044
 3719.5000    45.5651     1.1259  -999.2500  -999.2500     1.0539  -999.2500   -78.5143    14.6988     -.0177    66.7950     2.1007
 3720.0000    46.4608     1.1019  -999.2500  -999.2500     1.0277  -999.2500   -78.3517    14.9207     -.0181    66.7360     2.1120
 3720.5000    48.4503     1.0784  -999.2500  -999.2500     1.0016  -999.2500   -78.1891    14.6668     -.0144    68.5096     2.1231
 3721.0000    50.1412     1.0627  -999.2500  -999.2500      .9754  -999.2500   -78.0266    14.2421     -.0099    69.9237     2.1360
 3721.5000    51.3244     1.0470  -999.2500  -999.2500      .9497  -999.2500   -77.8640    14.1219     -.0084    70.5149     2.1380
 3722.0000    52.3206     1.0312  -999.2500  -999.2500      .9352  -999.2500   -77.7014    14.2661     -.0134    69.0879     2.1293
 3722.5000    53.1498     1.0117  -999.2500  -999.2500      .9207  -999.2500   -77.5178    14.3711     -.0183    68.3901     2.1209
 3723.0000    53.5633      .9913  -999.2500  -999.2500      .9062  -999.2500   -77.2649    14.3736     -.0228    68.8884     2.1234
 3723.5000    53.7642      .9865  -999.2500  -999.2500      .9047  -999.2500   -77.3640    14.2880     -.0219    70.2513     2.1286
 3724.0000    53.9775      .9952  -999.2500  -999.2500      .9201  -999.2500   -77.6466    14.2071     -.0179    72.1666     2.1389
 3724.5000    53.1860     1.0038  -999.2500  -999.2500      .9355  -999.2500   -77.9293    14.0152     -.0133    73.9858     2.1496
 3725.0000    52.0945     1.0125  -999.2500  -999.2500      .9509  -999.2500   -78.2119    13.5230     -.0080    75.2157     2.1604
 3725.5000    51.6605     1.0182  -999.2500  -999.2500      .9663  -999.2500   -78.4946    13.0976     -.0019    75.5834     2.1696
 3726.0000    52.1654     1.0239  -999.2500  -999.2500      .9817  -999.2500   -78.5001    12.8488      .0015    75.1289     2.1641
 3726.5000    52.3498     1.0297  -999.2500  -999.2500      .9971  -999.2500   -78.3544    13.0161     -.0020    73.7974     2.1498
 3727.0000    51.1803     1.0354  -999.2500  -999.2500      .9968  -999.2500   -78.2086    13.2631     -.0046    70.8597     2.1406
 3727.5000    48.1975     1.0374  -999.2500  -999.2500      .9933  -999.2500   -78.0629    13.5181     -.0058    68.9718     2.1443
 3728.0000    46.7505     1.0370  -999.2500  -999.2500      .9899  -999.2500   -77.9941    14.0197     -.0070    68.4366     2.1485
 3728.5000    46.0746     1.0177  -999.2500  -999.2500      .9864  -999.2500   -78.1082    14.2736     -.0082    69.4408     2.1501
 3729.0000    46.8126      .9865  -999.2500  -999.2500      .9779  -999.2500   -78.2222    14.3730     -.0092    71.9375     2.1454
 3729.5000    47.8842      .9592  -999.2500  -999.2500      .9516  -999.2500   -78.3361    14.3531     -.0102    74.7877     2.1252
 3730.0000    49.2662      .9350  -999.2500  -999.2500      .9254  -999.2500   -78.6139    14.3001     -.0139    78.8820     2.0874
 3730.5000    51.3754      .9272  -999.2500  -999.2500      .9221  -999.2500   -78.7646    14.2814     -.0184    80.1729     2.0732
 3731.0000    52.1063      .9555  -999.2500  -999.2500      .9337  -999.2500   -78.4698    14.3312     -.0216    75.7607     2.0821
