~VERSION INFORMATION
VERS.                             2.0:   CWLS Log ASCII Standard-VERSION 2.0
WRAP.                              NO:   One line per depth step
~Well Information Block
STRT.F                       590.0000:   Top Depth
STOP.F                      5513.0000:   Bottom Depth
STEP.F                         .50000:   Depth Increment
NULL.                        -999.250:   Null Value
FLD .                     MU BLK A 16:   Field Name
WELL.       OCSG03011  A001 ST00 BP00:   NAME
API .                    427024004100:   WELL API
R1  .                           13904:   COMMENT  1
EDF .F                       102.0000:   ELEV DRILL FLOOR
COMP.       CITIES SERVICE OIL COMPAN:   OPERATOR
BN  .                            A 16:   BLOCK
CTRY.                             USA:   COUNTRY NAME
CNTY.                        MG ILD L:   COUNTY NAME
EKB .F                       103.0000:   ELEV KELLY BUSHING
TDD .F                       5519.000:   FINAL TD DRILLER
STAT.                           TEXAS:   STATE NAME
UWI .                    427024004100:   WELL API
DICO.               IHS : Digitizing Company
~PARAMETER INFORMATION (zones)
#MNEM.UNIT                       Value     Description
#=========                       =====     ===========
#ZONATION                          CNL:   ZONATION NAME
#ZONE                            RUN_1:   ZONE NAME
TOP .                       3234.0000:   TOP DEPTH
BOT .                       5513.5000:   BOTTOM DEPTH
RUN .                               1:   RUN NUMBER
LCCD.                             440:   LOGGING CONTRACTOR
SRVC.                    Schlumberger:   LOGGING CONT NAME
DICO.          QC Data Collectors Ltd:   DIG COMPANY NAME
LDAT.                      03/04/1980:   DATE LOGGED
ELD .F                       103.0000:   LOG DATUM ELEVATION
TDD .F                      5512.0000:   TOTAL DEPTH DRILLER
TDL .F                      5519.0000:   TOTAL DEPTH LOGGER
BOTL.F                      5513.0000:   BOTTOM DEPTH LOGGED
TOPL.F                      3240.0000:   TOP DEPTH LOGGED
CS1 .IN                       13.3750:   CASING SIZE 1
BS1 .IN                       12.2500:   BIT SIZE 1
DDB1.F                      5512.0000:   DEPTH DRILLED BIT 1
BHF .                              99:   FLUID CODE
DPT .                   Miscellaneous:   DRILLING FLUID TYPE
MUDD.                         13.1000:   FLUID DENSITY
MUDV.                         38.0000:   FLUID VISCOSITY
DFPH.                         11.5000:   FLUID PH
FL  .                          4.0000:   FLUID LOSS
RM  .OHMM                       .8600:   RM
RMT .DEGF                     70.0000:   RM TEMP
RMF .OHMM                       .6600:   RMF
RMFT.DEGF                     70.0000:   RMF TEMP
FSC .                               M:   RMF CODE
RMC .OHMM                      1.8600:   RMC
RMCT.DEGF                     70.0000:   RMC TEMP
CMC .                               M:   RMC CODE
TMAX.DEGF                    145.0000:   MAX REC TEMP
TIMC.                          6.5000:   TIME SINCE CIRCLN
~PARAMETER INFORMATION (zones)
#MNEM.UNIT                       Value     Description
#=========                       =====     ===========
#ZONATION                          DIL:   ZONATION NAME
#ZONE                            RUN_1:   ZONE NAME
TOP .                       3240.0000:   TOP DEPTH
BOT .                       5513.5000:   BOTTOM DEPTH
RUN .                               1:   RUN NUMBER
LCCD.                             440:   LOGGING CONTRACTOR
SRVC.                    Schlumberger:   LOGGING CONT NAME
DICO.          QC Data Collectors Ltd:   DIG COMPANY NAME
LDAT.                      03/04/1980:   DATE LOGGED
ELD .F                       103.0000:   LOG DATUM ELEVATION
TDD .F                      5512.0000:   TOTAL DEPTH DRILLER
TDL .F                      5519.0000:   TOTAL DEPTH LOGGER
BOTL.F                      5513.0000:   BOTTOM DEPTH LOGGED
TOPL.F                      3240.0000:   TOP DEPTH LOGGED
CS1 .IN                       13.3750:   CASING SIZE 1
BS1 .IN                       12.2500:   BIT SIZE 1
DDB1.F                      5512.0000:   DEPTH DRILLED BIT 1
BHF .                              99:   FLUID CODE
DPT .                   Miscellaneous:   DRILLING FLUID TYPE
MUDD.                         13.1000:   FLUID DENSITY
MUDV.                         38.0000:   FLUID VISCOSITY
DFPH.                         11.5000:   FLUID PH
FL  .                          4.0000:   FLUID LOSS
RM  .OHMM                       .8600:   RM
RMT .DEGF                     70.0000:   RM TEMP
RMF .OHMM                       .6600:   RMF
RMFT.DEGF                     70.0000:   RMF TEMP
FSC .                               M:   RMF CODE
RMC .OHMM                      1.8600:   RMC
RMCT.DEGF                     70.0000:   RMC TEMP
CMC .                               M:   RMC CODE
TMAX.DEGF                    145.0000:   MAX REC TEMP
TIMC.                          6.5000:   TIME SINCE CIRCLN
~PARAMETER INFORMATION (zones)
#MNEM.UNIT                       Value     Description
#=========                       =====     ===========
#ZONATION                          DIL:   ZONATION NAME
#ZONE                          RUN_1_1:   ZONE NAME
TOP .                        590.0000:   TOP DEPTH
BOT .                       1046.5000:   BOTTOM DEPTH
RUN .                               1:   RUN NUMBER
LCCD.                             440:   LOGGING CONTRACTOR
SRVC.                    Schlumberger:   LOGGING CONT NAME
DICO.          QC Data Collectors Ltd:   DIG COMPANY NAME
LDAT.                      02/20/1980:   DATE LOGGED
ELD .F                       103.0000:   LOG DATUM ELEVATION
TDD .F                      1050.0000:   TOTAL DEPTH DRILLER
TDL .F                      1050.0000:   TOTAL DEPTH LOGGER
BOTL.F                      1046.0000:   BOTTOM DEPTH LOGGED
TOPL.F                       597.0000:   TOP DEPTH LOGGED
CS1 .IN                       30.0000:   CASING SIZE 1
BS1 .IN                       12.5000:   BIT SIZE 1
DDB1.F                      1050.0000:   DEPTH DRILLED BIT 1
BHF .                              99:   FLUID CODE
DPT .                   Miscellaneous:   DRILLING FLUID TYPE
MUDD.                          8.6000:   FLUID DENSITY
MUDV.                         39.0000:   FLUID VISCOSITY
DFPH.                         12.3000:   FLUID PH
FL  .                            NULL:   FLUID LOSS
RM  .OHMM                       .3900:   RM
RMT .DEGF                     80.0000:   RM TEMP
RMF .OHMM                       .2400:   RMF
RMFT.DEGF                     80.0000:   RMF TEMP
FSC .                               M:   RMF CODE
RMC .OHMM                       .4500:   RMC
RMCT.DEGF                     80.0000:   RMC TEMP
CMC .                               M:   RMC CODE
TMAX.DEGF                     90.0000:   MAX REC TEMP
TIMC.                          1.5000:   TIME SINCE CIRCLN
~PARAMETER INFORMATION (zones)
#MNEM.UNIT                       Value     Description
#=========                       =====     ===========
#ZONATION                          FDC:   ZONATION NAME
#ZONE                            RUN_1:   ZONE NAME
TOP .                       3234.0000:   TOP DEPTH
BOT .                       5513.5000:   BOTTOM DEPTH
RUN .                               1:   RUN NUMBER
LCCD.                             440:   LOGGING CONTRACTOR
SRVC.                    Schlumberger:   LOGGING CONT NAME
DICO.          QC Data Collectors Ltd:   DIG COMPANY NAME
LDAT.                      03/04/1980:   DATE LOGGED
ELD .F                       103.0000:   LOG DATUM ELEVATION
TDD .F                      5512.0000:   TOTAL DEPTH DRILLER
TDL .F                      5519.0000:   TOTAL DEPTH LOGGER
BOTL.F                      5513.0000:   BOTTOM DEPTH LOGGED
TOPL.F                      3240.0000:   TOP DEPTH LOGGED
CS1 .IN                       13.3750:   CASING SIZE 1
BS1 .IN                       12.2500:   BIT SIZE 1
DDB1.F                      5512.0000:   DEPTH DRILLED BIT 1
BHF .                              99:   FLUID CODE
DPT .                   Miscellaneous:   DRILLING FLUID TYPE
MUDD.                         13.1000:   FLUID DENSITY
MUDV.                         38.0000:   FLUID VISCOSITY
DFPH.                         11.5000:   FLUID PH
FL  .                          4.0000:   FLUID LOSS
RM  .OHMM                       .8600:   RM
RMT .DEGF                     70.0000:   RM TEMP
RMF .OHMM                       .6600:   RMF
RMFT.DEGF                     70.0000:   RMF TEMP
FSC .                               M:   RMF CODE
RMC .OHMM                      1.8600:   RMC
RMCT.DEGF                     70.0000:   RMC TEMP
CMC .                               M:   RMC CODE
TMAX.DEGF                    145.0000:   MAX REC TEMP
TIMC.                          6.5000:   TIME SINCE CIRCLN
~Curve Information Block
#MNEM.UNIT                    API CODE    No Description
#=========                    ========    == ===========
DEPT.F                   00 001 00 00:     1  DEPTH
NPHI.%                               :     2  Neutron Porosity
ASFL.OHMM                            :     3  Shallow Resistivity
DT.US/F                              :     4  Sonic Transit Time
GR.GAPI                              :     5  Gamma Ray
ILD.OHMM                             :     6  Deep Induction Resistivity
SFL.OHMM                             :     7  Medium Resistivity
SP.MV                                :     8  Spontaneous Potential
CALI.IN                              :     9  Caliper
DRHO.G/C3                            :    10  Bulk Density Correction
GR.GAPI                              :    11  Gamma Ray
RHOB.G/C3                            :    12  Bulk Density
~ASCII
# ...
 3243.5000    59.9925     1.7589  -999.2500  -999.2500     1.6212  -999.2500  -109.8813    12.8851     -.0242    41.8530     2.1340
 3244.0000    60.0891     1.7400  -999.2500  -999.2500     1.7236  -999.2500  -109.0038    12.9568     -.0222    41.6354     2.1123
 3244.5000    60.5150     1.7210  -999.2500  -999.2500     1.6730  -999.2500  -108.0125    13.1265     -.0244    41.5848     2.0909
 3245.0000    60.5499     1.6889  -999.2500  -999.2500     1.4219  -999.2500  -106.8994    13.3495     -.0266    41.5491     2.0808
 3245.5000    60.6631     1.6429  -999.2500  -999.2500     1.2850  -999.2500  -107.9315    13.4070     -.0270    42.0708     2.0787
 3246.0000    60.0772     1.5974  -999.2500  -999.2500     1.2192  -999.2500  -108.8280    13.1146     -.0249    43.5932     2.0783
 3246.5000    59.4930     1.6022  -999.2500  -999.2500     1.1745  -999.2500  -109.4596    12.8203     -.0237    43.9709     2.0761
 3247.0000    58.0859     1.6361  -999.2500  -999.2500     1.1495  -999.2500  -108.8136    12.7869     -.0227    43.1603     2.0679
 3247.5000    54.2990     1.6697  -999.2500  -999.2500     1.1307  -999.2500  -107.7809    12.7300     -.0234    41.9076     2.0558
 3248.0000    53.0242     1.6995  -999.2500  -999.2500     1.1201  -999.2500  -106.6527    12.5997     -.0260    40.7116     2.0393
 3248.5000    53.6613     1.7293  -999.2500  -999.2500     1.1238  -999.2500  -105.5253    12.4548     -.0279    40.3198     2.0306
 3249.0000    54.6877     1.7530  -999.2500  -999.2500     1.1276  -999.2500  -105.6140    12.3611     -.0282    40.3858     2.0302
 3249.5000    55.9205     1.7216  -999.2500  -999.2500     1.1313  -999.2500  -106.2079    12.3051     -.0286    40.6439     2.0287
 3250.0000    57.0379     1.6328  -999.2500  -999.2500     1.1350  -999.2500  -106.8021    12.2777     -.0312    40.9847     2.0214
 3250.5000    57.4968     1.5906  -999.2500  -999.2500     1.1388  -999.2500  -107.2994    12.2684     -.0377    41.5253     2.0180
 3251.0000    57.7711     1.5477  -999.2500  -999.2500     1.1393  -999.2500  -107.0620    12.2701     -.0387    41.8131     2.0300
 3251.5000    59.0037     1.4901  -999.2500  -999.2500     1.1261  -999.2500  -106.8246    12.3321     -.0361    40.8736     2.0512
 3252.0000    60.3798     1.4497  -999.2500  -999.2500     1.1129  -999.2500  -106.6677    12.4026     -.0328    39.2958     2.0735
 3252.5000    61.3011     1.4203  -999.2500  -999.2500     1.0997  -999.2500  -106.5367    12.4982     -.0292    38.7723     2.1020
 3253.0000    61.8187     1.3944  -999.2500  -999.2500     1.0865  -999.2500  -106.4056    12.5785     -.0254    39.6492     2.1174
 3253.5000    61.9504     1.3840  -999.2500  -999.2500     1.0733  -999.2500  -106.2618    12.6548     -.0227    40.5723     2.1209
 3254.0000    61.7144     1.3737  -999.2500  -999.2500     1.0601  -999.2500  -106.0995    12.6308     -.0234    40.8948     2.1134
 3254.5000    60.9496     1.3633  -999.2500  -999.2500     1.0469  -999.2500  -105.9371    12.5663     -.0255    40.5798     2.0965
 3255.0000    60.3041     1.3524  -999.2500  -999.2500     1.0367  -999.2500  -105.4536    12.5182     -.0281    40.0882     2.0877
 3255.5000    60.6658     1.3387  -999.2500  -999.2500     1.0310  -999.2500  -104.5917    12.4870     -.0291    39.8615     2.0824
 3256.0000    61.7740     1.3250  -999.2500  -999.2500     1.0254  -999.2500  -103.7297    12.5707     -.0311    40.2337     2.0795
 3256.5000    62.9199     1.3112  -999.2500  -999.2500     1.0197  -999.2500  -102.8654    12.7397     -.0348    40.8459     2.0795
 3257.0000    60.2206     1.2991  -999.2500  -999.2500     1.0140  -999.2500  -101.9877    13.5974     -.0398    41.4904     2.0865
 3257.5000    59.8891     1.2921  -999.2500  -999.2500     1.0162  -999.2500  -102.1954    14.8993     -.0423    42.3362     2.1077
 3258.0000    57.5050     1.3062  -999.2500  -999.2500     1.0471  -999.2500  -103.1309    15.5992     -.0372    43.5021     2.1294
 3258.5000    53.8674     1.3203  -999.2500  -999.2500     1.0781  -999.2500  -104.6702    16.0301     -.0315    46.4828     2.1358
 3259.0000    53.1829     1.3482  -999.2500  -999.2500     1.1090  -999.2500  -106.3690    15.9005     -.0363    49.9095     2.1246
 3259.5000    52.8420     1.3858  -999.2500  -999.2500     1.1399  -999.2500  -107.1973    15.3115     -.0447    51.8494     2.1063
 3260.0000    52.1403     1.3819  -999.2500  -999.2500     1.1709  -999.2500  -107.1267    14.6232     -.0494    53.0057     2.1031
 3260.5000    51.2786     1.3385  -999.2500  -999.2500     1.2018  -999.2500  -105.9678    12.9951     -.0443    53.3329     2.1081
 3261.0000    51.5306     1.2950  -999.2500  -999.2500     1.2298  -999.2500  -104.6576    12.6487     -.0370    53.5200     2.0992
 3261.5000    52.2438     1.2463  -999.2500  -999.2500     1.2122  -999.2500  -100.1853    12.9540     -.0368    53.8488     2.0660
 3262.0000    53.1447     1.1976  -999.2500  -999.2500     1.1946  -999.2500   -97.9642    13.1285     -.0374    54.3679     2.0202
 3262.5000    55.2198     1.1490  -999.2500  -999.2500     1.1770  -999.2500   -95.9321    13.1876     -.0379    54.2935     1.9987
 3263.0000    58.7377     1.1014  -999.2500  -999.2500     1.1595  -999.2500   -94.5189    13.5972     -.0392    53.8461     1.9774
 3263.5000    60.9619     1.0537  -999.2500  -999.2500     1.1419  -999.2500   -93.3042    14.2613     -.0414    53.3503     1.9473
 3264.0000    61.7300     1.0119  -999.2500  -999.2500     1.1192  -999.2500   -92.2878    14.5336     -.0427    53.0827     1.9320
 3264.5000    60.6285      .9747  -999.2500  -999.2500     1.0908  -999.2500   -91.2451    14.5604     -.0392    53.5200     1.9366
 3265.0000    58.5685      .9695  -999.2500  -999.2500     1.0623  -999.2500   -90.1571    14.6576     -.0322    53.1945     1.9464
 3265.5000    58.2581      .9643  -999.2500  -999.2500     1.0339  -999.2500   -89.7262    14.7634     -.0297    52.0613     1.9434
 3266.0000    59.9869      .9753  -999.2500  -999.2500     1.0054  -999.2500   -89.6046    14.7452     -.0398    50.2562     1.9324
 3266.5000    60.2509      .9892  -999.2500  -999.2500      .9770  -999.2500   -89.5150    14.6956     -.0529    49.1243     1.9150
 3267.0000    60.5553     1.0032  -999.2500  -999.2500      .9485  -999.2500   -89.4254    14.5622     -.0625    49.4932     1.8956
 3267.5000    60.0892     1.0452  -999.2500  -999.2500      .9959  -999.2500   -89.4600    14.3677     -.0693    50.8832     1.9122
 3268.0000    59.9757     1.1173  -999.2500  -999.2500     1.0545  -999.2500   -89.9205    13.8886     -.0693    51.8975     1.9913
 3268.5000    59.4952     1.1684  -999.2500  -999.2500     1.1131  -999.2500   -91.5044    13.3269     -.0570    52.4619     2.0084
 3269.0000    56.2664     1.2183  -999.2500  -999.2500     1.1519  -999.2500   -93.0883    13.0525     -.0462    52.6950     2.0343
 3269.5000    52.5150     1.2726  -999.2500  -999.2500     1.1822  -999.2500   -95.7808    13.0181     -.0381    52.9130     2.0874
 3270.0000    48.2966     1.3223  -999.2500  -999.2500     1.2126  -999.2500   -96.0389    13.0769     -.0325    53.1935     2.0986
 3270.5000    46.1458     1.3392  -999.2500  -999.2500     1.1814  -999.2500   -95.4619    13.1768     -.0283    53.6407     2.0937
 3271.0000    46.6791     1.3134  -999.2500  -999.2500     1.1447  -999.2500   -91.8610    13.3060     -.0248    53.9474     2.0781
 3271.5000    48.6313     1.2876  -999.2500  -999.2500     1.1081  -999.2500   -89.0071    13.4857     -.0227    53.9115     2.0384
 3272.0000    50.9371     1.2432  -999.2500  -999.2500     1.0715  -999.2500   -86.7006    13.8319     -.0240    53.7400     1.9913
 3272.5000    52.6842     1.1757  -999.2500  -999.2500     1.0348  -999.2500   -84.3175    14.1279     -.0284    53.6693     1.9711
 3273.0000    54.2355     1.1088  -999.2500  -999.2500      .9982  -999.2500   -82.4568    14.2876     -.0377    53.6722     1.9444
 3273.5000    56.7157     1.0450  -999.2500  -999.2500      .9818  -999.2500   -81.0437    14.2965     -.0506    53.8026     1.9236
