~VERSION INFORMATION
VERS.                             2.0:   CWLS Log ASCII Standard-VERSION 2.0
WRAP.                              NO:   One line per depth step
~Well Information Block
STRT.F                      3964.0000:   Top Depth
STOP.F                      6748.0000:   Bottom Depth
STEP.F                         .50000:   Depth Increment
NULL.                        -999.250:   Null Value
FLD .                     MU BLK A 26:   Field Name
WELL.       OCSG13276   001 ST00 BP00:   NAME
API .                    427024021500:   WELL API
EDF .F                        73.0000:   ELEV DRILL FLOOR
COMP.                  ORYX ENERGY CO:   OPERATOR
BN  .                            A 26:   BLOCK
CTRY.                             USA:   COUNTRY NAME
CNTY.                        MG ILD L:   COUNTY NAME
EGL .F                      -290.0000:   ELEV GROUND LEVEL
TDD .F                       6750.000:   FINAL TD DRILLER
STAT.                           TEXAS:   STATE NAME
UWI .                    427024021500:   WELL API
DICO.               IHS : Digitizing Company
~PARAMETER INFORMATION (zones)
#MNEM.UNIT                       Value     Description
#=========                       =====     ===========
#ZONATION                          CNL:   ZONATION NAME
#ZONE                            RUN_1:   ZONE NAME
TOP .                       3970.0000:   TOP DEPTH
BOT .                       6744.5000:   BOTTOM DEPTH
RUN .                               1:   RUN NUMBER
LCCD.                             510:   LOGGING CONTRACTOR
SRVC.                   Western Atlas:   LOGGING CONT NAME
DICO.          QC Data Collectors Ltd:   DIG COMPANY NAME
LDAT.                      08/29/1993:   DATE LOGGED
TDD .F                      6750.0000:   TOTAL DEPTH DRILLER
TDL .F                      6749.0000:   TOTAL DEPTH LOGGER
BOTL.F                      6746.0000:   BOTTOM DEPTH LOGGED
TOPL.F                      3998.0000:   TOP DEPTH LOGGED
CS1 .IN                       13.3750:   CASING SIZE 1
BS1 .IN                       12.2500:   BIT SIZE 1
DDB1.F                      6750.0000:   DEPTH DRILLED BIT 1
BHF .                              32:   FLUID CODE
DPT .                          low PH:   DRILLING FLUID TYPE
MUDD.                         11.5000:   FLUID DENSITY
MUDV.                         46.0000:   FLUID VISCOSITY
DFPH.                          8.8000:   FLUID PH
FL  .                          5.0000:   FLUID LOSS
RM  .OHMM                      1.2400:   RM
RMT .DEGF                     75.0000:   RM TEMP
RMF .OHMM                      1.1400:   RMF
RMFT.DEGF                     75.0000:   RMF TEMP
FSC .                               M:   RMF CODE
RMC .OHMM                      1.8000:   RMC
RMCT.DEGF                     75.0000:   RMC TEMP
CMC .                               M:   RMC CODE
TMAX.DEGF                    164.0000:   MAX REC TEMP
TIMC.                         10.0000:   TIME SINCE CIRCLN
~PARAMETER INFORMATION (zones)
#MNEM.UNIT                       Value     Description
#=========                       =====     ===========
#ZONATION                          DIL:   ZONATION NAME
#ZONE                            RUN_1:   ZONE NAME
TOP .                       3986.0000:   TOP DEPTH
BOT .                       6748.5000:   BOTTOM DEPTH
RUN .                               1:   RUN NUMBER
LCCD.                             510:   LOGGING CONTRACTOR
SRVC.                   Western Atlas:   LOGGING CONT NAME
DICO.          QC Data Collectors Ltd:   DIG COMPANY NAME
LDAT.                      08/29/1993:   DATE LOGGED
TDD .F                      6750.0000:   TOTAL DEPTH DRILLER
TDL .F                      6750.0000:   TOTAL DEPTH LOGGER
BOTL.F                      6748.0000:   BOTTOM DEPTH LOGGED
TOPL.F                      3998.0000:   TOP DEPTH LOGGED
CS1 .IN                       13.3750:   CASING SIZE 1
BS1 .IN                       12.2500:   BIT SIZE 1
DDB1.F                      6750.0000:   DEPTH DRILLED BIT 1
BHF .                              32:   FLUID CODE
DPT .                          low PH:   DRILLING FLUID TYPE
MUDD.                         11.5000:   FLUID DENSITY
MUDV.                         46.0000:   FLUID VISCOSITY
DFPH.                          8.8000:   FLUID PH
FL  .                          5.0000:   FLUID LOSS
RM  .OHMM                      1.2400:   RM
RMT .DEGF                     75.0000:   RM TEMP
RMF .OHMM                      1.1400:   RMF
RMFT.DEGF                     75.0000:   RMF TEMP
FSC .                               M:   RMF CODE
RMC .OHMM                      1.8000:   RMC
RMCT.DEGF                     75.0000:   RMC TEMP
CMC .                               M:   RMC CODE
TMAX.DEGF                    158.0000:   MAX REC TEMP
TIMC.                          6.0000:   TIME SINCE CIRCLN
~PARAMETER INFORMATION (zones)
#MNEM.UNIT                       Value     Description
#=========                       =====     ===========
#ZONATION                          FDC:   ZONATION NAME
#ZONE                            RUN_1:   ZONE NAME
TOP .                       3964.0000:   TOP DEPTH
BOT .                       6746.5000:   BOTTOM DEPTH
RUN .                               1:   RUN NUMBER
LCCD.                             510:   LOGGING CONTRACTOR
SRVC.                   Western Atlas:   LOGGING CONT NAME
DICO.          QC Data Collectors Ltd:   DIG COMPANY NAME
LDAT.                      08/29/1993:   DATE LOGGED
TDD .F                      6750.0000:   TOTAL DEPTH DRILLER
TDL .F                      6749.0000:   TOTAL DEPTH LOGGER
BOTL.F                      6746.0000:   BOTTOM DEPTH LOGGED
TOPL.F                      3998.0000:   TOP DEPTH LOGGED
CS1 .IN                       13.3750:   CASING SIZE 1
BS1 .IN                       12.2500:   BIT SIZE 1
DDB1.F                      6750.0000:   DEPTH DRILLED BIT 1
BHF .                              32:   FLUID CODE
DPT .                          low PH:   DRILLING FLUID TYPE
MUDD.                         11.5000:   FLUID DENSITY
MUDV.                         46.0000:   FLUID VISCOSITY
DFPH.                          8.8000:   FLUID PH
FL  .                          5.0000:   FLUID LOSS
RM  .OHMM                      1.2400:   RM
RMT .DEGF                     75.0000:   RM TEMP
RMF .OHMM                      1.1400:   RMF
RMFT.DEGF                     75.0000:   RMF TEMP
FSC .                               M:   RMF CODE
RMC .OHMM                      1.8000:   RMC
RMCT.DEGF                     75.0000:   RMC TEMP
CMC .                               M:   RMC CODE
TMAX.DEGF                    164.0000:   MAX REC TEMP
TIMC.                         10.0000:   TIME SINCE CIRCLN
~Curve Information Block
#MNEM.UNIT                    API CODE    No Description
#=========                    ========    == ===========
DEPT.F                   00 001 00 00:     1  DEPTH
NPHI.%                               :     2  Neutron Porosity
DT.US/F                              :     3  Sonic Transit Time
GR.GAPI                              :     4  Gamma Ray
ILD.OHMM                             :     5  Deep Induction Resistivity
ILM.OHMM                             :     6  Medium Induction Resistivity
RFOC.OHMM                            :     7  Medium Resistivity
SP.MV                                :     8  Spontaneous Potential
CALI.IN                              :     9  Caliper
DPHI.%                               :    10  Porosity
DRHO.G/C3                            :    11  Bulk Density Correction
GRD.GAPI                             :    12  Gamma Ray
~ASCII
# ...
 4177.5000    37.3859   125.2444    62.9382     1.0222     1.0337     1.3732   -82.5016    11.8398    24.9628      .0463    66.5333
 4178.0000    37.0881   125.3938    61.3039     1.0203     1.0323     1.3707   -82.6578    11.8337    25.1960      .0429    67.4901
 4178.5000    37.1649   125.1287    61.1331     1.0155     1.0312     1.3696   -83.1371    11.8276    25.4325      .0401    68.8792
 4179.0000    37.4704   125.0179    61.5596     1.0121     1.0301     1.3695   -83.7233    11.8213    25.6760      .0438    70.4830
 4179.5000    37.6273   125.1650    61.9576     1.0119     1.0281     1.3740   -84.2117    11.8217    25.8919      .0556    71.1001
 4180.0000    36.8481   125.4836    63.6226     1.0135     1.0255     1.3750   -84.0220    11.8227    26.0864      .0634    70.4744
 4180.5000    35.8789   125.8859    64.6492     1.0202     1.0257     1.3634   -83.4019    11.8293    26.2533      .0536    69.5608
 4181.0000    35.7720   126.2557    62.5820     1.0270     1.0272     1.3485   -82.8865    11.8470    26.3514      .0449    68.8517
 4181.5000    35.9272   126.3810    58.8529     1.0337     1.0317     1.3424   -82.7852    11.8736    26.4239      .0393    69.1348
 4182.0000    36.1010   125.9911    55.8804     1.0392     1.0414     1.3522   -83.3437    11.8968    26.4338      .0354    72.0370
 4182.5000    35.9013   125.3512    56.3854     1.0454     1.0518     1.3731   -84.0532    11.9142    26.3621      .0316    71.4943
 4183.0000    35.4545   124.8823    57.3967     1.0553     1.0625     1.3932   -83.9109    11.9070    26.2549      .0282    69.3027
 4183.5000    35.0023   124.5120    58.0994     1.0675     1.0720     1.4068   -82.9072    11.8515    25.8058      .0288    66.9493
 4184.0000    34.5507   124.2126    58.6619     1.0820     1.0843     1.4074   -82.0253    11.7868    25.0818      .0352    67.6204
 4184.5000    34.1360   124.0593    58.9674     1.0945     1.0904     1.3936   -82.2458    11.7249    24.2992      .0409    67.9437
 4185.0000    33.7933   123.8650    58.5370     1.0965     1.0883     1.3870   -82.4910    11.7406    23.9624      .0455    67.4913
 4185.5000    33.8666   123.2295    57.2540     1.0873     1.0775     1.3809   -82.2725    11.7814    23.6812      .0475    65.4048
 4186.0000    34.4275   121.8477    55.8682     1.0756     1.0682     1.3777   -81.3953    11.8103    23.5150      .0491    66.5085
 4186.5000    35.0153   121.0509    55.2047     1.0632     1.0585     1.3743   -80.9751    11.8259    23.6185      .0521    67.3528
 4187.0000    35.4848   122.0017    56.6995     1.0451     1.0488     1.3676   -80.6293    11.8172    23.8949      .0558    67.1622
 4187.5000    36.0573   123.9976    59.0488     1.0344     1.0400     1.3554   -80.7324    11.8020    24.2227      .0583    67.0737
 4188.0000    36.7533   125.8317    61.5744     1.0232     1.0303     1.3460   -81.4338    11.8058    24.4918      .0585    67.6359
 4188.5000    37.0481   127.3802    63.7769     1.0106     1.0192     1.3379   -82.1226    11.8162    24.8199      .0566    68.9224
 4189.0000    37.1196   127.6559    65.4283     1.0026     1.0049     1.3305   -82.7922    11.8286    25.0953      .0522    69.5101
 4189.5000    37.1192   127.1046    64.3816      .9925      .9947     1.3268   -83.1486    11.8296    25.2243      .0487    70.0719
 4190.0000    37.2662   126.3385    62.4296      .9815      .9820     1.3244   -83.1853    11.8322    25.1483      .0463    71.5486
 4190.5000    37.5925   125.8340    61.8834      .9748      .9734     1.3237   -83.1772    11.8355    25.1236      .0435    71.8026
 4191.0000    37.7290   125.9034    62.2913      .9735      .9684     1.3276   -83.1322    11.8364    25.2172      .0367    71.1171
 4191.5000    37.6139   126.2367    62.9572      .9753      .9647     1.3326   -83.1097    11.8338    25.3774      .0272    70.6757
 4192.0000    37.5980   126.5850    63.8760      .9839      .9757     1.3349   -83.1290    11.8230    25.5881      .0239    72.2327
 4192.5000    37.8735   126.9612    66.1764      .9926      .9885     1.3388   -83.2129    11.8151    25.8376      .0262    73.8408
 4193.0000    38.1948   127.3403    67.0236     1.0005     1.0026     1.3445   -83.4686    11.8033    25.9358      .0312    74.4702
 4193.5000    38.4801   127.2565    65.8237     1.0086     1.0162     1.3507   -83.9601    11.7919    25.9294      .0375    75.6145
 4194.0000    38.3211   126.6498    65.7638     1.0194     1.0292     1.3573   -84.4291    11.7781    25.8851      .0373    77.4764
 4194.5000    37.7908   125.6525    67.0548     1.0313     1.0413     1.3700   -84.8165    11.7767    25.9063      .0286    77.9984
 4195.0000    37.6778   124.5393    68.0400     1.0401     1.0522     1.3828   -84.9170    11.7864    26.0353      .0225    77.2023
 4195.5000    37.8763   123.5195    68.1355     1.0428     1.0510     1.3923   -84.4551    11.7921    26.1954      .0245    75.6379
 4196.0000    38.1332   122.9615    67.0266     1.0333     1.0366     1.3864   -83.8772    11.7950    26.2668      .0322    74.6681
 4196.5000    38.4501   123.1343    66.0396     1.0117     1.0167     1.3618   -83.3326    11.7960    26.1651      .0405    75.9453
 4197.0000    38.7255   124.3533    66.2841      .9869      .9923     1.3419   -82.8339    11.7970    26.0761      .0447    77.5950
 4197.5000    39.0446   126.0391    69.2371      .9628      .9582     1.3089   -82.6232    11.7981    26.0380      .0412    79.3136
 4198.0000    39.2728   128.0090    69.6055      .9288      .9350     1.2798   -82.8372    11.8019    26.4791      .0344    80.6305
 4198.5000    39.5029   129.9885    66.4432      .8985      .9109     1.2773   -82.9572    11.8021    26.8685      .0263    81.0988
 4199.0000    39.6951   131.9380    64.8358      .8697      .8793     1.2923   -82.3683    11.7995    27.1742      .0199    80.2408
 4199.5000    39.8065   132.7837    68.5098      .8393      .8549     1.2951   -81.9147    11.7945    27.4649      .0184    78.8290
 4200.0000    39.5674   133.4377    70.9938      .8160      .8370     1.2761   -82.0610    11.7888    27.7493      .0219    78.7559
 4200.5000    39.6700   134.2778    71.9105      .7975      .8252     1.2564   -82.4493    11.7772    28.0286      .0235    79.1489
 4201.0000    39.9625   135.0759    70.7673      .7832      .8138     1.2350   -82.9305    11.7643    28.2708      .0229    78.1111
 4201.5000    40.2664   135.8501    70.0891      .7771      .8026     1.2152   -83.5537    11.7507    28.4890      .0208    75.9788
 4202.0000    40.7604   136.3760    70.3322      .7755      .7997     1.2100   -84.0112    11.7341    28.6642      .0188    74.5205
 4202.5000    41.4534   136.5916    68.2258      .7804      .8007     1.2073   -84.1198    11.7204    28.7837      .0172    76.5973
 4203.0000    42.1722   136.4143    65.3353      .7860      .8067     1.2096   -83.5886    11.7043    28.8679      .0160    77.4753
 4203.5000    42.0762   135.8357    66.1825      .7946      .8148     1.2234   -82.6379    11.6878    28.9238      .0167    75.9528
 4204.0000    41.0182   134.7000    67.4636      .8036      .8250     1.2351   -81.7197    11.6724    28.8606      .0270    74.2489
 4204.5000    40.1446   133.7817    66.2205      .8153      .8374     1.2415   -81.1548    11.6801    28.7555      .0326    73.4326
 4205.0000    39.9846   133.5312    63.7401      .8272      .8514     1.2417   -80.7433    11.6844    28.7908      .0255    73.3602
 4205.5000    40.1019   133.6804    61.7471      .8397      .8649     1.2429   -80.6599    11.6877    29.0449      .0225    73.3241
 4206.0000    40.3730   133.8398    62.1094      .8523      .8785     1.2508   -80.8175    11.6906    29.4457      .0249    72.6061
 4206.5000    40.6736   133.9158    63.1782      .8603      .8888     1.2593   -80.7141    11.6908    29.8696      .0324    72.7179
 4207.0000    40.8679   133.7842    63.4885      .8667      .8965     1.2678   -80.5242    11.6910    29.5819      .0382    74.0013
 4207.5000    40.2252   133.3142    63.1451      .8677      .8966     1.2758   -80.5278    11.6846    29.2596      .0397    74.6694
