~VERSION INFORMATION
VERS.                             2.0:   CWLS Log ASCII Standard-VERSION 2.0
WRAP.                              NO:   One line per depth step
~Well Information Block
STRT.F                      3964.0000:   Top Depth
STOP.F                      6748.0000:   Bottom Depth
STEP.F                         .50000:   Depth Increment
NULL.                        -999.250:   Null Value
FLD .                     MU BLK A 26:   Field Name
WELL.       OCSG13276   001 ST00 BP00:   NAME
API .                    427024021500:   WELL API
EDF .F                        73.0000:   ELEV DRILL FLOOR
COMP.                  ORYX ENERGY CO:   OPERATOR
BN  .                            A 26:   BLOCK
CTRY.                             USA:   COUNTRY NAME
CNTY.                        MG ILD L:   COUNTY NAME
EGL .F                      -290.0000:   ELEV GROUND LEVEL
TDD .F                       6750.000:   FINAL TD DRILLER
STAT.                           TEXAS:   STATE NAME
UWI .                    427024021500:   WELL API
DICO.               IHS : Digitizing Company
~PARAMETER INFORMATION (zones)
#MNEM.UNIT                       Value     Description
#=========                       =====     ===========
#ZONATION                          CNL:   ZONATION NAME
#ZONE                            RUN_1:   ZONE NAME
TOP .                       3970.0000:   TOP DEPTH
BOT .                       6744.5000:   BOTTOM DEPTH
RUN .                               1:   RUN NUMBER
LCCD.                             510:   LOGGING CONTRACTOR
SRVC.                   Western Atlas:   LOGGING CONT NAME
DICO.          QC Data Collectors Ltd:   DIG COMPANY NAME
LDAT.                      08/29/1993:   DATE LOGGED
TDD .F                      6750.0000:   TOTAL DEPTH DRILLER
TDL .F                      6749.0000:   TOTAL DEPTH LOGGER
BOTL.F                      6746.0000:   BOTTOM DEPTH LOGGED
TOPL.F                      3998.0000:   TOP DEPTH LOGGED
CS1 .IN                       13.3750:   CASING SIZE 1
BS1 .IN                       12.2500:   BIT SIZE 1
DDB1.F                      6750.0000:   DEPTH DRILLED BIT 1
BHF .                              32:   FLUID CODE
DPT .                          low PH:   DRILLING FLUID TYPE
MUDD.                         11.5000:   FLUID DENSITY
MUDV.                         46.0000:   FLUID VISCOSITY
DFPH.                          8.8000:   FLUID PH
FL  .                          5.0000:   FLUID LOSS
RM  .OHMM                      1.2400:   RM
RMT .DEGF                     75.0000:   RM TEMP
RMF .OHMM                      1.1400:   RMF
RMFT.DEGF                     75.0000:   RMF TEMP
FSC .                               M:   RMF CODE
RMC .OHMM                      1.8000:   RMC
RMCT.DEGF                     75.0000:   RMC TEMP
CMC .                               M:   RMC CODE
TMAX.DEGF                    164.0000:   MAX REC TEMP
TIMC.                         10.0000:   TIME SINCE CIRCLN
~PARAMETER INFORMATION (zones)
#MNEM.UNIT                       Value     Description
#=========                       =====     ===========
#ZONATION                          DIL:   ZONATION NAME
#ZONE                            RUN_1:   ZONE NAME
TOP .                       3986.0000:   TOP DEPTH
BOT .                       6748.5000:   BOTTOM DEPTH
RUN .                               1:   RUN NUMBER
LCCD.                             510:   LOGGING CONTRACTOR
SRVC.                   Western Atlas:   LOGGING CONT NAME
DICO.          QC Data Collectors Ltd:   DIG COMPANY NAME
LDAT.                      08/29/1993:   DATE LOGGED
TDD .F                      6750.0000:   TOTAL DEPTH DRILLER
TDL .F                      6750.0000:   TOTAL DEPTH LOGGER
BOTL.F                      6748.0000:   BOTTOM DEPTH LOGGED
TOPL.F                      3998.0000:   TOP DEPTH LOGGED
CS1 .IN                       13.3750:   CASING SIZE 1
BS1 .IN                       12.2500:   BIT SIZE 1
DDB1.F                      6750.0000:   DEPTH DRILLED BIT 1
BHF .                              32:   FLUID CODE
DPT .                          low PH:   DRILLING FLUID TYPE
MUDD.                         11.5000:   FLUID DENSITY
MUDV.                         46.0000:   FLUID VISCOSITY
DFPH.                          8.8000:   FLUID PH
FL  .                          5.0000:   FLUID LOSS
RM  .OHMM                      1.2400:   RM
RMT .DEGF                     75.0000:   RM TEMP
RMF .OHMM                      1.1400:   RMF
RMFT.DEGF                     75.0000:   RMF TEMP
FSC .                               M:   RMF CODE
RMC .OHMM                      1.8000:   RMC
RMCT.DEGF                     75.0000:   RMC TEMP
CMC .                               M:   RMC CODE
TMAX.DEGF                    158.0000:   MAX REC TEMP
TIMC.                          6.0000:   TIME SINCE CIRCLN
~PARAMETER INFORMATION (zones)
#MNEM.UNIT                       Value     Description
#=========                       =====     ===========
#ZONATION                          FDC:   ZONATION NAME
#ZONE                            RUN_1:   ZONE NAME
TOP .                       3964.0000:   TOP DEPTH
BOT .                       6746.5000:   BOTTOM DEPTH
RUN .                               1:   RUN NUMBER
LCCD.                             510:   LOGGING CONTRACTOR
SRVC.                   Western Atlas:   LOGGING CONT NAME
DICO.          QC Data Collectors Ltd:   DIG COMPANY NAME
LDAT.                      08/29/1993:   DATE LOGGED
TDD .F                      6750.0000:   TOTAL DEPTH DRILLER
TDL .F                      6749.0000:   TOTAL DEPTH LOGGER
BOTL.F                      6746.0000:   BOTTOM DEPTH LOGGED
TOPL.F                      3998.0000:   TOP DEPTH LOGGED
CS1 .IN                       13.3750:   CASING SIZE 1
BS1 .IN                       12.2500:   BIT SIZE 1
DDB1.F                      6750.0000:   DEPTH DRILLED BIT 1
BHF .                              32:   FLUID CODE
DPT .                          low PH:   DRILLING FLUID TYPE
MUDD.                         11.5000:   FLUID DENSITY
MUDV.                         46.0000:   FLUID VISCOSITY
DFPH.                          8.8000:   FLUID PH
FL  .                          5.0000:   FLUID LOSS
RM  .OHMM                      1.2400:   RM
RMT .DEGF                     75.0000:   RM TEMP
RMF .OHMM                      1.1400:   RMF
RMFT.DEGF                     75.0000:   RMF TEMP
FSC .                               M:   RMF CODE
RMC .OHMM                      1.8000:   RMC
RMCT.DEGF                     75.0000:   RMC TEMP
CMC .                               M:   RMC CODE
TMAX.DEGF                    164.0000:   MAX REC TEMP
TIMC.                         10.0000:   TIME SINCE CIRCLN
~Curve Information Block
#MNEM.UNIT                    API CODE    No Description
#=========                    ========    == ===========
DEPT.F                   00 001 00 00:     1  DEPTH
NPHI.%                               :     2  Neutron Porosity
DT.US/F                              :     3  Sonic Transit Time
GR.GAPI                              :     4  Gamma Ray
ILD.OHMM                             :     5  Deep Induction Resistivity
ILM.OHMM                             :     6  Medium Induction Resistivity
RFOC.OHMM                            :     7  Medium Resistivity
SP.MV                                :     8  Spontaneous Potential
CALI.IN                              :     9  Caliper
DPHI.%                               :    10  Porosity
DRHO.G/C3                            :    11  Bulk Density Correction
GRD.GAPI                             :    12  Gamma Ray
~ASCII
# ...
 5275.5000    29.7926   100.1066    53.9515     1.2126     1.2402     1.3747   -97.3174    11.3127    20.3940      .0473    49.4652
 5276.0000    30.7575   105.0892    52.9771     1.1842     1.2484     1.3793   -93.6667    11.3006    21.8596      .0516    51.1820
 5276.5000    30.9632   108.5825    52.1824     1.0833     1.1992     1.4434   -97.8704    11.3013    22.3885      .0583    53.1513
 5277.0000    30.4875   107.8154    51.4380      .8933     1.1289     1.4621  -103.0774    11.3161    22.1812      .0525    54.2031
 5277.5000    30.2438   104.9692    50.5247      .7425     1.0295     1.4439  -107.4230    11.3239    22.4852      .0396    54.1202
 5278.0000    30.3340   102.8009    48.9122      .6626      .8868     1.4430  -112.3363    11.3258    23.1108      .0167    53.4281
 5278.5000    30.4783   103.0377    46.3552      .6111      .7638     1.4922  -119.0603    11.3204    23.3632      .0032    53.1177
 5279.0000    30.6122   104.4370    42.8489      .5867      .6709     1.5936  -125.7843    11.2894    23.3113     -.0042    52.7079
 5279.5000    31.3192   106.3112    40.1206      .5764      .6420     1.5889  -132.5083    11.2343    23.8867     -.0146    50.6882
 5280.0000    33.0480   109.0448    38.1815      .5721      .6414     1.4217  -136.0098    11.1792    26.5001     -.0266    48.0649
 5280.5000    34.5737   111.5437    40.6295      .5737      .6827     1.2706  -124.3113    11.1351    30.1542     -.0364    45.2101
 5281.0000    35.1138   113.2716    43.8961      .5841      .7301     1.2177  -113.7360    11.1270    31.1302     -.0335    45.5649
 5281.5000    34.3766   112.3295    46.7027      .6107      .7751     1.2572  -105.6318    11.1562    29.7554     -.0162    47.7496
 5282.0000    33.5509   110.5991    49.7417      .6570      .8199     1.3331  -103.8506    11.1796    27.4077      .0060    51.2571
 5282.5000    32.6991   108.5676    51.3710      .7146      .8641     1.4030  -106.4956    11.1875    24.7697      .0172    54.8238
 5283.0000    32.0556   106.8309    51.9732      .7722      .9039     1.4635  -109.3805    11.1957    23.5770      .0123    55.1003
 5283.5000    32.6344   105.3429    53.0070      .8224      .9361     1.4961  -111.2119    11.2030    24.0675      .0068    54.3083
 5284.0000    32.8911   104.5928    54.0164      .8560      .9635     1.4438  -106.3121    11.2059    24.9565      .0030    53.2597
 5284.5000    32.3171   105.6615    54.3865      .8580      .9843     1.3715   -99.9258    11.2026    25.6048      .0192    52.3760
 5285.0000    32.1776   107.9854    53.9401      .8406      .9796     1.3059   -96.2310    11.1946    25.0398      .0392    53.6760
 5285.5000    32.9513   109.9232    53.7992      .8267      .9589     1.2660   -97.4226    11.1835    24.2058      .0624    56.2450
 5286.0000    33.7134   110.9390    53.1649      .8080      .9287     1.3175  -101.2373    11.1684    23.1108      .0648    58.8953
 5286.5000    33.2347   109.8545    51.7469      .7915      .8901     1.4523  -110.6333    11.1661    22.5786      .0449    62.3881
 5287.0000    32.8326   105.5840    50.4929      .7780      .8617     1.5930  -114.6902    11.1954    23.4991      .0269    59.9841
 5287.5000    32.5972   101.3285    49.6555      .7655      .8437     1.6008  -115.3435    11.2578    25.0346      .0062    56.8731
 5288.0000    33.2250    97.6827    48.9024      .7564      .8357     1.5365  -113.3835    11.3382    26.4420     -.0063    54.1833
 5288.5000    34.0649    94.9166    48.3090      .7608      .8408     1.4607  -108.2402    11.4132    26.5261     -.0038    51.9813
 5289.0000    35.0975    94.0054    48.2883      .7889      .8672     1.4312  -103.3318    11.4713    25.5970      .0041    54.6760
 5289.5000    36.1181    95.0690    54.5106      .8257      .8994     1.3872   -91.9392    11.5212    25.3249      .0049    56.5135
 5290.0000    37.0480   100.3665    60.7037      .8730      .9364     1.2949   -83.7765    11.5739    25.2053      .0093    56.0664
 5290.5000    37.5037   105.8988    60.6100      .9204      .9818     1.2381   -80.8892    11.6343    24.2817      .0180    55.2570
 5291.0000    37.3595   110.0393    59.9354      .9629     1.0252     1.2798   -79.6155    11.7379    23.0074      .0304    55.7327
 5291.5000    36.8226   112.8130    59.2111      .9992     1.0580     1.3166   -78.2391    11.8150    22.1273      .0471    58.5702
 5292.0000    36.0847   114.4398    58.4213     1.0299     1.0722     1.3461   -77.2579    11.8307    21.5742      .0678    61.3610
 5292.5000    35.3824   114.2673    57.9451     1.0489     1.0958     1.3609   -77.3418    11.8322    20.9453      .0732    60.4520
 5293.0000    34.7076   113.9528    57.6381     1.0489     1.1000     1.3658   -78.2025    11.8299    20.0942      .0654    59.4969
 5293.5000    34.6456   114.6309    57.3114     1.0241     1.0978     1.3624   -79.9618    11.8275    19.6312      .0567    59.2656
 5294.0000    34.8780   115.1326    55.9836      .9880     1.0604     1.3502   -82.0660    11.8252    19.1621      .0451    59.2431
 5294.5000    34.6749   114.2274    53.2798      .9470      .9831     1.3782   -85.6997    11.8228    18.6611      .0313    58.7802
 5295.0000    33.4750   112.3857    50.2482      .9027      .9210     1.4400   -93.8771    11.8205    18.1786      .0166    57.7377
 5295.5000    32.0630   109.6646    46.9938      .8720      .8837     1.5034  -102.0962    11.8190    17.9914      .0054    57.3630
 5296.0000    31.1782   106.3861    48.8730      .8485      .8591     1.4985  -104.3093    11.8150    18.6339     -.0108    56.6748
 5296.5000    31.5974   104.2771    52.4088      .8413      .8524     1.4110   -97.8998    11.8104    21.9592     -.0226    53.6464
 5297.0000    32.8531   105.6665    55.8760      .8443      .8784     1.3296   -86.7421    11.8063    23.5244      .0031    50.8803
 5297.5000    34.2308   109.1147    57.8824      .8533      .9106     1.2617   -81.5204    11.8061    24.4565      .0303    50.1586
 5298.0000    35.6100   112.4382    59.4839      .8773      .9440     1.2435   -79.2638    11.8088    23.9901      .0507    54.2770
 5298.5000    36.6984   115.2943    60.4517      .9017      .9786     1.2847   -78.6196    11.8152    22.4205      .0649    59.3953
 5299.0000    36.5615   116.1451    61.2444      .9266     1.0001     1.3288   -78.1605    11.8224    20.9070      .0684    62.9700
 5299.5000    35.9954   114.4872    60.6088      .9452     1.0141     1.3549   -77.9341    11.8281    20.3881      .0673    62.2212
 5300.0000    35.4620   113.9882    59.5193      .9553     1.0228     1.3403   -78.2294    11.8320    20.0881      .0638    61.3868
 5300.5000    35.0443   115.2269    59.4417      .9576     1.0222     1.3150   -78.8490    11.8350    20.0758      .0618    61.4145
 5301.0000    34.8865   115.8185    60.2485      .9540     1.0145     1.3082   -79.2118    11.8426    20.2977      .0656    62.7501
 5301.5000    35.0785   116.0416    61.0658      .9445     1.0019     1.3100   -79.3425    11.8507    20.6086      .0722    64.5852
 5302.0000    35.3822   116.0702    61.7803      .9306      .9806     1.3150   -79.2970    11.8606    20.9951      .0836    65.7563
 5302.5000    35.1990   116.3142    61.0927      .9231      .9602     1.3190   -79.1515    11.8715    21.2392      .0920    66.8253
 5303.0000    35.3296   117.1116    59.4007      .9242      .9447     1.3224   -79.3644    11.8846    21.1593      .0960    67.5477
 5303.5000    35.7145   118.0281    57.5533      .9299      .9381     1.3319   -79.8027    11.8885    20.9791      .0915    67.6824
 5304.0000    35.8704   118.3754    58.0182      .9442      .9672     1.3455   -79.9276    11.8987    20.5651      .0763    67.4266
 5304.5000    35.3500   117.9644    59.4643      .9642     1.0005     1.3532   -79.9874    11.9156    20.2069      .0633    66.9128
 5305.0000    34.8951   116.8873    60.2812      .9866     1.0343     1.3596   -79.8855    11.9204    19.9112      .0658    66.2250
 5305.5000    34.7154   115.7910    59.3677     1.0205     1.0585     1.3724   -80.1979    11.9098    19.5672      .0699    66.1696
