~VERSION INFORMATION
VERS.                             2.0:   CWLS Log ASCII Standard-VERSION 2.0
WRAP.                              NO:   One line per depth step
~Well Information Block
STRT.F                      1238.0000:   Top Depth
STOP.F                      5786.0000:   Bottom Depth
STEP.F                         .50000:   Depth Increment
NULL.                        -999.250:   Null Value
FLD .                     MU BLK A 18:   Field Name
WELL.       OCSG05167   001 ST00 BP00:   NAME
API .                    427024015100:   WELL API
R1  .            STANDARD OIL PROD CO:   COMMENT  1
EDF .F                       884.0000:   ELEV DRILL FLOOR
COMP.            STANDARD OIL PROD CO:   OPERATOR
BN  .                            A 18:   BLOCK
CTRY.                             USA:   COUNTRY NAME
CNTY.                        MG ILD L:   COUNTY NAME
EKB .F                        85.0000:   ELEV KELLY BUSHING
TDD .F                       5792.000:   FINAL TD DRILLER
STAT.                           TEXAS:   STATE NAME
UWI .                    427024015100:   WELL API
DICO.               IHS : Digitizing Company
~PARAMETER INFORMATION (zones)
#MNEM.UNIT                       Value     Description
#=========                       =====     ===========
#ZONATION                          CNL:   ZONATION NAME
#ZONE                            RUN_0:   ZONE NAME
TOP .                       3294.0000:   TOP DEPTH
BOT .                       5786.5000:   BOTTOM DEPTH
RUN .                               0:   RUN NUMBER
LCCD.                             440:   LOGGING CONTRACTOR
SRVC.                    Schlumberger:   LOGGING CONT NAME
DICO.          QC Data Collectors Ltd:   DIG COMPANY NAME
LDAT.                      11/28/1987:   DATE LOGGED
ELD .F                        85.0000:   LOG DATUM ELEVATION
TDD .F                      5785.0000:   TOTAL DEPTH DRILLER
TDL .F                      5792.0000:   TOTAL DEPTH LOGGER
BOTL.F                      5786.0000:   BOTTOM DEPTH LOGGED
TOPL.F                      3300.0000:   TOP DEPTH LOGGED
CS1 .IN                       10.7500:   CASING SIZE 1
BS1 .IN                        9.8750:   BIT SIZE 1
DDB1.F                      5785.0000:   DEPTH DRILLED BIT 1
BHF .                              81:   FLUID CODE
DPT .          Lignosulfonate (Ligno):   DRILLING FLUID TYPE
MUDD.                         11.0000:   FLUID DENSITY
MUDV.                         41.0000:   FLUID VISCOSITY
DFPH.                         10.0000:   FLUID PH
FL  .                         10.0000:   FLUID LOSS
RM  .OHMM                       .9400:   RM
~PARAMETER INFORMATION (zones)
#MNEM.UNIT                       Value     Description
#=========                       =====     ===========
#ZONATION                          DIL:   ZONATION NAME
#ZONE                            RUN_1:   ZONE NAME
TOP .                       1238.0000:   TOP DEPTH
BOT .                       5786.5000:   BOTTOM DEPTH
RUN .                               1:   RUN NUMBER
LCCD.                             440:   LOGGING CONTRACTOR
SRVC.                    Schlumberger:   LOGGING CONT NAME
DICO.          QC Data Collectors Ltd:   DIG COMPANY NAME
LDAT.                      11/23/1987:   DATE LOGGED
ELD .F                        85.0000:   LOG DATUM ELEVATION
TDD .F                      3540.0000:   TOTAL DEPTH DRILLER
TDL .F                      3539.0000:   TOTAL DEPTH LOGGER
BOTL.F                      3533.0000:   BOTTOM DEPTH LOGGED
TOPL.F                      1294.0000:   TOP DEPTH LOGGED
CS1 .IN                       16.0000:   CASING SIZE 1
BS1 .IN                       13.5000:   BIT SIZE 1
DDB1.F                      3540.0000:   DEPTH DRILLED BIT 1
BHF .                              81:   FLUID CODE
DPT .          Lignosulfonate (Ligno):   DRILLING FLUID TYPE
MUDV.                         38.0000:   FLUID VISCOSITY
DFPH.                          8.0000:   FLUID PH
FL  .                         29.2000:   FLUID LOSS
RMF .OHMM                       .2400:   RMF
FSC .                               C:   RMF CODE
TMAX.DEGF                    120.0000:   MAX REC TEMP
TIMC.                          4.0000:   TIME SINCE CIRCLN
~PARAMETER INFORMATION (zones)
#MNEM.UNIT                       Value     Description
#=========                       =====     ===========
#ZONATION                          FDC:   ZONATION NAME
#ZONE                            RUN_0:   ZONE NAME
TOP .                       3294.0000:   TOP DEPTH
BOT .                       5786.5000:   BOTTOM DEPTH
RUN .                               0:   RUN NUMBER
LCCD.                             440:   LOGGING CONTRACTOR
SRVC.                    Schlumberger:   LOGGING CONT NAME
DICO.          QC Data Collectors Ltd:   DIG COMPANY NAME
LDAT.                      11/28/1987:   DATE LOGGED
ELD .F                        85.0000:   LOG DATUM ELEVATION
TDD .F                      5785.0000:   TOTAL DEPTH DRILLER
TDL .F                      5792.0000:   TOTAL DEPTH LOGGER
BOTL.F                      5786.0000:   BOTTOM DEPTH LOGGED
TOPL.F                      3300.0000:   TOP DEPTH LOGGED
CS1 .IN                       10.7500:   CASING SIZE 1
BS1 .IN                        9.8750:   BIT SIZE 1
DDB1.F                      5785.0000:   DEPTH DRILLED BIT 1
BHF .                              81:   FLUID CODE
DPT .          Lignosulfonate (Ligno):   DRILLING FLUID TYPE
MUDD.                         11.0000:   FLUID DENSITY
MUDV.                         41.0000:   FLUID VISCOSITY
DFPH.                         10.0000:   FLUID PH
FL  .                         10.0000:   FLUID LOSS
RM  .OHMM                       .9400:   RM
~Curve Information Block
#MNEM.UNIT                    API CODE    No Description
#=========                    ========    == ===========
DEPT.F                   00 001 00 00:     1  DEPTH
NPHI.DEC                              :     2  Neutron Porosity
DT.US/F                              :     3  Sonic Transit Time
GR.GAPI                              :     4  Gamma Ray
ILD.OHMM                             :     5  Deep Induction Resistivity
ILM.OHMM                             :     6  Medium Induction Resistivity
SFL.OHMM                             :     7  Medium Resistivity
SP.MV                                :     8  Spontaneous Potential
CALI.IN                              :     9  Caliper
DPHI.DEC                              :    10  Porosity
DRHO.G/C3                            :    11  Bulk Density Correction
GR.GAPI                              :    12  Gamma Ray
~ASCII
# ...
 4440.5000      .4074   113.7124  -999.2500      .6998      .7788     1.1666   -91.2263     9.9663      .3165     -.0040    45.2096
 4441.0000      .4096   113.8036  -999.2500      .6458      .7138     1.1126   -92.1404     9.9612      .3261     -.0073    43.8679
 4441.5000      .4002   114.0287  -999.2500      .5988      .6656     1.0704   -91.3192     9.9569      .3294     -.0096    43.9255
 4442.0000      .3854   114.2570  -999.2500      .5972      .6682     1.0401   -88.6340     9.9432      .3196     -.0080    46.2704
 4442.5000      .3800   114.2799  -999.2500      .6137      .6842     1.0354   -86.0887     9.9211      .2941     -.0043    50.0025
 4443.0000      .3795   113.9835  -999.2500      .6307      .7355     1.0719   -83.3335     9.8988      .2638     -.0006    53.1010
 4443.5000      .3804   113.4491  -999.2500      .6463      .7681     1.1145   -81.5361     9.8868      .2479     -.0011    55.3187
 4444.0000      .3803   112.8977  -999.2500      .6569      .7843     1.1777   -82.5350     9.8787      .2556     -.0027    54.1199
 4444.5000      .3756   112.5258  -999.2500      .6584      .7942     1.2074   -87.1237     9.8756      .2765     -.0053    52.1722
 4445.0000      .3713   112.4031  -999.2500      .6556      .7782     1.1560   -90.4434     9.8970      .2967     -.0062    50.2881
 4445.5000      .3689   112.5385  -999.2500      .6469      .7351     1.0994   -93.5194     9.9171      .3126     -.0080    48.7317
 4446.0000      .3679   112.9553  -999.2500      .6393      .6969     1.0450   -94.4060     9.9286      .3206     -.0114    46.9641
 4446.5000      .3674   113.0411  -999.2500      .6003      .6680     1.0082   -94.6353     9.9347      .3237     -.0146    45.2840
 4447.0000      .3624   112.7444  -999.2500      .5603      .6484     1.0174   -94.0967     9.9455      .3244     -.0163    44.2117
 4447.5000      .3542   112.3080  -999.2500      .5325      .6323     1.0264   -93.2963     9.9633      .3207     -.0145    43.5079
 4448.0000      .3488   112.6141  -999.2500      .5368      .6200     1.0254   -92.0887     9.9780      .3111     -.0106    46.2992
 4448.5000      .3467   114.2839  -999.2500      .5527      .6247     1.0213   -90.2323     9.9911      .3034     -.0069    49.3689
 4449.0000      .3464   115.1558  -999.2500      .5732      .6558     1.0230   -88.2021    10.0033      .3006     -.0061    52.7746
 4449.5000      .3482   114.9423  -999.2500      .6003      .6914     1.0434   -85.9150    10.0167      .2968     -.0052    56.7443
 4450.0000      .3501   114.2496  -999.2500      .6450      .7262     1.1042   -84.1249    10.0292      .2943     -.0043    60.8101
 4450.5000      .3552   113.2941  -999.2500      .7156      .7687     1.1626   -81.9825    10.0360      .2841     -.0034    63.9026
 4451.0000      .3594   111.8376  -999.2500      .7788      .8249     1.2299   -79.8220    10.0343      .2684     -.0018    63.3373
 4451.5000      .3624   110.6705  -999.2500      .8379      .8727     1.3085   -78.4336    10.0316      .2549     -.0004    60.8677
 4452.0000      .3624   111.1672  -999.2500      .9078      .9245     1.4042   -77.1549    10.0305      .2448      .0012    59.1036
 4452.5000      .3614   112.3308  -999.2500      .9655      .9852     1.4736   -75.2345    10.0277      .2416      .0024    58.6281
 4453.0000      .3643   113.1724  -999.2500     1.0289     1.0499     1.4779   -72.8461    10.0742      .2463      .0033    58.5797
 4453.5000      .3713   113.7228  -999.2500     1.0875     1.1032     1.4123   -69.1066    10.2773      .2587      .0104    59.5333
 4454.0000      .3814   114.2026  -999.2500     1.1431     1.1549     1.3574   -65.8014    10.5795      .2685      .0252    61.6753
 4454.5000      .3869   114.2068  -999.2500     1.1881     1.1933     1.3322   -63.9534    10.8403      .2662      .0383    63.1514
 4455.0000      .3852   114.1973  -999.2500     1.2253     1.2282     1.3517   -62.7953    10.9774      .2546      .0463    64.2896
 4455.5000      .3806   114.3788  -999.2500     1.2585     1.2507     1.3920   -62.0493    11.0516      .2415      .0429    65.4392
 4456.0000      .3782   114.4766  -999.2500     1.2777     1.2594     1.3962   -61.5746    11.0058      .2321      .0376    66.4934
 4456.5000      .3835   114.3417  -999.2500     1.2739     1.2683     1.4045   -61.1476    10.8039      .2279      .0381    67.0071
 4457.0000      .3909   114.2559  -999.2500     1.2651     1.2755     1.4200   -60.8768    10.7805      .2251      .0407    63.4238
 4457.5000      .3971   114.2754  -999.2500     1.2516     1.2726     1.4402   -60.8275    10.7565      .2249      .0423    60.8161
 4458.0000      .3968   114.9139  -999.2500     1.2349     1.2627     1.4470   -60.6583    10.7206      .2275      .0430    60.5497
 4458.5000      .3946   116.1082  -999.2500     1.2142     1.2439     1.4291   -60.5492    10.6931      .2300      .0424    62.8934
 4459.0000      .4042   117.4899  -999.2500     1.1917     1.1929     1.4066   -60.5052    10.6656      .2334      .0351    64.5902
 4459.5000      .4154   118.3538  -999.2500     1.1607     1.1584     1.3623   -60.5288    10.6491      .2401      .0258    65.7986
 4460.0000      .4267   118.4653  -999.2500     1.1341     1.1346     1.3579   -60.4807    10.7176      .2480      .0168    65.9816
 4460.5000      .4246   118.4943  -999.2500     1.1120     1.1153     1.3527   -60.3098    10.8224      .2561      .0091    65.5914
 4461.0000      .4154   119.8247  -999.2500     1.0955     1.0998     1.3087   -60.1047    10.8490      .2629      .0085    66.9927
 4461.5000      .4148   120.7842  -999.2500     1.0823     1.0855     1.2754   -59.8879    10.8815      .2667      .0122    69.5751
 4462.0000      .4324   121.2556  -999.2500     1.0709     1.0745     1.2565   -59.7178    10.9191      .2658      .0133    71.2767
 4462.5000      .4505   120.7561  -999.2500     1.0638     1.0649     1.2403   -59.5868    10.9263      .2685      .0101    70.6090
 4463.0000      .4620   119.9875  -999.2500     1.0580     1.0584     1.2292   -59.4684    10.8463      .2752      .0064    70.0332
 4463.5000      .4644   119.1526  -999.2500     1.0523     1.0499     1.2561   -59.4875    10.7698      .2773      .0069    69.2235
 4464.0000      .4632   118.7550  -999.2500     1.0480     1.0395     1.2829   -59.5560    10.8839      .2717      .0093    69.6232
 4464.5000      .4599   119.7000  -999.2500     1.0406     1.0349     1.2801   -59.5889    10.9425      .2606      .0117    70.6899
 4465.0000      .4479   120.5231  -999.2500     1.0327     1.0315     1.2501   -59.5422    10.9330      .2539      .0138    70.6041
 4465.5000      .4209   121.1010  -999.2500     1.0245     1.0295     1.2213   -59.3282    10.8464      .2505      .0144    69.7438
 4466.0000      .4054   122.0149  -999.2500     1.0167     1.0269     1.1995   -59.0548    10.7769      .2489      .0123    69.2043
 4466.5000      .4080   123.1434  -999.2500     1.0126     1.0232     1.2144   -58.8533    10.7697      .2492      .0081    68.2623
 4467.0000      .4309   123.5168  -999.2500     1.0043     1.0195     1.2347   -58.7490    10.7055      .2513      .0033    66.9590
 4467.5000      .4461   123.4812  -999.2500      .9971     1.0156     1.2083   -58.6179    10.5880      .2586      .0006    66.0236
 4468.0000      .4538   123.1989  -999.2500      .9955     1.0113     1.1953   -58.4885    10.4371      .2687      .0003    65.7290
 4468.5000      .4473   122.9259  -999.2500     1.0059     1.0062     1.2075   -58.5471    10.3298      .2752      .0021    67.1703
 4469.0000      .4279   122.5592  -999.2500     1.0140     1.0043     1.2187   -58.6743    10.3566      .2709      .0042    69.8031
 4469.5000      .4116   122.3335  -999.2500     1.0143     1.0052     1.2197   -58.8034    10.4044      .2613      .0061    71.8984
 4470.0000      .4072   122.1927  -999.2500     1.0168     1.0093     1.2233   -58.8259    10.2997      .2575      .0085    71.2767
 4470.5000      .4066   121.9166  -999.2500     1.0186     1.0141     1.2365   -58.9687    10.3036      .2635      .0119    69.6477
