~VERSION INFORMATION
VERS.                             2.0:   CWLS Log ASCII Standard-VERSION 2.0
WRAP.                              NO:   One line per depth step
~Well Information Block
STRT.F                       590.0000:   Top Depth
STOP.F                      5513.0000:   Bottom Depth
STEP.F                         .50000:   Depth Increment
NULL.                        -999.250:   Null Value
FLD .                     MU BLK A 16:   Field Name
WELL.       OCSG03011  A001 ST00 BP00:   NAME
API .                    427024004100:   WELL API
R1  .                           13904:   COMMENT  1
EDF .F                       102.0000:   ELEV DRILL FLOOR
COMP.       CITIES SERVICE OIL COMPAN:   OPERATOR
BN  .                            A 16:   BLOCK
CTRY.                             USA:   COUNTRY NAME
CNTY.                        MG ILD L:   COUNTY NAME
EKB .F                       103.0000:   ELEV KELLY BUSHING
TDD .F                       5519.000:   FINAL TD DRILLER
STAT.                           TEXAS:   STATE NAME
UWI .                    427024004100:   WELL API
DICO.               IHS : Digitizing Company
~PARAMETER INFORMATION (zones)
#MNEM.UNIT                       Value     Description
#=========                       =====     ===========
#ZONATION                          CNL:   ZONATION NAME
#ZONE                            RUN_1:   ZONE NAME
TOP .                       3234.0000:   TOP DEPTH
BOT .                       5513.5000:   BOTTOM DEPTH
RUN .                               1:   RUN NUMBER
LCCD.                             440:   LOGGING CONTRACTOR
SRVC.                    Schlumberger:   LOGGING CONT NAME
DICO.          QC Data Collectors Ltd:   DIG COMPANY NAME
LDAT.                      03/04/1980:   DATE LOGGED
ELD .F                       103.0000:   LOG DATUM ELEVATION
TDD .F                      5512.0000:   TOTAL DEPTH DRILLER
TDL .F                      5519.0000:   TOTAL DEPTH LOGGER
BOTL.F                      5513.0000:   BOTTOM DEPTH LOGGED
TOPL.F                      3240.0000:   TOP DEPTH LOGGED
CS1 .IN                       13.3750:   CASING SIZE 1
BS1 .IN                       12.2500:   BIT SIZE 1
DDB1.F                      5512.0000:   DEPTH DRILLED BIT 1
BHF .                              99:   FLUID CODE
DPT .                   Miscellaneous:   DRILLING FLUID TYPE
MUDD.                         13.1000:   FLUID DENSITY
MUDV.                         38.0000:   FLUID VISCOSITY
DFPH.                         11.5000:   FLUID PH
FL  .                          4.0000:   FLUID LOSS
RM  .OHMM                       .8600:   RM
RMT .DEGF                     70.0000:   RM TEMP
RMF .OHMM                       .6600:   RMF
RMFT.DEGF                     70.0000:   RMF TEMP
FSC .                               M:   RMF CODE
RMC .OHMM                      1.8600:   RMC
RMCT.DEGF                     70.0000:   RMC TEMP
CMC .                               M:   RMC CODE
TMAX.DEGF                    145.0000:   MAX REC TEMP
TIMC.                          6.5000:   TIME SINCE CIRCLN
~PARAMETER INFORMATION (zones)
#MNEM.UNIT                       Value     Description
#=========                       =====     ===========
#ZONATION                          DIL:   ZONATION NAME
#ZONE                            RUN_1:   ZONE NAME
TOP .                       3240.0000:   TOP DEPTH
BOT .                       5513.5000:   BOTTOM DEPTH
RUN .                               1:   RUN NUMBER
LCCD.                             440:   LOGGING CONTRACTOR
SRVC.                    Schlumberger:   LOGGING CONT NAME
DICO.          QC Data Collectors Ltd:   DIG COMPANY NAME
LDAT.                      03/04/1980:   DATE LOGGED
ELD .F                       103.0000:   LOG DATUM ELEVATION
TDD .F                      5512.0000:   TOTAL DEPTH DRILLER
TDL .F                      5519.0000:   TOTAL DEPTH LOGGER
BOTL.F                      5513.0000:   BOTTOM DEPTH LOGGED
TOPL.F                      3240.0000:   TOP DEPTH LOGGED
CS1 .IN                       13.3750:   CASING SIZE 1
BS1 .IN                       12.2500:   BIT SIZE 1
DDB1.F                      5512.0000:   DEPTH DRILLED BIT 1
BHF .                              99:   FLUID CODE
DPT .                   Miscellaneous:   DRILLING FLUID TYPE
MUDD.                         13.1000:   FLUID DENSITY
MUDV.                         38.0000:   FLUID VISCOSITY
DFPH.                         11.5000:   FLUID PH
FL  .                          4.0000:   FLUID LOSS
RM  .OHMM                       .8600:   RM
RMT .DEGF                     70.0000:   RM TEMP
RMF .OHMM                       .6600:   RMF
RMFT.DEGF                     70.0000:   RMF TEMP
FSC .                               M:   RMF CODE
RMC .OHMM                      1.8600:   RMC
RMCT.DEGF                     70.0000:   RMC TEMP
CMC .                               M:   RMC CODE
TMAX.DEGF                    145.0000:   MAX REC TEMP
TIMC.                          6.5000:   TIME SINCE CIRCLN
~PARAMETER INFORMATION (zones)
#MNEM.UNIT                       Value     Description
#=========                       =====     ===========
#ZONATION                          DIL:   ZONATION NAME
#ZONE                          RUN_1_1:   ZONE NAME
TOP .                        590.0000:   TOP DEPTH
BOT .                       1046.5000:   BOTTOM DEPTH
RUN .                               1:   RUN NUMBER
LCCD.                             440:   LOGGING CONTRACTOR
SRVC.                    Schlumberger:   LOGGING CONT NAME
DICO.          QC Data Collectors Ltd:   DIG COMPANY NAME
LDAT.                      02/20/1980:   DATE LOGGED
ELD .F                       103.0000:   LOG DATUM ELEVATION
TDD .F                      1050.0000:   TOTAL DEPTH DRILLER
TDL .F                      1050.0000:   TOTAL DEPTH LOGGER
BOTL.F                      1046.0000:   BOTTOM DEPTH LOGGED
TOPL.F                       597.0000:   TOP DEPTH LOGGED
CS1 .IN                       30.0000:   CASING SIZE 1
BS1 .IN                       12.5000:   BIT SIZE 1
DDB1.F                      1050.0000:   DEPTH DRILLED BIT 1
BHF .                              99:   FLUID CODE
DPT .                   Miscellaneous:   DRILLING FLUID TYPE
MUDD.                          8.6000:   FLUID DENSITY
MUDV.                         39.0000:   FLUID VISCOSITY
DFPH.                         12.3000:   FLUID PH
FL  .                            NULL:   FLUID LOSS
RM  .OHMM                       .3900:   RM
RMT .DEGF                     80.0000:   RM TEMP
RMF .OHMM                       .2400:   RMF
RMFT.DEGF                     80.0000:   RMF TEMP
FSC .                               M:   RMF CODE
RMC .OHMM                       .4500:   RMC
RMCT.DEGF                     80.0000:   RMC TEMP
CMC .                               M:   RMC CODE
TMAX.DEGF                     90.0000:   MAX REC TEMP
TIMC.                          1.5000:   TIME SINCE CIRCLN
~PARAMETER INFORMATION (zones)
#MNEM.UNIT                       Value     Description
#=========                       =====     ===========
#ZONATION                          FDC:   ZONATION NAME
#ZONE                            RUN_1:   ZONE NAME
TOP .                       3234.0000:   TOP DEPTH
BOT .                       5513.5000:   BOTTOM DEPTH
RUN .                               1:   RUN NUMBER
LCCD.                             440:   LOGGING CONTRACTOR
SRVC.                    Schlumberger:   LOGGING CONT NAME
DICO.          QC Data Collectors Ltd:   DIG COMPANY NAME
LDAT.                      03/04/1980:   DATE LOGGED
ELD .F                       103.0000:   LOG DATUM ELEVATION
TDD .F                      5512.0000:   TOTAL DEPTH DRILLER
TDL .F                      5519.0000:   TOTAL DEPTH LOGGER
BOTL.F                      5513.0000:   BOTTOM DEPTH LOGGED
TOPL.F                      3240.0000:   TOP DEPTH LOGGED
CS1 .IN                       13.3750:   CASING SIZE 1
BS1 .IN                       12.2500:   BIT SIZE 1
DDB1.F                      5512.0000:   DEPTH DRILLED BIT 1
BHF .                              99:   FLUID CODE
DPT .                   Miscellaneous:   DRILLING FLUID TYPE
MUDD.                         13.1000:   FLUID DENSITY
MUDV.                         38.0000:   FLUID VISCOSITY
DFPH.                         11.5000:   FLUID PH
FL  .                          4.0000:   FLUID LOSS
RM  .OHMM                       .8600:   RM
RMT .DEGF                     70.0000:   RM TEMP
RMF .OHMM                       .6600:   RMF
RMFT.DEGF                     70.0000:   RMF TEMP
FSC .                               M:   RMF CODE
RMC .OHMM                      1.8600:   RMC
RMCT.DEGF                     70.0000:   RMC TEMP
CMC .                               M:   RMC CODE
TMAX.DEGF                    145.0000:   MAX REC TEMP
TIMC.                          6.5000:   TIME SINCE CIRCLN
~Curve Information Block
#MNEM.UNIT                    API CODE    No Description
#=========                    ========    == ===========
DEPT.F                   00 001 00 00:     1  DEPTH
NPHI.%                               :     2  Neutron Porosity
ASFL.OHMM                            :     3  Shallow Resistivity
DT.US/F                              :     4  Sonic Transit Time
GR.GAPI                              :     5  Gamma Ray
ILD.OHMM                             :     6  Deep Induction Resistivity
SFL.OHMM                             :     7  Medium Resistivity
SP.MV                                :     8  Spontaneous Potential
CALI.IN                              :     9  Caliper
DRHO.G/C3                            :    10  Bulk Density Correction
GR.GAPI                              :    11  Gamma Ray
RHOB.G/C3                            :    12  Bulk Density
~ASCII
# ...
 3823.0000    44.7573     1.2391  -999.2500  -999.2500     1.2229  -999.2500   -79.5548    12.8658     -.0023    65.7417     2.2244
 3823.5000    45.7735     1.2434  -999.2500  -999.2500     1.2341  -999.2500   -79.8004    12.8848     -.0034    65.1439     2.2157
 3824.0000    46.7253     1.2478  -999.2500  -999.2500     1.2453  -999.2500   -80.1104    12.9371     -.0024    64.5546     2.2027
 3824.5000    47.0917     1.2522  -999.2500  -999.2500     1.2554  -999.2500   -80.4203    12.9392      .0015    65.8873     2.1956
 3825.0000    47.1233     1.2543  -999.2500  -999.2500     1.2511  -999.2500   -80.7302    12.8141      .0075    68.0527     2.1959
 3825.5000    47.1248     1.2547  -999.2500  -999.2500     1.2469  -999.2500   -81.0403    12.7458      .0135    67.8445     2.2030
 3826.0000    46.4213     1.2515  -999.2500  -999.2500     1.2426  -999.2500   -81.2903    12.7850      .0154    65.9551     2.2093
 3826.5000    45.6201     1.2472  -999.2500  -999.2500     1.2383  -999.2500   -81.0811    12.8512      .0162    64.1185     2.2132
 3827.0000    44.6516     1.2430  -999.2500  -999.2500     1.2340  -999.2500   -80.8718    12.8190      .0167    63.2983     2.2158
 3827.5000    43.8867     1.2388  -999.2500  -999.2500     1.2255  -999.2500   -80.6626    12.7977      .0157    64.9303     2.2198
 3828.0000    43.8231     1.2362  -999.2500  -999.2500     1.2064  -999.2500   -80.4534    12.7787      .0128    66.6338     2.2241
 3828.5000    44.4402     1.2364  -999.2500  -999.2500     1.1872  -999.2500   -80.2444    12.7830      .0112    67.8876     2.2281
 3829.0000    45.2731     1.2367  -999.2500  -999.2500     1.1681  -999.2500   -80.0341    12.7943      .0118    68.5352     2.2308
 3829.5000    46.1430     1.2332  -999.2500  -999.2500     1.1489  -999.2500   -79.8218    12.8144      .0134    68.7782     2.2320
 3830.0000    47.4910     1.2237  -999.2500  -999.2500     1.1297  -999.2500   -79.6094    12.8404      .0120    68.4037     2.2234
 3830.5000    48.9003     1.2142  -999.2500  -999.2500     1.1106  -999.2500   -79.3972    12.8517      .0067    68.2965     2.2099
 3831.0000    49.0751     1.1991  -999.2500  -999.2500     1.1012  -999.2500   -79.1090    12.7505      .0027    69.1360     2.1974
 3831.5000    48.2433     1.1798  -999.2500  -999.2500     1.1172  -999.2500   -78.6859    12.6271      .0005    70.2734     2.1899
 3832.0000    47.2471     1.1728  -999.2500  -999.2500     1.1333  -999.2500   -78.2631    12.5818      .0014    71.4084     2.1863
 3832.5000    46.6049     1.1894  -999.2500  -999.2500     1.1494  -999.2500   -78.2062    12.6431      .0016    71.6992     2.1851
 3833.0000    46.0351     1.2060  -999.2500  -999.2500     1.1655  -999.2500   -78.1016    12.7012      .0033    70.5691     2.1871
 3833.5000    45.5355     1.2227  -999.2500  -999.2500     1.1816  -999.2500   -77.9108    12.7258      .0094    68.9764     2.1913
 3834.0000    45.0784     1.2368  -999.2500  -999.2500     1.1977  -999.2500   -77.7197    12.6728      .0166    67.0292     2.1965
 3834.5000    44.5674     1.2493  -999.2500  -999.2500     1.2138  -999.2500   -77.5289    12.6642      .0231    65.0337     2.2085
 3835.0000    44.0364     1.2618  -999.2500  -999.2500     1.2260  -999.2500   -77.6503    12.6751      .0292    63.6038     2.2204
 3835.5000    43.4013     1.2743  -999.2500  -999.2500     1.2345  -999.2500   -77.8030    12.6988      .0319    63.6465     2.2292
 3836.0000    43.4895     1.2797  -999.2500  -999.2500     1.2430  -999.2500   -77.7595    12.7121      .0262    64.2506     2.2289
 3836.5000    43.8306     1.2831  -999.2500  -999.2500     1.2515  -999.2500   -77.7161    12.7149      .0186    64.8446     2.2234
 3837.0000    44.4565     1.2715  -999.2500  -999.2500     1.2600  -999.2500   -77.6158    12.7089      .0114    64.7393     2.2182
 3837.5000    45.0215     1.2600  -999.2500  -999.2500     1.2602  -999.2500   -77.4292    12.7004      .0073    64.7578     2.2146
 3838.0000    45.5610     1.2484  -999.2500  -999.2500     1.2431  -999.2500   -77.2427    12.6938      .0046    65.1993     2.2204
 3838.5000    45.9712     1.2368  -999.2500  -999.2500     1.2259  -999.2500   -77.1676    12.6906      .0114    65.6456     2.2348
 3839.0000    46.1166     1.2244  -999.2500  -999.2500     1.2088  -999.2500   -77.1193    12.7245      .0189    65.7205     2.2464
 3839.5000    46.1007     1.2109  -999.2500  -999.2500     1.1917  -999.2500   -77.0710    12.7737      .0203    65.0452     2.2556
 3840.0000    46.3713     1.2126  -999.2500  -999.2500     1.1746  -999.2500   -77.0227    12.8076      .0153    64.4087     2.2562
 3840.5000    46.7509     1.2180  -999.2500  -999.2500     1.1574  -999.2500   -76.8186    12.8316      .0099    64.2858     2.2511
 3841.0000    46.3677     1.2235  -999.2500  -999.2500     1.1403  -999.2500   -76.5265    12.8393      .0081    64.6476     2.2519
 3841.5000    44.8911     1.2290  -999.2500  -999.2500     1.1490  -999.2500   -76.7759    12.8470      .0084    65.0195     2.2626
 3842.0000    43.5563     1.2346  -999.2500  -999.2500     1.1676  -999.2500   -77.0165    12.8581      .0102    65.3955     2.2699
 3842.5000    42.6432     1.2409  -999.2500  -999.2500     1.1862  -999.2500   -77.2413    12.8695      .0125    65.6394     2.2726
 3843.0000    43.1883     1.2472  -999.2500  -999.2500     1.2049  -999.2500   -76.9084    12.8796      .0150    65.4060     2.2749
 3843.5000    44.3405     1.2535  -999.2500  -999.2500     1.2235  -999.2500   -76.5756    12.8880      .0183    65.2670     2.2799
 3844.0000    44.6516     1.2597  -999.2500  -999.2500     1.2421  -999.2500   -76.2684    12.8958      .0219    65.4796     2.2858
 3844.5000    44.7024     1.2653  -999.2500  -999.2500     1.2607  -999.2500   -76.0492    12.8993      .0221    66.3345     2.2836
 3845.0000    44.4809     1.2668  -999.2500  -999.2500     1.2648  -999.2500   -75.8301    12.9202      .0176    66.8062     2.2809
 3845.5000    44.0740     1.2592  -999.2500  -999.2500     1.2426  -999.2500   -76.0283    12.9250      .0131    67.0262     2.2733
 3846.0000    43.8021     1.2406  -999.2500  -999.2500     1.2205  -999.2500   -76.3074    12.8707      .0116    67.0863     2.2650
 3846.5000    43.8790     1.2202  -999.2500  -999.2500     1.1983  -999.2500   -76.0439    12.8201      .0117    67.1967     2.2556
 3847.0000    44.8482     1.1998  -999.2500  -999.2500     1.1762  -999.2500   -75.6653    12.8029      .0118    67.4148     2.2482
 3847.5000    45.2589     1.1794  -999.2500  -999.2500     1.1430  -999.2500   -75.2867    12.7856      .0081    67.3242     2.2385
 3848.0000    45.1893     1.1635  -999.2500  -999.2500     1.1093  -999.2500   -75.1932    12.7680      .0048    67.0804     2.2347
 3848.5000    45.9583     1.1486  -999.2500  -999.2500     1.0755  -999.2500   -75.1497    12.7384      .0138    67.3777     2.2413
 3849.0000    47.1547     1.1337  -999.2500  -999.2500     1.0418  -999.2500   -75.1439    12.7090      .0253    69.0221     2.2468
 3849.5000    47.8406     1.1189  -999.2500  -999.2500     1.0080  -999.2500   -75.8282    12.6811      .0304    70.6935     2.2434
 3850.0000    47.6133     1.1033  -999.2500  -999.2500     1.0018  -999.2500   -76.5132    12.6537      .0282    71.5250     2.2345
 3850.5000    46.8066     1.0921  -999.2500  -999.2500     1.0194  -999.2500   -77.0741    12.6330      .0247    71.0488     2.2244
 3851.0000    45.9833     1.1232  -999.2500  -999.2500     1.0370  -999.2500   -77.4576    12.6123      .0202    70.5571     2.2145
 3851.5000    45.2831     1.1511  -999.2500  -999.2500     1.0546  -999.2500   -77.8416    12.5993      .0160    70.1761     2.2077
 3852.0000    44.8576     1.1668  -999.2500  -999.2500     1.0723  -999.2500   -78.1443    12.5894      .0140    70.1337     2.2069
 3852.5000    44.7077     1.1825  -999.2500  -999.2500     1.1355  -999.2500   -78.3905    12.6021      .0211    70.5448     2.2238
 3853.0000    44.9657     1.2206  -999.2500  -999.2500     1.2008  -999.2500   -78.6370    12.6146      .0242    70.4299     2.2342
