~VERSION INFORMATION
VERS.                             2.0:   CWLS Log ASCII Standard-VERSION 2.0
WRAP.                              NO:   One line per depth step
~Well Information Block
STRT.F                      1238.0000:   Top Depth
STOP.F                      5786.0000:   Bottom Depth
STEP.F                         .50000:   Depth Increment
NULL.                        -999.250:   Null Value
FLD .                     MU BLK A 18:   Field Name
WELL.       OCSG05167   001 ST00 BP00:   NAME
API .                    427024015100:   WELL API
R1  .            STANDARD OIL PROD CO:   COMMENT  1
EDF .F                       884.0000:   ELEV DRILL FLOOR
COMP.            STANDARD OIL PROD CO:   OPERATOR
BN  .                            A 18:   BLOCK
CTRY.                             USA:   COUNTRY NAME
CNTY.                        MG ILD L:   COUNTY NAME
EKB .F                        85.0000:   ELEV KELLY BUSHING
TDD .F                       5792.000:   FINAL TD DRILLER
STAT.                           TEXAS:   STATE NAME
UWI .                    427024015100:   WELL API
DICO.               IHS : Digitizing Company
~PARAMETER INFORMATION (zones)
#MNEM.UNIT                       Value     Description
#=========                       =====     ===========
#ZONATION                          CNL:   ZONATION NAME
#ZONE                            RUN_0:   ZONE NAME
TOP .                       3294.0000:   TOP DEPTH
BOT .                       5786.5000:   BOTTOM DEPTH
RUN .                               0:   RUN NUMBER
LCCD.                             440:   LOGGING CONTRACTOR
SRVC.                    Schlumberger:   LOGGING CONT NAME
DICO.          QC Data Collectors Ltd:   DIG COMPANY NAME
LDAT.                      11/28/1987:   DATE LOGGED
ELD .F                        85.0000:   LOG DATUM ELEVATION
TDD .F                      5785.0000:   TOTAL DEPTH DRILLER
TDL .F                      5792.0000:   TOTAL DEPTH LOGGER
BOTL.F                      5786.0000:   BOTTOM DEPTH LOGGED
TOPL.F                      3300.0000:   TOP DEPTH LOGGED
CS1 .IN                       10.7500:   CASING SIZE 1
BS1 .IN                        9.8750:   BIT SIZE 1
DDB1.F                      5785.0000:   DEPTH DRILLED BIT 1
BHF .                              81:   FLUID CODE
DPT .          Lignosulfonate (Ligno):   DRILLING FLUID TYPE
MUDD.                         11.0000:   FLUID DENSITY
MUDV.                         41.0000:   FLUID VISCOSITY
DFPH.                         10.0000:   FLUID PH
FL  .                         10.0000:   FLUID LOSS
RM  .OHMM                       .9400:   RM
~PARAMETER INFORMATION (zones)
#MNEM.UNIT                       Value     Description
#=========                       =====     ===========
#ZONATION                          DIL:   ZONATION NAME
#ZONE                            RUN_1:   ZONE NAME
TOP .                       1238.0000:   TOP DEPTH
BOT .                       5786.5000:   BOTTOM DEPTH
RUN .                               1:   RUN NUMBER
LCCD.                             440:   LOGGING CONTRACTOR
SRVC.                    Schlumberger:   LOGGING CONT NAME
DICO.          QC Data Collectors Ltd:   DIG COMPANY NAME
LDAT.                      11/23/1987:   DATE LOGGED
ELD .F                        85.0000:   LOG DATUM ELEVATION
TDD .F                      3540.0000:   TOTAL DEPTH DRILLER
TDL .F                      3539.0000:   TOTAL DEPTH LOGGER
BOTL.F                      3533.0000:   BOTTOM DEPTH LOGGED
TOPL.F                      1294.0000:   TOP DEPTH LOGGED
CS1 .IN                       16.0000:   CASING SIZE 1
BS1 .IN                       13.5000:   BIT SIZE 1
DDB1.F                      3540.0000:   DEPTH DRILLED BIT 1
BHF .                              81:   FLUID CODE
DPT .          Lignosulfonate (Ligno):   DRILLING FLUID TYPE
MUDV.                         38.0000:   FLUID VISCOSITY
DFPH.                          8.0000:   FLUID PH
FL  .                         29.2000:   FLUID LOSS
RMF .OHMM                       .2400:   RMF
FSC .                               C:   RMF CODE
TMAX.DEGF                    120.0000:   MAX REC TEMP
TIMC.                          4.0000:   TIME SINCE CIRCLN
~PARAMETER INFORMATION (zones)
#MNEM.UNIT                       Value     Description
#=========                       =====     ===========
#ZONATION                          FDC:   ZONATION NAME
#ZONE                            RUN_0:   ZONE NAME
TOP .                       3294.0000:   TOP DEPTH
BOT .                       5786.5000:   BOTTOM DEPTH
RUN .                               0:   RUN NUMBER
LCCD.                             440:   LOGGING CONTRACTOR
SRVC.                    Schlumberger:   LOGGING CONT NAME
DICO.          QC Data Collectors Ltd:   DIG COMPANY NAME
LDAT.                      11/28/1987:   DATE LOGGED
ELD .F                        85.0000:   LOG DATUM ELEVATION
TDD .F                      5785.0000:   TOTAL DEPTH DRILLER
TDL .F                      5792.0000:   TOTAL DEPTH LOGGER
BOTL.F                      5786.0000:   BOTTOM DEPTH LOGGED
TOPL.F                      3300.0000:   TOP DEPTH LOGGED
CS1 .IN                       10.7500:   CASING SIZE 1
BS1 .IN                        9.8750:   BIT SIZE 1
DDB1.F                      5785.0000:   DEPTH DRILLED BIT 1
BHF .                              81:   FLUID CODE
DPT .          Lignosulfonate (Ligno):   DRILLING FLUID TYPE
MUDD.                         11.0000:   FLUID DENSITY
MUDV.                         41.0000:   FLUID VISCOSITY
DFPH.                         10.0000:   FLUID PH
FL  .                         10.0000:   FLUID LOSS
RM  .OHMM                       .9400:   RM
~Curve Information Block
#MNEM.UNIT                    API CODE    No Description
#=========                    ========    == ===========
DEPT.F                   00 001 00 00:     1  DEPTH
NPHI.DEC                              :     2  Neutron Porosity
DT.US/F                              :     3  Sonic Transit Time
GR.GAPI                              :     4  Gamma Ray
ILD.OHMM                             :     5  Deep Induction Resistivity
ILM.OHMM                             :     6  Medium Induction Resistivity
SFL.OHMM                             :     7  Medium Resistivity
SP.MV                                :     8  Spontaneous Potential
CALI.IN                              :     9  Caliper
DPHI.DEC                              :    10  Porosity
DRHO.G/C3                            :    11  Bulk Density Correction
GR.GAPI                              :    12  Gamma Ray
~ASCII
# ...
 3434.0000      .5996   128.4951  -999.2500     1.0040     1.0084      .9203  -999.2500  -999.2500  -999.2500  -999.2500    47.7571
 3434.5000      .6000   128.9067  -999.2500     1.0092     1.0127      .9225  -999.2500  -999.2500  -999.2500  -999.2500    47.8232
 3435.0000      .5958   129.5784  -999.2500     1.0177     1.0144      .9353  -999.2500  -999.2500  -999.2500  -999.2500    46.2474
 3435.5000      .5801   130.5618  -999.2500     1.0275     1.0143      .9565  -999.2500  -999.2500  -999.2500  -999.2500    45.0580
 3436.0000      .5750   132.1147  -999.2500     1.0337     1.0166      .9624  -999.2500  -999.2500  -999.2500  -999.2500    44.1946
 3436.5000      .5792   132.4778  -999.2500     1.0408     1.0208      .9647  -999.2500  -999.2500  -999.2500  -999.2500    43.7076
 3437.0000      .5810   131.5364  -999.2500     1.0499     1.0251      .9667  -999.2500  -999.2500  -999.2500  -999.2500    44.3344
 3437.5000      .5663   130.6184  -999.2500     1.0574     1.0322      .9679  -999.2500  -999.2500  -999.2500  -999.2500    44.4256
 3438.0000      .5526   130.4143  -999.2500     1.0638     1.0349      .9692  -999.2500  -999.2500  -999.2500  -999.2500    44.0092
 3438.5000      .5467   130.7029  -999.2500     1.0606     1.0353      .9721  -999.2500  -999.2500  -999.2500  -999.2500    44.0974
 3439.0000      .5578   131.0806  -999.2500     1.0569     1.0334      .9503  -999.2500  -999.2500  -999.2500  -999.2500    45.8544
 3439.5000      .5623   131.0913  -999.2500     1.0505     1.0233      .9104  -999.2500  -999.2500  -999.2500  -999.2500    47.6624
 3440.0000      .5483   130.3833  -999.2500     1.0401     1.0126      .8730  -999.2500  -999.2500  -999.2500  -999.2500    48.1985
 3440.5000      .5311   129.1323  -999.2500     1.0220     1.0034      .8773  -999.2500  -999.2500  -999.2500  -999.2500    47.1025
 3441.0000      .5300   126.2075  -999.2500      .9919      .9872      .9101  -999.2500  -999.2500  -999.2500  -999.2500    45.7581
 3441.5000      .5364   125.1903  -999.2500      .9500      .9513      .9309  -999.2500  -999.2500  -999.2500  -999.2500    45.0787
 3442.0000      .5459   126.9878  -999.2500      .8912      .9096      .9127  -999.2500  -999.2500  -999.2500  -999.2500    44.1754
 3442.5000      .5564   128.8562  -999.2500      .8282      .8647      .8696  -999.2500  -999.2500  -999.2500  -999.2500    42.8024
 3443.0000      .5651   130.4553  -999.2500      .7817      .8172      .8264  -999.2500  -999.2500  -999.2500  -999.2500    41.0718
 3443.5000      .5728   130.9751  -999.2500      .7485      .7758      .7833  -999.2500  -999.2500  -999.2500  -999.2500    39.3593
 3444.0000      .5787   129.3145  -999.2500      .7272      .7396      .7410  -999.2500  -999.2500  -999.2500  -999.2500    38.3055
 3444.5000      .5694   128.1829  -999.2500      .7152      .7158      .7056  -999.2500  -999.2500  -999.2500  -999.2500    37.3430
 3445.0000      .5422   127.8763  -999.2500      .7199      .7123      .6772  -999.2500  -999.2500  -999.2500  -999.2500    36.9158
 3445.5000      .5354   129.4058  -999.2500      .7286      .7095      .6512  -999.2500  -999.2500  -999.2500  -999.2500    35.8627
 3446.0000      .5549   133.6572  -999.2500      .7333      .7007      .6533  -999.2500  -999.2500  -999.2500  -999.2500    34.8431
 3446.5000      .5778   138.9814  -999.2500      .7307      .6894      .6837  -999.2500  -999.2500  -999.2500  -999.2500    34.5911
 3447.0000      .6096   140.0864  -999.2500      .7301      .7160      .7187  -999.2500  -999.2500  -999.2500  -999.2500    38.0739
 3447.5000      .6175   137.2307  -999.2500      .7545      .7500      .7522  -999.2500  -999.2500  -999.2500  -999.2500    41.4847
 3448.0000      .6345   134.4160  -999.2500      .7978      .7950      .7920  -999.2500  -999.2500  -999.2500  -999.2500    44.7454
 3448.5000      .6426   132.5469  -999.2500      .8422      .8486      .8331  -999.2500  -999.2500  -999.2500  -999.2500    46.7545
 3449.0000      .6509   131.5405  -999.2500      .8793      .8843      .8652  -999.2500  -999.2500  -999.2500  -999.2500    47.4919
 3449.5000      .6915   130.8718  -999.2500      .9199      .9146      .8832  -999.2500  -999.2500  -999.2500  -999.2500    47.1049
 3450.0000      .7143   131.2881  -999.2500      .9414      .9303      .8775  -999.2500  -999.2500  -999.2500  -999.2500    46.2468
 3450.5000      .7158   131.5642  -999.2500      .9539      .9537      .8737  -999.2500  -999.2500  -999.2500  -999.2500    45.2507
 3451.0000      .6892   131.2173  -999.2500      .9676      .9764      .8732  -999.2500  -999.2500  -999.2500  -999.2500    44.1573
 3451.5000      .6529   130.9897  -999.2500      .9789      .9797      .8755  -999.2500  -999.2500  -999.2500  -999.2500    43.1528
 3452.0000      .6372   131.3496  -999.2500      .9833      .9791      .8962  -999.2500  -999.2500  -999.2500  -999.2500    43.1661
 3452.5000      .6587   132.0872  -999.2500      .9819      .9783      .9188  -999.2500  -999.2500  -999.2500  -999.2500    45.1403
 3453.0000      .6765   132.5400  -999.2500      .9763      .9711      .9342  -999.2500  -999.2500  -999.2500  -999.2500    46.6152
 3453.5000      .6796   132.1445  -999.2500      .9665      .9620      .9417  -999.2500  -999.2500  -999.2500  -999.2500    46.3947
 3454.0000      .6141   131.0820  -999.2500      .9576      .9550      .9380  -999.2500  -999.2500  -999.2500  -999.2500    43.4049
 3454.5000      .5952   128.4570  -999.2500      .9499      .9491      .9274  -999.2500  -999.2500  -999.2500  -999.2500    38.7508
 3455.0000      .5748   127.7655  -999.2500      .9446      .9429      .9127  -999.2500  -999.2500  -999.2500  -999.2500    33.5398
 3455.5000      .5485   126.3522  -999.2500      .9485      .9419      .9026  -999.2500  -999.2500  -999.2500  -999.2500    30.5767
 3456.0000      .5679   120.9304  -999.2500      .9583      .9525      .8990  -999.2500  -999.2500  -999.2500  -999.2500    30.3775
 3456.5000      .6010   116.1632  -999.2500      .9771      .9716      .9627  -999.2500  -999.2500  -999.2500  -999.2500    33.4366
 3457.0000      .6213   112.4827  -999.2500      .9855      .9882     1.0871  -999.2500  -999.2500  -999.2500  -999.2500    37.0538
 3457.5000      .6301   114.9456  -999.2500      .9775      .9920     1.1889  -999.2500  -999.2500  -999.2500  -999.2500    40.3818
 3458.0000      .6324   125.4503  -999.2500      .9726      .9797     1.1074  -999.2500  -999.2500  -999.2500  -999.2500    42.0505
 3458.5000      .6322   132.4390  -999.2500      .9718      .9824      .9892  -999.2500  -999.2500  -999.2500  -999.2500    41.8501
 3459.0000      .6073   134.4285  -999.2500      .9738      .9878      .9235  -999.2500  -999.2500  -999.2500  -999.2500    41.9047
 3459.5000      .5896   133.8918  -999.2500      .9821      .9885      .8897  -999.2500  -999.2500  -999.2500  -999.2500    43.3353
 3460.0000      .5827   133.1531  -999.2500      .9900      .9899      .8895  -999.2500  -999.2500  -999.2500  -999.2500    45.4151
 3460.5000      .5930   132.3257  -999.2500      .9933      .9923      .8967  -999.2500  -999.2500  -999.2500  -999.2500    47.5609
 3461.0000      .6114   131.5244  -999.2500      .9885      .9958      .9113  -999.2500  -999.2500  -999.2500  -999.2500    46.5264
 3461.5000      .6230   131.0779  -999.2500      .9838      .9912      .9293  -999.2500  -999.2500  -999.2500  -999.2500    44.7047
 3462.0000      .6043   131.0156  -999.2500      .9822      .9867      .9466  -999.2500  -999.2500  -999.2500  -999.2500    43.2173
 3462.5000      .5876   131.1687  -999.2500      .9841      .9823      .9638  -999.2500  -999.2500  -999.2500  -999.2500    43.5129
 3463.0000      .5758   131.5562  -999.2500      .9850      .9782      .9761  -999.2500  -999.2500  -999.2500  -999.2500    44.4640
 3463.5000      .5837   132.3389  -999.2500      .9808      .9740      .9821  -999.2500  -999.2500  -999.2500  -999.2500    44.8525
 3464.0000      .5989   133.4790  -999.2500      .9760      .9695      .9815  -999.2500  -999.2500  -999.2500  -999.2500    44.1952
