~VERSION INFORMATION
VERS.                             2.0:   CWLS Log ASCII Standard-VERSION 2.0
WRAP.                              NO:   One line per depth step
~Well Information Block
STRT.F                      3964.0000:   Top Depth
STOP.F                      6748.0000:   Bottom Depth
STEP.F                         .50000:   Depth Increment
NULL.                        -999.250:   Null Value
FLD .                     MU BLK A 26:   Field Name
WELL.       OCSG13276   001 ST00 BP00:   NAME
API .                    427024021500:   WELL API
EDF .F                        73.0000:   ELEV DRILL FLOOR
COMP.                  ORYX ENERGY CO:   OPERATOR
BN  .                            A 26:   BLOCK
CTRY.                             USA:   COUNTRY NAME
CNTY.                        MG ILD L:   COUNTY NAME
EGL .F                      -290.0000:   ELEV GROUND LEVEL
TDD .F                       6750.000:   FINAL TD DRILLER
STAT.                           TEXAS:   STATE NAME
UWI .                    427024021500:   WELL API
DICO.               IHS : Digitizing Company
~PARAMETER INFORMATION (zones)
#MNEM.UNIT                       Value     Description
#=========                       =====     ===========
#ZONATION                          CNL:   ZONATION NAME
#ZONE                            RUN_1:   ZONE NAME
TOP .                       3970.0000:   TOP DEPTH
BOT .                       6744.5000:   BOTTOM DEPTH
RUN .                               1:   RUN NUMBER
LCCD.                             510:   LOGGING CONTRACTOR
SRVC.                   Western Atlas:   LOGGING CONT NAME
DICO.          QC Data Collectors Ltd:   DIG COMPANY NAME
LDAT.                      08/29/1993:   DATE LOGGED
TDD .F                      6750.0000:   TOTAL DEPTH DRILLER
TDL .F                      6749.0000:   TOTAL DEPTH LOGGER
BOTL.F                      6746.0000:   BOTTOM DEPTH LOGGED
TOPL.F                      3998.0000:   TOP DEPTH LOGGED
CS1 .IN                       13.3750:   CASING SIZE 1
BS1 .IN                       12.2500:   BIT SIZE 1
DDB1.F                      6750.0000:   DEPTH DRILLED BIT 1
BHF .                              32:   FLUID CODE
DPT .                          low PH:   DRILLING FLUID TYPE
MUDD.                         11.5000:   FLUID DENSITY
MUDV.                         46.0000:   FLUID VISCOSITY
DFPH.                          8.8000:   FLUID PH
FL  .                          5.0000:   FLUID LOSS
RM  .OHMM                      1.2400:   RM
RMT .DEGF                     75.0000:   RM TEMP
RMF .OHMM                      1.1400:   RMF
RMFT.DEGF                     75.0000:   RMF TEMP
FSC .                               M:   RMF CODE
RMC .OHMM                      1.8000:   RMC
RMCT.DEGF                     75.0000:   RMC TEMP
CMC .                               M:   RMC CODE
TMAX.DEGF                    164.0000:   MAX REC TEMP
TIMC.                         10.0000:   TIME SINCE CIRCLN
~PARAMETER INFORMATION (zones)
#MNEM.UNIT                       Value     Description
#=========                       =====     ===========
#ZONATION                          DIL:   ZONATION NAME
#ZONE                            RUN_1:   ZONE NAME
TOP .                       3986.0000:   TOP DEPTH
BOT .                       6748.5000:   BOTTOM DEPTH
RUN .                               1:   RUN NUMBER
LCCD.                             510:   LOGGING CONTRACTOR
SRVC.                   Western Atlas:   LOGGING CONT NAME
DICO.          QC Data Collectors Ltd:   DIG COMPANY NAME
LDAT.                      08/29/1993:   DATE LOGGED
TDD .F                      6750.0000:   TOTAL DEPTH DRILLER
TDL .F                      6750.0000:   TOTAL DEPTH LOGGER
BOTL.F                      6748.0000:   BOTTOM DEPTH LOGGED
TOPL.F                      3998.0000:   TOP DEPTH LOGGED
CS1 .IN                       13.3750:   CASING SIZE 1
BS1 .IN                       12.2500:   BIT SIZE 1
DDB1.F                      6750.0000:   DEPTH DRILLED BIT 1
BHF .                              32:   FLUID CODE
DPT .                          low PH:   DRILLING FLUID TYPE
MUDD.                         11.5000:   FLUID DENSITY
MUDV.                         46.0000:   FLUID VISCOSITY
DFPH.                          8.8000:   FLUID PH
FL  .                          5.0000:   FLUID LOSS
RM  .OHMM                      1.2400:   RM
RMT .DEGF                     75.0000:   RM TEMP
RMF .OHMM                      1.1400:   RMF
RMFT.DEGF                     75.0000:   RMF TEMP
FSC .                               M:   RMF CODE
RMC .OHMM                      1.8000:   RMC
RMCT.DEGF                     75.0000:   RMC TEMP
CMC .                               M:   RMC CODE
TMAX.DEGF                    158.0000:   MAX REC TEMP
TIMC.                          6.0000:   TIME SINCE CIRCLN
~PARAMETER INFORMATION (zones)
#MNEM.UNIT                       Value     Description
#=========                       =====     ===========
#ZONATION                          FDC:   ZONATION NAME
#ZONE                            RUN_1:   ZONE NAME
TOP .                       3964.0000:   TOP DEPTH
BOT .                       6746.5000:   BOTTOM DEPTH
RUN .                               1:   RUN NUMBER
LCCD.                             510:   LOGGING CONTRACTOR
SRVC.                   Western Atlas:   LOGGING CONT NAME
DICO.          QC Data Collectors Ltd:   DIG COMPANY NAME
LDAT.                      08/29/1993:   DATE LOGGED
TDD .F                      6750.0000:   TOTAL DEPTH DRILLER
TDL .F                      6749.0000:   TOTAL DEPTH LOGGER
BOTL.F                      6746.0000:   BOTTOM DEPTH LOGGED
TOPL.F                      3998.0000:   TOP DEPTH LOGGED
CS1 .IN                       13.3750:   CASING SIZE 1
BS1 .IN                       12.2500:   BIT SIZE 1
DDB1.F                      6750.0000:   DEPTH DRILLED BIT 1
BHF .                              32:   FLUID CODE
DPT .                          low PH:   DRILLING FLUID TYPE
MUDD.                         11.5000:   FLUID DENSITY
MUDV.                         46.0000:   FLUID VISCOSITY
DFPH.                          8.8000:   FLUID PH
FL  .                          5.0000:   FLUID LOSS
RM  .OHMM                      1.2400:   RM
RMT .DEGF                     75.0000:   RM TEMP
RMF .OHMM                      1.1400:   RMF
RMFT.DEGF                     75.0000:   RMF TEMP
FSC .                               M:   RMF CODE
RMC .OHMM                      1.8000:   RMC
RMCT.DEGF                     75.0000:   RMC TEMP
CMC .                               M:   RMC CODE
TMAX.DEGF                    164.0000:   MAX REC TEMP
TIMC.                         10.0000:   TIME SINCE CIRCLN
~Curve Information Block
#MNEM.UNIT                    API CODE    No Description
#=========                    ========    == ===========
DEPT.F                   00 001 00 00:     1  DEPTH
NPHI.%                               :     2  Neutron Porosity
DT.US/F                              :     3  Sonic Transit Time
GR.GAPI                              :     4  Gamma Ray
ILD.OHMM                             :     5  Deep Induction Resistivity
ILM.OHMM                             :     6  Medium Induction Resistivity
RFOC.OHMM                            :     7  Medium Resistivity
SP.MV                                :     8  Spontaneous Potential
CALI.IN                              :     9  Caliper
DPHI.%                               :    10  Porosity
DRHO.G/C3                            :    11  Bulk Density Correction
GRD.GAPI                             :    12  Gamma Ray
~ASCII
# ...
 5428.0000    33.2206   101.6321    54.7553     1.1726     1.2177     1.5383   -81.0353    12.3152    16.7760      .0435    62.5599
 5428.5000    33.8075   100.5308    54.7458     1.1597     1.1973     1.5224   -80.9158    12.3076    17.2696      .0481    61.8449
 5429.0000    34.2937   101.1012    55.4845     1.1415     1.1759     1.5019   -80.6696    12.2840    18.1028      .0488    61.2640
 5429.5000    34.8735   102.7428    57.8384     1.1218     1.1533     1.4797   -80.3380    12.2582    18.7299      .0442    61.0859
 5430.0000    35.3415   105.0592    60.2877     1.1011     1.1441     1.4583   -79.6418    12.2301    19.3098      .0504    61.3412
 5430.5000    35.3095   107.4456    61.7534     1.0975     1.1499     1.4428   -78.8986    12.2002    19.8584      .0512    63.0728
 5431.0000    34.0344   109.2548    60.2755     1.1205     1.1718     1.4406   -78.2159    12.1865    20.2895      .0464    66.0753
 5431.5000    32.5243   110.6216    57.0652     1.1664     1.2184     1.4508   -77.7562    12.1885    20.3275      .0410    68.2983
 5432.0000    31.2745   111.4756    53.6958     1.2194     1.2687     1.4669   -77.6294    12.1913    19.4805      .0404    68.4880
 5432.5000    30.5072   111.2257    52.5070     1.2651     1.3206     1.4991   -77.8550    12.1952    18.2813      .0410    66.1443
 5433.0000    30.1399   109.0773    52.5943     1.3067     1.3675     1.5500   -78.3279    12.1976    17.1045      .0425    62.4053
 5433.5000    29.8961   105.1942    53.0939     1.3384     1.4036     1.6127   -78.8961    12.1956    15.8078      .0452    58.2672
 5434.0000    29.4127    99.9167    53.7894     1.3363     1.3938     1.6801   -79.6437    12.1936    15.2871      .0476    55.0652
 5434.5000    29.6409    96.0723    53.7844     1.3001     1.3467     1.7079   -80.9166    12.1916    15.4254      .0490    52.8138
 5435.0000    30.7136    95.4108    54.1497     1.2707     1.3044     1.6369   -81.3699    12.1705    16.2296      .0467    52.9838
 5435.5000    32.1375    97.0906    55.9323     1.2367     1.2757     1.5323   -81.3210    12.1446    17.2346      .0424    55.4863
 5436.0000    33.5613   100.7563    58.3498     1.1998     1.2360     1.4354   -80.5796    12.1407    18.0797      .0357    58.7007
 5436.5000    34.9852   105.2341    58.8954     1.1720     1.2066     1.3890   -80.0963    12.1483    18.6808      .0365    60.1078
 5437.0000    35.6074   109.7920    55.3328     1.1474     1.1809     1.3989   -80.8610    12.1485    18.7939      .0463    59.3935
 5437.5000    35.3243   110.4436    50.5932     1.1250     1.1701     1.4186   -81.9193    12.1473    18.3531      .0523    58.8399
 5438.0000    34.4681   109.8032    50.3558     1.1063     1.1688     1.4454   -82.6163    12.1451    17.7569      .0465    58.9569
 5438.5000    33.9778   108.9556    51.8130     1.1072     1.1701     1.4644   -82.7296    12.1288    17.2607      .0422    60.4939
 5439.0000    34.0900   107.9567    51.6564     1.1346     1.1725     1.4746   -82.5479    12.0981    16.8779      .0428    61.3215
 5439.5000    34.3082   106.7959    50.6140     1.1416     1.1668     1.4765   -82.4697    12.0578    16.6397      .0445    61.0026
 5440.0000    34.5983   105.5503    50.4060     1.1182     1.1520     1.4666   -82.4884    12.0205    16.8223      .0436    59.3264
 5440.5000    34.9818   105.4491    51.5744     1.1000     1.1356     1.4445   -82.6619    11.9883    17.3165      .0393    57.7543
 5441.0000    35.5543   107.0845    52.9238     1.0780     1.1183     1.4217   -82.8851    11.9718    17.7263      .0435    57.6273
 5441.5000    36.2855   108.7500    53.6497     1.0572     1.1008     1.4018   -83.1559    11.9571    18.0689      .0475    59.4483
 5442.0000    37.1752   110.1543    53.6157     1.0402     1.0858     1.3904   -83.3232    11.9534    18.3199      .0496    60.3514
 5442.5000    37.4964   110.9630    53.6909     1.0328     1.0764     1.3832   -83.3584    11.9605    18.3188      .0472    60.5986
 5443.0000    36.9387   111.1904    54.7407     1.0353     1.0727     1.3797   -83.1940    11.9766    18.3177      .0423    61.0383
 5443.5000    36.0660   110.7927    57.4028     1.0469     1.0812     1.3797   -82.9008    12.0496    18.3525      .0389    61.5623
 5444.0000    35.1049   110.2255    57.1875     1.0592     1.0924     1.3891   -82.5416    12.1983    18.3556      .0428    61.6337
 5444.5000    34.5630   109.1860    53.9014     1.0720     1.1049     1.4040   -82.2083    12.2679    18.2123      .0484    61.0752
 5445.0000    34.2966   108.3226    52.4761     1.0855     1.1176     1.4216   -81.9185    12.2842    17.6564      .0539    60.1866
 5445.5000    33.9295   107.4886    51.6086     1.0984     1.1305     1.4378   -81.7507    12.2820    17.1175      .0529    60.9939
 5446.0000    33.2587   106.9919    51.2114     1.1111     1.1412     1.4411   -81.9358    12.2847    16.8300      .0421    62.7341
 5446.5000    33.0845   107.3981    51.0786     1.1238     1.1519     1.4310   -82.2939    12.2858    16.8800      .0333    63.5408
 5447.0000    33.0541   107.8529    51.1125     1.1350     1.1592     1.4152   -81.9866    12.2852    17.1145      .0265    63.3413
 5447.5000    33.0211   108.0721    51.5582     1.1394     1.1572     1.4021   -80.9747    12.2847    17.2409      .0270    62.9553
 5448.0000    32.7755   108.0491    52.2766     1.1375     1.1530     1.4138   -79.9373    12.2841    17.0818      .0289    62.6572
 5448.5000    32.8039   107.6255    53.3912     1.1306     1.1470     1.4209   -79.6057    12.2836    16.9725      .0309    60.9446
 5449.0000    33.2012   107.1277    54.9070     1.1210     1.1387     1.4266   -79.4534    12.2831    16.9310      .0332    58.6810
 5449.5000    33.5237   106.7113    56.4767     1.1140     1.1311     1.4284   -79.2928    12.2825    16.9997      .0439    58.5098
 5450.0000    33.2994   106.6714    57.2719     1.1078     1.1249     1.4337   -79.1494    12.2820    17.1235      .0572    59.3719
 5450.5000    32.8222   107.1851    57.7041     1.1023     1.1222     1.4154   -78.8540    12.2814    17.2664      .0527    60.7574
 5451.0000    32.9018   107.7042    58.0965     1.0970     1.1193     1.3995   -78.4447    12.2809    17.4584      .0459    61.8775
 5451.5000    33.2195   108.2084    58.4662     1.0929     1.1161     1.3859   -78.2504    12.2803    17.7461      .0435    61.3492
 5452.0000    33.4810   108.6803    58.2335     1.0895     1.1139     1.3758   -78.1094    12.2798    18.0539      .0455    60.4484
 5452.5000    32.9751   108.9032    56.5159     1.0859     1.1116     1.3736   -78.0039    12.2793    18.2190      .0484    59.4988
 5453.0000    32.4826   108.6853    55.2570     1.0820     1.1072     1.3785   -77.8633    12.2787    18.0739      .0498    58.8855
 5453.5000    32.4339   108.5659    54.9352     1.0777     1.1037     1.3868   -77.7096    12.2783    17.7810      .0468    59.7266
 5454.0000    32.6719   108.6423    54.2060     1.0715     1.1018     1.3901   -77.8678    12.2876    17.4866      .0440    60.5435
 5454.5000    33.1648   108.8896    53.2695     1.0645     1.1011     1.3855   -78.4697    12.2985    17.4128      .0460    60.9514
 5455.0000    33.9615   109.3109    53.7435     1.0581     1.1014     1.3764   -79.1230    12.3073    17.5169      .0469    61.3766
 5455.5000    34.5382   109.9381    55.5187     1.0510     1.0966     1.3673   -79.6235    12.3155    17.6195      .0527    61.9090
 5456.0000    34.2316   110.5916    55.3793     1.0436     1.0888     1.3749   -79.7767    12.3224    17.6069      .0584    62.6344
 5456.5000    33.3776   110.3523    54.6152     1.0427     1.0763     1.3873   -79.5720    12.3286    17.5087      .0560    63.5728
 5457.0000    32.6790   109.6158    53.8206     1.0405     1.0637     1.3974   -79.4762    12.3312    17.2659      .0466    64.5353
 5457.5000    32.2078   108.7494    53.1135     1.0349     1.0517     1.3945   -79.6495    12.3374    17.0133      .0384    65.1360
 5458.0000    33.1998   108.5553    52.5091     1.0266     1.0354     1.3742   -79.9336    12.3135    17.1409      .0390    64.7778
