~VERSION INFORMATION
VERS.                             2.0:   CWLS Log ASCII Standard-VERSION 2.0
WRAP.                              NO:   One line per depth step
~Well Information Block
STRT.F                      1238.0000:   Top Depth
STOP.F                      5786.0000:   Bottom Depth
STEP.F                         .50000:   Depth Increment
NULL.                        -999.250:   Null Value
FLD .                     MU BLK A 18:   Field Name
WELL.       OCSG05167   001 ST00 BP00:   NAME
API .                    427024015100:   WELL API
R1  .            STANDARD OIL PROD CO:   COMMENT  1
EDF .F                       884.0000:   ELEV DRILL FLOOR
COMP.            STANDARD OIL PROD CO:   OPERATOR
BN  .                            A 18:   BLOCK
CTRY.                             USA:   COUNTRY NAME
CNTY.                        MG ILD L:   COUNTY NAME
EKB .F                        85.0000:   ELEV KELLY BUSHING
TDD .F                       5792.000:   FINAL TD DRILLER
STAT.                           TEXAS:   STATE NAME
UWI .                    427024015100:   WELL API
DICO.               IHS : Digitizing Company
~PARAMETER INFORMATION (zones)
#MNEM.UNIT                       Value     Description
#=========                       =====     ===========
#ZONATION                          CNL:   ZONATION NAME
#ZONE                            RUN_0:   ZONE NAME
TOP .                       3294.0000:   TOP DEPTH
BOT .                       5786.5000:   BOTTOM DEPTH
RUN .                               0:   RUN NUMBER
LCCD.                             440:   LOGGING CONTRACTOR
SRVC.                    Schlumberger:   LOGGING CONT NAME
DICO.          QC Data Collectors Ltd:   DIG COMPANY NAME
LDAT.                      11/28/1987:   DATE LOGGED
ELD .F                        85.0000:   LOG DATUM ELEVATION
TDD .F                      5785.0000:   TOTAL DEPTH DRILLER
TDL .F                      5792.0000:   TOTAL DEPTH LOGGER
BOTL.F                      5786.0000:   BOTTOM DEPTH LOGGED
TOPL.F                      3300.0000:   TOP DEPTH LOGGED
CS1 .IN                       10.7500:   CASING SIZE 1
BS1 .IN                        9.8750:   BIT SIZE 1
DDB1.F                      5785.0000:   DEPTH DRILLED BIT 1
BHF .                              81:   FLUID CODE
DPT .          Lignosulfonate (Ligno):   DRILLING FLUID TYPE
MUDD.                         11.0000:   FLUID DENSITY
MUDV.                         41.0000:   FLUID VISCOSITY
DFPH.                         10.0000:   FLUID PH
FL  .                         10.0000:   FLUID LOSS
RM  .OHMM                       .9400:   RM
~PARAMETER INFORMATION (zones)
#MNEM.UNIT                       Value     Description
#=========                       =====     ===========
#ZONATION                          DIL:   ZONATION NAME
#ZONE                            RUN_1:   ZONE NAME
TOP .                       1238.0000:   TOP DEPTH
BOT .                       5786.5000:   BOTTOM DEPTH
RUN .                               1:   RUN NUMBER
LCCD.                             440:   LOGGING CONTRACTOR
SRVC.                    Schlumberger:   LOGGING CONT NAME
DICO.          QC Data Collectors Ltd:   DIG COMPANY NAME
LDAT.                      11/23/1987:   DATE LOGGED
ELD .F                        85.0000:   LOG DATUM ELEVATION
TDD .F                      3540.0000:   TOTAL DEPTH DRILLER
TDL .F                      3539.0000:   TOTAL DEPTH LOGGER
BOTL.F                      3533.0000:   BOTTOM DEPTH LOGGED
TOPL.F                      1294.0000:   TOP DEPTH LOGGED
CS1 .IN                       16.0000:   CASING SIZE 1
BS1 .IN                       13.5000:   BIT SIZE 1
DDB1.F                      3540.0000:   DEPTH DRILLED BIT 1
BHF .                              81:   FLUID CODE
DPT .          Lignosulfonate (Ligno):   DRILLING FLUID TYPE
MUDV.                         38.0000:   FLUID VISCOSITY
DFPH.                          8.0000:   FLUID PH
FL  .                         29.2000:   FLUID LOSS
RMF .OHMM                       .2400:   RMF
FSC .                               C:   RMF CODE
TMAX.DEGF                    120.0000:   MAX REC TEMP
TIMC.                          4.0000:   TIME SINCE CIRCLN
~PARAMETER INFORMATION (zones)
#MNEM.UNIT                       Value     Description
#=========                       =====     ===========
#ZONATION                          FDC:   ZONATION NAME
#ZONE                            RUN_0:   ZONE NAME
TOP .                       3294.0000:   TOP DEPTH
BOT .                       5786.5000:   BOTTOM DEPTH
RUN .                               0:   RUN NUMBER
LCCD.                             440:   LOGGING CONTRACTOR
SRVC.                    Schlumberger:   LOGGING CONT NAME
DICO.          QC Data Collectors Ltd:   DIG COMPANY NAME
LDAT.                      11/28/1987:   DATE LOGGED
ELD .F                        85.0000:   LOG DATUM ELEVATION
TDD .F                      5785.0000:   TOTAL DEPTH DRILLER
TDL .F                      5792.0000:   TOTAL DEPTH LOGGER
BOTL.F                      5786.0000:   BOTTOM DEPTH LOGGED
TOPL.F                      3300.0000:   TOP DEPTH LOGGED
CS1 .IN                       10.7500:   CASING SIZE 1
BS1 .IN                        9.8750:   BIT SIZE 1
DDB1.F                      5785.0000:   DEPTH DRILLED BIT 1
BHF .                              81:   FLUID CODE
DPT .          Lignosulfonate (Ligno):   DRILLING FLUID TYPE
MUDD.                         11.0000:   FLUID DENSITY
MUDV.                         41.0000:   FLUID VISCOSITY
DFPH.                         10.0000:   FLUID PH
FL  .                         10.0000:   FLUID LOSS
RM  .OHMM                       .9400:   RM
~Curve Information Block
#MNEM.UNIT                    API CODE    No Description
#=========                    ========    == ===========
DEPT.F                   00 001 00 00:     1  DEPTH
NPHI.DEC                              :     2  Neutron Porosity
DT.US/F                              :     3  Sonic Transit Time
GR.GAPI                              :     4  Gamma Ray
ILD.OHMM                             :     5  Deep Induction Resistivity
ILM.OHMM                             :     6  Medium Induction Resistivity
SFL.OHMM                             :     7  Medium Resistivity
SP.MV                                :     8  Spontaneous Potential
CALI.IN                              :     9  Caliper
DPHI.DEC                              :    10  Porosity
DRHO.G/C3                            :    11  Bulk Density Correction
GR.GAPI                              :    12  Gamma Ray
~ASCII
# ...
 4928.5000      .4322   123.4626  -999.2500      .8553      .8662     1.1316   -51.3226    10.6160      .2219      .0245    74.2410
 4929.0000      .4434   125.3518  -999.2500      .8430      .8574     1.0804   -51.1012    10.5811      .2265      .0143    74.1636
 4929.5000      .4555   126.6930  -999.2500      .8353      .8532     1.0327   -51.0881    10.5445      .2350      .0052    73.9821
 4930.0000      .4612   127.2021  -999.2500      .8363      .8553      .9918   -51.1819    10.6004      .2466     -.0006    73.9459
 4930.5000      .4556   126.7987  -999.2500      .8396      .8617      .9872   -51.4254    10.6807      .2525     -.0027    74.3535
 4931.0000      .4463   125.8499  -999.2500      .8471      .8713     1.0358   -51.7288    10.7065      .2530     -.0035    74.9230
 4931.5000      .4346   124.3136  -999.2500      .8547      .8773     1.0946   -52.1015    10.7307      .2491     -.0033    75.6611
 4932.0000      .4361   122.1760  -999.2500      .8624      .8841     1.1318   -52.2545    10.5618      .2451     -.0028    75.0776
 4932.5000      .4531   120.3961  -999.2500      .8717      .8906     1.1634   -52.1705    10.3010      .2423     -.0022    72.1106
 4933.0000      .4678   119.9572  -999.2500      .8818      .8984     1.1920   -51.9478    10.0278      .2458     -.0011    70.0503
 4933.5000      .4679   120.0699  -999.2500      .8924      .9048     1.2223   -52.0485     9.9762      .2495     -.0001    70.9170
 4934.0000      .4558   122.5673  -999.2500      .9028      .9062     1.1839   -52.5118    10.1860      .2529     -.0023    72.1810
 4934.5000      .4341   123.8654  -999.2500      .9121      .9064     1.1477   -52.9110    10.6397      .2533     -.0020    73.5905
 4935.0000      .4263   124.1936  -999.2500      .9189      .9102     1.1190   -53.2639    10.9657      .2507      .0029    74.8727
 4935.5000      .4325   123.4818  -999.2500      .9231      .9138     1.1110   -53.3840    11.1289      .2463      .0100    75.2639
 4936.0000      .4405   121.8303  -999.2500      .9243      .9171     1.1430   -53.4092    11.0143      .2443      .0162    75.9523
 4936.5000      .4480   120.4891  -999.2500      .9198      .9196     1.1706   -53.4037    10.8813      .2478      .0143    76.8341
 4937.0000      .4501   120.7207  -999.2500      .9116      .9134     1.1835   -53.3661    10.6796      .2520      .0120    76.5764
 4937.5000      .4455   121.8231  -999.2500      .8954      .9044     1.1527   -53.2414    10.6432      .2521      .0105    75.5375
 4938.0000      .4424   123.0432  -999.2500      .8844      .8942     1.1100   -53.1381    10.7302      .2475      .0095    73.3612
 4938.5000      .4435   123.5803  -999.2500      .8776      .8854     1.0681   -53.0563    10.8965      .2407      .0099    71.1742
 4939.0000      .4486   123.5094  -999.2500      .8778      .8841     1.0231   -52.9318    11.0021      .2403      .0128    70.0746
 4939.5000      .4509   122.9358  -999.2500      .8801      .8858     1.0001   -52.9086    10.8701      .2423      .0172    70.3525
 4940.0000      .4347   121.0046  -999.2500      .8849      .9073      .9980   -52.9674    10.6513      .2432      .0210    70.3208
 4940.5000      .4152   117.5480  -999.2500      .8861      .9471     1.0979   -54.7959    10.3993      .2404      .0194    69.6591
 4941.0000      .3845   115.0756  -999.2500      .8855      .9477     1.3196   -58.5222    10.1695      .2318      .0145    68.0895
 4941.5000      .3785   113.7468  -999.2500      .8831      .9255     1.4851   -61.7135    10.0272      .2317      .0091    65.9655
 4942.0000      .3925   114.4250  -999.2500      .8808      .8723     1.4781   -63.9026     9.9997      .2497      .0042    65.7955
 4942.5000      .4163   117.1831  -999.2500      .8785      .8672     1.3183   -64.1047    10.2095      .2649      .0002    70.1746
 4943.0000      .4522   119.9148  -999.2500      .8761      .8706     1.1889   -62.6704    10.4638      .2681      .0039    74.8666
 4943.5000      .4772   121.4595  -999.2500      .8755      .8791     1.1076   -59.0694    10.6527      .2574      .0081    78.7969
 4944.0000      .4853   122.0148  -999.2500      .8794      .8858     1.0295   -55.7214    10.7973      .2409      .0084    78.2437
 4944.5000      .4736   121.6329  -999.2500      .8878      .8907     1.0278   -54.3627    10.8541      .2293      .0067    76.8112
 4945.0000      .4439   119.9076  -999.2500      .8975      .8955     1.0515   -54.1957    10.7334      .2217      .0048    75.8064
 4945.5000      .4173   117.2720  -999.2500      .9085      .9110     1.1255   -54.6597    10.6496      .2160      .0052    76.0056
 4946.0000      .4043   116.8999  -999.2500      .9225      .9364     1.1980   -55.2605    10.5622      .2219      .0054    76.5776
 4946.5000      .3967   118.7603  -999.2500      .9374      .9598     1.2296   -55.8067    10.4974      .2340      .0058    77.0435
 4947.0000      .3999   119.8979  -999.2500      .9471      .9613     1.2128   -55.4093    10.5365      .2457      .0064    76.9250
 4947.5000      .4151   120.6602  -999.2500      .9487      .9589     1.1987   -54.8673    10.6850      .2481      .0088    77.1638
 4948.0000      .4356   120.7196  -999.2500      .9500      .9613     1.1858   -54.4407    10.9004      .2438      .0119    77.5216
 4948.5000      .4535   120.1368  -999.2500      .9545      .9657     1.1745   -54.0939    10.9936      .2422      .0124    76.6935
 4949.0000      .4585   120.1323  -999.2500      .9619      .9721     1.1675   -53.7902    10.9549      .2477      .0116    74.8326
 4949.5000      .4545   120.2731  -999.2500      .9711      .9821     1.1554   -53.4630    10.9720      .2526      .0101    72.3411
 4950.0000      .4344   120.0636  -999.2500      .9805      .9896     1.1576   -53.2477    10.9956      .2554      .0102    69.6531
 4950.5000      .4047   119.1779  -999.2500      .9891     1.0015     1.1929   -53.0596    11.0326      .2461      .0170    66.4724
 4951.0000      .4019   117.4027  -999.2500      .9960     1.0118     1.2498   -52.8952    11.0880      .2274      .0227    65.0144
 4951.5000      .4054   117.0259  -999.2500     1.0058     1.0255     1.3045   -52.7661    11.0630      .2238      .0183    65.9218
 4952.0000      .4085   117.5654  -999.2500     1.0231     1.0427     1.2602   -52.6290    11.0368      .2243      .0127    69.6991
 4952.5000      .4086   118.8754  -999.2500     1.0508     1.0738     1.1842   -52.4733    11.0220      .2267      .0087    72.1895
 4953.0000      .4120   119.1616  -999.2500     1.0839     1.1143     1.1508   -52.3276    11.0074      .2285      .0065    71.7200
 4953.5000      .4174   116.5085  -999.2500     1.1210     1.1667     1.1936   -52.2496    11.0045      .2266      .0096    68.9155
 4954.0000      .4072   112.1301  -999.2500     1.1520     1.2082     1.4047   -52.2324    11.0022      .2167      .0199    66.5076
 4954.5000      .3837   109.1296  -999.2500     1.1807     1.2330     1.6396   -52.2742    11.0062      .2057      .0296    65.3486
 4955.0000      .3739   106.2708  -999.2500     1.2007     1.2388     1.8182   -52.3589    11.0395      .2002      .0355    64.4025
 4955.5000      .3843   105.9215  -999.2500     1.2108     1.2389     1.8175   -52.4148    11.1243      .2080      .0316    63.7207
 4956.0000      .3896   109.0168  -999.2500     1.2095     1.2281     1.5789   -52.3633    11.1871      .2163      .0228    63.3089
 4956.5000      .3905   114.2018  -999.2500     1.1942     1.2074     1.3518   -52.2672    11.0949      .2218      .0159    64.6189
 4957.0000      .3904   116.8267  -999.2500     1.1402     1.1624     1.1829   -52.1411    10.9306      .2217      .0195    69.9320
 4957.5000      .3925   118.9451  -999.2500     1.0710     1.0972     1.1635   -52.0292    10.7008      .2175      .0247    71.7134
 4958.0000      .3971   119.8722  -999.2500     1.0209     1.0379     1.1880   -51.9188    10.5169      .2137      .0279    71.5747
 4958.5000      .4021   120.4171  -999.2500      .9842      .9936     1.1975   -51.7044    10.5340      .2230      .0279    70.9631
