~VERSION INFORMATION
VERS.                             2.0:   CWLS Log ASCII Standard-VERSION 2.0
WRAP.                              NO:   One line per depth step
~Well Information Block
STRT.F                       590.0000:   Top Depth
STOP.F                      5513.0000:   Bottom Depth
STEP.F                         .50000:   Depth Increment
NULL.                        -999.250:   Null Value
FLD .                     MU BLK A 16:   Field Name
WELL.       OCSG03011  A001 ST00 BP00:   NAME
API .                    427024004100:   WELL API
R1  .                           13904:   COMMENT  1
EDF .F                       102.0000:   ELEV DRILL FLOOR
COMP.       CITIES SERVICE OIL COMPAN:   OPERATOR
BN  .                            A 16:   BLOCK
CTRY.                             USA:   COUNTRY NAME
CNTY.                        MG ILD L:   COUNTY NAME
EKB .F                       103.0000:   ELEV KELLY BUSHING
TDD .F                       5519.000:   FINAL TD DRILLER
STAT.                           TEXAS:   STATE NAME
UWI .                    427024004100:   WELL API
DICO.               IHS : Digitizing Company
~PARAMETER INFORMATION (zones)
#MNEM.UNIT                       Value     Description
#=========                       =====     ===========
#ZONATION                          CNL:   ZONATION NAME
#ZONE                            RUN_1:   ZONE NAME
TOP .                       3234.0000:   TOP DEPTH
BOT .                       5513.5000:   BOTTOM DEPTH
RUN .                               1:   RUN NUMBER
LCCD.                             440:   LOGGING CONTRACTOR
SRVC.                    Schlumberger:   LOGGING CONT NAME
DICO.          QC Data Collectors Ltd:   DIG COMPANY NAME
LDAT.                      03/04/1980:   DATE LOGGED
ELD .F                       103.0000:   LOG DATUM ELEVATION
TDD .F                      5512.0000:   TOTAL DEPTH DRILLER
TDL .F                      5519.0000:   TOTAL DEPTH LOGGER
BOTL.F                      5513.0000:   BOTTOM DEPTH LOGGED
TOPL.F                      3240.0000:   TOP DEPTH LOGGED
CS1 .IN                       13.3750:   CASING SIZE 1
BS1 .IN                       12.2500:   BIT SIZE 1
DDB1.F                      5512.0000:   DEPTH DRILLED BIT 1
BHF .                              99:   FLUID CODE
DPT .                   Miscellaneous:   DRILLING FLUID TYPE
MUDD.                         13.1000:   FLUID DENSITY
MUDV.                         38.0000:   FLUID VISCOSITY
DFPH.                         11.5000:   FLUID PH
FL  .                          4.0000:   FLUID LOSS
RM  .OHMM                       .8600:   RM
RMT .DEGF                     70.0000:   RM TEMP
RMF .OHMM                       .6600:   RMF
RMFT.DEGF                     70.0000:   RMF TEMP
FSC .                               M:   RMF CODE
RMC .OHMM                      1.8600:   RMC
RMCT.DEGF                     70.0000:   RMC TEMP
CMC .                               M:   RMC CODE
TMAX.DEGF                    145.0000:   MAX REC TEMP
TIMC.                          6.5000:   TIME SINCE CIRCLN
~PARAMETER INFORMATION (zones)
#MNEM.UNIT                       Value     Description
#=========                       =====     ===========
#ZONATION                          DIL:   ZONATION NAME
#ZONE                            RUN_1:   ZONE NAME
TOP .                       3240.0000:   TOP DEPTH
BOT .                       5513.5000:   BOTTOM DEPTH
RUN .                               1:   RUN NUMBER
LCCD.                             440:   LOGGING CONTRACTOR
SRVC.                    Schlumberger:   LOGGING CONT NAME
DICO.          QC Data Collectors Ltd:   DIG COMPANY NAME
LDAT.                      03/04/1980:   DATE LOGGED
ELD .F                       103.0000:   LOG DATUM ELEVATION
TDD .F                      5512.0000:   TOTAL DEPTH DRILLER
TDL .F                      5519.0000:   TOTAL DEPTH LOGGER
BOTL.F                      5513.0000:   BOTTOM DEPTH LOGGED
TOPL.F                      3240.0000:   TOP DEPTH LOGGED
CS1 .IN                       13.3750:   CASING SIZE 1
BS1 .IN                       12.2500:   BIT SIZE 1
DDB1.F                      5512.0000:   DEPTH DRILLED BIT 1
BHF .                              99:   FLUID CODE
DPT .                   Miscellaneous:   DRILLING FLUID TYPE
MUDD.                         13.1000:   FLUID DENSITY
MUDV.                         38.0000:   FLUID VISCOSITY
DFPH.                         11.5000:   FLUID PH
FL  .                          4.0000:   FLUID LOSS
RM  .OHMM                       .8600:   RM
RMT .DEGF                     70.0000:   RM TEMP
RMF .OHMM                       .6600:   RMF
RMFT.DEGF                     70.0000:   RMF TEMP
FSC .                               M:   RMF CODE
RMC .OHMM                      1.8600:   RMC
RMCT.DEGF                     70.0000:   RMC TEMP
CMC .                               M:   RMC CODE
TMAX.DEGF                    145.0000:   MAX REC TEMP
TIMC.                          6.5000:   TIME SINCE CIRCLN
~PARAMETER INFORMATION (zones)
#MNEM.UNIT                       Value     Description
#=========                       =====     ===========
#ZONATION                          DIL:   ZONATION NAME
#ZONE                          RUN_1_1:   ZONE NAME
TOP .                        590.0000:   TOP DEPTH
BOT .                       1046.5000:   BOTTOM DEPTH
RUN .                               1:   RUN NUMBER
LCCD.                             440:   LOGGING CONTRACTOR
SRVC.                    Schlumberger:   LOGGING CONT NAME
DICO.          QC Data Collectors Ltd:   DIG COMPANY NAME
LDAT.                      02/20/1980:   DATE LOGGED
ELD .F                       103.0000:   LOG DATUM ELEVATION
TDD .F                      1050.0000:   TOTAL DEPTH DRILLER
TDL .F                      1050.0000:   TOTAL DEPTH LOGGER
BOTL.F                      1046.0000:   BOTTOM DEPTH LOGGED
TOPL.F                       597.0000:   TOP DEPTH LOGGED
CS1 .IN                       30.0000:   CASING SIZE 1
BS1 .IN                       12.5000:   BIT SIZE 1
DDB1.F                      1050.0000:   DEPTH DRILLED BIT 1
BHF .                              99:   FLUID CODE
DPT .                   Miscellaneous:   DRILLING FLUID TYPE
MUDD.                          8.6000:   FLUID DENSITY
MUDV.                         39.0000:   FLUID VISCOSITY
DFPH.                         12.3000:   FLUID PH
FL  .                            NULL:   FLUID LOSS
RM  .OHMM                       .3900:   RM
RMT .DEGF                     80.0000:   RM TEMP
RMF .OHMM                       .2400:   RMF
RMFT.DEGF                     80.0000:   RMF TEMP
FSC .                               M:   RMF CODE
RMC .OHMM                       .4500:   RMC
RMCT.DEGF                     80.0000:   RMC TEMP
CMC .                               M:   RMC CODE
TMAX.DEGF                     90.0000:   MAX REC TEMP
TIMC.                          1.5000:   TIME SINCE CIRCLN
~PARAMETER INFORMATION (zones)
#MNEM.UNIT                       Value     Description
#=========                       =====     ===========
#ZONATION                          FDC:   ZONATION NAME
#ZONE                            RUN_1:   ZONE NAME
TOP .                       3234.0000:   TOP DEPTH
BOT .                       5513.5000:   BOTTOM DEPTH
RUN .                               1:   RUN NUMBER
LCCD.                             440:   LOGGING CONTRACTOR
SRVC.                    Schlumberger:   LOGGING CONT NAME
DICO.          QC Data Collectors Ltd:   DIG COMPANY NAME
LDAT.                      03/04/1980:   DATE LOGGED
ELD .F                       103.0000:   LOG DATUM ELEVATION
TDD .F                      5512.0000:   TOTAL DEPTH DRILLER
TDL .F                      5519.0000:   TOTAL DEPTH LOGGER
BOTL.F                      5513.0000:   BOTTOM DEPTH LOGGED
TOPL.F                      3240.0000:   TOP DEPTH LOGGED
CS1 .IN                       13.3750:   CASING SIZE 1
BS1 .IN                       12.2500:   BIT SIZE 1
DDB1.F                      5512.0000:   DEPTH DRILLED BIT 1
BHF .                              99:   FLUID CODE
DPT .                   Miscellaneous:   DRILLING FLUID TYPE
MUDD.                         13.1000:   FLUID DENSITY
MUDV.                         38.0000:   FLUID VISCOSITY
DFPH.                         11.5000:   FLUID PH
FL  .                          4.0000:   FLUID LOSS
RM  .OHMM                       .8600:   RM
RMT .DEGF                     70.0000:   RM TEMP
RMF .OHMM                       .6600:   RMF
RMFT.DEGF                     70.0000:   RMF TEMP
FSC .                               M:   RMF CODE
RMC .OHMM                      1.8600:   RMC
RMCT.DEGF                     70.0000:   RMC TEMP
CMC .                               M:   RMC CODE
TMAX.DEGF                    145.0000:   MAX REC TEMP
TIMC.                          6.5000:   TIME SINCE CIRCLN
~Curve Information Block
#MNEM.UNIT                    API CODE    No Description
#=========                    ========    == ===========
DEPT.F                   00 001 00 00:     1  DEPTH
NPHI.%                               :     2  Neutron Porosity
ASFL.OHMM                            :     3  Shallow Resistivity
DT.US/F                              :     4  Sonic Transit Time
GR.GAPI                              :     5  Gamma Ray
ILD.OHMM                             :     6  Deep Induction Resistivity
SFL.OHMM                             :     7  Medium Resistivity
SP.MV                                :     8  Spontaneous Potential
CALI.IN                              :     9  Caliper
DRHO.G/C3                            :    10  Bulk Density Correction
GR.GAPI                              :    11  Gamma Ray
RHOB.G/C3                            :    12  Bulk Density
~ASCII
# ...
 4738.0000    42.1819     1.1165  -999.2500  -999.2500     1.0088  -999.2500   -61.1591    12.5671      .0096    66.2563     2.3189
 4738.5000    42.0701     1.1713  -999.2500  -999.2500     1.0206  -999.2500   -61.1168    12.5638      .0078    63.6487     2.3151
 4739.0000    42.6346     1.2261  -999.2500  -999.2500     1.0324  -999.2500   -61.0131    12.5590      .0063    62.1765     2.3159
 4739.5000    43.2205     1.2660  -999.2500  -999.2500     1.0429  -999.2500   -60.9094    12.5477      .0050    63.3611     2.3157
 4740.0000    43.8142     1.3002  -999.2500  -999.2500     1.0443  -999.2500   -60.8056    12.5003      .0056    65.1970     2.3112
 4740.5000    44.8768     1.3206  -999.2500  -999.2500     1.0458  -999.2500   -61.0652    12.4074      .0084    67.0366     2.3068
 4741.0000    46.3003     1.2861  -999.2500  -999.2500     1.0473  -999.2500   -61.5634    12.3355      .0128    67.8551     2.3024
 4741.5000    46.4551     1.2544  -999.2500  -999.2500     1.0487  -999.2500   -62.0619    12.3556      .0162    68.4326     2.2831
 4742.0000    45.9955     1.2307  -999.2500  -999.2500     1.0502  -999.2500   -61.5646    12.4358      .0130    68.9991     2.2672
 4742.5000    45.3159     1.2070  -999.2500  -999.2500     1.0543  -999.2500   -60.6262    12.4916      .0092    69.5847     2.2592
 4743.0000    44.2053     1.1832  -999.2500  -999.2500     1.0587  -999.2500   -59.7585    12.4834      .0087    70.3834     2.2688
 4743.5000    42.8645     1.1600  -999.2500  -999.2500     1.0632  -999.2500   -59.1502    12.4586      .0110    71.1924     2.2804
 4744.0000    41.7561     1.1432  -999.2500  -999.2500     1.0677  -999.2500   -58.9029    12.4786      .0128    71.5665     2.2856
 4744.5000    42.2033     1.1306  -999.2500  -999.2500     1.0900  -999.2500   -58.7695    12.6118      .0134    70.9088     2.2844
 4745.0000    43.2253     1.1372  -999.2500  -999.2500     1.1361  -999.2500   -58.7712    12.7226      .0107    68.3528     2.2843
 4745.5000    43.6946     1.1526  -999.2500  -999.2500     1.1822  -999.2500   -58.7728    12.8171      .0047    64.5875     2.2790
 4746.0000    41.3008     1.1681  -999.2500  -999.2500     1.2303  -999.2500   -59.7265    12.7684     -.0054    60.6110     2.2711
 4746.5000    38.4066     1.1840  -999.2500  -999.2500     1.2867  -999.2500   -62.0920    12.6883     -.0160    56.1354     2.2649
 4747.0000    34.1296     1.3882  -999.2500  -999.2500     1.5001  -999.2500   -65.1957    12.6544     -.0220    53.3361     2.2725
 4747.5000    30.4886     1.6404  -999.2500  -999.2500     1.7189  -999.2500   -67.7445    12.6228     -.0253    51.9302     2.2909
 4748.0000    28.1981     1.8928  -999.2500  -999.2500     1.9379  -999.2500   -69.3284    12.6184     -.0261    53.3386     2.3205
 4748.5000    24.9734     2.1450  -999.2500  -999.2500     2.1568  -999.2500   -70.3856    12.6126     -.0230    55.7618     2.3492
 4749.0000    24.9852     2.3920  -999.2500  -999.2500     2.3757  -999.2500   -71.1791    12.5912     -.0119    59.9719     2.3667
 4749.5000    28.0240     2.4047  -999.2500  -999.2500     2.1151  -999.2500   -70.8846    12.4867      .0011    63.0613     2.3654
 4750.0000    32.5844     2.2097  -999.2500  -999.2500     1.8589  -999.2500   -68.7075    12.3574      .0039    64.7449     2.3544
 4750.5000    35.5184     2.0149  -999.2500  -999.2500     1.7326  -999.2500   -66.7401    12.3456      .0016    63.3292     2.3385
 4751.0000    36.5854     1.8201  -999.2500  -999.2500     1.6063  -999.2500   -65.0300    12.3862      .0002    61.5154     2.3278
 4751.5000    36.8832     1.6252  -999.2500  -999.2500     1.5208  -999.2500   -64.4398    12.4317      .0010    60.4248     2.3292
 4752.0000    37.3167     1.4970  -999.2500  -999.2500     1.4455  -999.2500   -63.9756    12.4843      .0036    60.0955     2.3348
 4752.5000    37.7466     1.4858  -999.2500  -999.2500     1.4410  -999.2500   -63.8458    12.5249      .0110    60.6957     2.3458
 4753.0000    37.5410     1.4746  -999.2500  -999.2500     1.4442  -999.2500   -63.7468    12.5440      .0137    61.6100     2.3610
 4753.5000    37.3322     1.4653  -999.2500  -999.2500     1.4741  -999.2500   -63.6479    12.5478      .0105    63.0552     2.3644
 4754.0000    37.8820     1.4837  -999.2500  -999.2500     1.5041  -999.2500   -63.5490    12.5509      .0066    64.0042     2.3608
 4754.5000    39.1194     1.5191  -999.2500  -999.2500     1.5340  -999.2500   -63.6061    12.5684      .0039    64.1417     2.3582
 4755.0000    40.4599     1.5411  -999.2500  -999.2500     1.5639  -999.2500   -63.8076    12.6413      .0026    64.0685     2.3622
 4755.5000    39.6641     1.5631  -999.2500  -999.2500     1.5621  -999.2500   -64.0089    13.0088      .0089    63.7839     2.3701
 4756.0000    37.2776     1.5765  -999.2500  -999.2500     1.5509  -999.2500   -64.2104    13.5579      .0164    63.2211     2.3786
 4756.5000    35.6084     1.5640  -999.2500  -999.2500     1.5396  -999.2500   -64.3953    13.7277      .0164    62.5826     2.3824
 4757.0000    34.9041     1.5516  -999.2500  -999.2500     1.5285  -999.2500   -64.4255    13.8339      .0150    61.9449     2.3780
 4757.5000    35.4756     1.5345  -999.2500  -999.2500     1.5181  -999.2500   -64.4557    13.9217      .0183    62.0770     2.3719
 4758.0000    36.6039     1.5147  -999.2500  -999.2500     1.5077  -999.2500   -64.4860    13.8833      .0218    62.8899     2.3632
 4758.5000    37.7137     1.4950  -999.2500  -999.2500     1.4973  -999.2500   -64.5162    13.6638      .0212    63.9123     2.3508
 4759.0000    38.3032     1.4753  -999.2500  -999.2500     1.4869  -999.2500   -64.6002    13.5658      .0125    64.5470     2.3341
 4759.5000    38.5081     1.4556  -999.2500  -999.2500     1.4764  -999.2500   -64.6909    13.5509      .0031    64.2896     2.3288
 4760.0000    38.8940     1.4444  -999.2500  -999.2500     1.4660  -999.2500   -64.7815    13.5487     -.0025    63.4583     2.3316
 4760.5000    39.1647     1.4523  -999.2500  -999.2500     1.4608  -999.2500   -64.8723    13.5216     -.0019    62.8954     2.3408
 4761.0000    38.3771     1.4709  -999.2500  -999.2500     1.4613  -999.2500   -64.9629    13.4795      .0034    62.4515     2.3454
 4761.5000    37.7724     1.4895  -999.2500  -999.2500     1.4617  -999.2500   -64.9154    13.5685      .0074    62.4034     2.3373
 4762.0000    38.0074     1.4912  -999.2500  -999.2500     1.4622  -999.2500   -64.7155    13.7542      .0083    62.3480     2.3236
 4762.5000    38.6494     1.4800  -999.2500  -999.2500     1.4627  -999.2500   -64.5156    13.9028      .0045    62.2791     2.3171
 4763.0000    37.9484     1.4689  -999.2500  -999.2500     1.4632  -999.2500   -64.3159    13.9967      .0018    62.0530     2.3193
 4763.5000    36.9293     1.4578  -999.2500  -999.2500     1.4636  -999.2500   -63.8831    14.0381      .0013    61.6478     2.3314
 4764.0000    35.3619     1.4466  -999.2500  -999.2500     1.4684  -999.2500   -63.3441    13.9059      .0008    61.8604     2.3413
 4764.5000    34.0049     1.4474  -999.2500  -999.2500     1.4900  -999.2500   -63.0949    13.6792      .0001    62.3311     2.3523
 4765.0000    33.3459     1.4582  -999.2500  -999.2500     1.5115  -999.2500   -63.4948    13.7174     -.0008    62.5056     2.3662
 4765.5000    34.1185     1.4733  -999.2500  -999.2500     1.5330  -999.2500   -63.7580    13.6464     -.0014    61.9037     2.3769
 4766.0000    35.0623     1.4977  -999.2500  -999.2500     1.5546  -999.2500   -63.8809    13.6016     -.0011    60.6613     2.3709
 4766.5000    35.9663     1.5222  -999.2500  -999.2500     1.5724  -999.2500   -64.0038    13.5569      .0008    60.3004     2.3559
 4767.0000    36.7389     1.5466  -999.2500  -999.2500     1.5683  -999.2500   -64.1267    13.5524      .0048    61.0779     2.3453
 4767.5000    37.6111     1.5710  -999.2500  -999.2500     1.5603  -999.2500   -64.2498    13.5536      .0106    62.4948     2.3385
 4768.0000    38.7593     1.5869  -999.2500  -999.2500     1.5250  -999.2500   -64.3727    13.5705      .0153    64.3552     2.3318
