~VERSION INFORMATION
VERS.                             2.0:   CWLS Log ASCII Standard-VERSION 2.0
WRAP.                              NO:   One line per depth step
~Well Information Block
STRT.F                      3964.0000:   Top Depth
STOP.F                      6748.0000:   Bottom Depth
STEP.F                         .50000:   Depth Increment
NULL.                        -999.250:   Null Value
FLD .                     MU BLK A 26:   Field Name
WELL.       OCSG13276   001 ST00 BP00:   NAME
API .                    427024021500:   WELL API
EDF .F                        73.0000:   ELEV DRILL FLOOR
COMP.                  ORYX ENERGY CO:   OPERATOR
BN  .                            A 26:   BLOCK
CTRY.                             USA:   COUNTRY NAME
CNTY.                        MG ILD L:   COUNTY NAME
EGL .F                      -290.0000:   ELEV GROUND LEVEL
TDD .F                       6750.000:   FINAL TD DRILLER
STAT.                           TEXAS:   STATE NAME
UWI .                    427024021500:   WELL API
DICO.               IHS : Digitizing Company
~PARAMETER INFORMATION (zones)
#MNEM.UNIT                       Value     Description
#=========                       =====     ===========
#ZONATION                          CNL:   ZONATION NAME
#ZONE                            RUN_1:   ZONE NAME
TOP .                       3970.0000:   TOP DEPTH
BOT .                       6744.5000:   BOTTOM DEPTH
RUN .                               1:   RUN NUMBER
LCCD.                             510:   LOGGING CONTRACTOR
SRVC.                   Western Atlas:   LOGGING CONT NAME
DICO.          QC Data Collectors Ltd:   DIG COMPANY NAME
LDAT.                      08/29/1993:   DATE LOGGED
TDD .F                      6750.0000:   TOTAL DEPTH DRILLER
TDL .F                      6749.0000:   TOTAL DEPTH LOGGER
BOTL.F                      6746.0000:   BOTTOM DEPTH LOGGED
TOPL.F                      3998.0000:   TOP DEPTH LOGGED
CS1 .IN                       13.3750:   CASING SIZE 1
BS1 .IN                       12.2500:   BIT SIZE 1
DDB1.F                      6750.0000:   DEPTH DRILLED BIT 1
BHF .                              32:   FLUID CODE
DPT .                          low PH:   DRILLING FLUID TYPE
MUDD.                         11.5000:   FLUID DENSITY
MUDV.                         46.0000:   FLUID VISCOSITY
DFPH.                          8.8000:   FLUID PH
FL  .                          5.0000:   FLUID LOSS
RM  .OHMM                      1.2400:   RM
RMT .DEGF                     75.0000:   RM TEMP
RMF .OHMM                      1.1400:   RMF
RMFT.DEGF                     75.0000:   RMF TEMP
FSC .                               M:   RMF CODE
RMC .OHMM                      1.8000:   RMC
RMCT.DEGF                     75.0000:   RMC TEMP
CMC .                               M:   RMC CODE
TMAX.DEGF                    164.0000:   MAX REC TEMP
TIMC.                         10.0000:   TIME SINCE CIRCLN
~PARAMETER INFORMATION (zones)
#MNEM.UNIT                       Value     Description
#=========                       =====     ===========
#ZONATION                          DIL:   ZONATION NAME
#ZONE                            RUN_1:   ZONE NAME
TOP .                       3986.0000:   TOP DEPTH
BOT .                       6748.5000:   BOTTOM DEPTH
RUN .                               1:   RUN NUMBER
LCCD.                             510:   LOGGING CONTRACTOR
SRVC.                   Western Atlas:   LOGGING CONT NAME
DICO.          QC Data Collectors Ltd:   DIG COMPANY NAME
LDAT.                      08/29/1993:   DATE LOGGED
TDD .F                      6750.0000:   TOTAL DEPTH DRILLER
TDL .F                      6750.0000:   TOTAL DEPTH LOGGER
BOTL.F                      6748.0000:   BOTTOM DEPTH LOGGED
TOPL.F                      3998.0000:   TOP DEPTH LOGGED
CS1 .IN                       13.3750:   CASING SIZE 1
BS1 .IN                       12.2500:   BIT SIZE 1
DDB1.F                      6750.0000:   DEPTH DRILLED BIT 1
BHF .                              32:   FLUID CODE
DPT .                          low PH:   DRILLING FLUID TYPE
MUDD.                         11.5000:   FLUID DENSITY
MUDV.                         46.0000:   FLUID VISCOSITY
DFPH.                          8.8000:   FLUID PH
FL  .                          5.0000:   FLUID LOSS
RM  .OHMM                      1.2400:   RM
RMT .DEGF                     75.0000:   RM TEMP
RMF .OHMM                      1.1400:   RMF
RMFT.DEGF                     75.0000:   RMF TEMP
FSC .                               M:   RMF CODE
RMC .OHMM                      1.8000:   RMC
RMCT.DEGF                     75.0000:   RMC TEMP
CMC .                               M:   RMC CODE
TMAX.DEGF                    158.0000:   MAX REC TEMP
TIMC.                          6.0000:   TIME SINCE CIRCLN
~PARAMETER INFORMATION (zones)
#MNEM.UNIT                       Value     Description
#=========                       =====     ===========
#ZONATION                          FDC:   ZONATION NAME
#ZONE                            RUN_1:   ZONE NAME
TOP .                       3964.0000:   TOP DEPTH
BOT .                       6746.5000:   BOTTOM DEPTH
RUN .                               1:   RUN NUMBER
LCCD.                             510:   LOGGING CONTRACTOR
SRVC.                   Western Atlas:   LOGGING CONT NAME
DICO.          QC Data Collectors Ltd:   DIG COMPANY NAME
LDAT.                      08/29/1993:   DATE LOGGED
TDD .F                      6750.0000:   TOTAL DEPTH DRILLER
TDL .F                      6749.0000:   TOTAL DEPTH LOGGER
BOTL.F                      6746.0000:   BOTTOM DEPTH LOGGED
TOPL.F                      3998.0000:   TOP DEPTH LOGGED
CS1 .IN                       13.3750:   CASING SIZE 1
BS1 .IN                       12.2500:   BIT SIZE 1
DDB1.F                      6750.0000:   DEPTH DRILLED BIT 1
BHF .                              32:   FLUID CODE
DPT .                          low PH:   DRILLING FLUID TYPE
MUDD.                         11.5000:   FLUID DENSITY
MUDV.                         46.0000:   FLUID VISCOSITY
DFPH.                          8.8000:   FLUID PH
FL  .                          5.0000:   FLUID LOSS
RM  .OHMM                      1.2400:   RM
RMT .DEGF                     75.0000:   RM TEMP
RMF .OHMM                      1.1400:   RMF
RMFT.DEGF                     75.0000:   RMF TEMP
FSC .                               M:   RMF CODE
RMC .OHMM                      1.8000:   RMC
RMCT.DEGF                     75.0000:   RMC TEMP
CMC .                               M:   RMC CODE
TMAX.DEGF                    164.0000:   MAX REC TEMP
TIMC.                         10.0000:   TIME SINCE CIRCLN
~Curve Information Block
#MNEM.UNIT                    API CODE    No Description
#=========                    ========    == ===========
DEPT.F                   00 001 00 00:     1  DEPTH
NPHI.%                               :     2  Neutron Porosity
DT.US/F                              :     3  Sonic Transit Time
GR.GAPI                              :     4  Gamma Ray
ILD.OHMM                             :     5  Deep Induction Resistivity
ILM.OHMM                             :     6  Medium Induction Resistivity
RFOC.OHMM                            :     7  Medium Resistivity
SP.MV                                :     8  Spontaneous Potential
CALI.IN                              :     9  Caliper
DPHI.%                               :    10  Porosity
DRHO.G/C3                            :    11  Bulk Density Correction
GRD.GAPI                             :    12  Gamma Ray
~ASCII
# ...
 5977.0000    35.9775   109.5725    50.6827      .9066      .9559     1.2581   -85.3342    12.6251    19.9856      .0455    60.1509
 5977.5000    36.5946   109.6068    50.8990      .9098      .9581     1.2565   -85.0017    12.6096    20.3687      .0543    59.9545
 5978.0000    36.3204   109.9700    54.7957      .9146      .9613     1.2733   -84.5264    12.5312    20.8337      .0575    60.7090
 5978.5000    35.5706   110.1300    53.6873      .9198      .9669     1.3030   -84.7855    12.4878    21.2983      .0577    60.5715
 5979.0000    34.8397   109.7076    52.5421      .9255      .9691     1.3218   -85.1573    12.4787    20.9828      .0592    60.5269
 5979.5000    34.6481   109.1678    51.4374      .9403      .9752     1.3013   -85.5470    12.4886    20.5134      .0634    60.7762
 5980.0000    35.3884   109.1323    50.5278      .9566      .9846     1.2722   -85.6936    12.5398    20.8887      .0692    61.1550
 5980.5000    36.2178   110.5104    51.6698      .9788     1.0003     1.2510   -85.2806    12.5968    21.6289      .0762    61.4878
 5981.0000    35.6844   111.7985    54.5645     1.0005     1.0181     1.2545   -84.7760    12.6302    22.1367      .0827    61.4686
 5981.5000    34.2144   112.5153    56.3418     1.0186     1.0414     1.2937   -84.2805    12.6376    21.5389      .0867    60.6318
 5982.0000    32.9557   111.1788    56.2960     1.0348     1.0621     1.3473   -84.0632    12.6393    20.1352      .0790    57.9643
 5982.5000    32.0774   107.4906    56.2370     1.0386     1.0773     1.3796   -84.3013    12.6314    17.3112      .0748    57.1307
 5983.0000    32.5458   104.4595    56.1627     1.0337     1.0787     1.3642   -84.9160    12.6342    16.2393      .0720    57.6514
 5983.5000    33.2578   102.9790    55.3206     1.0247     1.0685     1.3419   -85.4559    12.6559    15.7000      .0668    58.6293
 5984.0000    33.8745   103.7773    53.5569     1.0087     1.0435     1.3135   -85.6476    12.6975    15.9131      .0630    59.6281
 5984.5000    34.1114   105.0942    54.2855      .9907     1.0192     1.2944   -85.6121    12.7450    16.2679      .0627    60.4532
 5985.0000    33.9697   106.4799    56.6272      .9693      .9954     1.2732   -85.8232    12.7887    16.8009      .0644    60.5660
 5985.5000    33.7863   107.6954    58.8856      .9542      .9766     1.2537   -85.9589    12.8174    17.4720      .0711    59.9606
 5986.0000    33.5377   108.6763    58.2739      .9454      .9684     1.2498   -85.8391    12.7432    18.3423      .0843    60.7550
 5986.5000    33.2652   109.4808    55.7757      .9436      .9643     1.2482   -85.3608    12.5900    19.2142      .0917    63.5162
 5987.0000    33.1105   110.1312    53.3508      .9426      .9615     1.2516   -84.8008    12.5050    19.6602      .0815    65.7329
 5987.5000    33.5851   110.7791    52.5639      .9443      .9580     1.2574   -84.4985    12.4962    19.4605      .0705    66.2356
 5988.0000    34.0307   111.0292    54.7676      .9458      .9547     1.2678   -84.4840    12.5013    19.3653      .0649    65.7299
 5988.5000    33.8436   110.7446    56.6993      .9436      .9514     1.2738   -84.3585    12.5007    19.5465      .0698    65.0389
 5989.0000    33.3969   110.1525    57.4918      .9365      .9446     1.2759   -83.7103    12.4802    19.6736      .0688    64.2058
 5989.5000    32.9249   109.5602    57.6223      .9239      .9339     1.2731   -82.6326    12.4017    19.6389      .0629    63.3887
 5990.0000    32.8298   109.2351    57.7592      .9071      .9192     1.2656   -81.5693    12.3010    19.5129      .0707    63.6320
 5990.5000    33.0097   109.4397    58.2966      .8888      .9045     1.2538   -80.9252    12.2038    19.3384      .0793    64.7509
 5991.0000    33.2098   109.8198    58.0384      .8631      .8886     1.2358   -80.6133    12.1254    19.1480      .0802    65.4263
 5991.5000    33.4423   110.1805    56.6578      .8417      .8701     1.2180   -80.4222    12.0917    19.1075      .0735    65.9590
 5992.0000    33.7398   110.8315    55.0024      .8239      .8529     1.2000   -80.4849    12.1501    19.4924      .0662    66.2601
 5992.5000    34.5566   112.3058    53.5481      .8112      .8350     1.1840   -81.0507    12.3084    20.0407      .0583    65.7379
 5993.0000    35.9612   114.4972    53.9698      .8030      .8275     1.1704   -81.9657    12.5368    20.6499      .0522    64.5359
 5993.5000    37.4996   116.7687    55.3793      .7970      .8285     1.1637   -83.0594    12.6931    21.2488      .0580    63.2009
 5994.0000    38.7642   118.4591    56.3336      .7938      .8324     1.1686   -83.9930    12.7483    21.8000      .0650    61.7809
 5994.5000    38.6534   118.3666    55.7683      .7929      .8366     1.1847   -83.8712    12.7641    22.2456      .0721    60.3498
 5995.0000    37.9132   117.2260    55.2719      .7964      .8400     1.2039   -83.8241    12.7601    22.3148      .0751    59.2820
 5995.5000    37.2868   116.2389    55.5762      .8019      .8430     1.2172   -84.0122    12.7537    22.0466      .0774    59.6010
 5996.0000    37.0486   115.5979    56.1354      .8063      .8429     1.2222   -84.4756    12.7633    21.6509      .0815    60.1306
 5996.5000    37.5918   115.0663    53.5515      .8092      .8413     1.2205   -85.1051    12.7607    21.3775      .0905    59.4034
 5997.0000    38.1951   114.7887    52.7106      .8029      .8413     1.2167   -85.6166    12.7528    21.1402      .0951    60.1835
 5997.5000    38.6790   114.7295    55.2056      .7959      .8423     1.2116   -85.8147    12.7430    21.0440      .0762    61.4681
 5998.0000    39.1001   114.8700    58.2568      .7901      .8360     1.2065   -86.0065    12.7495    21.0127      .0549    62.6215
 5998.5000    39.4866   115.0410    59.3848      .7845      .8223     1.2020   -86.1191    12.7666    21.0215      .0440    62.8573
 5999.0000    39.8708   115.2903    57.1484      .7745      .8077     1.2004   -86.0181    12.7844    21.0642      .0475    62.5858
 5999.5000    40.2234   115.6448    55.1113      .7629      .7952     1.1957   -85.6948    12.8230    21.1361      .0545    63.0051
 6000.0000    39.9120   116.1395    54.2513      .7537      .7855     1.1888   -85.2697    12.8797    21.0825      .0638    63.9435
 6000.5000    39.8403   116.8492    57.1385      .7453      .7783     1.1769   -84.8207    12.9345    20.7061      .0751    64.0999
 6001.0000    40.2156   117.5920    61.7240      .7378      .7784     1.1548   -84.7062    12.9687    20.3561      .0663    63.6732
 6001.5000    40.4340   118.4048    61.4010      .7337      .7803     1.1460   -84.7101    12.9856    20.0046      .0538    64.3062
 6002.0000    39.7075   119.2019    58.9933      .7331      .7894     1.1409   -84.7471    12.9945    19.6723      .0452    65.0304
 6002.5000    38.2241   119.7678    56.7324      .7360      .8009     1.1438   -84.6576    12.9963    19.6276      .0511    64.9916
 6003.0000    36.9595   119.9209    54.8336      .7466      .8153     1.1552   -84.6111    12.9893    19.6480      .0568    63.5359
 6003.5000    35.4136   118.6503    53.2395      .7632      .8354     1.1794   -84.9729    12.9893    19.6474      .0584    62.2513
 6004.0000    34.8715   116.9124    53.1636      .7820      .8576     1.1924   -85.0785    12.9800    19.6800      .0588    62.6910
 6004.5000    34.8244   115.4811    53.8102      .8042      .8755     1.1913   -84.9552    12.8852    19.9291      .0590    64.6837
 6005.0000    34.1802   114.8252    53.9250      .8275      .8926     1.1790   -84.6017    12.7628    20.3557      .0592    66.5656
 6005.5000    32.7579   114.5947    54.1473      .8513      .9065     1.1815   -84.2202    12.6621    20.7585      .0645    66.4078
 6006.0000    32.8724   113.7375    55.2447      .8741      .9197     1.2013   -84.2089    12.5524    20.3293      .0740    64.4570
 6006.5000    33.4765   110.6715    56.7042      .8888      .9253     1.2503   -84.7332    12.4076    19.4188      .0687    63.1049
 6007.0000    32.8769   108.3627    56.7495      .8977      .9275     1.2828   -85.2538    12.3299    19.1108      .0624    64.0925
