~VERSION INFORMATION
VERS.                             2.0:   CWLS Log ASCII Standard-VERSION 2.0
WRAP.                              NO:   One line per depth step
~Well Information Block
STRT.F                      1238.0000:   Top Depth
STOP.F                      5786.0000:   Bottom Depth
STEP.F                         .50000:   Depth Increment
NULL.                        -999.250:   Null Value
FLD .                     MU BLK A 18:   Field Name
WELL.       OCSG05167   001 ST00 BP00:   NAME
API .                    427024015100:   WELL API
R1  .            STANDARD OIL PROD CO:   COMMENT  1
EDF .F                       884.0000:   ELEV DRILL FLOOR
COMP.            STANDARD OIL PROD CO:   OPERATOR
BN  .                            A 18:   BLOCK
CTRY.                             USA:   COUNTRY NAME
CNTY.                        MG ILD L:   COUNTY NAME
EKB .F                        85.0000:   ELEV KELLY BUSHING
TDD .F                       5792.000:   FINAL TD DRILLER
STAT.                           TEXAS:   STATE NAME
UWI .                    427024015100:   WELL API
DICO.               IHS : Digitizing Company
~PARAMETER INFORMATION (zones)
#MNEM.UNIT                       Value     Description
#=========                       =====     ===========
#ZONATION                          CNL:   ZONATION NAME
#ZONE                            RUN_0:   ZONE NAME
TOP .                       3294.0000:   TOP DEPTH
BOT .                       5786.5000:   BOTTOM DEPTH
RUN .                               0:   RUN NUMBER
LCCD.                             440:   LOGGING CONTRACTOR
SRVC.                    Schlumberger:   LOGGING CONT NAME
DICO.          QC Data Collectors Ltd:   DIG COMPANY NAME
LDAT.                      11/28/1987:   DATE LOGGED
ELD .F                        85.0000:   LOG DATUM ELEVATION
TDD .F                      5785.0000:   TOTAL DEPTH DRILLER
TDL .F                      5792.0000:   TOTAL DEPTH LOGGER
BOTL.F                      5786.0000:   BOTTOM DEPTH LOGGED
TOPL.F                      3300.0000:   TOP DEPTH LOGGED
CS1 .IN                       10.7500:   CASING SIZE 1
BS1 .IN                        9.8750:   BIT SIZE 1
DDB1.F                      5785.0000:   DEPTH DRILLED BIT 1
BHF .                              81:   FLUID CODE
DPT .          Lignosulfonate (Ligno):   DRILLING FLUID TYPE
MUDD.                         11.0000:   FLUID DENSITY
MUDV.                         41.0000:   FLUID VISCOSITY
DFPH.                         10.0000:   FLUID PH
FL  .                         10.0000:   FLUID LOSS
RM  .OHMM                       .9400:   RM
~PARAMETER INFORMATION (zones)
#MNEM.UNIT                       Value     Description
#=========                       =====     ===========
#ZONATION                          DIL:   ZONATION NAME
#ZONE                            RUN_1:   ZONE NAME
TOP .                       1238.0000:   TOP DEPTH
BOT .                       5786.5000:   BOTTOM DEPTH
RUN .                               1:   RUN NUMBER
LCCD.                             440:   LOGGING CONTRACTOR
SRVC.                    Schlumberger:   LOGGING CONT NAME
DICO.          QC Data Collectors Ltd:   DIG COMPANY NAME
LDAT.                      11/23/1987:   DATE LOGGED
ELD .F                        85.0000:   LOG DATUM ELEVATION
TDD .F                      3540.0000:   TOTAL DEPTH DRILLER
TDL .F                      3539.0000:   TOTAL DEPTH LOGGER
BOTL.F                      3533.0000:   BOTTOM DEPTH LOGGED
TOPL.F                      1294.0000:   TOP DEPTH LOGGED
CS1 .IN                       16.0000:   CASING SIZE 1
BS1 .IN                       13.5000:   BIT SIZE 1
DDB1.F                      3540.0000:   DEPTH DRILLED BIT 1
BHF .                              81:   FLUID CODE
DPT .          Lignosulfonate (Ligno):   DRILLING FLUID TYPE
MUDV.                         38.0000:   FLUID VISCOSITY
DFPH.                          8.0000:   FLUID PH
FL  .                         29.2000:   FLUID LOSS
RMF .OHMM                       .2400:   RMF
FSC .                               C:   RMF CODE
TMAX.DEGF                    120.0000:   MAX REC TEMP
TIMC.                          4.0000:   TIME SINCE CIRCLN
~PARAMETER INFORMATION (zones)
#MNEM.UNIT                       Value     Description
#=========                       =====     ===========
#ZONATION                          FDC:   ZONATION NAME
#ZONE                            RUN_0:   ZONE NAME
TOP .                       3294.0000:   TOP DEPTH
BOT .                       5786.5000:   BOTTOM DEPTH
RUN .                               0:   RUN NUMBER
LCCD.                             440:   LOGGING CONTRACTOR
SRVC.                    Schlumberger:   LOGGING CONT NAME
DICO.          QC Data Collectors Ltd:   DIG COMPANY NAME
LDAT.                      11/28/1987:   DATE LOGGED
ELD .F                        85.0000:   LOG DATUM ELEVATION
TDD .F                      5785.0000:   TOTAL DEPTH DRILLER
TDL .F                      5792.0000:   TOTAL DEPTH LOGGER
BOTL.F                      5786.0000:   BOTTOM DEPTH LOGGED
TOPL.F                      3300.0000:   TOP DEPTH LOGGED
CS1 .IN                       10.7500:   CASING SIZE 1
BS1 .IN                        9.8750:   BIT SIZE 1
DDB1.F                      5785.0000:   DEPTH DRILLED BIT 1
BHF .                              81:   FLUID CODE
DPT .          Lignosulfonate (Ligno):   DRILLING FLUID TYPE
MUDD.                         11.0000:   FLUID DENSITY
MUDV.                         41.0000:   FLUID VISCOSITY
DFPH.                         10.0000:   FLUID PH
FL  .                         10.0000:   FLUID LOSS
RM  .OHMM                       .9400:   RM
~Curve Information Block
#MNEM.UNIT                    API CODE    No Description
#=========                    ========    == ===========
DEPT.F                   00 001 00 00:     1  DEPTH
NPHI.DEC                              :     2  Neutron Porosity
DT.US/F                              :     3  Sonic Transit Time
GR.GAPI                              :     4  Gamma Ray
ILD.OHMM                             :     5  Deep Induction Resistivity
ILM.OHMM                             :     6  Medium Induction Resistivity
SFL.OHMM                             :     7  Medium Resistivity
SP.MV                                :     8  Spontaneous Potential
CALI.IN                              :     9  Caliper
DPHI.DEC                              :    10  Porosity
DRHO.G/C3                            :    11  Bulk Density Correction
GR.GAPI                              :    12  Gamma Ray
~ASCII
# ...
 3952.5000      .4049   126.2876  -999.2500     1.0551     1.0512     1.1404   -65.4803    10.9804      .2986      .0301    75.2030
 3953.0000      .4088   125.5380  -999.2500     1.0728     1.0704     1.1766   -65.5751    11.0092      .2960      .0213    74.3041
 3953.5000      .4134   124.7485  -999.2500     1.0949     1.0890     1.2506   -65.7283    10.9790      .2887      .0157    73.0886
 3954.0000      .4154   124.1533  -999.2500     1.1195     1.1091     1.3122   -65.8555    10.9241      .2756      .0103    70.8710
 3954.5000      .4129   123.5082  -999.2500     1.1427     1.1322     1.3361   -65.8582    10.8920      .2645      .0066    68.8851
 3955.0000      .4108   122.3936  -999.2500     1.1643     1.1579     1.3368   -65.7030    10.9956      .2589      .0064    67.5526
 3955.5000      .4125   121.1821  -999.2500     1.1880     1.1807     1.3375   -65.4415    11.1074      .2539      .0075    66.7098
 3956.0000      .4152   120.4358  -999.2500     1.1921     1.1952     1.3502   -65.2356    10.9445      .2462      .0090    67.4235
 3956.5000      .4102   120.0336  -999.2500     1.1964     1.2010     1.3842   -65.0757    10.8203      .2412      .0098    68.1172
 3957.0000      .4080   120.1594  -999.2500     1.2002     1.2029     1.4123   -64.8901    10.8529      .2407      .0108    68.1732
 3957.5000      .4212   120.7335  -999.2500     1.2054     1.2039     1.4129   -64.7284    11.0106      .2447      .0093    67.9064
 3958.0000      .4414   121.1115  -999.2500     1.2120     1.2060     1.3653   -64.5930    11.1065      .2491      .0072    67.5697
 3958.5000      .4539   120.9828  -999.2500     1.2081     1.2079     1.3073   -64.4928    11.2021      .2533      .0025    67.6211
 3959.0000      .4382   120.5580  -999.2500     1.2050     1.2064     1.2839   -64.4033    11.2745      .2547     -.0018    67.0066
 3959.5000      .4197   120.0607  -999.2500     1.2034     1.2037     1.3221   -64.3241    11.3098      .2540     -.0054    65.4116
 3960.0000      .4010   120.2163  -999.2500     1.2004     1.1993     1.3485   -64.2377    11.3166      .2523     -.0078    64.5334
 3960.5000      .3836   121.2743  -999.2500     1.1995     1.1933     1.3460   -64.2098    11.3010      .2496     -.0078    64.7343
 3961.0000      .3806   121.8689  -999.2500     1.2005     1.1866     1.3360   -64.3030    11.2341      .2453     -.0045    65.4200
 3961.5000      .3859   121.3905  -999.2500     1.1969     1.1766     1.3356   -64.5082    11.1391      .2403     -.0008    65.9476
 3962.0000      .3920   120.7570  -999.2500     1.1905     1.1667     1.3541   -64.6946    11.0741      .2360      .0033    66.5687
 3962.5000      .3977   120.9567  -999.2500     1.1787     1.1568     1.3710   -64.7670    11.0764      .2363      .0061    68.0997
 3963.0000      .4037   121.7078  -999.2500     1.1598     1.1445     1.3276   -64.7268    11.0888      .2366      .0082    70.5670
 3963.5000      .4103   122.6230  -999.2500     1.1421     1.1299     1.2711   -64.5763    11.1289      .2372      .0095    71.5905
 3964.0000      .4208   122.9039  -999.2500     1.1249     1.1151     1.2367   -64.3131    11.2137      .2379      .0099    70.6768
 3964.5000      .4345   123.0885  -999.2500     1.1127     1.1043     1.2313   -64.0903    11.3073      .2397      .0091    69.0215
 3965.0000      .4416   123.3949  -999.2500     1.1038     1.1026     1.2308   -63.8841    11.1816      .2450      .0090    67.4675
 3965.5000      .4321   123.8622  -999.2500     1.1048     1.1059     1.2324   -63.8734    11.2111      .2544      .0148    67.1864
 3966.0000      .4146   124.8370  -999.2500     1.1092     1.1115     1.2396   -63.9674    11.3074      .2641      .0201    69.0311
 3966.5000      .4067   127.2034  -999.2500     1.1118     1.1148     1.2513   -64.2506    11.4143      .2661      .0153    71.0159
 3967.0000      .4135   127.9506  -999.2500     1.1126     1.1155     1.2636   -64.5070    11.4243      .2652      .0068    73.2623
 3967.5000      .4264   127.5896  -999.2500     1.1117     1.1122     1.2751   -64.4980    11.2344      .2639      .0021    74.9073
 3968.0000      .4370   126.0016  -999.2500     1.1060     1.1073     1.2769   -64.3608    11.0649      .2625      .0008    75.3464
 3968.5000      .4423   124.0820  -999.2500     1.1009     1.1005     1.2682   -64.2155    10.9768      .2607      .0025    75.5659
 3969.0000      .4281   122.6080  -999.2500     1.0918     1.0938     1.2568   -64.0919    10.8898      .2526      .0057    75.8933
 3969.5000      .4103   123.0054  -999.2500     1.0784     1.0871     1.2412   -63.9791    10.7919      .2452      .0095    76.4939
 3970.0000      .4019   124.5745  -999.2500     1.0688     1.0760     1.2238   -63.8831    10.7592      .2438      .0124    77.0483
 3970.5000      .4063   125.4470  -999.2500     1.0568     1.0656     1.2133   -63.8619    10.8357      .2450      .0124    75.8521
 3971.0000      .4210   125.6646  -999.2500     1.0449     1.0595     1.2113   -63.8771    10.8575      .2447      .0126    76.1260
 3971.5000      .4328   125.6090  -999.2500     1.0371     1.0473     1.2114   -63.9578    10.6687      .2429      .0130    77.0024
 3972.0000      .4436   125.4786  -999.2500     1.0384     1.0350     1.2134   -64.0510    10.5460      .2403      .0129    77.9896
 3972.5000      .4412   125.4371  -999.2500     1.0355     1.0262     1.2197   -64.1649    10.4366      .2372      .0129    77.3837
 3973.0000      .4308   125.5742  -999.2500     1.0271     1.0230     1.2185   -64.4395    10.3459      .2345      .0126    76.3198
 3973.5000      .4212   125.8550  -999.2500     1.0256     1.0184     1.2138   -64.7299    10.2805      .2335      .0131    76.7156
 3974.0000      .4177   126.2905  -999.2500     1.0183     1.0224     1.2062   -65.0454    10.2295      .2346      .0129    76.7874
 3974.5000      .4208   126.5984  -999.2500     1.0215     1.0237     1.2011   -65.3555    10.2011      .2382      .0123    75.5522
 3975.0000      .4237   126.7970  -999.2500     1.0242     1.0215     1.1969   -65.6451    10.1860      .2393      .0114    72.9619
 3975.5000      .4243   126.9646  -999.2500     1.0301     1.0255     1.1938   -65.9025    10.1828      .2371      .0111    71.5409
 3976.0000      .4296   127.0426  -999.2500     1.0387     1.0321     1.1914   -66.1135    10.1909      .2356      .0102    72.4261
 3976.5000      .4431   126.6970  -999.2500     1.0485     1.0426     1.1898   -66.2468    10.2237      .2369      .0082    73.9753
 3977.0000      .4609   125.5536  -999.2500     1.0605     1.0551     1.2163   -66.2419    10.2663      .2423      .0061    75.4147
 3977.5000      .4698   123.5281  -999.2500     1.0678     1.0629     1.2687   -66.0828    10.3353      .2463      .0053    76.1385
 3978.0000      .4685   123.0540  -999.2500     1.0692     1.0674     1.2947   -65.7408    10.4253      .2456      .0077    75.3652
 3978.5000      .4328   123.6484  -999.2500     1.0704     1.0683     1.2744   -65.3873    10.5702      .2431      .0110    75.0388
 3979.0000      .4205   124.7726  -999.2500     1.0671     1.0662     1.2492   -65.0750    10.7272      .2412      .0136    76.1205
 3979.5000      .4142   126.0546  -999.2500     1.0619     1.0626     1.2255   -64.8459    10.9275      .2421      .0150    77.3494
 3980.0000      .4139   127.0245  -999.2500     1.0541     1.0559     1.2095   -64.7399    11.1227      .2526      .0148    78.0618
 3980.5000      .4329   127.5144  -999.2500     1.0451     1.0494     1.1960   -64.7474    11.2069      .2704      .0135    76.4873
 3981.0000      .4458   127.2235  -999.2500     1.0362     1.0430     1.1839   -64.8878    11.1944      .2849      .0147    74.8621
 3981.5000      .4455   126.5883  -999.2500     1.0276     1.0369     1.1766   -65.0493    11.0304      .2887      .0176    73.9648
 3982.0000      .4323   126.2528  -999.2500     1.0173     1.0303     1.1710   -65.2148    10.8565      .2709      .0183    75.1276
 3982.5000      .4141   126.3210  -999.2500     1.0105     1.0231     1.1663   -65.2699    10.7619      .2555      .0152    78.0521
