~VERSION INFORMATION
VERS.                             2.0:   CWLS Log ASCII Standard-VERSION 2.0
WRAP.                              NO:   One line per depth step
~Well Information Block
STRT.F                      3964.0000:   Top Depth
STOP.F                      6748.0000:   Bottom Depth
STEP.F                         .50000:   Depth Increment
NULL.                        -999.250:   Null Value
FLD .                     MU BLK A 26:   Field Name
WELL.       OCSG13276   001 ST00 BP00:   NAME
API .                    427024021500:   WELL API
EDF .F                        73.0000:   ELEV DRILL FLOOR
COMP.                  ORYX ENERGY CO:   OPERATOR
BN  .                            A 26:   BLOCK
CTRY.                             USA:   COUNTRY NAME
CNTY.                        MG ILD L:   COUNTY NAME
EGL .F                      -290.0000:   ELEV GROUND LEVEL
TDD .F                       6750.000:   FINAL TD DRILLER
STAT.                           TEXAS:   STATE NAME
UWI .                    427024021500:   WELL API
DICO.               IHS : Digitizing Company
~PARAMETER INFORMATION (zones)
#MNEM.UNIT                       Value     Description
#=========                       =====     ===========
#ZONATION                          CNL:   ZONATION NAME
#ZONE                            RUN_1:   ZONE NAME
TOP .                       3970.0000:   TOP DEPTH
BOT .                       6744.5000:   BOTTOM DEPTH
RUN .                               1:   RUN NUMBER
LCCD.                             510:   LOGGING CONTRACTOR
SRVC.                   Western Atlas:   LOGGING CONT NAME
DICO.          QC Data Collectors Ltd:   DIG COMPANY NAME
LDAT.                      08/29/1993:   DATE LOGGED
TDD .F                      6750.0000:   TOTAL DEPTH DRILLER
TDL .F                      6749.0000:   TOTAL DEPTH LOGGER
BOTL.F                      6746.0000:   BOTTOM DEPTH LOGGED
TOPL.F                      3998.0000:   TOP DEPTH LOGGED
CS1 .IN                       13.3750:   CASING SIZE 1
BS1 .IN                       12.2500:   BIT SIZE 1
DDB1.F                      6750.0000:   DEPTH DRILLED BIT 1
BHF .                              32:   FLUID CODE
DPT .                          low PH:   DRILLING FLUID TYPE
MUDD.                         11.5000:   FLUID DENSITY
MUDV.                         46.0000:   FLUID VISCOSITY
DFPH.                          8.8000:   FLUID PH
FL  .                          5.0000:   FLUID LOSS
RM  .OHMM                      1.2400:   RM
RMT .DEGF                     75.0000:   RM TEMP
RMF .OHMM                      1.1400:   RMF
RMFT.DEGF                     75.0000:   RMF TEMP
FSC .                               M:   RMF CODE
RMC .OHMM                      1.8000:   RMC
RMCT.DEGF                     75.0000:   RMC TEMP
CMC .                               M:   RMC CODE
TMAX.DEGF                    164.0000:   MAX REC TEMP
TIMC.                         10.0000:   TIME SINCE CIRCLN
~PARAMETER INFORMATION (zones)
#MNEM.UNIT                       Value     Description
#=========                       =====     ===========
#ZONATION                          DIL:   ZONATION NAME
#ZONE                            RUN_1:   ZONE NAME
TOP .                       3986.0000:   TOP DEPTH
BOT .                       6748.5000:   BOTTOM DEPTH
RUN .                               1:   RUN NUMBER
LCCD.                             510:   LOGGING CONTRACTOR
SRVC.                   Western Atlas:   LOGGING CONT NAME
DICO.          QC Data Collectors Ltd:   DIG COMPANY NAME
LDAT.                      08/29/1993:   DATE LOGGED
TDD .F                      6750.0000:   TOTAL DEPTH DRILLER
TDL .F                      6750.0000:   TOTAL DEPTH LOGGER
BOTL.F                      6748.0000:   BOTTOM DEPTH LOGGED
TOPL.F                      3998.0000:   TOP DEPTH LOGGED
CS1 .IN                       13.3750:   CASING SIZE 1
BS1 .IN                       12.2500:   BIT SIZE 1
DDB1.F                      6750.0000:   DEPTH DRILLED BIT 1
BHF .                              32:   FLUID CODE
DPT .                          low PH:   DRILLING FLUID TYPE
MUDD.                         11.5000:   FLUID DENSITY
MUDV.                         46.0000:   FLUID VISCOSITY
DFPH.                          8.8000:   FLUID PH
FL  .                          5.0000:   FLUID LOSS
RM  .OHMM                      1.2400:   RM
RMT .DEGF                     75.0000:   RM TEMP
RMF .OHMM                      1.1400:   RMF
RMFT.DEGF                     75.0000:   RMF TEMP
FSC .                               M:   RMF CODE
RMC .OHMM                      1.8000:   RMC
RMCT.DEGF                     75.0000:   RMC TEMP
CMC .                               M:   RMC CODE
TMAX.DEGF                    158.0000:   MAX REC TEMP
TIMC.                          6.0000:   TIME SINCE CIRCLN
~PARAMETER INFORMATION (zones)
#MNEM.UNIT                       Value     Description
#=========                       =====     ===========
#ZONATION                          FDC:   ZONATION NAME
#ZONE                            RUN_1:   ZONE NAME
TOP .                       3964.0000:   TOP DEPTH
BOT .                       6746.5000:   BOTTOM DEPTH
RUN .                               1:   RUN NUMBER
LCCD.                             510:   LOGGING CONTRACTOR
SRVC.                   Western Atlas:   LOGGING CONT NAME
DICO.          QC Data Collectors Ltd:   DIG COMPANY NAME
LDAT.                      08/29/1993:   DATE LOGGED
TDD .F                      6750.0000:   TOTAL DEPTH DRILLER
TDL .F                      6749.0000:   TOTAL DEPTH LOGGER
BOTL.F                      6746.0000:   BOTTOM DEPTH LOGGED
TOPL.F                      3998.0000:   TOP DEPTH LOGGED
CS1 .IN                       13.3750:   CASING SIZE 1
BS1 .IN                       12.2500:   BIT SIZE 1
DDB1.F                      6750.0000:   DEPTH DRILLED BIT 1
BHF .                              32:   FLUID CODE
DPT .                          low PH:   DRILLING FLUID TYPE
MUDD.                         11.5000:   FLUID DENSITY
MUDV.                         46.0000:   FLUID VISCOSITY
DFPH.                          8.8000:   FLUID PH
FL  .                          5.0000:   FLUID LOSS
RM  .OHMM                      1.2400:   RM
RMT .DEGF                     75.0000:   RM TEMP
RMF .OHMM                      1.1400:   RMF
RMFT.DEGF                     75.0000:   RMF TEMP
FSC .                               M:   RMF CODE
RMC .OHMM                      1.8000:   RMC
RMCT.DEGF                     75.0000:   RMC TEMP
CMC .                               M:   RMC CODE
TMAX.DEGF                    164.0000:   MAX REC TEMP
TIMC.                         10.0000:   TIME SINCE CIRCLN
~Curve Information Block
#MNEM.UNIT                    API CODE    No Description
#=========                    ========    == ===========
DEPT.F                   00 001 00 00:     1  DEPTH
NPHI.%                               :     2  Neutron Porosity
DT.US/F                              :     3  Sonic Transit Time
GR.GAPI                              :     4  Gamma Ray
ILD.OHMM                             :     5  Deep Induction Resistivity
ILM.OHMM                             :     6  Medium Induction Resistivity
RFOC.OHMM                            :     7  Medium Resistivity
SP.MV                                :     8  Spontaneous Potential
CALI.IN                              :     9  Caliper
DPHI.%                               :    10  Porosity
DRHO.G/C3                            :    11  Bulk Density Correction
GRD.GAPI                             :    12  Gamma Ray
~ASCII
# ...
 5092.5000    37.4501   114.9832    71.3721     1.1020     1.1070     1.4195   -80.0903    12.1503    20.9634      .0576    66.4326
 5093.0000    37.2567   114.2008    70.8335     1.0927     1.0994     1.4177   -80.0935    12.1635    21.5655      .0545    66.9944
 5093.5000    36.9960   113.8850    66.8741     1.0832     1.0983     1.4110   -80.0599    12.1718    22.2776      .0621    67.5562
 5094.0000    36.7995   114.5553    62.8366     1.0755     1.0954     1.4026   -80.1116    12.1746    22.9904      .0808    67.4951
 5094.5000    36.7864   115.9391    61.7275     1.0713     1.0909     1.3964   -80.8224    12.1636    23.4341      .0882    66.6666
 5095.0000    36.8165   116.9928    63.2149     1.0666     1.0846     1.3911   -81.5869    12.1107    23.5226      .0834    66.5085
 5095.5000    36.8686   118.0464    64.2274     1.0592     1.0772     1.3866   -82.2657    12.0133    22.8568      .0683    67.5482
 5096.0000    37.8229   119.1001    63.4671     1.0495     1.0717     1.3830   -82.6029    11.9295    22.3206      .0540    69.0088
 5096.5000    39.0567   119.8462    62.5067     1.0425     1.0676     1.3783   -82.3894    11.8990    22.6038      .0481    68.1631
 5097.0000    39.5728   119.1677    63.8050     1.0382     1.0599     1.3678   -81.8649    11.9030    23.3278      .0505    65.3800
 5097.5000    39.4676   118.5782    62.3714     1.0372     1.0524     1.3733   -81.3390    11.9175    24.0626      .0597    64.4435
 5098.0000    39.0425   118.2147    60.1066     1.0356     1.0452     1.3815   -81.1060    11.9270    24.2740      .0715    64.0061
 5098.5000    38.9080   118.1348    62.6824     1.0326     1.0376     1.3883   -81.1201    11.9346    24.0290      .0820    62.3094
 5099.0000    38.7883   118.6810    67.1239     1.0295     1.0305     1.3659   -81.2919    11.9396    23.4595      .0743    60.6660
 5099.5000    38.5241   119.5367    69.8859     1.0225     1.0286     1.3535   -81.5061    11.9432    22.8467      .0645    60.1771
 5100.0000    37.7811   120.0159    66.2888     1.0142     1.0285     1.3435   -81.7021    11.9456    22.6015      .0583    62.9551
 5100.5000    37.3651   120.4735    62.0268     1.0056     1.0258     1.3344   -81.5569    11.9467    22.4063      .0541    64.8812
 5101.0000    37.5262   120.6670    60.0043      .9965     1.0216     1.3271   -80.9454    11.9434    22.0067      .0510    66.4567
 5101.5000    38.1588   120.6356    62.7380      .9879     1.0161     1.3235   -80.2126    11.9380    21.7315      .0463    67.5507
 5102.0000    38.6771   120.5431    65.9504      .9797     1.0052     1.3232   -79.3821    11.9244    21.8745      .0368    67.4087
 5102.5000    38.4372   120.4166    65.3569      .9728      .9880     1.3191   -78.7963    11.8880    22.4828      .0463    65.9591
 5103.0000    38.3616   120.2937    62.1371      .9640      .9634     1.3145   -78.4014    11.7946    23.6054      .0716    64.1367
 5103.5000    38.5934   120.1796    63.1119      .9508      .9401     1.3110   -78.1606    11.6045    25.7476      .0958    62.6563
 5104.0000    37.7975   120.1218    64.5161      .9331      .9081     1.3057   -77.9982    11.4012    27.7286      .1051    61.5383
 5104.5000    36.6615   120.5421    63.8795      .9063      .8721     1.2931   -77.8691    11.2827    29.5931      .0953    61.7587
 5105.0000    36.5495   122.3450    66.0852      .8728      .8357     1.2586   -77.7469    11.2255    30.2346      .0787    63.4366
 5105.5000    37.1123   124.6377    69.5012      .8363      .8077     1.2151   -77.7759    11.2090    30.4823      .0661    65.9011
 5106.0000    37.7796   126.1387    70.4429      .8019      .7921     1.1854   -78.6346    11.2175    30.3790      .0595    69.7657
 5106.5000    37.8553   127.6383    68.4590      .7596      .7814     1.1795   -79.6508    11.2534    29.8767      .0581    73.6278
 5107.0000    37.8763   128.5203    67.2709      .7258      .7759     1.1795   -79.8572    11.3277    29.2393      .0540    75.5663
 5107.5000    37.6732   128.5271    65.6292      .7132      .7757     1.1805   -79.7152    11.4276    28.7661      .0457    77.2097
 5108.0000    37.4609   127.6959    62.9746      .7141      .7688     1.1844   -79.5594    11.5073    28.6044      .0325    75.7466
 5108.5000    37.5143   126.5834    61.0324      .7152      .7598     1.1890   -79.3347    11.5261    28.4780      .0283    73.2722
 5109.0000    37.9561   125.0574    59.2803      .7062      .7419     1.1935   -79.1608    11.5305    28.3251      .0305    72.6484
 5109.5000    38.2599   123.5077    57.3589      .6921      .7252     1.1993   -79.0515    11.5323    28.2265      .0325    72.8774
 5110.0000    38.2393   121.9767    56.1457      .6782      .7112     1.1923   -78.9930    11.5312    28.3090      .0345    72.8173
 5110.5000    37.8580   121.0714    58.2013      .6668      .7029     1.1739   -79.0201    11.5328    28.5504      .0362    71.2103
 5111.0000    37.7118   122.3412    63.4467      .6547      .7029     1.1499   -79.1399    11.5396    28.8582      .0352    69.7731
 5111.5000    38.1536   124.2380    67.0956      .6496      .7059     1.1247   -79.2557    11.5476    29.1639      .0299    69.3325
 5112.0000    38.9224   125.9757    66.2582      .6529      .7095     1.1113   -79.2562    11.5499    29.0749      .0242    70.3732
 5112.5000    38.9018   126.9222    63.9763      .6652      .7166     1.1167   -79.1981    11.5522    28.9908      .0216    72.9709
 5113.0000    36.9988   126.1671    63.6306      .6832      .7374     1.1296   -79.2162    11.5632    28.9010      .0221    76.5219
 5113.5000    34.2402   125.8192    64.2767      .7047      .7724     1.1485   -79.3882    11.5777    28.7871      .0239    76.7328
 5114.0000    33.3751   125.6902    64.2186      .7467      .8066     1.1724   -79.7686    11.5944    28.1854      .0259    75.7811
 5114.5000    34.3745   125.4780    63.3853      .8036      .8459     1.1988   -80.2139    11.6138    27.2628      .0281    72.2104
 5115.0000    35.4404   124.2706    61.4064      .8607      .8900     1.2296   -80.7336    11.6371    26.2313      .0466    70.2534
 5115.5000    36.0192   121.9277    58.3091      .9219      .9439     1.2630   -80.8359    11.6904    25.2378      .0608    69.5410
 5116.0000    35.2754   119.6552    56.6999      .9874     1.0062     1.2996   -80.6783    11.7269    24.6150      .0684    69.9423
 5116.5000    34.5016   117.1794    57.7586     1.0576     1.0743     1.3423   -80.5768    11.6647    24.2214      .0707    69.0298
 5117.0000    34.4495   115.1511    58.3484     1.1235     1.1399     1.3964   -80.7994    11.5607    24.0315      .0702    67.0087
 5117.5000    34.4971   113.8656    56.8930     1.1580     1.1877     1.4265   -81.2166    11.4635    23.7241      .0697    66.6604
 5118.0000    34.4514   112.8646    57.9217     1.1776     1.2114     1.4423   -81.7136    11.3185    22.9501      .0663    67.5226
 5118.5000    34.5745   112.7450    61.4628     1.1844     1.1866     1.4546   -82.2426    11.3093    22.2306      .0604    67.1567
 5119.0000    35.5284   113.5769    64.6017     1.1682     1.1531     1.4643   -82.7518    11.3264    22.1561      .0562    66.1530
 5119.5000    36.2394   115.2275    63.6649     1.1371     1.1329     1.4541   -83.2678    11.3594    22.7553      .0573    66.5610
 5120.0000    36.5932   115.6274    60.6879     1.1032     1.1147     1.4208   -83.0824    11.4231    23.5260      .0616    67.1741
 5120.5000    36.8795   116.0513    59.0583     1.0746     1.0890     1.3893   -82.2327    11.4742    23.8648      .0663    67.5945
 5121.0000    37.3892   116.7034    62.0342     1.0511     1.0661     1.3504   -81.2710    11.5174    24.2255      .0713    67.9862
 5121.5000    38.6536   118.2080    65.3447     1.0244     1.0487     1.3048   -80.4707    11.5381    24.5410      .0684    70.3831
 5122.0000    39.6583   119.9733    63.6821     1.0044     1.0309     1.2872   -80.2791    11.5280    24.9523      .0688    74.3464
 5122.5000    39.8365   121.3787    61.4505      .9927     1.0259     1.3152   -80.3994    11.5269    25.2436      .0766    74.3329
