~VERSION INFORMATION
VERS.                             2.0:   CWLS Log ASCII Standard-VERSION 2.0
WRAP.                              NO:   One line per depth step
~Well Information Block
STRT.F                       590.0000:   Top Depth
STOP.F                      5513.0000:   Bottom Depth
STEP.F                         .50000:   Depth Increment
NULL.                        -999.250:   Null Value
FLD .                     MU BLK A 16:   Field Name
WELL.       OCSG03011  A001 ST00 BP00:   NAME
API .                    427024004100:   WELL API
R1  .                           13904:   COMMENT  1
EDF .F                       102.0000:   ELEV DRILL FLOOR
COMP.       CITIES SERVICE OIL COMPAN:   OPERATOR
BN  .                            A 16:   BLOCK
CTRY.                             USA:   COUNTRY NAME
CNTY.                        MG ILD L:   COUNTY NAME
EKB .F                       103.0000:   ELEV KELLY BUSHING
TDD .F                       5519.000:   FINAL TD DRILLER
STAT.                           TEXAS:   STATE NAME
UWI .                    427024004100:   WELL API
DICO.               IHS : Digitizing Company
~PARAMETER INFORMATION (zones)
#MNEM.UNIT                       Value     Description
#=========                       =====     ===========
#ZONATION                          CNL:   ZONATION NAME
#ZONE                            RUN_1:   ZONE NAME
TOP .                       3234.0000:   TOP DEPTH
BOT .                       5513.5000:   BOTTOM DEPTH
RUN .                               1:   RUN NUMBER
LCCD.                             440:   LOGGING CONTRACTOR
SRVC.                    Schlumberger:   LOGGING CONT NAME
DICO.          QC Data Collectors Ltd:   DIG COMPANY NAME
LDAT.                      03/04/1980:   DATE LOGGED
ELD .F                       103.0000:   LOG DATUM ELEVATION
TDD .F                      5512.0000:   TOTAL DEPTH DRILLER
TDL .F                      5519.0000:   TOTAL DEPTH LOGGER
BOTL.F                      5513.0000:   BOTTOM DEPTH LOGGED
TOPL.F                      3240.0000:   TOP DEPTH LOGGED
CS1 .IN                       13.3750:   CASING SIZE 1
BS1 .IN                       12.2500:   BIT SIZE 1
DDB1.F                      5512.0000:   DEPTH DRILLED BIT 1
BHF .                              99:   FLUID CODE
DPT .                   Miscellaneous:   DRILLING FLUID TYPE
MUDD.                         13.1000:   FLUID DENSITY
MUDV.                         38.0000:   FLUID VISCOSITY
DFPH.                         11.5000:   FLUID PH
FL  .                          4.0000:   FLUID LOSS
RM  .OHMM                       .8600:   RM
RMT .DEGF                     70.0000:   RM TEMP
RMF .OHMM                       .6600:   RMF
RMFT.DEGF                     70.0000:   RMF TEMP
FSC .                               M:   RMF CODE
RMC .OHMM                      1.8600:   RMC
RMCT.DEGF                     70.0000:   RMC TEMP
CMC .                               M:   RMC CODE
TMAX.DEGF                    145.0000:   MAX REC TEMP
TIMC.                          6.5000:   TIME SINCE CIRCLN
~PARAMETER INFORMATION (zones)
#MNEM.UNIT                       Value     Description
#=========                       =====     ===========
#ZONATION                          DIL:   ZONATION NAME
#ZONE                            RUN_1:   ZONE NAME
TOP .                       3240.0000:   TOP DEPTH
BOT .                       5513.5000:   BOTTOM DEPTH
RUN .                               1:   RUN NUMBER
LCCD.                             440:   LOGGING CONTRACTOR
SRVC.                    Schlumberger:   LOGGING CONT NAME
DICO.          QC Data Collectors Ltd:   DIG COMPANY NAME
LDAT.                      03/04/1980:   DATE LOGGED
ELD .F                       103.0000:   LOG DATUM ELEVATION
TDD .F                      5512.0000:   TOTAL DEPTH DRILLER
TDL .F                      5519.0000:   TOTAL DEPTH LOGGER
BOTL.F                      5513.0000:   BOTTOM DEPTH LOGGED
TOPL.F                      3240.0000:   TOP DEPTH LOGGED
CS1 .IN                       13.3750:   CASING SIZE 1
BS1 .IN                       12.2500:   BIT SIZE 1
DDB1.F                      5512.0000:   DEPTH DRILLED BIT 1
BHF .                              99:   FLUID CODE
DPT .                   Miscellaneous:   DRILLING FLUID TYPE
MUDD.                         13.1000:   FLUID DENSITY
MUDV.                         38.0000:   FLUID VISCOSITY
DFPH.                         11.5000:   FLUID PH
FL  .                          4.0000:   FLUID LOSS
RM  .OHMM                       .8600:   RM
RMT .DEGF                     70.0000:   RM TEMP
RMF .OHMM                       .6600:   RMF
RMFT.DEGF                     70.0000:   RMF TEMP
FSC .                               M:   RMF CODE
RMC .OHMM                      1.8600:   RMC
RMCT.DEGF                     70.0000:   RMC TEMP
CMC .                               M:   RMC CODE
TMAX.DEGF                    145.0000:   MAX REC TEMP
TIMC.                          6.5000:   TIME SINCE CIRCLN
~PARAMETER INFORMATION (zones)
#MNEM.UNIT                       Value     Description
#=========                       =====     ===========
#ZONATION                          DIL:   ZONATION NAME
#ZONE                          RUN_1_1:   ZONE NAME
TOP .                        590.0000:   TOP DEPTH
BOT .                       1046.5000:   BOTTOM DEPTH
RUN .                               1:   RUN NUMBER
LCCD.                             440:   LOGGING CONTRACTOR
SRVC.                    Schlumberger:   LOGGING CONT NAME
DICO.          QC Data Collectors Ltd:   DIG COMPANY NAME
LDAT.                      02/20/1980:   DATE LOGGED
ELD .F                       103.0000:   LOG DATUM ELEVATION
TDD .F                      1050.0000:   TOTAL DEPTH DRILLER
TDL .F                      1050.0000:   TOTAL DEPTH LOGGER
BOTL.F                      1046.0000:   BOTTOM DEPTH LOGGED
TOPL.F                       597.0000:   TOP DEPTH LOGGED
CS1 .IN                       30.0000:   CASING SIZE 1
BS1 .IN                       12.5000:   BIT SIZE 1
DDB1.F                      1050.0000:   DEPTH DRILLED BIT 1
BHF .                              99:   FLUID CODE
DPT .                   Miscellaneous:   DRILLING FLUID TYPE
MUDD.                          8.6000:   FLUID DENSITY
MUDV.                         39.0000:   FLUID VISCOSITY
DFPH.                         12.3000:   FLUID PH
FL  .                            NULL:   FLUID LOSS
RM  .OHMM                       .3900:   RM
RMT .DEGF                     80.0000:   RM TEMP
RMF .OHMM                       .2400:   RMF
RMFT.DEGF                     80.0000:   RMF TEMP
FSC .                               M:   RMF CODE
RMC .OHMM                       .4500:   RMC
RMCT.DEGF                     80.0000:   RMC TEMP
CMC .                               M:   RMC CODE
TMAX.DEGF                     90.0000:   MAX REC TEMP
TIMC.                          1.5000:   TIME SINCE CIRCLN
~PARAMETER INFORMATION (zones)
#MNEM.UNIT                       Value     Description
#=========                       =====     ===========
#ZONATION                          FDC:   ZONATION NAME
#ZONE                            RUN_1:   ZONE NAME
TOP .                       3234.0000:   TOP DEPTH
BOT .                       5513.5000:   BOTTOM DEPTH
RUN .                               1:   RUN NUMBER
LCCD.                             440:   LOGGING CONTRACTOR
SRVC.                    Schlumberger:   LOGGING CONT NAME
DICO.          QC Data Collectors Ltd:   DIG COMPANY NAME
LDAT.                      03/04/1980:   DATE LOGGED
ELD .F                       103.0000:   LOG DATUM ELEVATION
TDD .F                      5512.0000:   TOTAL DEPTH DRILLER
TDL .F                      5519.0000:   TOTAL DEPTH LOGGER
BOTL.F                      5513.0000:   BOTTOM DEPTH LOGGED
TOPL.F                      3240.0000:   TOP DEPTH LOGGED
CS1 .IN                       13.3750:   CASING SIZE 1
BS1 .IN                       12.2500:   BIT SIZE 1
DDB1.F                      5512.0000:   DEPTH DRILLED BIT 1
BHF .                              99:   FLUID CODE
DPT .                   Miscellaneous:   DRILLING FLUID TYPE
MUDD.                         13.1000:   FLUID DENSITY
MUDV.                         38.0000:   FLUID VISCOSITY
DFPH.                         11.5000:   FLUID PH
FL  .                          4.0000:   FLUID LOSS
RM  .OHMM                       .8600:   RM
RMT .DEGF                     70.0000:   RM TEMP
RMF .OHMM                       .6600:   RMF
RMFT.DEGF                     70.0000:   RMF TEMP
FSC .                               M:   RMF CODE
RMC .OHMM                      1.8600:   RMC
RMCT.DEGF                     70.0000:   RMC TEMP
CMC .                               M:   RMC CODE
TMAX.DEGF                    145.0000:   MAX REC TEMP
TIMC.                          6.5000:   TIME SINCE CIRCLN
~Curve Information Block
#MNEM.UNIT                    API CODE    No Description
#=========                    ========    == ===========
DEPT.F                   00 001 00 00:     1  DEPTH
NPHI.%                               :     2  Neutron Porosity
ASFL.OHMM                            :     3  Shallow Resistivity
DT.US/F                              :     4  Sonic Transit Time
GR.GAPI                              :     5  Gamma Ray
ILD.OHMM                             :     6  Deep Induction Resistivity
SFL.OHMM                             :     7  Medium Resistivity
SP.MV                                :     8  Spontaneous Potential
CALI.IN                              :     9  Caliper
DRHO.G/C3                            :    10  Bulk Density Correction
GR.GAPI                              :    11  Gamma Ray
RHOB.G/C3                            :    12  Bulk Density
~ASCII
# ...
 4890.5000    38.4642     1.5074  -999.2500  -999.2500     1.5786  -999.2500   -61.3538    12.9469     -.0006    61.3483     2.3437
 4891.0000    42.1184     1.4794  -999.2500  -999.2500     1.5156  -999.2500   -61.2208    12.9696     -.0005    62.7774     2.3264
 4891.5000    42.7593     1.4514  -999.2500  -999.2500     1.4525  -999.2500   -61.0878    13.0047     -.0013    63.1135     2.3248
 4892.0000    41.8948     1.4249  -999.2500  -999.2500     1.3895  -999.2500   -60.9165    12.9755      .0071    62.4862     2.3267
 4892.5000    41.0462     1.4045  -999.2500  -999.2500     1.3692  -999.2500   -60.6570    12.8418      .0148    62.2339     2.3292
 4893.0000    40.6005     1.4331  -999.2500  -999.2500     1.4267  -999.2500   -60.3978    12.7491      .0173    62.0211     2.3282
 4893.5000    40.0670     1.5059  -999.2500  -999.2500     1.4842  -999.2500   -60.1384    12.7880      .0171    61.8890     2.3386
 4894.0000    39.0383     1.5787  -999.2500  -999.2500     1.5417  -999.2500   -59.8789    12.8406      .0127    61.9772     2.3528
 4894.5000    37.9255     1.6516  -999.2500  -999.2500     1.5991  -999.2500   -59.6196    12.8932      .0068    62.0137     2.3591
 4895.0000    37.1558     1.7244  -999.2500  -999.2500     1.6601  -999.2500   -59.3602    12.9340      .0011    62.0098     2.3562
 4895.5000    35.7545     1.7973  -999.2500  -999.2500     1.7299  -999.2500   -58.9678    12.8515     -.0026    61.5215     2.3596
 4896.0000    34.1503     1.8701  -999.2500  -999.2500     1.7999  -999.2500   -58.5403    12.7783     -.0035    60.3541     2.3677
 4896.5000    31.6472     1.8174  -999.2500  -999.2500     1.7975  -999.2500   -58.1128    12.7834     -.0030    60.9514     2.3743
 4897.0000    30.6200     1.7595  -999.2500  -999.2500     1.7378  -999.2500   -57.6853    12.7978     -.0036    62.0401     2.3655
 4897.5000    31.3594     1.7017  -999.2500  -999.2500     1.6780  -999.2500   -57.2208    12.7949     -.0043    63.2198     2.3524
 4898.0000    32.7585     1.6438  -999.2500  -999.2500     1.6182  -999.2500   -56.7138    12.7608     -.0034    63.2007     2.3457
 4898.5000    35.1051     1.5859  -999.2500  -999.2500     1.5585  -999.2500   -56.2072    12.7727      .0006    62.6678     2.3514
 4899.0000    37.0607     1.5281  -999.2500  -999.2500     1.5024  -999.2500   -55.7003    12.8114      .0053    62.6202     2.3573
 4899.5000    38.4605     1.4774  -999.2500  -999.2500     1.4534  -999.2500   -56.7283    12.8439      .0080    63.5455     2.3607
 4900.0000    39.2885     1.4492  -999.2500  -999.2500     1.4045  -999.2500   -54.6114    12.6850      .0083    64.8529     2.3532
 4900.5000    40.0478     1.4324  -999.2500  -999.2500     1.3556  -999.2500   -54.5143    12.5997      .0080    66.1064     2.3439
 4901.0000    40.9105     1.4257  -999.2500  -999.2500     1.3291  -999.2500   -54.3881    12.5282      .0078    66.6689     2.3368
 4901.5000    41.3200     1.4212  -999.2500  -999.2500     1.3172  -999.2500   -53.9870    12.4744      .0088    66.7844     2.3417
 4902.0000    40.7599     1.4168  -999.2500  -999.2500     1.3053  -999.2500   -53.5730    12.5508      .0098    66.1199     2.3459
 4902.5000    39.9098     1.4123  -999.2500  -999.2500     1.2981  -999.2500   -53.0366    12.7518      .0090    64.9414     2.3465
 4903.0000    38.8848     1.4051  -999.2500  -999.2500     1.3148  -999.2500   -53.1266    12.9582      .0057    64.3313     2.3392
 4903.5000    38.6255     1.3975  -999.2500  -999.2500     1.3316  -999.2500   -53.2883    13.1175      .0056    63.6622     2.3366
 4904.0000    38.5620     1.4061  -999.2500  -999.2500     1.3724  -999.2500   -53.4500    13.1710      .0080    62.7197     2.3429
 4904.5000    37.8207     1.4190  -999.2500  -999.2500     1.4346  -999.2500   -53.6115    13.1380      .0056    60.6994     2.3532
 4905.0000    36.1442     1.4900  -999.2500  -999.2500     1.4969  -999.2500   -53.7731    13.0643      .0029    58.4310     2.3712
 4905.5000    32.7349     1.5610  -999.2500  -999.2500     1.5593  -999.2500   -53.9348    12.9671      .0002    56.6650     2.3915
 4906.0000    31.8575     1.6319  -999.2500  -999.2500     1.6215  -999.2500   -54.2670    12.9531     -.0011    55.6487     2.4023
 4906.5000    31.9870     1.7029  -999.2500  -999.2500     1.6780  -999.2500   -54.8358    13.0455     -.0009    55.6396     2.4031
 4907.0000    32.5445     1.7739  -999.2500  -999.2500     1.7279  -999.2500   -55.4045    13.1287      .0022    55.5085     2.4026
 4907.5000    33.5156     1.8449  -999.2500  -999.2500     1.7760  -999.2500   -55.9733    13.1733      .0068    55.2507     2.4035
 4908.0000    34.7554     1.8251  -999.2500  -999.2500     1.7844  -999.2500   -56.3299    13.1492      .0137    55.0724     2.3975
 4908.5000    35.6998     1.8043  -999.2500  -999.2500     1.7768  -999.2500   -56.3995    13.0785      .0219    56.5090     2.3910
 4909.0000    35.5421     1.7796  -999.2500  -999.2500     1.7596  -999.2500   -56.0188    12.8918      .0241    59.4583     2.3843
 4909.5000    35.9884     1.7546  -999.2500  -999.2500     1.7423  -999.2500   -55.6381    12.7059      .0229    60.1529     2.3775
 4910.0000    36.3555     1.7677  -999.2500  -999.2500     1.7250  -999.2500   -55.2570    12.6476      .0167    59.5148     2.3706
 4910.5000    35.5700     1.8141  -999.2500  -999.2500     1.7208  -999.2500   -55.0003    12.6102      .0100    58.7590     2.3659
 4911.0000    34.0189     1.8511  -999.2500  -999.2500     1.7393  -999.2500   -55.0114    12.5686      .0029    58.8340     2.3673
 4911.5000    32.5541     1.8629  -999.2500  -999.2500     1.7578  -999.2500   -55.0226    12.5078      .0018    60.3259     2.3707
 4912.0000    32.2419     1.8347  -999.2500  -999.2500     1.7603  -999.2500   -55.0338    12.4595      .0052    61.4717     2.3742
 4912.5000    32.5585     1.8015  -999.2500  -999.2500     1.7296  -999.2500   -55.0449    12.4469      .0086    62.1894     2.3741
 4913.0000    32.9194     1.7684  -999.2500  -999.2500     1.6990  -999.2500   -55.0561    12.4561      .0119    62.9845     2.3703
 4913.5000    33.8580     1.7163  -999.2500  -999.2500     1.6684  -999.2500   -55.0673    12.5152      .0156    64.0271     2.3672
 4914.0000    35.5568     1.6532  -999.2500  -999.2500     1.6360  -999.2500   -55.0784    12.5994      .0240    64.8186     2.3658
 4914.5000    38.7313     1.5704  -999.2500  -999.2500     1.5796  -999.2500   -54.8645    12.7074      .0355    63.7519     2.3648
 4915.0000    39.1246     1.5828  -999.2500  -999.2500     1.5232  -999.2500   -54.6102    12.8163      .0314    61.5203     2.3583
 4915.5000    36.5721     1.6050  -999.2500  -999.2500     1.5996  -999.2500   -54.3560    12.9067      .0100    58.2859     2.3443
 4916.0000    33.5186     1.6799  -999.2500  -999.2500     1.7017  -999.2500   -54.1016    12.8963     -.0021    57.0128     2.3330
 4916.5000    30.5949     1.7549  -999.2500  -999.2500     1.8039  -999.2500   -54.3775    12.8526     -.0064    57.3821     2.3414
 4917.0000    28.9619     1.8299  -999.2500  -999.2500     1.9063  -999.2500   -55.3530    12.8302     -.0032    57.8377     2.3528
 4917.5000    28.5208     1.9049  -999.2500  -999.2500     2.0100  -999.2500   -55.9598    12.8462     -.0007    58.0807     2.3637
 4918.0000    29.5360     1.9798  -999.2500  -999.2500     2.1137  -999.2500   -56.2963    12.8813      .0000    58.1707     2.3668
 4918.5000    30.7942     2.1534  -999.2500  -999.2500     2.0456  -999.2500   -56.1896    12.9212      .0003    58.0282     2.3644
 4919.0000    31.8487     2.1782  -999.2500  -999.2500     1.9727  -999.2500   -55.7125    12.9609      .0007    58.0943     2.3629
 4919.5000    32.6777     2.0785  -999.2500  -999.2500     1.8997  -999.2500   -55.2354    12.9391      .0015    59.4435     2.3630
 4920.0000    33.8034     1.9788  -999.2500  -999.2500     1.8283  -999.2500   -54.7585    12.8968      .0025    61.4036     2.3623
 4920.5000    36.8821     1.8790  -999.2500  -999.2500     1.7583  -999.2500   -54.2814    12.8571      .0030    62.8057     2.3594
