~VERSION INFORMATION
VERS.                             2.0:   CWLS Log ASCII Standard-VERSION 2.0
WRAP.                              NO:   One line per depth step
~Well Information Block
STRT.F                      3964.0000:   Top Depth
STOP.F                      6748.0000:   Bottom Depth
STEP.F                         .50000:   Depth Increment
NULL.                        -999.250:   Null Value
FLD .                     MU BLK A 26:   Field Name
WELL.       OCSG13276   001 ST00 BP00:   NAME
API .                    427024021500:   WELL API
EDF .F                        73.0000:   ELEV DRILL FLOOR
COMP.                  ORYX ENERGY CO:   OPERATOR
BN  .                            A 26:   BLOCK
CTRY.                             USA:   COUNTRY NAME
CNTY.                        MG ILD L:   COUNTY NAME
EGL .F                      -290.0000:   ELEV GROUND LEVEL
TDD .F                       6750.000:   FINAL TD DRILLER
STAT.                           TEXAS:   STATE NAME
UWI .                    427024021500:   WELL API
DICO.               IHS : Digitizing Company
~PARAMETER INFORMATION (zones)
#MNEM.UNIT                       Value     Description
#=========                       =====     ===========
#ZONATION                          CNL:   ZONATION NAME
#ZONE                            RUN_1:   ZONE NAME
TOP .                       3970.0000:   TOP DEPTH
BOT .                       6744.5000:   BOTTOM DEPTH
RUN .                               1:   RUN NUMBER
LCCD.                             510:   LOGGING CONTRACTOR
SRVC.                   Western Atlas:   LOGGING CONT NAME
DICO.          QC Data Collectors Ltd:   DIG COMPANY NAME
LDAT.                      08/29/1993:   DATE LOGGED
TDD .F                      6750.0000:   TOTAL DEPTH DRILLER
TDL .F                      6749.0000:   TOTAL DEPTH LOGGER
BOTL.F                      6746.0000:   BOTTOM DEPTH LOGGED
TOPL.F                      3998.0000:   TOP DEPTH LOGGED
CS1 .IN                       13.3750:   CASING SIZE 1
BS1 .IN                       12.2500:   BIT SIZE 1
DDB1.F                      6750.0000:   DEPTH DRILLED BIT 1
BHF .                              32:   FLUID CODE
DPT .                          low PH:   DRILLING FLUID TYPE
MUDD.                         11.5000:   FLUID DENSITY
MUDV.                         46.0000:   FLUID VISCOSITY
DFPH.                          8.8000:   FLUID PH
FL  .                          5.0000:   FLUID LOSS
RM  .OHMM                      1.2400:   RM
RMT .DEGF                     75.0000:   RM TEMP
RMF .OHMM                      1.1400:   RMF
RMFT.DEGF                     75.0000:   RMF TEMP
FSC .                               M:   RMF CODE
RMC .OHMM                      1.8000:   RMC
RMCT.DEGF                     75.0000:   RMC TEMP
CMC .                               M:   RMC CODE
TMAX.DEGF                    164.0000:   MAX REC TEMP
TIMC.                         10.0000:   TIME SINCE CIRCLN
~PARAMETER INFORMATION (zones)
#MNEM.UNIT                       Value     Description
#=========                       =====     ===========
#ZONATION                          DIL:   ZONATION NAME
#ZONE                            RUN_1:   ZONE NAME
TOP .                       3986.0000:   TOP DEPTH
BOT .                       6748.5000:   BOTTOM DEPTH
RUN .                               1:   RUN NUMBER
LCCD.                             510:   LOGGING CONTRACTOR
SRVC.                   Western Atlas:   LOGGING CONT NAME
DICO.          QC Data Collectors Ltd:   DIG COMPANY NAME
LDAT.                      08/29/1993:   DATE LOGGED
TDD .F                      6750.0000:   TOTAL DEPTH DRILLER
TDL .F                      6750.0000:   TOTAL DEPTH LOGGER
BOTL.F                      6748.0000:   BOTTOM DEPTH LOGGED
TOPL.F                      3998.0000:   TOP DEPTH LOGGED
CS1 .IN                       13.3750:   CASING SIZE 1
BS1 .IN                       12.2500:   BIT SIZE 1
DDB1.F                      6750.0000:   DEPTH DRILLED BIT 1
BHF .                              32:   FLUID CODE
DPT .                          low PH:   DRILLING FLUID TYPE
MUDD.                         11.5000:   FLUID DENSITY
MUDV.                         46.0000:   FLUID VISCOSITY
DFPH.                          8.8000:   FLUID PH
FL  .                          5.0000:   FLUID LOSS
RM  .OHMM                      1.2400:   RM
RMT .DEGF                     75.0000:   RM TEMP
RMF .OHMM                      1.1400:   RMF
RMFT.DEGF                     75.0000:   RMF TEMP
FSC .                               M:   RMF CODE
RMC .OHMM                      1.8000:   RMC
RMCT.DEGF                     75.0000:   RMC TEMP
CMC .                               M:   RMC CODE
TMAX.DEGF                    158.0000:   MAX REC TEMP
TIMC.                          6.0000:   TIME SINCE CIRCLN
~PARAMETER INFORMATION (zones)
#MNEM.UNIT                       Value     Description
#=========                       =====     ===========
#ZONATION                          FDC:   ZONATION NAME
#ZONE                            RUN_1:   ZONE NAME
TOP .                       3964.0000:   TOP DEPTH
BOT .                       6746.5000:   BOTTOM DEPTH
RUN .                               1:   RUN NUMBER
LCCD.                             510:   LOGGING CONTRACTOR
SRVC.                   Western Atlas:   LOGGING CONT NAME
DICO.          QC Data Collectors Ltd:   DIG COMPANY NAME
LDAT.                      08/29/1993:   DATE LOGGED
TDD .F                      6750.0000:   TOTAL DEPTH DRILLER
TDL .F                      6749.0000:   TOTAL DEPTH LOGGER
BOTL.F                      6746.0000:   BOTTOM DEPTH LOGGED
TOPL.F                      3998.0000:   TOP DEPTH LOGGED
CS1 .IN                       13.3750:   CASING SIZE 1
BS1 .IN                       12.2500:   BIT SIZE 1
DDB1.F                      6750.0000:   DEPTH DRILLED BIT 1
BHF .                              32:   FLUID CODE
DPT .                          low PH:   DRILLING FLUID TYPE
MUDD.                         11.5000:   FLUID DENSITY
MUDV.                         46.0000:   FLUID VISCOSITY
DFPH.                          8.8000:   FLUID PH
FL  .                          5.0000:   FLUID LOSS
RM  .OHMM                      1.2400:   RM
RMT .DEGF                     75.0000:   RM TEMP
RMF .OHMM                      1.1400:   RMF
RMFT.DEGF                     75.0000:   RMF TEMP
FSC .                               M:   RMF CODE
RMC .OHMM                      1.8000:   RMC
RMCT.DEGF                     75.0000:   RMC TEMP
CMC .                               M:   RMC CODE
TMAX.DEGF                    164.0000:   MAX REC TEMP
TIMC.                         10.0000:   TIME SINCE CIRCLN
~Curve Information Block
#MNEM.UNIT                    API CODE    No Description
#=========                    ========    == ===========
DEPT.F                   00 001 00 00:     1  DEPTH
NPHI.%                               :     2  Neutron Porosity
DT.US/F                              :     3  Sonic Transit Time
GR.GAPI                              :     4  Gamma Ray
ILD.OHMM                             :     5  Deep Induction Resistivity
ILM.OHMM                             :     6  Medium Induction Resistivity
RFOC.OHMM                            :     7  Medium Resistivity
SP.MV                                :     8  Spontaneous Potential
CALI.IN                              :     9  Caliper
DPHI.%                               :    10  Porosity
DRHO.G/C3                            :    11  Bulk Density Correction
GRD.GAPI                             :    12  Gamma Ray
~ASCII
# ...
 4909.5000    36.6884   121.8821    65.2158      .9962     1.0412     1.3509   -83.6246    11.5976    23.9604      .0540    67.6920
 4910.0000    36.1185   122.5624    65.4078     1.0234     1.0669     1.3550   -83.2164    11.6030    24.0904      .0629    68.0549
 4910.5000    35.9039   122.2285    65.6945     1.0791     1.0985     1.3662   -83.7178    11.6081    24.1110      .0709    68.1072
 4911.0000    35.6673   119.4095    64.2151     1.0938     1.1324     1.4077   -84.8502    11.6118    24.0424      .0768    67.4396
 4911.5000    35.3247   116.2623    61.9601     1.1196     1.1619     1.4730   -85.8615    11.6118    23.5457      .0828    65.2393
 4912.0000    35.2150   113.5662    60.9366     1.1512     1.1879     1.5155   -86.7964    11.6116    23.0427      .0877    62.9712
 4912.5000    35.1808   111.8541    62.3690     1.1863     1.1979     1.4870   -86.4656    11.6195    22.8951      .0917    63.0712
 4913.0000    35.1655   112.0465    61.9662     1.1957     1.2021     1.4554   -85.7273    11.6279    23.0040      .0940    64.6256
 4913.5000    34.9845   113.2655    60.7395     1.1864     1.1981     1.4280   -84.9071    11.6364    23.1172      .0964    65.4072
 4914.0000    34.7188   114.3856    61.8284     1.1625     1.1803     1.4180   -83.9221    11.6441    23.0329      .0950    64.8182
 4914.5000    34.7224   114.7053    62.9174     1.1380     1.1559     1.4052   -82.7469    11.6518    22.8411      .0883    63.9738
 4915.0000    35.5650   114.7693    64.1025     1.1134     1.1285     1.3905   -81.5729    11.6487    22.7029      .0778    63.9367
 4915.5000    36.7712   115.2958    65.6671     1.0869     1.1014     1.3772   -81.3666    11.6478    22.7937      .0684    66.1937
 4916.0000    37.9423   116.4653    66.7285     1.0602     1.0689     1.3695   -81.6169    11.6605    22.9264      .0643    67.9852
 4916.5000    38.2424   117.9550    64.8199     1.0351     1.0460     1.3659   -81.7933    11.6732    23.0823      .0691    69.1459
 4917.0000    38.0758   119.3633    62.6799     1.0110     1.0276     1.3628   -81.8007    11.6862    23.1477      .0770    69.0703
 4917.5000    38.9410   119.4115    61.8303      .9858     1.0106     1.3598   -81.6589    11.6885    23.3403      .0810    68.4050
 4918.0000    40.3882   119.3257    60.9794      .9604      .9943     1.3563   -81.7780    11.6902    23.5584      .0785    67.6624
 4918.5000    40.7953   119.4760    59.7540      .9417      .9784     1.3518   -82.2336    11.6851    23.5771      .0793    67.6007
 4919.0000    41.0470   120.2821    58.5358      .9272      .9650     1.3471   -81.9674    11.6833    23.7137      .0812    69.5903
 4919.5000    41.5045   121.0282    57.3055      .9195      .9532     1.3423   -81.3812    11.6859    24.0779      .0816    70.3522
 4920.0000    41.9695   121.5345    58.7501      .9216      .9492     1.3381   -80.6957    11.6880    24.4642      .0774    68.4001
 4920.5000    41.9244   121.5405    63.3043      .9277      .9500     1.3333   -80.3387    11.6915    24.6842      .0719    66.4740
 4921.0000    41.0033   121.4144    67.0260      .9419      .9570     1.3268   -80.8671    11.6986    24.7279      .0671    66.9950
 4921.5000    40.0807   121.5369    69.5786      .9576      .9674     1.3223   -81.3518    11.7030    24.6791      .0639    68.9841
 4922.0000    39.4915   122.0505    70.1393      .9766      .9904     1.3215   -81.7323    11.7059    24.5780      .0619    69.2656
 4922.5000    39.0970   122.5228    68.6910     1.0037     1.0186     1.3306   -81.8064    11.7092    24.3712      .0616    68.2687
 4923.0000    38.5245   122.7657    65.8923     1.0333     1.0590     1.3476   -81.4590    11.7137    23.9600      .0613    67.4513
 4923.5000    37.6483   122.3418    62.7460     1.0601     1.0996     1.3725   -81.4050    11.7174    23.4166      .0618    66.5049
 4924.0000    36.7078   119.4546    59.5997     1.0850     1.1399     1.4090   -81.3396    11.7198    22.4694      .0638    63.8762
 4924.5000    35.6907   116.3601    57.8600     1.1053     1.1544     1.4513   -80.8927    11.7106    21.2647      .0663    61.2759
 4925.0000    35.7651   113.9370    57.9413     1.1214     1.1446     1.4665   -80.1821    11.7036    20.4138      .0645    59.6572
 4925.5000    36.7122   112.2946    57.8530     1.0969     1.1297     1.4405   -79.7020    11.7008    20.5075      .0617    59.4293
 4926.0000    38.0573   112.8564    57.3918     1.0715     1.1100     1.4009   -79.8467    11.7035    21.1222      .0646    59.9128
 4926.5000    39.4037   115.0020    57.4787     1.0471     1.0843     1.3662   -80.5530    11.7081    21.8260      .0686    61.1352
 4927.0000    39.9852   117.0980    57.7792     1.0233     1.0542     1.3572   -81.1628    11.7119    22.5291      .0666    64.4146
 4927.5000    40.0299   118.9084    57.8765     1.0079     1.0254     1.3672   -81.1919    11.7137    23.1957      .0626    66.3591
 4928.0000    40.3958   120.0216    58.6827     1.0059     1.0113     1.3670   -81.0085    11.7157    23.5161      .0583    67.0093
 4928.5000    41.0488   120.7219    63.3264     1.0338     1.0364     1.3529   -80.6072    11.7178    23.6805      .0533    67.7847
 4929.0000    41.2034   121.1954    66.5975     1.0641     1.0889     1.3158   -80.5359    11.7151    23.4955      .0483    68.6427
 4929.5000    40.1293   121.5408    67.2000     1.1029     1.1366     1.3138   -80.9540    11.7112    23.0076      .0450    66.1554
 4930.0000    37.8184   121.6318    63.2651     1.1400     1.1827     1.3899   -81.4797    11.7017    21.3677      .0529    63.1601
 4930.5000    37.3293   117.7883    58.2971     1.1699     1.2224     1.4853   -81.2019    11.6891    19.5346      .0597    61.9680
 4931.0000    37.7595   111.3186    56.2860     1.1884     1.2519     1.6029   -80.9525    11.6728    18.2478      .0623    61.7532
 4931.5000    38.4600   106.3873    57.1782     1.1978     1.2361     1.5921   -81.0277    11.6572    18.4851      .0647    61.1525
 4932.0000    38.9614   106.9762    59.3892     1.1920     1.2159     1.5132   -81.4841    11.6487    19.4413      .0674    60.8784
 4932.5000    38.9849   109.8276    60.8533     1.1670     1.1906     1.4393   -81.7999    11.6463    20.4138      .0690    63.3157
 4933.0000    38.9775   113.2155    61.6889     1.1364     1.1617     1.3866   -82.0612    11.6461    20.6748      .0686    64.9929
 4933.5000    38.6021   116.5605    62.5233     1.1074     1.1315     1.4002   -82.2635    11.6451    20.5867      .0643    65.3230
 4934.0000    37.9781   118.4950    64.0768     1.0803     1.0999     1.4164   -82.2643    11.6430    20.5777      .0586    65.1541
 4934.5000    37.2803   119.5586    64.8186     1.0567     1.0700     1.3885   -82.0261    11.6417    20.6422      .0539    65.1316
 4935.0000    36.6070   119.7024    63.8907     1.0327     1.0453     1.3568   -81.6472    11.6415    20.7527      .0512    65.3472
 4935.5000    35.9599   119.1439    63.4404     1.0096     1.0254     1.3450   -81.1520    11.6448    20.5571      .0509    65.6669
 4936.0000    35.4001   117.5529    63.5264      .9927     1.0205     1.3766   -80.4281    11.6492    20.1552      .0486    66.0203
 4936.5000    34.9134   115.3002    63.3961      .9864     1.0219     1.4115   -79.5933    11.6537    19.8301      .0424    66.3409
 4937.0000    34.5499   114.4893    62.9633      .9887     1.0319     1.4065   -78.7347    11.6576    19.5656      .0408    67.1290
 4937.5000    34.5575   114.0851    62.5303      .9961     1.0492     1.4012   -78.4678    11.6600    19.3377      .0411    68.7755
 4938.0000    34.6689   113.9688    62.0060     1.0084     1.0757     1.3993   -78.8140    11.6603    19.1128      .0403    71.7289
 4938.5000    34.6472   114.0513    65.1725     1.0228     1.1004     1.4067   -79.2660    11.6597    18.9839      .0391    72.1967
 4939.0000    34.5027   114.2562    69.0363     1.0384     1.1202     1.4148   -79.4790    11.6570    19.0030      .0374    70.1090
 4939.5000    34.2967   114.6055    66.0172     1.0544     1.1309     1.4306   -79.8672    11.6597    19.0105      .0389    67.0729
