~VERSION INFORMATION
VERS.                             2.0:   CWLS Log ASCII Standard-VERSION 2.0
WRAP.                              NO:   One line per depth step
~Well Information Block
STRT.F                       590.0000:   Top Depth
STOP.F                      5513.0000:   Bottom Depth
STEP.F                         .50000:   Depth Increment
NULL.                        -999.250:   Null Value
FLD .                     MU BLK A 16:   Field Name
WELL.       OCSG03011  A001 ST00 BP00:   NAME
API .                    427024004100:   WELL API
R1  .                           13904:   COMMENT  1
EDF .F                       102.0000:   ELEV DRILL FLOOR
COMP.       CITIES SERVICE OIL COMPAN:   OPERATOR
BN  .                            A 16:   BLOCK
CTRY.                             USA:   COUNTRY NAME
CNTY.                        MG ILD L:   COUNTY NAME
EKB .F                       103.0000:   ELEV KELLY BUSHING
TDD .F                       5519.000:   FINAL TD DRILLER
STAT.                           TEXAS:   STATE NAME
UWI .                    427024004100:   WELL API
DICO.               IHS : Digitizing Company
~PARAMETER INFORMATION (zones)
#MNEM.UNIT                       Value     Description
#=========                       =====     ===========
#ZONATION                          CNL:   ZONATION NAME
#ZONE                            RUN_1:   ZONE NAME
TOP .                       3234.0000:   TOP DEPTH
BOT .                       5513.5000:   BOTTOM DEPTH
RUN .                               1:   RUN NUMBER
LCCD.                             440:   LOGGING CONTRACTOR
SRVC.                    Schlumberger:   LOGGING CONT NAME
DICO.          QC Data Collectors Ltd:   DIG COMPANY NAME
LDAT.                      03/04/1980:   DATE LOGGED
ELD .F                       103.0000:   LOG DATUM ELEVATION
TDD .F                      5512.0000:   TOTAL DEPTH DRILLER
TDL .F                      5519.0000:   TOTAL DEPTH LOGGER
BOTL.F                      5513.0000:   BOTTOM DEPTH LOGGED
TOPL.F                      3240.0000:   TOP DEPTH LOGGED
CS1 .IN                       13.3750:   CASING SIZE 1
BS1 .IN                       12.2500:   BIT SIZE 1
DDB1.F                      5512.0000:   DEPTH DRILLED BIT 1
BHF .                              99:   FLUID CODE
DPT .                   Miscellaneous:   DRILLING FLUID TYPE
MUDD.                         13.1000:   FLUID DENSITY
MUDV.                         38.0000:   FLUID VISCOSITY
DFPH.                         11.5000:   FLUID PH
FL  .                          4.0000:   FLUID LOSS
RM  .OHMM                       .8600:   RM
RMT .DEGF                     70.0000:   RM TEMP
RMF .OHMM                       .6600:   RMF
RMFT.DEGF                     70.0000:   RMF TEMP
FSC .                               M:   RMF CODE
RMC .OHMM                      1.8600:   RMC
RMCT.DEGF                     70.0000:   RMC TEMP
CMC .                               M:   RMC CODE
TMAX.DEGF                    145.0000:   MAX REC TEMP
TIMC.                          6.5000:   TIME SINCE CIRCLN
~PARAMETER INFORMATION (zones)
#MNEM.UNIT                       Value     Description
#=========                       =====     ===========
#ZONATION                          DIL:   ZONATION NAME
#ZONE                            RUN_1:   ZONE NAME
TOP .                       3240.0000:   TOP DEPTH
BOT .                       5513.5000:   BOTTOM DEPTH
RUN .                               1:   RUN NUMBER
LCCD.                             440:   LOGGING CONTRACTOR
SRVC.                    Schlumberger:   LOGGING CONT NAME
DICO.          QC Data Collectors Ltd:   DIG COMPANY NAME
LDAT.                      03/04/1980:   DATE LOGGED
ELD .F                       103.0000:   LOG DATUM ELEVATION
TDD .F                      5512.0000:   TOTAL DEPTH DRILLER
TDL .F                      5519.0000:   TOTAL DEPTH LOGGER
BOTL.F                      5513.0000:   BOTTOM DEPTH LOGGED
TOPL.F                      3240.0000:   TOP DEPTH LOGGED
CS1 .IN                       13.3750:   CASING SIZE 1
BS1 .IN                       12.2500:   BIT SIZE 1
DDB1.F                      5512.0000:   DEPTH DRILLED BIT 1
BHF .                              99:   FLUID CODE
DPT .                   Miscellaneous:   DRILLING FLUID TYPE
MUDD.                         13.1000:   FLUID DENSITY
MUDV.                         38.0000:   FLUID VISCOSITY
DFPH.                         11.5000:   FLUID PH
FL  .                          4.0000:   FLUID LOSS
RM  .OHMM                       .8600:   RM
RMT .DEGF                     70.0000:   RM TEMP
RMF .OHMM                       .6600:   RMF
RMFT.DEGF                     70.0000:   RMF TEMP
FSC .                               M:   RMF CODE
RMC .OHMM                      1.8600:   RMC
RMCT.DEGF                     70.0000:   RMC TEMP
CMC .                               M:   RMC CODE
TMAX.DEGF                    145.0000:   MAX REC TEMP
TIMC.                          6.5000:   TIME SINCE CIRCLN
~PARAMETER INFORMATION (zones)
#MNEM.UNIT                       Value     Description
#=========                       =====     ===========
#ZONATION                          DIL:   ZONATION NAME
#ZONE                          RUN_1_1:   ZONE NAME
TOP .                        590.0000:   TOP DEPTH
BOT .                       1046.5000:   BOTTOM DEPTH
RUN .                               1:   RUN NUMBER
LCCD.                             440:   LOGGING CONTRACTOR
SRVC.                    Schlumberger:   LOGGING CONT NAME
DICO.          QC Data Collectors Ltd:   DIG COMPANY NAME
LDAT.                      02/20/1980:   DATE LOGGED
ELD .F                       103.0000:   LOG DATUM ELEVATION
TDD .F                      1050.0000:   TOTAL DEPTH DRILLER
TDL .F                      1050.0000:   TOTAL DEPTH LOGGER
BOTL.F                      1046.0000:   BOTTOM DEPTH LOGGED
TOPL.F                       597.0000:   TOP DEPTH LOGGED
CS1 .IN                       30.0000:   CASING SIZE 1
BS1 .IN                       12.5000:   BIT SIZE 1
DDB1.F                      1050.0000:   DEPTH DRILLED BIT 1
BHF .                              99:   FLUID CODE
DPT .                   Miscellaneous:   DRILLING FLUID TYPE
MUDD.                          8.6000:   FLUID DENSITY
MUDV.                         39.0000:   FLUID VISCOSITY
DFPH.                         12.3000:   FLUID PH
FL  .                            NULL:   FLUID LOSS
RM  .OHMM                       .3900:   RM
RMT .DEGF                     80.0000:   RM TEMP
RMF .OHMM                       .2400:   RMF
RMFT.DEGF                     80.0000:   RMF TEMP
FSC .                               M:   RMF CODE
RMC .OHMM                       .4500:   RMC
RMCT.DEGF                     80.0000:   RMC TEMP
CMC .                               M:   RMC CODE
TMAX.DEGF                     90.0000:   MAX REC TEMP
TIMC.                          1.5000:   TIME SINCE CIRCLN
~PARAMETER INFORMATION (zones)
#MNEM.UNIT                       Value     Description
#=========                       =====     ===========
#ZONATION                          FDC:   ZONATION NAME
#ZONE                            RUN_1:   ZONE NAME
TOP .                       3234.0000:   TOP DEPTH
BOT .                       5513.5000:   BOTTOM DEPTH
RUN .                               1:   RUN NUMBER
LCCD.                             440:   LOGGING CONTRACTOR
SRVC.                    Schlumberger:   LOGGING CONT NAME
DICO.          QC Data Collectors Ltd:   DIG COMPANY NAME
LDAT.                      03/04/1980:   DATE LOGGED
ELD .F                       103.0000:   LOG DATUM ELEVATION
TDD .F                      5512.0000:   TOTAL DEPTH DRILLER
TDL .F                      5519.0000:   TOTAL DEPTH LOGGER
BOTL.F                      5513.0000:   BOTTOM DEPTH LOGGED
TOPL.F                      3240.0000:   TOP DEPTH LOGGED
CS1 .IN                       13.3750:   CASING SIZE 1
BS1 .IN                       12.2500:   BIT SIZE 1
DDB1.F                      5512.0000:   DEPTH DRILLED BIT 1
BHF .                              99:   FLUID CODE
DPT .                   Miscellaneous:   DRILLING FLUID TYPE
MUDD.                         13.1000:   FLUID DENSITY
MUDV.                         38.0000:   FLUID VISCOSITY
DFPH.                         11.5000:   FLUID PH
FL  .                          4.0000:   FLUID LOSS
RM  .OHMM                       .8600:   RM
RMT .DEGF                     70.0000:   RM TEMP
RMF .OHMM                       .6600:   RMF
RMFT.DEGF                     70.0000:   RMF TEMP
FSC .                               M:   RMF CODE
RMC .OHMM                      1.8600:   RMC
RMCT.DEGF                     70.0000:   RMC TEMP
CMC .                               M:   RMC CODE
TMAX.DEGF                    145.0000:   MAX REC TEMP
TIMC.                          6.5000:   TIME SINCE CIRCLN
~Curve Information Block
#MNEM.UNIT                    API CODE    No Description
#=========                    ========    == ===========
DEPT.F                   00 001 00 00:     1  DEPTH
NPHI.%                               :     2  Neutron Porosity
ASFL.OHMM                            :     3  Shallow Resistivity
DT.US/F                              :     4  Sonic Transit Time
GR.GAPI                              :     5  Gamma Ray
ILD.OHMM                             :     6  Deep Induction Resistivity
SFL.OHMM                             :     7  Medium Resistivity
SP.MV                                :     8  Spontaneous Potential
CALI.IN                              :     9  Caliper
DRHO.G/C3                            :    10  Bulk Density Correction
GR.GAPI                              :    11  Gamma Ray
RHOB.G/C3                            :    12  Bulk Density
~ASCII
# ...
 5470.0000    42.3321     1.1199  -999.2500  -999.2500      .9825  -999.2500   -40.8885    13.1127     -.0020    70.9175     2.3108
 5470.5000    42.3094     1.1047  -999.2500  -999.2500      .9765  -999.2500   -40.2897    13.1681     -.0023    69.2904     2.3016
 5471.0000    42.8102     1.0884  -999.2500  -999.2500      .9704  -999.2500   -39.9064    13.2228     -.0032    68.0020     2.3002
 5471.5000    46.6380     1.0788  -999.2500  -999.2500      .9644  -999.2500   -40.0344    13.2315     -.0041    67.7827     2.3009
 5472.0000    48.2946     1.0756  -999.2500  -999.2500      .9583  -999.2500   -40.3326    13.1891     -.0050    68.7668     2.3019
 5472.5000    47.6833     1.0723  -999.2500  -999.2500      .9507  -999.2500   -40.6309    13.1461     -.0054    70.0909     2.3013
 5473.0000    44.9666     1.0680  -999.2500  -999.2500      .9404  -999.2500   -40.9290    13.1964     -.0044    71.4126     2.3001
 5473.5000    39.6779     1.0632  -999.2500  -999.2500      .9302  -999.2500   -41.2272    13.2453     -.0029    72.3345     2.2976
 5474.0000    38.2657     1.0584  -999.2500  -999.2500      .9199  -999.2500   -41.4705    13.2840     -.0055    71.5068     2.2892
 5474.5000    39.6661     1.0481  -999.2500  -999.2500      .9096  -999.2500   -41.7059    13.3082     -.0081    70.4285     2.2777
 5475.0000    41.7346     1.0254  -999.2500  -999.2500      .8994  -999.2500   -41.5785    13.2858     -.0101    69.5127     2.2657
 5475.5000    41.7232     1.0079  -999.2500  -999.2500      .8891  -999.2500   -41.2564    13.2037     -.0100    69.7775     2.2562
 5476.0000    41.2149      .9958  -999.2500  -999.2500      .8788  -999.2500   -40.9347    13.2694     -.0079    71.2537     2.2502
 5476.5000    40.7684      .9919  -999.2500  -999.2500      .8686  -999.2500   -40.6126    13.3427     -.0051    70.7850     2.2518
 5477.0000    40.9255      .9881  -999.2500  -999.2500      .8547  -999.2500   -40.2906    13.3363     -.0023    70.1759     2.2538
 5477.5000    41.3087      .9842  -999.2500  -999.2500      .8408  -999.2500   -40.2026    13.2950     -.0004    70.8571     2.2556
 5478.0000    42.1481      .9806  -999.2500  -999.2500      .8269  -999.2500   -40.2271    13.3374      .0002    72.3068     2.2578
 5478.5000    42.9218      .9771  -999.2500  -999.2500      .8131  -999.2500   -40.2516    13.3889     -.0005    72.5889     2.2624
 5479.0000    43.0094      .9736  -999.2500  -999.2500      .7992  -999.2500   -40.1346    13.4310     -.0018    71.3412     2.2679
 5479.5000    42.8625      .9701  -999.2500  -999.2500      .7929  -999.2500   -39.6047    13.4648     -.0041    70.2584     2.2702
 5480.0000    42.7335      .9666  -999.2500  -999.2500      .7984  -999.2500   -39.0749    13.4441     -.0066    69.6747     2.2678
 5480.5000    42.2042      .9632  -999.2500  -999.2500      .8046  -999.2500   -38.6304    13.4155     -.0092    69.8773     2.2664
 5481.0000    41.1352      .9611  -999.2500  -999.2500      .8140  -999.2500   -38.3895    13.4053     -.0107    70.4032     2.2665
 5481.5000    40.2286      .9633  -999.2500  -999.2500      .8234  -999.2500   -38.5397    13.3992     -.0079    70.9292     2.2651
 5482.0000    40.9329      .9704  -999.2500  -999.2500      .8328  -999.2500   -38.3774    13.3980     -.0056    71.4625     2.2623
 5482.5000    43.1048      .9776  -999.2500  -999.2500      .8422  -999.2500   -38.0667    13.3683     -.0039    72.0062     2.2597
 5483.0000    44.8397      .9848  -999.2500  -999.2500      .8516  -999.2500   -37.9869    13.3432     -.0027    72.6572     2.2629
 5483.5000    45.3946      .9928  -999.2500  -999.2500      .8596  -999.2500   -38.1508    13.3288     -.0015    72.8400     2.2741
 5484.0000    45.4267     1.0016  -999.2500  -999.2500      .8631  -999.2500   -38.1574    13.3175      .0006    72.8105     2.2867
 5484.5000    45.2857     1.0104  -999.2500  -999.2500      .8656  -999.2500   -37.7302    13.3315      .0027    72.8083     2.2982
 5485.0000    44.8732     1.0030  -999.2500  -999.2500      .8515  -999.2500   -37.3030    13.3790      .0089    72.6597     2.3101
 5485.5000    43.9464      .9905  -999.2500  -999.2500      .8374  -999.2500   -36.8758    13.3687      .0148    70.8263     2.3142
 5486.0000    42.7320      .9780  -999.2500  -999.2500      .8234  -999.2500   -36.4485    13.2776      .0134    68.9344     2.2980
 5486.5000    42.1739      .9654  -999.2500  -999.2500      .8093  -999.2500   -36.0560    13.1974      .0093    68.0709     2.2809
 5487.0000    41.9454      .9529  -999.2500  -999.2500      .7952  -999.2500   -35.9568    13.1192      .0032    66.1458     2.2622
 5487.5000    42.3924      .9434  -999.2500  -999.2500      .7812  -999.2500   -35.8785    12.9500     -.0004    60.7830     2.2466
 5488.0000    43.6260      .9342  -999.2500  -999.2500      .7692  -999.2500   -35.9843    12.7728     -.0035    50.7420     2.2476
 5488.5000    44.3779      .9250  -999.2500  -999.2500      .7582  -999.2500   -36.0901    12.8221     -.0020    45.7166     2.2505
 5489.0000    44.0361      .9158  -999.2500  -999.2500      .7472  -999.2500   -36.1960    12.9076      .0014    41.9008     2.2569
 5489.5000    43.3477      .9066  -999.2500  -999.2500      .7361  -999.2500   -36.2353    12.9965      .0075    41.6284     2.2635
 5490.0000    42.8690      .8995  -999.2500  -999.2500      .7251  -999.2500   -36.0947    13.0016      .0155    41.5762     2.2704
 5490.5000    43.1255      .8927  -999.2500  -999.2500      .7141  -999.2500   -35.9539    12.9745      .0232    41.5958     2.2715
 5491.0000    44.1472      .8860  -999.2500  -999.2500      .7031  -999.2500   -35.8132    12.9394      .0188    41.6118     2.2587
 5491.5000    45.0313      .8815  -999.2500  -999.2500      .6921  -999.2500   -35.7411    12.9055      .0098    41.5516     2.2499
 5492.0000    45.4782      .8843  -999.2500  -999.2500      .6851  -999.2500   -35.6796    12.9362      .0033    41.4669     2.2428
 5492.5000    45.4708      .8907  -999.2500  -999.2500      .6821  -999.2500   -35.6180    12.9416      .0010    41.3820     2.2401
 5493.0000    44.6802      .8971  -999.2500  -999.2500      .6792  -999.2500   -35.6222    12.9404     -.0003    41.3264     2.2394
 5493.5000    43.5256      .9034  -999.2500  -999.2500      .6763  -999.2500   -35.6606    12.9295      .0002    41.3125     2.2406
 5494.0000    42.5423      .9098  -999.2500  -999.2500      .6734  -999.2500   -35.6991    12.9206      .0021    41.2805     2.2444
 5494.5000    42.4540      .9122  -999.2500  -999.2500      .6704  -999.2500   -35.5797    12.9155      .0060    41.2521     2.2517
 5495.0000    43.7175      .9130  -999.2500  -999.2500      .6738  -999.2500   -35.2580    12.9118      .0108    41.2618     2.2629
 5495.5000    44.7083      .9139  -999.2500  -999.2500      .6796  -999.2500   -34.9359    12.9106      .0131    41.2824     2.2693
 5496.0000    44.4565      .9147  -999.2500  -999.2500      .6855  -999.2500   -34.6142    12.9094      .0097    41.3299     2.2620
 5496.5000    43.4872      .9120  -999.2500  -999.2500      .6913  -999.2500   -34.2354    12.9090      .0061    41.3485     2.2567
 5497.0000    42.8021      .9090  -999.2500  -999.2500      .6972  -999.2500   -33.7886    12.9091      .0045    41.3986     2.2545
 5497.5000    42.7961      .9061  -999.2500  -999.2500      .7030  -999.2500   -33.3420    12.9092      .0028    41.4681     2.2561
 5498.0000    42.8142      .9032  -999.2500  -999.2500      .7089  -999.2500   -32.8950    12.9077      .0060    41.5475     2.2554
 5498.5000    42.8278      .9002  -999.2500  -999.2500      .7147  -999.2500   -32.9468    12.9053      .0098    41.6234     2.2585
 5499.0000    42.8242      .8973  -999.2500  -999.2500      .7231  -999.2500   -33.1293    12.9028      .0141    41.6946     2.2646
 5499.5000    42.8154      .8983  -999.2500  -999.2500      .7334  -999.2500   -33.2656    12.9019      .0184    41.7603     2.2753
 5500.0000    42.8022      .9025  -999.2500  -999.2500      .7437  -999.2500   -33.4016    12.9033      .0227    41.7659     2.2850
