~VERSION INFORMATION
VERS.                             2.0:   CWLS Log ASCII Standard-VERSION 2.0
WRAP.                              NO:   One line per depth step
~Well Information Block
STRT.F                       374.0000:   Top Depth
STOP.F                      6106.0000:   Bottom Depth
STEP.F                         .50000:   Depth Increment
NULL.                        -999.250:   Null Value
FLD .                    MU BLK A 139:   Field Name
WELL.       OCSG06030   002 ST00 BP00:   NAME
API .                    427124009600:   WELL API
EDF .F                       103.0000:   ELEV DRILL FLOOR
COMP.       CITIES SERVICE OIL AND GA:   OPERATOR
BN  .                           A 139:   BLOCK
CTRY.                             USA:   COUNTRY NAME
CNTY.                        M I E AD:   COUNTY NAME
EKB .F                       104.0000:   ELEV KELLY BUSHING
TDD .F                       6111.000:   FINAL TD DRILLER
STAT.                           TEXAS:   STATE NAME
UWI .                    427124009600:   WELL API
DICO.               IHS : Digitizing Company
~PARAMETER INFORMATION (zones)
#MNEM.UNIT                       Value     Description
#=========                       =====     ===========
#ZONATION                          CNL:   ZONATION NAME
#ZONE                            RUN_2:   ZONE NAME
TOP .                       4521.0000:   TOP DEPTH
BOT .                       6106.5000:   BOTTOM DEPTH
RUN .                               2:   RUN NUMBER
LCCD.                             440:   LOGGING CONTRACTOR
SRVC.                    Schlumberger:   LOGGING CONT NAME
DICO.          QC Data Collectors Ltd:   DIG COMPANY NAME
LDAT.                      01/11/1988:   DATE LOGGED
ELD .F                       104.0000:   LOG DATUM ELEVATION
TDD .F                      4594.0000:   TOTAL DEPTH DRILLER
TDL .F                      2007.0000:   TOTAL DEPTH LOGGER
BOTL.F                      1998.0000:   BOTTOM DEPTH LOGGED
TOPL.F                      1006.0000:   TOP DEPTH LOGGED
CS1 .IN                       20.0000:   CASING SIZE 1
BS1 .IN                       17.5000:   BIT SIZE 1
DDB1.F                      4594.0000:   DEPTH DRILLED BIT 1
BHF .                              80:   FLUID CODE
DPT .                      Salt Water:   DRILLING FLUID TYPE
MUDD.                          9.3000:   FLUID DENSITY
MUDV.                         52.0000:   FLUID VISCOSITY
DFPH.                          8.0000:   FLUID PH
FL  .                         16.8000:   FLUID LOSS
RM  .OHMM                       .3600:   RM
RMT .DEGF                     53.0000:   RM TEMP
RMF .OHMM                       .3200:   RMF
RMFT.DEGF                     52.0000:   RMF TEMP
FSC .                               M:   RMF CODE
RMC .OHMM                       .5700:   RMC
RMCT.DEGF                     53.0000:   RMC TEMP
TMAX.DEGF                    100.0000:   MAX REC TEMP
TIMC.                          2.5000:   TIME SINCE CIRCLN
~PARAMETER INFORMATION (zones)
#MNEM.UNIT                       Value     Description
#=========                       =====     ===========
#ZONATION                          DIL:   ZONATION NAME
#ZONE                            RUN_1:   ZONE NAME
TOP .                        374.0000:   TOP DEPTH
BOT .                       6106.5000:   BOTTOM DEPTH
RUN .                               1:   RUN NUMBER
LCCD.                             440:   LOGGING CONTRACTOR
SRVC.                    Schlumberger:   LOGGING CONT NAME
DICO.          QC Data Collectors Ltd:   DIG COMPANY NAME
LDAT.                      01/06/1988:   DATE LOGGED
ELD .F                       104.0000:   LOG DATUM ELEVATION
TDD .F                      1005.0000:   TOTAL DEPTH DRILLER
TDL .F                      1004.0000:   TOTAL DEPTH LOGGER
BOTL.F                       998.0000:   BOTTOM DEPTH LOGGED
TOPL.F                       400.0000:   TOP DEPTH LOGGED
CS1 .IN                       30.0000:   CASING SIZE 1
BS1 .IN                       16.0000:   BIT SIZE 1
DDB1.F                      1005.0000:   DEPTH DRILLED BIT 1
BHF .                              80:   FLUID CODE
DPT .                      Salt Water:   DRILLING FLUID TYPE
MUDD.                          9.1000:   FLUID DENSITY
MUDV.                         34.0000:   FLUID VISCOSITY
DFPH.                          8.0000:   FLUID PH
RM  .OHMM                       .3900:   RM
RMT .DEGF                     76.0000:   RM TEMP
RMF .OHMM                       .3300:   RMF
RMFT.DEGF                     76.0000:   RMF TEMP
FSC .                               M:   RMF CODE
RMC .OHMM                       .3300:   RMC
RMCT.DEGF                     76.0000:   RMC TEMP
CMC .                               M:   RMC CODE
TMAX.DEGF                     86.0000:   MAX REC TEMP
TIMC.                          1.7500:   TIME SINCE CIRCLN
~PARAMETER INFORMATION (zones)
#MNEM.UNIT                       Value     Description
#=========                       =====     ===========
#ZONATION                          LDT:   ZONATION NAME
#ZONE                            RUN_3:   ZONE NAME
TOP .                       4521.0000:   TOP DEPTH
BOT .                       6106.5000:   BOTTOM DEPTH
RUN .                               3:   RUN NUMBER
LCCD.                             440:   LOGGING CONTRACTOR
SRVC.                    Schlumberger:   LOGGING CONT NAME
DICO.          QC Data Collectors Ltd:   DIG COMPANY NAME
LDAT.                      01/23/1988:   DATE LOGGED
ELD .F                       104.0000:   LOG DATUM ELEVATION
TDD .F                      6111.0000:   TOTAL DEPTH DRILLER
TDL .F                      6108.0000:   TOTAL DEPTH LOGGER
BOTL.F                      6106.0000:   BOTTOM DEPTH LOGGED
TOPL.F                      4594.0000:   TOP DEPTH LOGGED
CS1 .IN                       13.3750:   CASING SIZE 1
BS1 .IN                       12.2500:   BIT SIZE 1
DDB1.F                      6111.0000:   DEPTH DRILLED BIT 1
BHF .                              80:   FLUID CODE
DPT .                      Salt Water:   DRILLING FLUID TYPE
MUDD.                         12.7000:   FLUID DENSITY
MUDV.                         58.0000:   FLUID VISCOSITY
DFPH.                          9.5000:   FLUID PH
FL  .                          4.8000:   FLUID LOSS
RM  .OHMM                       .7700:   RM
RMT .DEGF                     64.0000:   RM TEMP
RMF .OHMM                       .4900:   RMF
RMFT.DEGF                     64.0000:   RMF TEMP
FSC .                               M:   RMF CODE
RMC .OHMM                      1.0900:   RMC
RMCT.DEGF                     64.0000:   RMC TEMP
CMC .                               M:   RMC CODE
TMAX.DEGF                    138.0000:   MAX REC TEMP
TIMC.                          7.5000:   TIME SINCE CIRCLN
~Curve Information Block
#MNEM.UNIT                    API CODE    No Description
#=========                    ========    == ===========
DEPT.F                   00 001 00 00:     1  DEPTH
NPHI.DEC                              :     2  Neutron Porosity
DT.US/F                              :     3  Sonic Transit Time
GR.GAPI                              :     4  Gamma Ray
ILD.OHMM                             :     5  Deep Induction Resistivity
ILM.OHMM                             :     6  Medium Induction Resistivity
SFL.OHMM                             :     7  Medium Resistivity
SP.MV                                :     8  Spontaneous Potential
CALI.IN                              :     9  Caliper
DPHI.DEC                              :    10  Porosity
DRHO.G/C3                            :    11  Bulk Density Correction
GR.GAPI                              :    12  Gamma Ray
~ASCII
# ...
 5742.0000      .3957   119.4705  -999.2500      .7018      .7355      .7617   -49.3243    17.3936      .2573      .0095    60.8899
 5742.5000      .3994   119.6876  -999.2500      .7037      .7347      .7655   -49.1376    17.2992      .2599     -.0004    62.4884
 5743.0000      .4003   118.9216  -999.2500      .7056      .7349      .7628   -48.8839    17.0898      .2580     -.0026    62.6904
 5743.5000      .3974   118.2406  -999.2500      .7074      .7353      .7570   -48.5073    16.7406      .2512     -.0027    62.4292
 5744.0000      .3945   118.0416  -999.2500      .7093      .7339      .7624   -48.7216    16.6518      .2465     -.0027    61.6153
 5744.5000      .3974   119.0791  -999.2500      .7109      .7312      .7903   -49.2062    16.7897      .2457     -.0014    60.2317
 5745.0000      .4168   120.2169  -999.2500      .7119      .7278      .8030   -49.4254    17.0276      .2451      .0097    58.6527
 5745.5000      .4277   120.3438  -999.2500      .7129      .7294      .7751   -49.4502    17.2577      .2416      .0217    56.9644
 5746.0000      .4353   120.3478  -999.2500      .7139      .7353      .7525   -49.4025    17.5637      .2413      .0258    56.6106
 5746.5000      .4396   120.2944  -999.2500      .7128      .7340      .7426   -49.2498    18.0052      .2433      .0179    56.9022
 5747.0000      .4311   120.8893  -999.2500      .7092      .7180      .7414   -49.0971    18.2289      .2429      .0058    57.1436
 5747.5000      .4184   121.1046  -999.2500      .7056      .7043      .7509   -48.9633    18.0355      .2409      .0004    57.3737
 5748.0000      .4156   121.2522  -999.2500      .7021      .6920      .7625   -48.8363    17.6736      .2406     -.0013    57.8003
 5748.5000      .4232   121.5358  -999.2500      .6942      .6859      .7658   -48.7457    17.4215      .2448     -.0012    59.4404
 5749.0000      .4314   121.7849  -999.2500      .6853      .6821      .7541   -48.7076    17.2452      .2497      .0003    60.4509
 5749.5000      .4385   122.0325  -999.2500      .6766      .6820      .7338   -48.6785    17.8011      .2507      .0024    61.1763
 5750.0000      .4436   122.3306  -999.2500      .6696      .6832      .7201   -48.6575    18.3037      .2489      .0049    61.8003
 5750.5000      .4416   122.6339  -999.2500      .6650      .6839      .7123   -48.8765    19.0994      .2445      .0060    62.4896
 5751.0000      .4255   122.9315  -999.2500      .6604      .6845      .7124   -49.0745    19.2440      .2415      .0063    63.3872
 5751.5000      .4084   123.0759  -999.2500      .6559      .6822      .7068   -49.2216    18.9509      .2415      .0069    64.1187
 5752.0000      .3988   122.8248  -999.2500      .6527      .6794      .6995   -49.1404    18.6061      .2436      .0073    62.0012
 5752.5000      .3935   122.4731  -999.2500      .6496      .6775      .6958   -49.0568    18.6803      .2468      .0082    59.8763
 5753.0000      .3913   122.2301  -999.2500      .6465      .6757      .7058   -48.9601    18.9332      .2496      .0102    57.8748
 5753.5000      .3929   122.9977  -999.2500      .6433      .6750      .7193   -48.8854    18.9747      .2508      .0125    56.6387
 5754.0000      .3986   123.5864  -999.2500      .6402      .6743      .7258   -48.9351    18.8298      .2477      .0138    56.4224
 5754.5000      .4045   123.4281  -999.2500      .6371      .6739      .7220   -48.8732    18.8068      .2403      .0147    56.7104
 5755.0000      .4113   123.2371  -999.2500      .6340      .6738      .7153   -48.7766    18.8096      .2367      .0150    57.3387
 5755.5000      .4084   123.0625  -999.2500      .6305      .6744      .7121   -48.8049    18.7977      .2400      .0142    57.9133
 5756.0000      .3990   123.0465  -999.2500      .6269      .6756      .7128   -48.8800    18.6180      .2428      .0124    58.6063
 5756.5000      .3908   123.1666  -999.2500      .6234      .6747      .7161   -49.0303    18.4695      .2437      .0101    59.8580
 5757.0000      .3916   123.4073  -999.2500      .6215      .6724      .7185   -49.1417    18.7597      .2423      .0088    60.3837
 5757.5000      .4004   123.7008  -999.2500      .6202      .6693      .7202   -49.1362    18.8893      .2408      .0082    60.1291
 5758.0000      .4077   124.0664  -999.2500      .6189      .6641      .7204   -48.7897    18.8699      .2411      .0073    59.5894
 5758.5000      .4014   124.2350  -999.2500      .6178      .6603      .6986   -48.3614    18.8481      .2430      .0057    59.3195
 5759.0000      .3857   124.1864  -999.2500      .6175      .6584      .6780   -47.9802    18.8454      .2455      .0052    59.5891
 5759.5000      .3713   123.9032  -999.2500      .6172      .6558      .6809   -48.2838    18.8578      .2476      .0065    59.9136
 5760.0000      .3784   124.0134  -999.2500      .6169      .6522      .7045   -48.4588    18.9604      .2505      .0090    60.3746
 5760.5000      .4243   125.1575  -999.2500      .6157      .6485      .7182   -48.2876    19.1103      .2567      .0124    61.1927
 5761.0000      .4464   126.1293  -999.2500      .6142      .6446      .7136   -48.1014    19.2357      .2582      .0149    62.0833
 5761.5000      .4532   126.3413  -999.2500      .6126      .6436      .6964   -48.0122    19.4373      .2612      .0180    61.4785
 5762.0000      .4555   126.0072  -999.2500      .6110      .6450      .6791   -48.2487    19.4893      .2703      .0202    60.4545
 5762.5000      .4554   125.4972  -999.2500      .6090      .6464      .6629   -48.5612    19.3046      .2763      .0117    60.0447
 5763.0000      .4546   124.9183  -999.2500      .6071      .6474      .6584   -48.8307    18.9626      .2748      .0039    60.5492
 5763.5000      .4521   124.3896  -999.2500      .6051      .6459      .6671   -48.9836    18.6027      .2639      .0015    61.1379
 5764.0000      .4371   123.9431  -999.2500      .6047      .6455      .6762   -48.8445    18.5995      .2521      .0004    60.6683
 5764.5000      .4147   123.7098  -999.2500      .6048      .6455      .6853   -48.6730    18.9768      .2485      .0000    60.2564
 5765.0000      .3911   123.6144  -999.2500      .6049      .6466      .6860   -48.4355    19.2245      .2549      .0004    60.4146
 5765.5000      .3786   123.5679  -999.2500      .6070      .6477      .6853   -48.2244    19.3775      .2614      .0038    60.7574
 5766.0000      .3796   123.5543  -999.2500      .6102      .6476      .6860   -48.1207    19.5009      .2627      .0110    60.9187
 5766.5000      .3924   123.5333  -999.2500      .6134      .6479      .6871   -48.0172    19.6100      .2533      .0161    60.9410
 5767.0000      .4162   123.5026  -999.2500      .6161      .6525      .6873   -47.9819    19.6267      .2423      .0192    60.7901
 5767.5000      .4346   123.4513  -999.2500      .6182      .6574      .6871   -47.9476    19.5075      .2356      .0224    60.3511
 5768.0000      .4351   123.3268  -999.2500      .6203      .6634      .6874   -47.9174    19.2880      .2329      .0215    59.6150
 5768.5000      .4204   123.2024  -999.2500      .6223      .6684      .6879   -47.8879    19.0767      .2286      .0166    58.8279
 5769.0000      .3972   123.0754  -999.2500      .6238      .6708      .6883   -47.8939    18.8552      .2251      .0127    58.2466
 5769.5000      .3907   122.9481  -999.2500      .6253      .6716      .6886   -47.9313    18.5966      .2238      .0111    57.9346
 5770.0000      .4031   122.8585  -999.2500      .6268      .6688      .6889   -47.9736    18.4937      .2258      .0128    58.7272
 5770.5000      .4077   122.7655  -999.2500      .6277      .6652      .6892   -48.0727    18.5039      .2356      .0180    59.7170
 5771.0000      .4031   122.7451  -999.2500      .6286      .6608      .6874   -48.1719    18.5562      .2446      .0236    60.2119
 5771.5000      .4043   123.0243  -999.2500      .6295      .6582      .6886   -48.2200    18.6396      .2456      .0308    59.9496
 5772.0000      .4265   123.3181  -999.2500      .6304      .6568      .7004   -48.2261    18.9460      .2397      .0368    58.1789
