~VERSION INFORMATION
VERS.                             2.0:   CWLS Log ASCII Standard-VERSION 2.0
WRAP.                              NO:   One line per depth step
~Well Information Block
STRT.F                       374.0000:   Top Depth
STOP.F                      6106.0000:   Bottom Depth
STEP.F                         .50000:   Depth Increment
NULL.                        -999.250:   Null Value
FLD .                    MU BLK A 139:   Field Name
WELL.       OCSG06030   002 ST00 BP00:   NAME
API .                    427124009600:   WELL API
EDF .F                       103.0000:   ELEV DRILL FLOOR
COMP.       CITIES SERVICE OIL AND GA:   OPERATOR
BN  .                           A 139:   BLOCK
CTRY.                             USA:   COUNTRY NAME
CNTY.                        M I E AD:   COUNTY NAME
EKB .F                       104.0000:   ELEV KELLY BUSHING
TDD .F                       6111.000:   FINAL TD DRILLER
STAT.                           TEXAS:   STATE NAME
UWI .                    427124009600:   WELL API
DICO.               IHS : Digitizing Company
~PARAMETER INFORMATION (zones)
#MNEM.UNIT                       Value     Description
#=========                       =====     ===========
#ZONATION                          CNL:   ZONATION NAME
#ZONE                            RUN_2:   ZONE NAME
TOP .                       4521.0000:   TOP DEPTH
BOT .                       6106.5000:   BOTTOM DEPTH
RUN .                               2:   RUN NUMBER
LCCD.                             440:   LOGGING CONTRACTOR
SRVC.                    Schlumberger:   LOGGING CONT NAME
DICO.          QC Data Collectors Ltd:   DIG COMPANY NAME
LDAT.                      01/11/1988:   DATE LOGGED
ELD .F                       104.0000:   LOG DATUM ELEVATION
TDD .F                      4594.0000:   TOTAL DEPTH DRILLER
TDL .F                      2007.0000:   TOTAL DEPTH LOGGER
BOTL.F                      1998.0000:   BOTTOM DEPTH LOGGED
TOPL.F                      1006.0000:   TOP DEPTH LOGGED
CS1 .IN                       20.0000:   CASING SIZE 1
BS1 .IN                       17.5000:   BIT SIZE 1
DDB1.F                      4594.0000:   DEPTH DRILLED BIT 1
BHF .                              80:   FLUID CODE
DPT .                      Salt Water:   DRILLING FLUID TYPE
MUDD.                          9.3000:   FLUID DENSITY
MUDV.                         52.0000:   FLUID VISCOSITY
DFPH.                          8.0000:   FLUID PH
FL  .                         16.8000:   FLUID LOSS
RM  .OHMM                       .3600:   RM
RMT .DEGF                     53.0000:   RM TEMP
RMF .OHMM                       .3200:   RMF
RMFT.DEGF                     52.0000:   RMF TEMP
FSC .                               M:   RMF CODE
RMC .OHMM                       .5700:   RMC
RMCT.DEGF                     53.0000:   RMC TEMP
TMAX.DEGF                    100.0000:   MAX REC TEMP
TIMC.                          2.5000:   TIME SINCE CIRCLN
~PARAMETER INFORMATION (zones)
#MNEM.UNIT                       Value     Description
#=========                       =====     ===========
#ZONATION                          DIL:   ZONATION NAME
#ZONE                            RUN_1:   ZONE NAME
TOP .                        374.0000:   TOP DEPTH
BOT .                       6106.5000:   BOTTOM DEPTH
RUN .                               1:   RUN NUMBER
LCCD.                             440:   LOGGING CONTRACTOR
SRVC.                    Schlumberger:   LOGGING CONT NAME
DICO.          QC Data Collectors Ltd:   DIG COMPANY NAME
LDAT.                      01/06/1988:   DATE LOGGED
ELD .F                       104.0000:   LOG DATUM ELEVATION
TDD .F                      1005.0000:   TOTAL DEPTH DRILLER
TDL .F                      1004.0000:   TOTAL DEPTH LOGGER
BOTL.F                       998.0000:   BOTTOM DEPTH LOGGED
TOPL.F                       400.0000:   TOP DEPTH LOGGED
CS1 .IN                       30.0000:   CASING SIZE 1
BS1 .IN                       16.0000:   BIT SIZE 1
DDB1.F                      1005.0000:   DEPTH DRILLED BIT 1
BHF .                              80:   FLUID CODE
DPT .                      Salt Water:   DRILLING FLUID TYPE
MUDD.                          9.1000:   FLUID DENSITY
MUDV.                         34.0000:   FLUID VISCOSITY
DFPH.                          8.0000:   FLUID PH
RM  .OHMM                       .3900:   RM
RMT .DEGF                     76.0000:   RM TEMP
RMF .OHMM                       .3300:   RMF
RMFT.DEGF                     76.0000:   RMF TEMP
FSC .                               M:   RMF CODE
RMC .OHMM                       .3300:   RMC
RMCT.DEGF                     76.0000:   RMC TEMP
CMC .                               M:   RMC CODE
TMAX.DEGF                     86.0000:   MAX REC TEMP
TIMC.                          1.7500:   TIME SINCE CIRCLN
~PARAMETER INFORMATION (zones)
#MNEM.UNIT                       Value     Description
#=========                       =====     ===========
#ZONATION                          LDT:   ZONATION NAME
#ZONE                            RUN_3:   ZONE NAME
TOP .                       4521.0000:   TOP DEPTH
BOT .                       6106.5000:   BOTTOM DEPTH
RUN .                               3:   RUN NUMBER
LCCD.                             440:   LOGGING CONTRACTOR
SRVC.                    Schlumberger:   LOGGING CONT NAME
DICO.          QC Data Collectors Ltd:   DIG COMPANY NAME
LDAT.                      01/23/1988:   DATE LOGGED
ELD .F                       104.0000:   LOG DATUM ELEVATION
TDD .F                      6111.0000:   TOTAL DEPTH DRILLER
TDL .F                      6108.0000:   TOTAL DEPTH LOGGER
BOTL.F                      6106.0000:   BOTTOM DEPTH LOGGED
TOPL.F                      4594.0000:   TOP DEPTH LOGGED
CS1 .IN                       13.3750:   CASING SIZE 1
BS1 .IN                       12.2500:   BIT SIZE 1
DDB1.F                      6111.0000:   DEPTH DRILLED BIT 1
BHF .                              80:   FLUID CODE
DPT .                      Salt Water:   DRILLING FLUID TYPE
MUDD.                         12.7000:   FLUID DENSITY
MUDV.                         58.0000:   FLUID VISCOSITY
DFPH.                          9.5000:   FLUID PH
FL  .                          4.8000:   FLUID LOSS
RM  .OHMM                       .7700:   RM
RMT .DEGF                     64.0000:   RM TEMP
RMF .OHMM                       .4900:   RMF
RMFT.DEGF                     64.0000:   RMF TEMP
FSC .                               M:   RMF CODE
RMC .OHMM                      1.0900:   RMC
RMCT.DEGF                     64.0000:   RMC TEMP
CMC .                               M:   RMC CODE
TMAX.DEGF                    138.0000:   MAX REC TEMP
TIMC.                          7.5000:   TIME SINCE CIRCLN
~Curve Information Block
#MNEM.UNIT                    API CODE    No Description
#=========                    ========    == ===========
DEPT.F                   00 001 00 00:     1  DEPTH
NPHI.DEC                              :     2  Neutron Porosity
DT.US/F                              :     3  Sonic Transit Time
GR.GAPI                              :     4  Gamma Ray
ILD.OHMM                             :     5  Deep Induction Resistivity
ILM.OHMM                             :     6  Medium Induction Resistivity
SFL.OHMM                             :     7  Medium Resistivity
SP.MV                                :     8  Spontaneous Potential
CALI.IN                              :     9  Caliper
DPHI.DEC                              :    10  Porosity
DRHO.G/C3                            :    11  Bulk Density Correction
GR.GAPI                              :    12  Gamma Ray
~ASCII
# ...
 1167.0000  -999.2500   178.0371    53.1191      .6498      .6694      .6913   -41.9626  -999.2500  -999.2500  -999.2500  -999.2500
 1167.5000  -999.2500   177.3899    54.3303      .6499      .6681      .6907   -41.4450  -999.2500  -999.2500  -999.2500  -999.2500
 1168.0000  -999.2500   176.7429    58.5327      .6490      .6673      .6921   -40.9407  -999.2500  -999.2500  -999.2500  -999.2500
 1168.5000  -999.2500   175.5212    64.1543      .6480      .6666      .6951   -40.1073  -999.2500  -999.2500  -999.2500  -999.2500
 1169.0000  -999.2500   174.7197    64.0447      .6474      .6659      .7001   -39.5139  -999.2500  -999.2500  -999.2500  -999.2500
 1169.5000  -999.2500   175.5535    61.5716      .6468      .6659      .7073   -39.9282  -999.2500  -999.2500  -999.2500  -999.2500
 1170.0000  -999.2500   176.7026    59.8885      .6484      .6676      .7119   -40.9960  -999.2500  -999.2500  -999.2500  -999.2500
 1170.5000  -999.2500   177.8647    59.1609      .6502      .6718      .7172   -41.7260  -999.2500  -999.2500  -999.2500  -999.2500
 1171.0000  -999.2500   178.5933    58.8793      .6518      .6755      .7069   -41.6650  -999.2500  -999.2500  -999.2500  -999.2500
 1171.5000  -999.2500   179.0425    59.6724      .6535      .6793      .7046   -41.0842  -999.2500  -999.2500  -999.2500  -999.2500
 1172.0000  -999.2500   178.9834    61.9240      .6559      .6817      .7055   -40.5099  -999.2500  -999.2500  -999.2500  -999.2500
 1172.5000  -999.2500   178.5132    63.9651      .6586      .6841      .7104   -40.2881  -999.2500  -999.2500  -999.2500  -999.2500
 1173.0000  -999.2500   177.8582    65.6663      .6616      .6854      .7175   -40.9880  -999.2500  -999.2500  -999.2500  -999.2500
 1173.5000  -999.2500   177.4724    66.1138      .6647      .6864      .7264   -42.6874  -999.2500  -999.2500  -999.2500  -999.2500
 1174.0000  -999.2500   177.2432    65.6748      .6679      .6876      .7309   -44.1506  -999.2500  -999.2500  -999.2500  -999.2500
 1174.5000  -999.2500   177.2639    64.8932      .6714      .6894      .7309   -45.2192  -999.2500  -999.2500  -999.2500  -999.2500
 1175.0000  -999.2500   176.8193    64.8291      .6749      .6910      .7203   -45.7565  -999.2500  -999.2500  -999.2500  -999.2500
 1175.5000  -999.2500   176.3313    65.6118      .6772      .6916      .7109   -46.0267  -999.2500  -999.2500  -999.2500  -999.2500
 1176.0000  -999.2500   175.2869    66.9387      .6788      .6922      .7154   -46.0703  -999.2500  -999.2500  -999.2500  -999.2500
 1176.5000  -999.2500   174.2708    67.1367      .6798      .6931      .7225   -45.7994  -999.2500  -999.2500  -999.2500  -999.2500
 1177.0000  -999.2500   173.7412    64.8437      .6876      .6955      .7323   -45.6533  -999.2500  -999.2500  -999.2500  -999.2500
 1177.5000  -999.2500   174.5066    61.7746      .6788      .6888      .7245   -45.5746  -999.2500  -999.2500  -999.2500  -999.2500
 1178.0000  -999.2500   175.8601    59.1151      .6697      .6767      .7048   -45.6270  -999.2500  -999.2500  -999.2500  -999.2500
 1178.5000  -999.2500   177.5913    56.8450      .6520      .6563      .6778   -45.6432  -999.2500  -999.2500  -999.2500  -999.2500
 1179.0000  -999.2500   179.7388    55.3651      .6315      .6341      .6559   -45.6146  -999.2500  -999.2500  -999.2500  -999.2500
 1179.5000  -999.2500   182.2666    54.5655      .6141      .6195      .6416   -45.3966  -999.2500  -999.2500  -999.2500  -999.2500
 1180.0000  -999.2500   183.8457    54.8236      .6022      .6117      .6363   -44.9394  -999.2500  -999.2500  -999.2500  -999.2500
 1180.5000  -999.2500   184.2793    57.4752      .5961      .6059      .6382   -44.2002  -999.2500  -999.2500  -999.2500  -999.2500
 1181.0000  -999.2500   184.1875    59.7220      .5961      .6063      .6481   -43.3975  -999.2500  -999.2500  -999.2500  -999.2500
 1181.5000  -999.2500   183.2585    60.3735      .6038      .6133      .6707   -42.7576  -999.2500  -999.2500  -999.2500  -999.2500
 1182.0000  -999.2500   182.1160    57.4059      .6174      .6249      .6957   -42.4780  -999.2500  -999.2500  -999.2500  -999.2500
 1182.5000  -999.2500   181.0203    53.0034      .6324      .6332      .7167   -42.5814  -999.2500  -999.2500  -999.2500  -999.2500
 1183.0000  -999.2500   180.1555    52.1046      .6444      .6385      .7206   -42.8018  -999.2500  -999.2500  -999.2500  -999.2500
 1183.5000  -999.2500   179.8115    56.0416      .6514      .6439      .7134   -43.1101  -999.2500  -999.2500  -999.2500  -999.2500
 1184.0000  -999.2500   180.2405    61.2186      .6537      .6494      .7054   -42.9208  -999.2500  -999.2500  -999.2500  -999.2500
 1184.5000  -999.2500   180.5430    62.1434      .6506      .6481      .6992   -42.5082  -999.2500  -999.2500  -999.2500  -999.2500
 1185.0000  -999.2500   180.5081    60.8196      .6414      .6430      .6930   -42.0899  -999.2500  -999.2500  -999.2500  -999.2500
 1185.5000  -999.2500   180.4731    59.2817      .6283      .6363      .6805   -41.8525  -999.2500  -999.2500  -999.2500  -999.2500
 1186.0000  -999.2500   180.4382    58.3145      .6166      .6293      .6683   -42.4752  -999.2500  -999.2500  -999.2500  -999.2500
 1186.5000  -999.2500   180.4033    59.0308      .6152      .6257      .6641   -44.1368  -999.2500  -999.2500  -999.2500  -999.2500
 1187.0000  -999.2500   180.3684    58.9479      .6157      .6251      .6638   -45.3796  -999.2500  -999.2500  -999.2500  -999.2500
 1187.5000  -999.2500   180.3335    57.3567      .6170      .6281      .6739   -46.2207  -999.2500  -999.2500  -999.2500  -999.2500
 1188.0000  -999.2500   180.2986    56.5616      .6211      .6333      .6835   -46.4388  -999.2500  -999.2500  -999.2500  -999.2500
 1188.5000  -999.2500   179.7244    56.8013      .6254      .6389      .6903   -46.4262  -999.2500  -999.2500  -999.2500  -999.2500
 1189.0000  -999.2500   179.3418    57.5735      .6325      .6461      .6972   -46.2489  -999.2500  -999.2500  -999.2500  -999.2500
 1189.5000  -999.2500   179.3625    57.3916      .6394      .6533      .7007   -45.8416  -999.2500  -999.2500  -999.2500  -999.2500
 1190.0000  -999.2500   179.4482    56.0768      .6459      .6587      .7024   -45.3640  -999.2500  -999.2500  -999.2500  -999.2500
 1190.5000  -999.2500   179.5356    55.2053      .6524      .6642      .7050   -44.9365  -999.2500  -999.2500  -999.2500  -999.2500
 1191.0000  -999.2500   179.0708    55.1754      .6561      .6636      .7088   -44.8994  -999.2500  -999.2500  -999.2500  -999.2500
 1191.5000  -999.2500   178.5427    55.6736      .6595      .6620      .7126   -45.1961  -999.2500  -999.2500  -999.2500  -999.2500
 1192.0000  -999.2500   178.1743    56.8628      .6586      .6586      .7147   -45.2260  -999.2500  -999.2500  -999.2500  -999.2500
 1192.5000  -999.2500   177.9058    58.6830      .6565      .6541      .7168   -44.7189  -999.2500  -999.2500  -999.2500  -999.2500
 1193.0000  -999.2500   178.2922    60.9492      .6529      .6503      .7116   -43.9619  -999.2500  -999.2500  -999.2500  -999.2500
 1193.5000  -999.2500   178.7014    60.4883      .6482      .6485      .6981   -43.1065  -999.2500  -999.2500  -999.2500  -999.2500
 1194.0000  -999.2500   178.9915    58.5887      .6444      .6468      .6823   -42.3495  -999.2500  -999.2500  -999.2500  -999.2500
 1194.5000  -999.2500   179.2815    58.4444      .6412      .6472      .6642   -41.8578  -999.2500  -999.2500  -999.2500  -999.2500
 1195.0000  -999.2500   179.5715    59.4254      .6401      .6488      .6668   -41.6962  -999.2500  -999.2500  -999.2500  -999.2500
 1195.5000  -999.2500   179.8618    59.0318      .6426      .6506      .6728   -41.7970  -999.2500  -999.2500  -999.2500  -999.2500
 1196.0000  -999.2500   179.8149    57.0214      .6450      .6530      .6803   -42.4410  -999.2500  -999.2500  -999.2500  -999.2500
 1196.5000  -999.2500   179.5444    59.3178      .6473      .6555      .6882   -43.1517  -999.2500  -999.2500  -999.2500  -999.2500
 1197.0000  -999.2500   179.2739    63.5829      .6495      .6543      .6950   -43.4576  -999.2500  -999.2500  -999.2500  -999.2500
