~VERSION INFORMATION
VERS.                             2.0:   CWLS Log ASCII Standard-VERSION 2.0
WRAP.                              NO:   One line per depth step
~Well Information Block
STRT.F                      5785.0000:   Top Depth
STOP.F                     10595.0000:   Bottom Depth
STEP.F                         .50000:   Depth Increment
NULL.                        -999.250:   Null Value
FLD .                    MU BLK A 153:   Field Name
WELL.       OCSG14788   001 ST00 BP00:   NAME
API .                    427124011300:   WELL API
R1  .                           45310:   COMMENT  1
R2  .                           45310:   COMMENT  2
EDF .F                        95.0000:   ELEV DRILL FLOOR
COMP.         WALTER OIL AND GAS CORP:   OPERATOR
BN  .                           A 153:   BLOCK
CTRY.                             USA:   COUNTRY NAME
CNTY.                        M I E AD:   COUNTY NAME
TDD .F                      10613.000:   FINAL TD DRILLER
STAT.                           TEXAS:   STATE NAME
UWI .                    427124011300:   WELL API
DICO.               IHS : Digitizing Company
~PARAMETER INFORMATION (zones)
#MNEM.UNIT                       Value     Description
#=========                       =====     ===========
#ZONATION                          CNL:   ZONATION NAME
#ZONE                            RUN_2:   ZONE NAME
TOP .                       9494.0000:   TOP DEPTH
BOT .                      10469.5000:   BOTTOM DEPTH
RUN .                               2:   RUN NUMBER
LCCD.                             340:   LOGGING CONTRACTOR
SRVC.                   PAN GEO ATLAS:   LOGGING CONT NAME
DICO.          QC Data Collectors Ltd:   DIG COMPANY NAME
LDAT.                      07/01/1996:   DATE LOGGED
TDD .F                     10500.0000:   TOTAL DEPTH DRILLER
TDL .F                     10504.0000:   TOTAL DEPTH LOGGER
BOTL.F                     10500.0000:   BOTTOM DEPTH LOGGED
TOPL.F                      9350.0000:   TOP DEPTH LOGGED
CS1 .IN                        9.6250:   CASING SIZE 1
BS1 .IN                        8.5000:   BIT SIZE 1
DDB1.F                     10500.0000:   DEPTH DRILLED BIT 1
BHF .                              60:   FLUID CODE
DPT .                        Oil Base:   DRILLING FLUID TYPE
MUDD.                         16.5000:   FLUID DENSITY
MUDV.                         57.0000:   FLUID VISCOSITY
FL  .                          5.4000:   FLUID LOSS
TMAX.DEGF                    238.0000:   MAX REC TEMP
TIMC.                          6.0000:   TIME SINCE CIRCLN
~PARAMETER INFORMATION (zones)
#MNEM.UNIT                       Value     Description
#=========                       =====     ===========
#ZONATION                          DIL:   ZONATION NAME
#ZONE                            RUN_2:   ZONE NAME
TOP .                       9494.0000:   TOP DEPTH
BOT .                      10469.5000:   BOTTOM DEPTH
RUN .                               2:   RUN NUMBER
LCCD.                             340:   LOGGING CONTRACTOR
SRVC.                   PAN GEO ATLAS:   LOGGING CONT NAME
DICO.          QC Data Collectors Ltd:   DIG COMPANY NAME
LDAT.                      07/01/1996:   DATE LOGGED
TDD .F                     10500.0000:   TOTAL DEPTH DRILLER
TDL .F                     10504.0000:   TOTAL DEPTH LOGGER
BOTL.F                     10500.0000:   BOTTOM DEPTH LOGGED
TOPL.F                      9350.0000:   TOP DEPTH LOGGED
CS1 .IN                        9.6250:   CASING SIZE 1
BS1 .IN                        8.5000:   BIT SIZE 1
DDB1.F                     10500.0000:   DEPTH DRILLED BIT 1
BHF .                              60:   FLUID CODE
DPT .                        Oil Base:   DRILLING FLUID TYPE
MUDD.                         16.5000:   FLUID DENSITY
MUDV.                         57.0000:   FLUID VISCOSITY
FL  .                          5.4000:   FLUID LOSS
TMAX.DEGF                    238.0000:   MAX REC TEMP
TIMC.                          6.0000:   TIME SINCE CIRCLN
~PARAMETER INFORMATION (zones)
#MNEM.UNIT                       Value     Description
#=========                       =====     ===========
#ZONATION                          DIL:   ZONATION NAME
#ZONE                            RUN_1:   ZONE NAME
TOP .                       5785.0000:   TOP DEPTH
BOT .                       9493.5000:   BOTTOM DEPTH
RUN .                               1:   RUN NUMBER
LCCD.                             340:   LOGGING CONTRACTOR
SRVC.                   PAN GEO ATLAS:   LOGGING CONT NAME
DICO.          QC Data Collectors Ltd:   DIG COMPANY NAME
LDAT.                      06/23/1996:   DATE LOGGED
TDD .F                      9520.0000:   TOTAL DEPTH DRILLER
TDL .F                      9517.0000:   TOTAL DEPTH LOGGER
BOTL.F                      9515.0000:   BOTTOM DEPTH LOGGED
TOPL.F                      5800.0000:   TOP DEPTH LOGGED
CS1 .IN                       13.3750:   CASING SIZE 1
BS1 .IN                       12.2500:   BIT SIZE 1
DDB1.F                      9520.0000:   DEPTH DRILLED BIT 1
BHF .                              60:   FLUID CODE
DPT .                        Oil Base:   DRILLING FLUID TYPE
MUDD.                         14.8000:   FLUID DENSITY
MUDV.                         56.0000:   FLUID VISCOSITY
FL  .                          6.8000:   FLUID LOSS
TMAX.DEGF                    171.0000:   MAX REC TEMP
TIMC.                          6.0000:   TIME SINCE CIRCLN
~PARAMETER INFORMATION (zones)
#MNEM.UNIT                       Value     Description
#=========                       =====     ===========
#ZONATION                          DIL:   ZONATION NAME
#ZONE                            RUN_3:   ZONE NAME
TOP .                      10469.0000:   TOP DEPTH
BOT .                      10595.5000:   BOTTOM DEPTH
RUN .                               3:   RUN NUMBER
LCCD.                             340:   LOGGING CONTRACTOR
SRVC.                   PAN GEO ATLAS:   LOGGING CONT NAME
DICO.          QC Data Collectors Ltd:   DIG COMPANY NAME
LDAT.                      07/04/1996:   DATE LOGGED
TDD .F                     10613.0000:   TOTAL DEPTH DRILLER
TDL .F                     10596.0000:   TOTAL DEPTH LOGGER
BOTL.F                     10596.0000:   BOTTOM DEPTH LOGGED
TOPL.F                     10000.0000:   TOP DEPTH LOGGED
CS1 .IN                        9.6250:   CASING SIZE 1
BS1 .IN                        8.5000:   BIT SIZE 1
DDB1.F                     10613.0000:   DEPTH DRILLED BIT 1
BHF .                              60:   FLUID CODE
DPT .                        Oil Base:   DRILLING FLUID TYPE
MUDD.                         16.9000:   FLUID DENSITY
MUDV.                         55.0000:   FLUID VISCOSITY
FL  .                          5.0000:   FLUID LOSS
TMAX.DEGF                    240.0000:   MAX REC TEMP
TIMC.                         10.0000:   TIME SINCE CIRCLN
~PARAMETER INFORMATION (zones)
#MNEM.UNIT                       Value     Description
#=========                       =====     ===========
#ZONATION                          FDC:   ZONATION NAME
#ZONE                            RUN_2:   ZONE NAME
TOP .                       9494.0000:   TOP DEPTH
BOT .                      10469.5000:   BOTTOM DEPTH
RUN .                               2:   RUN NUMBER
LCCD.                             340:   LOGGING CONTRACTOR
SRVC.                   PAN GEO ATLAS:   LOGGING CONT NAME
DICO.          QC Data Collectors Ltd:   DIG COMPANY NAME
LDAT.                      07/01/1996:   DATE LOGGED
TDD .F                     10500.0000:   TOTAL DEPTH DRILLER
TDL .F                     10504.0000:   TOTAL DEPTH LOGGER
BOTL.F                     10500.0000:   BOTTOM DEPTH LOGGED
TOPL.F                      9350.0000:   TOP DEPTH LOGGED
CS1 .IN                        9.6250:   CASING SIZE 1
BS1 .IN                        8.5000:   BIT SIZE 1
DDB1.F                     10500.0000:   DEPTH DRILLED BIT 1
BHF .                              60:   FLUID CODE
DPT .                        Oil Base:   DRILLING FLUID TYPE
MUDD.                         16.5000:   FLUID DENSITY
MUDV.                         57.0000:   FLUID VISCOSITY
FL  .                          5.4000:   FLUID LOSS
TMAX.DEGF                    238.0000:   MAX REC TEMP
TIMC.                          6.0000:   TIME SINCE CIRCLN
~Curve Information Block
#MNEM.UNIT                    API CODE    No Description
#=========                    ========    == ===========
DEPT.F                   00 001 00 00:     1  DEPTH
CNCF.%                               :     2  Neutron Porosity
CAL.IN                               :     3  Caliper
CILD.MMHO                            :     4  Deep Induction Conductivity
GR.GAPI                              :     5  Gamma Ray
RILD.OHMM                            :     6  Deep Resistivity
RILM.OHMM                            :     7  Medium Resistivity
RWA.OHMM                             :     8  Apparent Water Resistivity
TEN.LB                               :     9  Cable Tension
PORZ.%                               :    10  Porosity
ZCOR.G/C3                            :    11  Density Correction
ZDEN.G/C3                            :    12  Bulk Density
~ASCII
# ...
10116.0000    37.2830     9.9500  1683.5254    82.5557      .5805      .6327      .0145   -40.3501    14.0792      .0165     2.4220
10116.5000    37.4020     9.9500  1660.0977    81.0303      .5862      .6342      .0140   -20.1563    13.8966      .0251     2.4250
10117.0000    37.0338     9.9500  1638.5078    80.5151      .5919      .6368      .0135   -24.8438    13.6580      .0323     2.4260
10117.5000    36.2617     9.9500  1626.4746    80.1388      .6018      .6406      .0135   -34.8633    13.5715      .0159     2.4260
10118.0000    35.7505     9.9500  1624.5488    79.5405      .6136      .6432      .0135   -54.8037    13.5446      .0055     2.4300
10118.5000    35.7804     9.9500  1627.7207    78.7601      .6220      .6437      .0134   -74.6943    13.3958      .0062     2.4400
10119.0000    36.0000     9.9500  1634.9824    79.1390      .6246      .6431      .0124   -75.0000    12.9582      .0087     2.4480
10119.5000    36.0000     9.9500  1653.0547    80.1577      .6214      .6388      .0110   -79.2178    12.3710      .0028     2.4440
10120.0000    36.0000     9.9500  1686.0293    80.0792      .6152      .6335      .0115   -66.9419    12.2840     -.0164     2.4310
10120.5000    35.8251     9.9500  1725.4395    79.3210      .6024      .6254      .0125   -67.1846    12.8894     -.0210     2.4240
10121.0000    36.0118     9.9319  1758.4375    77.9008      .5883      .6175      .0125   -81.5078    13.4807     -.0079     2.4210
10121.5000    36.1870     9.9500  1782.7129    77.1602      .5740      .6097      .0126   -76.7251    13.7651     -.0016     2.4160
10122.0000    36.2376     9.9388  1804.5000    77.2593      .5600      .6020      .0135   -55.6431    14.0159     -.0006     2.4110
10122.5000    36.2139     9.9264  1825.3828    77.7397      .5476      .5954      .0140   -20.0161    14.3233     -.0010     2.4090
10123.0000    36.1425     9.9447  1842.2988    77.6602      .5383      .5892      .0136    -3.4653    14.5679     -.0002     2.4040
10123.5000    36.4631     9.9510  1854.4297    77.6398      .5368      .5837      .0145   -16.7676    14.7848      .0050     2.3970
10124.0000    36.9384     9.9448  1862.3906    77.9796      .5394      .5792      .0151   -35.5249    15.1181      .0036     2.3980
10124.5000    37.2712     9.9455  1865.5527    77.9601      .5420      .5763      .0154   -50.3979    15.3267      .0026     2.4070
10125.0000    37.4139     9.9455  1863.5918    77.0812      .5446      .5747      .0144   -60.3184    14.9703      .0042     2.4150
10125.5000    37.2950     9.9455  1858.6270    76.5398      .5463      .5737      .0139   -65.2690    14.4622      .0107     2.4150
10126.0000    37.1881     9.9752  1854.2793    76.9594      .5446      .5737      .0135   -65.3467    14.2574      .0157     2.4130
10126.5000    37.1405     9.9634  1853.3281    77.6797      .5430      .5753      .0135   -65.3467    14.3478      .0140     2.4120
10127.0000    37.1881     9.9752  1855.7871    77.7202      .5414      .5778      .0135   -65.3467    14.4356     -.0020     2.4130
10127.5000    37.1763     9.9634  1859.5879    76.8820      .5398      .5820      .0135   -65.3467    14.4356     -.0113     2.4170
10128.0000    37.2000     9.9455  1863.4199    76.1195      .5381      .5864      .0130   -60.4736    14.2544     -.0095     2.4200
10128.5000    37.3069     9.9574  1868.7266    77.1586      .5389      .5864      .0125   -55.4453    14.0757     -.0057     2.4210
10129.0000    37.4376     9.9455  1878.1797    78.8187      .5395      .5849      .0130   -55.4453    13.9604     -.0026     2.4200
10129.5000    37.5327     9.9455  1892.4336    80.3953      .5384      .5834      .0129   -50.4951    13.9604      .0046     2.4200
10130.0000    37.4139     9.9455  1908.8242    80.8516      .5353      .5819      .0125   -55.4453    13.9604      .0143     2.4180
10130.5000    37.3805     9.9455  1923.8828    80.3967      .5311      .5804      .0125   -60.1982    13.9951      .0287     2.4120
10131.0000    37.3497     9.9455  1937.7090    77.9421      .5264      .5789      .0130   -55.4453    14.2501      .0292     2.4040
10131.5000    37.2286     9.9455  1953.2324    75.9617      .5221      .5752      .0135   -54.7295    14.7312      .0193     2.4010
10132.0000    37.3110     9.9455  1969.3574    74.4406      .5179      .5704      .0136   -44.5586    15.0352      .0081     2.3970
10132.5000    37.6039     9.9158  1981.0566    74.1992      .5149      .5662      .0141   -35.6436    15.2897      .0016     2.3910
10133.0000    37.6039     9.9277  1986.8164    75.0789      .5122      .5621      .0145   -31.6792    15.5669     -.0010     2.3890
10133.5000    37.5031     9.9455  1989.8047    76.4789      .5108      .5590      .0151   -42.5664    15.7826     -.0004     2.3910
10134.0000    37.2643     9.9158  1992.5254    77.6619      .5099      .5569      .0154   -56.4316    15.7619     -.0006     2.3920
10134.5000    37.0026     9.9455  1991.9512    78.3799      .5091      .5561      .0150   -60.3960    15.6429     -.0032     2.3920
10135.0000    36.7952     9.9455  1983.7227    78.8999      .5085      .5570      .0150   -61.3433    15.6429     -.0052     2.3990
10135.5000    36.8782     9.9455  1969.9980    79.6100      .5080      .5591      .0145   -65.3467    15.3826     -.0018     2.4030
10136.0000    37.1166     9.9752  1955.0020    79.4810      .5081      .5634      .0145   -65.3467    15.0837     -.0016     2.3950
10136.5000    37.4847     9.9455  1940.3008    79.1797      .5087      .5677      .0150   -65.3467    15.2531     -.0042     2.3830
10137.0000    37.9242     9.9455  1930.2734    79.2000      .5094      .5707      .0157   -65.3467    15.8632     -.0065     2.3800
10137.5000    38.2811     9.9455  1930.1367    81.2090      .5115      .5728      .0170   -60.3960    16.3346     -.0051     2.3850
10138.0000    38.2556     9.9284  1937.2031    82.1992      .5135      .5749      .0165   -60.3960    16.2192      .0004     2.3910
10138.5000    38.1595     9.9233  1944.8516    82.1483      .5154      .5730      .0160   -60.3960    15.9203      .0056     2.3960
10139.0000    38.0258     9.9307  1950.1973    82.1484      .5170      .5703      .0157   -60.3960    15.5618      .0066     2.4000
10139.5000    38.1057     9.9604  1957.8223    84.2085      .5179      .5665      .0152   -60.3960    15.3640      .0104     2.3970
10140.0000    38.4742     9.9747  1978.8555    85.4651      .5174      .5604      .0155   -60.3960    15.3070      .0101     2.3920
10140.5000    38.9049     9.9752  2020.3359    85.3395      .5166      .5543      .0150   -61.6348    15.5178      .0084     2.3920
10141.0000    39.2673     9.9752  2076.2617    83.7795      .5121      .5478      .0150   -62.8711    15.5941      .0110     2.3960
10141.5000    39.3267     9.9752  2133.5195    83.2118      .5077      .5408      .0145   -64.1089    15.4800      .0126     2.3980
10142.0000    39.4809    10.0049  2179.3359    84.3398      .4963      .5337      .0143   -65.3467    15.3341      .0165     2.3960
10142.5000    39.6595     9.9752  2205.5937    86.5609      .4810      .5248      .0140   -65.3467    15.3202      .0186     2.3890
10143.0000    39.6832     9.9752  2210.8242    87.7800      .4689      .5160      .0140   -65.3467    15.6023      .0145     2.3850
10143.5000    40.1835     9.9752  2192.7891    87.9800      .4590      .5091      .0142   -65.3467    15.9567      .0063     2.3860
10144.0000    41.3948     9.9752  2144.7227    87.4995      .4633      .5060      .0145   -65.3467    15.9285     -.0010     2.3900
10144.5000    40.8337     9.9752  2070.1914    85.9792      .4677      .5098      .0145   -72.2188    15.8169      .0022     2.3920
10145.0000    39.2427     9.9693  1989.1758    84.4194      .4825      .5175      .0147   -82.1396    15.6904      .0125     2.3920
10145.5000    38.8635     9.9752  1919.6172    84.1000      .4984      .5323      .0152   -78.2642    15.5713      .0157     2.3950
10146.0000    38.6250     9.9752  1864.4531    83.9398      .5152      .5472      .0153   -56.6206    15.5643      .0140     2.4030
