~VERSION INFORMATION
VERS.                             2.0:   CWLS Log ASCII Standard-VERSION 2.0
WRAP.                              NO:   One line per depth step
~Well Information Block
STRT.F                       374.0000:   Top Depth
STOP.F                      6106.0000:   Bottom Depth
STEP.F                         .50000:   Depth Increment
NULL.                        -999.250:   Null Value
FLD .                    MU BLK A 139:   Field Name
WELL.       OCSG06030   002 ST00 BP00:   NAME
API .                    427124009600:   WELL API
EDF .F                       103.0000:   ELEV DRILL FLOOR
COMP.       CITIES SERVICE OIL AND GA:   OPERATOR
BN  .                           A 139:   BLOCK
CTRY.                             USA:   COUNTRY NAME
CNTY.                        M I E AD:   COUNTY NAME
EKB .F                       104.0000:   ELEV KELLY BUSHING
TDD .F                       6111.000:   FINAL TD DRILLER
STAT.                           TEXAS:   STATE NAME
UWI .                    427124009600:   WELL API
DICO.               IHS : Digitizing Company
~PARAMETER INFORMATION (zones)
#MNEM.UNIT                       Value     Description
#=========                       =====     ===========
#ZONATION                          CNL:   ZONATION NAME
#ZONE                            RUN_2:   ZONE NAME
TOP .                       4521.0000:   TOP DEPTH
BOT .                       6106.5000:   BOTTOM DEPTH
RUN .                               2:   RUN NUMBER
LCCD.                             440:   LOGGING CONTRACTOR
SRVC.                    Schlumberger:   LOGGING CONT NAME
DICO.          QC Data Collectors Ltd:   DIG COMPANY NAME
LDAT.                      01/11/1988:   DATE LOGGED
ELD .F                       104.0000:   LOG DATUM ELEVATION
TDD .F                      4594.0000:   TOTAL DEPTH DRILLER
TDL .F                      2007.0000:   TOTAL DEPTH LOGGER
BOTL.F                      1998.0000:   BOTTOM DEPTH LOGGED
TOPL.F                      1006.0000:   TOP DEPTH LOGGED
CS1 .IN                       20.0000:   CASING SIZE 1
BS1 .IN                       17.5000:   BIT SIZE 1
DDB1.F                      4594.0000:   DEPTH DRILLED BIT 1
BHF .                              80:   FLUID CODE
DPT .                      Salt Water:   DRILLING FLUID TYPE
MUDD.                          9.3000:   FLUID DENSITY
MUDV.                         52.0000:   FLUID VISCOSITY
DFPH.                          8.0000:   FLUID PH
FL  .                         16.8000:   FLUID LOSS
RM  .OHMM                       .3600:   RM
RMT .DEGF                     53.0000:   RM TEMP
RMF .OHMM                       .3200:   RMF
RMFT.DEGF                     52.0000:   RMF TEMP
FSC .                               M:   RMF CODE
RMC .OHMM                       .5700:   RMC
RMCT.DEGF                     53.0000:   RMC TEMP
TMAX.DEGF                    100.0000:   MAX REC TEMP
TIMC.                          2.5000:   TIME SINCE CIRCLN
~PARAMETER INFORMATION (zones)
#MNEM.UNIT                       Value     Description
#=========                       =====     ===========
#ZONATION                          DIL:   ZONATION NAME
#ZONE                            RUN_1:   ZONE NAME
TOP .                        374.0000:   TOP DEPTH
BOT .                       6106.5000:   BOTTOM DEPTH
RUN .                               1:   RUN NUMBER
LCCD.                             440:   LOGGING CONTRACTOR
SRVC.                    Schlumberger:   LOGGING CONT NAME
DICO.          QC Data Collectors Ltd:   DIG COMPANY NAME
LDAT.                      01/06/1988:   DATE LOGGED
ELD .F                       104.0000:   LOG DATUM ELEVATION
TDD .F                      1005.0000:   TOTAL DEPTH DRILLER
TDL .F                      1004.0000:   TOTAL DEPTH LOGGER
BOTL.F                       998.0000:   BOTTOM DEPTH LOGGED
TOPL.F                       400.0000:   TOP DEPTH LOGGED
CS1 .IN                       30.0000:   CASING SIZE 1
BS1 .IN                       16.0000:   BIT SIZE 1
DDB1.F                      1005.0000:   DEPTH DRILLED BIT 1
BHF .                              80:   FLUID CODE
DPT .                      Salt Water:   DRILLING FLUID TYPE
MUDD.                          9.1000:   FLUID DENSITY
MUDV.                         34.0000:   FLUID VISCOSITY
DFPH.                          8.0000:   FLUID PH
RM  .OHMM                       .3900:   RM
RMT .DEGF                     76.0000:   RM TEMP
RMF .OHMM                       .3300:   RMF
RMFT.DEGF                     76.0000:   RMF TEMP
FSC .                               M:   RMF CODE
RMC .OHMM                       .3300:   RMC
RMCT.DEGF                     76.0000:   RMC TEMP
CMC .                               M:   RMC CODE
TMAX.DEGF                     86.0000:   MAX REC TEMP
TIMC.                          1.7500:   TIME SINCE CIRCLN
~PARAMETER INFORMATION (zones)
#MNEM.UNIT                       Value     Description
#=========                       =====     ===========
#ZONATION                          LDT:   ZONATION NAME
#ZONE                            RUN_3:   ZONE NAME
TOP .                       4521.0000:   TOP DEPTH
BOT .                       6106.5000:   BOTTOM DEPTH
RUN .                               3:   RUN NUMBER
LCCD.                             440:   LOGGING CONTRACTOR
SRVC.                    Schlumberger:   LOGGING CONT NAME
DICO.          QC Data Collectors Ltd:   DIG COMPANY NAME
LDAT.                      01/23/1988:   DATE LOGGED
ELD .F                       104.0000:   LOG DATUM ELEVATION
TDD .F                      6111.0000:   TOTAL DEPTH DRILLER
TDL .F                      6108.0000:   TOTAL DEPTH LOGGER
BOTL.F                      6106.0000:   BOTTOM DEPTH LOGGED
TOPL.F                      4594.0000:   TOP DEPTH LOGGED
CS1 .IN                       13.3750:   CASING SIZE 1
BS1 .IN                       12.2500:   BIT SIZE 1
DDB1.F                      6111.0000:   DEPTH DRILLED BIT 1
BHF .                              80:   FLUID CODE
DPT .                      Salt Water:   DRILLING FLUID TYPE
MUDD.                         12.7000:   FLUID DENSITY
MUDV.                         58.0000:   FLUID VISCOSITY
DFPH.                          9.5000:   FLUID PH
FL  .                          4.8000:   FLUID LOSS
RM  .OHMM                       .7700:   RM
RMT .DEGF                     64.0000:   RM TEMP
RMF .OHMM                       .4900:   RMF
RMFT.DEGF                     64.0000:   RMF TEMP
FSC .                               M:   RMF CODE
RMC .OHMM                      1.0900:   RMC
RMCT.DEGF                     64.0000:   RMC TEMP
CMC .                               M:   RMC CODE
TMAX.DEGF                    138.0000:   MAX REC TEMP
TIMC.                          7.5000:   TIME SINCE CIRCLN
~Curve Information Block
#MNEM.UNIT                    API CODE    No Description
#=========                    ========    == ===========
DEPT.F                   00 001 00 00:     1  DEPTH
NPHI.DEC                              :     2  Neutron Porosity
DT.US/F                              :     3  Sonic Transit Time
GR.GAPI                              :     4  Gamma Ray
ILD.OHMM                             :     5  Deep Induction Resistivity
ILM.OHMM                             :     6  Medium Induction Resistivity
SFL.OHMM                             :     7  Medium Resistivity
SP.MV                                :     8  Spontaneous Potential
CALI.IN                              :     9  Caliper
DPHI.DEC                              :    10  Porosity
DRHO.G/C3                            :    11  Bulk Density Correction
GR.GAPI                              :    12  Gamma Ray
~ASCII
# ...
 1685.5000  -999.2500   173.0752    72.3293      .5768      .5869      .7435   -46.1656  -999.2500  -999.2500  -999.2500  -999.2500
 1686.0000  -999.2500   172.8701    78.5841      .5777      .5864      .7190   -46.7534  -999.2500  -999.2500  -999.2500  -999.2500
 1686.5000  -999.2500   172.8486    86.0208      .5766      .5878      .6850   -47.2327  -999.2500  -999.2500  -999.2500  -999.2500
 1687.0000  -999.2500   173.0398    84.7617      .5745      .5892      .6723   -47.4408  -999.2500  -999.2500  -999.2500  -999.2500
 1687.5000  -999.2500   173.8945    75.1206      .5724      .5881      .6970   -47.3975  -999.2500  -999.2500  -999.2500  -999.2500
 1688.0000  -999.2500   174.8655    69.8622      .5683      .5857      .7143   -46.9646  -999.2500  -999.2500  -999.2500  -999.2500
 1688.5000  -999.2500   176.0281    68.0641      .5642      .5833      .7179   -46.6176  -999.2500  -999.2500  -999.2500  -999.2500
 1689.0000  -999.2500   177.2373    67.7256      .5602      .5741      .6864   -46.3224  -999.2500  -999.2500  -999.2500  -999.2500
 1689.5000  -999.2500   177.9507    68.5566      .5567      .5648      .6586   -46.2960  -999.2500  -999.2500  -999.2500  -999.2500
 1690.0000  -999.2500   177.9705    69.8184      .5532      .5584      .6415   -46.2077  -999.2500  -999.2500  -999.2500  -999.2500
 1690.5000  -999.2500   177.1313    68.7079      .5515      .5539      .6356   -45.9713  -999.2500  -999.2500  -999.2500  -999.2500
 1691.0000  -999.2500   176.3059    64.4139      .5510      .5515      .6368   -45.0395  -999.2500  -999.2500  -999.2500  -999.2500
 1691.5000  -999.2500   175.6375    61.1255      .5506      .5521      .6390   -43.5186  -999.2500  -999.2500  -999.2500  -999.2500
 1692.0000  -999.2500   175.2788    58.6172      .5507      .5527      .6431   -41.7073  -999.2500  -999.2500  -999.2500  -999.2500
 1692.5000  -999.2500   175.0747    60.8046      .5512      .5533      .6474   -40.0734  -999.2500  -999.2500  -999.2500  -999.2500
 1693.0000  -999.2500   175.0276    64.3833      .5517      .5537      .6520   -39.5069  -999.2500  -999.2500  -999.2500  -999.2500
 1693.5000  -999.2500   175.0784    66.5881      .5523      .5542      .6558   -40.3264  -999.2500  -999.2500  -999.2500  -999.2500
 1694.0000  -999.2500   175.0334    65.0741      .5532      .5554      .6590   -41.3677  -999.2500  -999.2500  -999.2500  -999.2500
 1694.5000  -999.2500   174.8459    63.0955      .5542      .5580      .6599   -42.2951  -999.2500  -999.2500  -999.2500  -999.2500
 1695.0000  -999.2500   175.2693    61.8280      .5558      .5607      .6599   -42.6530  -999.2500  -999.2500  -999.2500  -999.2500
 1695.5000  -999.2500   175.7627    61.5433      .5584      .5633      .6594   -42.5790  -999.2500  -999.2500  -999.2500  -999.2500
 1696.0000  -999.2500   175.9038    61.7996      .5610      .5655      .6583   -42.3200  -999.2500  -999.2500  -999.2500  -999.2500
 1696.5000  -999.2500   175.7158    62.3799      .5634      .5676      .6583   -42.0630  -999.2500  -999.2500  -999.2500  -999.2500
 1697.0000  -999.2500   175.0664    63.2100      .5642      .5696      .6603   -42.5309  -999.2500  -999.2500  -999.2500  -999.2500
 1697.5000  -999.2500   174.4944    65.7562      .5650      .5716      .6623   -43.6791  -999.2500  -999.2500  -999.2500  -999.2500
 1698.0000  -999.2500   174.5283    68.7881      .5658      .5735      .6623   -44.6920  -999.2500  -999.2500  -999.2500  -999.2500
 1698.5000  -999.2500   174.9080    71.3796      .5659      .5754      .6622   -45.3469  -999.2500  -999.2500  -999.2500  -999.2500
 1699.0000  -999.2500   175.2876    73.2075      .5657      .5772      .6626   -45.8389  -999.2500  -999.2500  -999.2500  -999.2500
 1699.5000  -999.2500   175.1038    71.7097      .5655      .5791      .6634   -46.0526  -999.2500  -999.2500  -999.2500  -999.2500
 1700.0000  -999.2500   174.7363    68.1084      .5657      .5816      .6642   -45.5685  -999.2500  -999.2500  -999.2500  -999.2500
 1700.5000  -999.2500   174.0618    66.4592      .5668      .5842      .6651   -44.3919  -999.2500  -999.2500  -999.2500  -999.2500
 1701.0000  -999.2500   173.6787    66.4871      .5678      .5868      .6660   -43.0802  -999.2500  -999.2500  -999.2500  -999.2500
 1701.5000  -999.2500   173.7190    68.6147      .5689      .5892      .6672   -42.2284  -999.2500  -999.2500  -999.2500  -999.2500
 1702.0000  -999.2500   173.7063    72.0599      .5708      .5913      .6692   -42.1574  -999.2500  -999.2500  -999.2500  -999.2500
 1702.5000  -999.2500   173.5388    75.4525      .5730      .5934      .6712   -43.0370  -999.2500  -999.2500  -999.2500  -999.2500
 1703.0000  -999.2500   173.3171    77.5811      .5752      .5955      .6746   -43.8564  -999.2500  -999.2500  -999.2500  -999.2500
 1703.5000  -999.2500   172.8364    78.5220      .5769      .5973      .6784   -44.6240  -999.2500  -999.2500  -999.2500  -999.2500
 1704.0000  -999.2500   172.3408    79.5796      .5764      .5988      .6823   -44.7179  -999.2500  -999.2500  -999.2500  -999.2500
 1704.5000  -999.2500   171.8325    80.3459      .5760      .6004      .6864   -43.8943  -999.2500  -999.2500  -999.2500  -999.2500
 1705.0000  -999.2500   171.3342    76.3281      .5756      .6016      .6901   -43.1105  -999.2500  -999.2500  -999.2500  -999.2500
 1705.5000  -999.2500   170.8533    71.7648      .5749      .6024      .6879   -42.5851  -999.2500  -999.2500  -999.2500  -999.2500
 1706.0000  -999.2500   170.4949    72.2546      .5742      .6031      .6857   -42.6857  -999.2500  -999.2500  -999.2500  -999.2500
 1706.5000  -999.2500   170.3831    74.5701      .5734      .6027      .6734   -42.8353  -999.2500  -999.2500  -999.2500  -999.2500
 1707.0000  -999.2500   170.4968    76.2164      .5729      .6014      .6599   -43.1221  -999.2500  -999.2500  -999.2500  -999.2500
 1707.5000  -999.2500   170.8340    71.3019      .5728      .6002      .6532   -43.4089  -999.2500  -999.2500  -999.2500  -999.2500
 1708.0000  -999.2500   171.5276    67.1285      .5727      .6000      .6520   -43.3857  -999.2500  -999.2500  -999.2500  -999.2500
 1708.5000  -999.2500   172.2080    65.5544      .5725      .5999      .6547   -42.7029  -999.2500  -999.2500  -999.2500  -999.2500
 1709.0000  -999.2500   172.8806    65.2537      .5729      .5998      .6586   -41.9064  -999.2500  -999.2500  -999.2500  -999.2500
 1709.5000  -999.2500   173.1782    66.5995      .5733      .5994      .6609   -41.3659  -999.2500  -999.2500  -999.2500  -999.2500
 1710.0000  -999.2500   172.9963    68.8784      .5737      .5989      .6620   -41.3282  -999.2500  -999.2500  -999.2500  -999.2500
 1710.5000  -999.2500   172.3608    69.0569      .5742      .5982      .6635   -41.5242  -999.2500  -999.2500  -999.2500  -999.2500
 1711.0000  -999.2500   171.7053    66.8456      .5758      .5973      .6660   -41.8661  -999.2500  -999.2500  -999.2500  -999.2500
 1711.5000  -999.2500   171.0332    65.4905      .5774      .5965      .6705   -42.7967  -999.2500  -999.2500  -999.2500  -999.2500
 1712.0000  -999.2500   170.6257    65.1492      .5790      .5961      .6808   -43.5541  -999.2500  -999.2500  -999.2500  -999.2500
 1712.5000  -999.2500   170.3125    65.4586      .5810      .5956      .6902   -44.1077  -999.2500  -999.2500  -999.2500  -999.2500
 1713.0000  -999.2500   170.1221    66.4034      .5830      .5950      .6918   -44.1801  -999.2500  -999.2500  -999.2500  -999.2500
 1713.5000  -999.2500   169.9319    68.5952      .5850      .5942      .6934   -44.0729  -999.2500  -999.2500  -999.2500  -999.2500
 1714.0000  -999.2500   169.9480    71.8419      .5857      .5934      .6939   -43.9540  -999.2500  -999.2500  -999.2500  -999.2500
 1714.5000  -999.2500   169.9849    73.9393      .5853      .5913      .6939   -44.1180  -999.2500  -999.2500  -999.2500  -999.2500
 1715.0000  -999.2500   170.1355    70.6196      .5848      .5885      .6912   -44.2820  -999.2500  -999.2500  -999.2500  -999.2500
 1715.5000  -999.2500   170.3816    66.4727      .5839      .5858      .6834   -44.8375  -999.2500  -999.2500  -999.2500  -999.2500
