~VERSION INFORMATION
VERS.                             2.0:   CWLS Log ASCII Standard-VERSION 2.0
WRAP.                              NO:   One line per depth step
~Well Information Block
STRT.F                      5785.0000:   Top Depth
STOP.F                     10595.0000:   Bottom Depth
STEP.F                         .50000:   Depth Increment
NULL.                        -999.250:   Null Value
FLD .                    MU BLK A 153:   Field Name
WELL.       OCSG14788   001 ST00 BP00:   NAME
API .                    427124011300:   WELL API
R1  .                           45310:   COMMENT  1
R2  .                           45310:   COMMENT  2
EDF .F                        95.0000:   ELEV DRILL FLOOR
COMP.         WALTER OIL AND GAS CORP:   OPERATOR
BN  .                           A 153:   BLOCK
CTRY.                             USA:   COUNTRY NAME
CNTY.                        M I E AD:   COUNTY NAME
TDD .F                      10613.000:   FINAL TD DRILLER
STAT.                           TEXAS:   STATE NAME
UWI .                    427124011300:   WELL API
DICO.               IHS : Digitizing Company
~PARAMETER INFORMATION (zones)
#MNEM.UNIT                       Value     Description
#=========                       =====     ===========
#ZONATION                          CNL:   ZONATION NAME
#ZONE                            RUN_2:   ZONE NAME
TOP .                       9494.0000:   TOP DEPTH
BOT .                      10469.5000:   BOTTOM DEPTH
RUN .                               2:   RUN NUMBER
LCCD.                             340:   LOGGING CONTRACTOR
SRVC.                   PAN GEO ATLAS:   LOGGING CONT NAME
DICO.          QC Data Collectors Ltd:   DIG COMPANY NAME
LDAT.                      07/01/1996:   DATE LOGGED
TDD .F                     10500.0000:   TOTAL DEPTH DRILLER
TDL .F                     10504.0000:   TOTAL DEPTH LOGGER
BOTL.F                     10500.0000:   BOTTOM DEPTH LOGGED
TOPL.F                      9350.0000:   TOP DEPTH LOGGED
CS1 .IN                        9.6250:   CASING SIZE 1
BS1 .IN                        8.5000:   BIT SIZE 1
DDB1.F                     10500.0000:   DEPTH DRILLED BIT 1
BHF .                              60:   FLUID CODE
DPT .                        Oil Base:   DRILLING FLUID TYPE
MUDD.                         16.5000:   FLUID DENSITY
MUDV.                         57.0000:   FLUID VISCOSITY
FL  .                          5.4000:   FLUID LOSS
TMAX.DEGF                    238.0000:   MAX REC TEMP
TIMC.                          6.0000:   TIME SINCE CIRCLN
~PARAMETER INFORMATION (zones)
#MNEM.UNIT                       Value     Description
#=========                       =====     ===========
#ZONATION                          DIL:   ZONATION NAME
#ZONE                            RUN_2:   ZONE NAME
TOP .                       9494.0000:   TOP DEPTH
BOT .                      10469.5000:   BOTTOM DEPTH
RUN .                               2:   RUN NUMBER
LCCD.                             340:   LOGGING CONTRACTOR
SRVC.                   PAN GEO ATLAS:   LOGGING CONT NAME
DICO.          QC Data Collectors Ltd:   DIG COMPANY NAME
LDAT.                      07/01/1996:   DATE LOGGED
TDD .F                     10500.0000:   TOTAL DEPTH DRILLER
TDL .F                     10504.0000:   TOTAL DEPTH LOGGER
BOTL.F                     10500.0000:   BOTTOM DEPTH LOGGED
TOPL.F                      9350.0000:   TOP DEPTH LOGGED
CS1 .IN                        9.6250:   CASING SIZE 1
BS1 .IN                        8.5000:   BIT SIZE 1
DDB1.F                     10500.0000:   DEPTH DRILLED BIT 1
BHF .                              60:   FLUID CODE
DPT .                        Oil Base:   DRILLING FLUID TYPE
MUDD.                         16.5000:   FLUID DENSITY
MUDV.                         57.0000:   FLUID VISCOSITY
FL  .                          5.4000:   FLUID LOSS
TMAX.DEGF                    238.0000:   MAX REC TEMP
TIMC.                          6.0000:   TIME SINCE CIRCLN
~PARAMETER INFORMATION (zones)
#MNEM.UNIT                       Value     Description
#=========                       =====     ===========
#ZONATION                          DIL:   ZONATION NAME
#ZONE                            RUN_1:   ZONE NAME
TOP .                       5785.0000:   TOP DEPTH
BOT .                       9493.5000:   BOTTOM DEPTH
RUN .                               1:   RUN NUMBER
LCCD.                             340:   LOGGING CONTRACTOR
SRVC.                   PAN GEO ATLAS:   LOGGING CONT NAME
DICO.          QC Data Collectors Ltd:   DIG COMPANY NAME
LDAT.                      06/23/1996:   DATE LOGGED
TDD .F                      9520.0000:   TOTAL DEPTH DRILLER
TDL .F                      9517.0000:   TOTAL DEPTH LOGGER
BOTL.F                      9515.0000:   BOTTOM DEPTH LOGGED
TOPL.F                      5800.0000:   TOP DEPTH LOGGED
CS1 .IN                       13.3750:   CASING SIZE 1
BS1 .IN                       12.2500:   BIT SIZE 1
DDB1.F                      9520.0000:   DEPTH DRILLED BIT 1
BHF .                              60:   FLUID CODE
DPT .                        Oil Base:   DRILLING FLUID TYPE
MUDD.                         14.8000:   FLUID DENSITY
MUDV.                         56.0000:   FLUID VISCOSITY
FL  .                          6.8000:   FLUID LOSS
TMAX.DEGF                    171.0000:   MAX REC TEMP
TIMC.                          6.0000:   TIME SINCE CIRCLN
~PARAMETER INFORMATION (zones)
#MNEM.UNIT                       Value     Description
#=========                       =====     ===========
#ZONATION                          DIL:   ZONATION NAME
#ZONE                            RUN_3:   ZONE NAME
TOP .                      10469.0000:   TOP DEPTH
BOT .                      10595.5000:   BOTTOM DEPTH
RUN .                               3:   RUN NUMBER
LCCD.                             340:   LOGGING CONTRACTOR
SRVC.                   PAN GEO ATLAS:   LOGGING CONT NAME
DICO.          QC Data Collectors Ltd:   DIG COMPANY NAME
LDAT.                      07/04/1996:   DATE LOGGED
TDD .F                     10613.0000:   TOTAL DEPTH DRILLER
TDL .F                     10596.0000:   TOTAL DEPTH LOGGER
BOTL.F                     10596.0000:   BOTTOM DEPTH LOGGED
TOPL.F                     10000.0000:   TOP DEPTH LOGGED
CS1 .IN                        9.6250:   CASING SIZE 1
BS1 .IN                        8.5000:   BIT SIZE 1
DDB1.F                     10613.0000:   DEPTH DRILLED BIT 1
BHF .                              60:   FLUID CODE
DPT .                        Oil Base:   DRILLING FLUID TYPE
MUDD.                         16.9000:   FLUID DENSITY
MUDV.                         55.0000:   FLUID VISCOSITY
FL  .                          5.0000:   FLUID LOSS
TMAX.DEGF                    240.0000:   MAX REC TEMP
TIMC.                         10.0000:   TIME SINCE CIRCLN
~PARAMETER INFORMATION (zones)
#MNEM.UNIT                       Value     Description
#=========                       =====     ===========
#ZONATION                          FDC:   ZONATION NAME
#ZONE                            RUN_2:   ZONE NAME
TOP .                       9494.0000:   TOP DEPTH
BOT .                      10469.5000:   BOTTOM DEPTH
RUN .                               2:   RUN NUMBER
LCCD.                             340:   LOGGING CONTRACTOR
SRVC.                   PAN GEO ATLAS:   LOGGING CONT NAME
DICO.          QC Data Collectors Ltd:   DIG COMPANY NAME
LDAT.                      07/01/1996:   DATE LOGGED
TDD .F                     10500.0000:   TOTAL DEPTH DRILLER
TDL .F                     10504.0000:   TOTAL DEPTH LOGGER
BOTL.F                     10500.0000:   BOTTOM DEPTH LOGGED
TOPL.F                      9350.0000:   TOP DEPTH LOGGED
CS1 .IN                        9.6250:   CASING SIZE 1
BS1 .IN                        8.5000:   BIT SIZE 1
DDB1.F                     10500.0000:   DEPTH DRILLED BIT 1
BHF .                              60:   FLUID CODE
DPT .                        Oil Base:   DRILLING FLUID TYPE
MUDD.                         16.5000:   FLUID DENSITY
MUDV.                         57.0000:   FLUID VISCOSITY
FL  .                          5.4000:   FLUID LOSS
TMAX.DEGF                    238.0000:   MAX REC TEMP
TIMC.                          6.0000:   TIME SINCE CIRCLN
~Curve Information Block
#MNEM.UNIT                    API CODE    No Description
#=========                    ========    == ===========
DEPT.F                   00 001 00 00:     1  DEPTH
CNCF.%                               :     2  Neutron Porosity
CAL.IN                               :     3  Caliper
CILD.MMHO                            :     4  Deep Induction Conductivity
GR.GAPI                              :     5  Gamma Ray
RILD.OHMM                            :     6  Deep Resistivity
RILM.OHMM                            :     7  Medium Resistivity
RWA.OHMM                             :     8  Apparent Water Resistivity
TEN.LB                               :     9  Cable Tension
PORZ.%                               :    10  Porosity
ZCOR.G/C3                            :    11  Density Correction
ZDEN.G/C3                            :    12  Bulk Density
~ASCII
# ...
10055.0000    37.1763     9.8900  1700.2305    76.3992      .6149      .6519      .0155   -74.9414    14.3143     -.0077     2.4160
10055.5000    37.1405     9.8900  1722.1934    74.9789      .6056      .6448      .0150   -79.9604    14.1980      .0058     2.4110
10056.0000    37.6392     9.9019  1740.0566    74.6602      .5965      .6378      .0150   -80.0391    14.3194      .0098     2.4080
10056.5000    38.6016     9.9200  1753.2559    75.9226      .5884      .6343      .0150   -70.0586    14.6155      .0157     2.4070
10057.0000    39.0654     9.9200  1758.7930    77.0405      .5804      .6311      .0154   -45.2334    14.7035      .0156     2.4040
10057.5000    38.6259     9.9200  1757.3750    77.0796      .5759      .6307      .0157   -30.1367    14.8221      .0074     2.4050
10058.0000    38.1031     9.9209  1752.7324    76.6398      .5720      .6304      .0158   -15.1582    14.8515     -.0063     2.4110
10058.5000    37.7585     9.9275  1746.5195    76.9805      .5698      .6300      .0150   -13.9653    14.7012     -.0087     2.4150
10059.0000    37.5446     9.9650  1737.9160    78.8422      .5695      .6296      .0143   -27.5864    14.3737     -.0014     2.4100
10059.5000    37.5563     9.9725  1728.5742    79.9995      .5691      .6291      .0143   -51.3208    14.3788      .0012     2.4060
10060.0000    37.7590     9.9791  1723.9063    80.2971      .5715      .6282      .0150   -65.2363    14.7345      .0014     2.4100
10060.5000    38.0345     9.9500  1725.7500    80.2582      .5740      .6273      .0148   -65.1685    14.6994      .0062     2.4170
10061.0000    38.0257     9.9619  1728.3379    80.5574      .5758      .6261      .0140   -54.6172    14.3844      .0275     2.4170
10061.5000    37.3699     9.9500  1727.4043    80.8182      .5773      .6239      .0144   -35.6436    14.1386      .0380     2.4090
10062.0000    36.4771     9.9319  1726.0605    81.2800      .5783      .6216      .0148   -36.5137    14.3262      .0271     2.4030
10062.5000    36.0594     9.9200  1727.8008    82.0210      .5783      .6214      .0152   -46.4341    14.7401      .0007     2.4040
10063.0000    36.2492     9.9380  1732.1289    84.0023      .5783      .6218      .0158   -56.3545    14.9109     -.0042     2.4080
10063.5000    36.7602     9.9500  1737.9883    86.4812      .5774      .6230      .0153   -60.3960    14.8270      .0004     2.4110
10064.0000    37.1414     9.9800  1744.8750    86.3937      .5761      .6243      .0150   -60.3960    14.6307      .0010     2.4120
10064.5000    37.5059     9.9500  1751.5586    82.6337      .5763      .6249      .0148   -60.3960    14.4494     -.0008     2.4080
10065.0000    37.9604     9.9500  1756.3340    80.1399      .5785      .6253      .0145   -60.3960    14.5327     -.0038     2.4020
10065.5000    38.1386     9.9500  1758.2422    81.0265      .5800      .6235      .0150   -60.3960    14.8259     -.0034     2.3980
10066.0000    38.0438     9.9800  1758.5879    81.7390      .5796      .6215      .0156   -60.3960    15.0829     -.0030     2.3990
10066.5000    37.8058     9.9500  1759.0625    81.6597      .5793      .6199      .0160   -58.5010    15.2142     -.0050     2.4040
10067.0000    37.4731     9.9500  1758.9668    80.8195      .5789      .6189      .0160   -50.4951    15.1012     -.0086     2.4100
10067.5000    37.5209     9.9500  1756.7207    80.3597      .5785      .6198      .0152   -50.4951    14.8089     -.0004     2.4160
10068.0000    37.6754     9.9500  1754.0684    80.0392      .5781      .6209      .0142   -50.4946    14.3903      .0118     2.4180
10068.5000    37.8773     9.9500  1753.4688    80.4257      .5778      .6226      .0136   -49.7305    14.1428      .0197     2.4160
10069.0000    38.0198     9.9500  1753.9355    81.7200      .5774      .6241      .0146   -42.7871    14.1344      .0219     2.4170
10069.5000    38.0792     9.9500  1753.4863    82.2952      .5770      .6255      .0140   -38.9023    14.0834      .0188     2.4230
10070.0000    37.8889     9.9500  1752.0469    81.7999      .5767      .6268      .0135   -39.9995    13.9679      .0158     2.4230
10070.5000    37.5204     9.9500  1749.7578    81.2999      .5763      .6271      .0130   -48.1440    13.7673      .0129     2.4150
10071.0000    37.3069     9.9500  1746.8398    81.6801      .5759      .6242      .0135   -59.4219    14.0338      .0139     2.4060
10071.5000    37.4378     9.9200  1744.4688    81.5446      .5755      .6214      .0145   -70.6914    14.4857      .0064     2.4030
10072.0000    37.5803     9.9200  1741.5273    81.0391      .5756      .6187      .0153   -75.0000    14.8410      .0084     2.4010
10072.5000    37.6039     9.9200  1733.1719    80.9800      .5760      .6159      .0163   -70.0000    14.9703      .0111     2.3980
10073.0000    37.6039     9.9500  1715.5469    81.0000      .5764      .6131      .0162   -70.0000    15.1423      .0071     2.3960
10073.5000    37.6276     9.9500  1693.4102    80.4597      .5768      .6194      .0168   -71.9409    15.3202      .0016     2.3950
10074.0000    37.3779     9.9500  1677.5488    79.2195      .5779      .6257      .0175   -78.0469    15.3861     -.0008     2.3950
10074.5000    37.0809     9.9500  1673.0098    77.9995      .5861      .6316      .0178   -58.0859    15.3861     -.0012     2.3990
10075.0000    36.8196     9.9440  1676.8613    77.3999      .5941      .6352      .0175   -45.0000    15.2673     -.0008     2.4110
10075.5000    36.6771     9.9260  1686.5195    77.8804      .6021      .6348      .0162   -40.0000    14.7597     -.0020     2.4240
10076.0000    36.5226     9.9440  1701.8535    79.6406      .6038      .6344      .0149   -45.0000    14.0437     -.0020     2.4340
10076.5000    36.4395     9.9500  1721.1816    80.4800      .6034      .6265      .0127   -51.9019    13.3198      .0004     2.4380
10077.0000    36.3564     9.9260  1741.0488    79.9995      .6019      .6178      .0117   -65.0000    12.9542      .0123     2.4350
10077.5000    36.4158     9.9500  1759.0332    77.5996      .5960      .6088      .0115   -65.0000    12.9486      .0185     2.4290
10078.0000    36.3099     9.9260  1775.1367    76.8418      .5901      .5999      .0120   -65.0000    13.2399      .0116     2.4260
10078.5000    36.1782     9.9200  1789.6035    77.4054      .5824      .5938      .0125   -60.0000    13.4793      .0053     2.4280
10079.0000    36.1485     9.9500  1801.1719    79.2905      .5749      .5895      .0127   -60.0000    13.5446      .0038     2.4280
10079.5000    36.2585     9.9500  1810.4590    79.9551      .5678      .5857      .0120   -65.0000    13.4375      .0059     2.4250
10080.0000    36.7480     9.9500  1819.4180    79.6389      .5612      .5853      .0122   -65.0000    13.5155      .0097     2.4210
10080.5000    37.2916     9.9500  1825.7246    79.6000      .5547      .5849      .0125   -64.0659    13.7075      .0119     2.4230
10081.0000    37.6573     9.9500  1825.2227    80.4969      .5521      .5857      .0125   -55.0000    13.7822      .0145     2.4290
10081.5000    37.4526     9.9395  1820.4727    81.0972      .5507      .5875      .0123   -55.9180    13.6342      .0176     2.4290
10082.0000    37.2850     9.9500  1817.5508    80.5782      .5492      .5893      .0120   -60.9214    13.4404      .0168     2.4240
10082.5000    37.0456     9.9319  1817.3750    80.0195      .5505      .5911      .0122   -65.9375    13.5150      .0134     2.4200
10083.0000    37.0572     9.9200  1815.6289    79.6398      .5523      .5929      .0127   -70.0000    13.8106      .0057     2.4210
10083.5000    37.5204     9.9200  1810.4277    79.0195      .5540      .5942      .0128   -65.0000    13.8571     -.0010     2.4230
10084.0000    38.0193     9.9500  1803.6797    78.4203      .5557      .5951      .0125   -64.0659    13.7975      .0014     2.4220
10084.5000    38.3405     9.9380  1797.2949    79.3608      .5571      .5944      .0125   -53.1714    13.7822      .0072     2.4150
10085.0000    38.3525     9.9200  1791.8672    80.6406      .5585      .5925      .0134   -40.0000    14.0315      .0087     2.4060
