~VERSION INFORMATION
VERS.                             2.0:   CWLS Log ASCII Standard-VERSION 2.0
WRAP.                              NO:   One line per depth step
~Well Information Block
STRT.F                      5785.0000:   Top Depth
STOP.F                     10595.0000:   Bottom Depth
STEP.F                         .50000:   Depth Increment
NULL.                        -999.250:   Null Value
FLD .                    MU BLK A 153:   Field Name
WELL.       OCSG14788   001 ST00 BP00:   NAME
API .                    427124011300:   WELL API
R1  .                           45310:   COMMENT  1
R2  .                           45310:   COMMENT  2
EDF .F                        95.0000:   ELEV DRILL FLOOR
COMP.         WALTER OIL AND GAS CORP:   OPERATOR
BN  .                           A 153:   BLOCK
CTRY.                             USA:   COUNTRY NAME
CNTY.                        M I E AD:   COUNTY NAME
TDD .F                      10613.000:   FINAL TD DRILLER
STAT.                           TEXAS:   STATE NAME
UWI .                    427124011300:   WELL API
DICO.               IHS : Digitizing Company
~PARAMETER INFORMATION (zones)
#MNEM.UNIT                       Value     Description
#=========                       =====     ===========
#ZONATION                          CNL:   ZONATION NAME
#ZONE                            RUN_2:   ZONE NAME
TOP .                       9494.0000:   TOP DEPTH
BOT .                      10469.5000:   BOTTOM DEPTH
RUN .                               2:   RUN NUMBER
LCCD.                             340:   LOGGING CONTRACTOR
SRVC.                   PAN GEO ATLAS:   LOGGING CONT NAME
DICO.          QC Data Collectors Ltd:   DIG COMPANY NAME
LDAT.                      07/01/1996:   DATE LOGGED
TDD .F                     10500.0000:   TOTAL DEPTH DRILLER
TDL .F                     10504.0000:   TOTAL DEPTH LOGGER
BOTL.F                     10500.0000:   BOTTOM DEPTH LOGGED
TOPL.F                      9350.0000:   TOP DEPTH LOGGED
CS1 .IN                        9.6250:   CASING SIZE 1
BS1 .IN                        8.5000:   BIT SIZE 1
DDB1.F                     10500.0000:   DEPTH DRILLED BIT 1
BHF .                              60:   FLUID CODE
DPT .                        Oil Base:   DRILLING FLUID TYPE
MUDD.                         16.5000:   FLUID DENSITY
MUDV.                         57.0000:   FLUID VISCOSITY
FL  .                          5.4000:   FLUID LOSS
TMAX.DEGF                    238.0000:   MAX REC TEMP
TIMC.                          6.0000:   TIME SINCE CIRCLN
~PARAMETER INFORMATION (zones)
#MNEM.UNIT                       Value     Description
#=========                       =====     ===========
#ZONATION                          DIL:   ZONATION NAME
#ZONE                            RUN_2:   ZONE NAME
TOP .                       9494.0000:   TOP DEPTH
BOT .                      10469.5000:   BOTTOM DEPTH
RUN .                               2:   RUN NUMBER
LCCD.                             340:   LOGGING CONTRACTOR
SRVC.                   PAN GEO ATLAS:   LOGGING CONT NAME
DICO.          QC Data Collectors Ltd:   DIG COMPANY NAME
LDAT.                      07/01/1996:   DATE LOGGED
TDD .F                     10500.0000:   TOTAL DEPTH DRILLER
TDL .F                     10504.0000:   TOTAL DEPTH LOGGER
BOTL.F                     10500.0000:   BOTTOM DEPTH LOGGED
TOPL.F                      9350.0000:   TOP DEPTH LOGGED
CS1 .IN                        9.6250:   CASING SIZE 1
BS1 .IN                        8.5000:   BIT SIZE 1
DDB1.F                     10500.0000:   DEPTH DRILLED BIT 1
BHF .                              60:   FLUID CODE
DPT .                        Oil Base:   DRILLING FLUID TYPE
MUDD.                         16.5000:   FLUID DENSITY
MUDV.                         57.0000:   FLUID VISCOSITY
FL  .                          5.4000:   FLUID LOSS
TMAX.DEGF                    238.0000:   MAX REC TEMP
TIMC.                          6.0000:   TIME SINCE CIRCLN
~PARAMETER INFORMATION (zones)
#MNEM.UNIT                       Value     Description
#=========                       =====     ===========
#ZONATION                          DIL:   ZONATION NAME
#ZONE                            RUN_1:   ZONE NAME
TOP .                       5785.0000:   TOP DEPTH
BOT .                       9493.5000:   BOTTOM DEPTH
RUN .                               1:   RUN NUMBER
LCCD.                             340:   LOGGING CONTRACTOR
SRVC.                   PAN GEO ATLAS:   LOGGING CONT NAME
DICO.          QC Data Collectors Ltd:   DIG COMPANY NAME
LDAT.                      06/23/1996:   DATE LOGGED
TDD .F                      9520.0000:   TOTAL DEPTH DRILLER
TDL .F                      9517.0000:   TOTAL DEPTH LOGGER
BOTL.F                      9515.0000:   BOTTOM DEPTH LOGGED
TOPL.F                      5800.0000:   TOP DEPTH LOGGED
CS1 .IN                       13.3750:   CASING SIZE 1
BS1 .IN                       12.2500:   BIT SIZE 1
DDB1.F                      9520.0000:   DEPTH DRILLED BIT 1
BHF .                              60:   FLUID CODE
DPT .                        Oil Base:   DRILLING FLUID TYPE
MUDD.                         14.8000:   FLUID DENSITY
MUDV.                         56.0000:   FLUID VISCOSITY
FL  .                          6.8000:   FLUID LOSS
TMAX.DEGF                    171.0000:   MAX REC TEMP
TIMC.                          6.0000:   TIME SINCE CIRCLN
~PARAMETER INFORMATION (zones)
#MNEM.UNIT                       Value     Description
#=========                       =====     ===========
#ZONATION                          DIL:   ZONATION NAME
#ZONE                            RUN_3:   ZONE NAME
TOP .                      10469.0000:   TOP DEPTH
BOT .                      10595.5000:   BOTTOM DEPTH
RUN .                               3:   RUN NUMBER
LCCD.                             340:   LOGGING CONTRACTOR
SRVC.                   PAN GEO ATLAS:   LOGGING CONT NAME
DICO.          QC Data Collectors Ltd:   DIG COMPANY NAME
LDAT.                      07/04/1996:   DATE LOGGED
TDD .F                     10613.0000:   TOTAL DEPTH DRILLER
TDL .F                     10596.0000:   TOTAL DEPTH LOGGER
BOTL.F                     10596.0000:   BOTTOM DEPTH LOGGED
TOPL.F                     10000.0000:   TOP DEPTH LOGGED
CS1 .IN                        9.6250:   CASING SIZE 1
BS1 .IN                        8.5000:   BIT SIZE 1
DDB1.F                     10613.0000:   DEPTH DRILLED BIT 1
BHF .                              60:   FLUID CODE
DPT .                        Oil Base:   DRILLING FLUID TYPE
MUDD.                         16.9000:   FLUID DENSITY
MUDV.                         55.0000:   FLUID VISCOSITY
FL  .                          5.0000:   FLUID LOSS
TMAX.DEGF                    240.0000:   MAX REC TEMP
TIMC.                         10.0000:   TIME SINCE CIRCLN
~PARAMETER INFORMATION (zones)
#MNEM.UNIT                       Value     Description
#=========                       =====     ===========
#ZONATION                          FDC:   ZONATION NAME
#ZONE                            RUN_2:   ZONE NAME
TOP .                       9494.0000:   TOP DEPTH
BOT .                      10469.5000:   BOTTOM DEPTH
RUN .                               2:   RUN NUMBER
LCCD.                             340:   LOGGING CONTRACTOR
SRVC.                   PAN GEO ATLAS:   LOGGING CONT NAME
DICO.          QC Data Collectors Ltd:   DIG COMPANY NAME
LDAT.                      07/01/1996:   DATE LOGGED
TDD .F                     10500.0000:   TOTAL DEPTH DRILLER
TDL .F                     10504.0000:   TOTAL DEPTH LOGGER
BOTL.F                     10500.0000:   BOTTOM DEPTH LOGGED
TOPL.F                      9350.0000:   TOP DEPTH LOGGED
CS1 .IN                        9.6250:   CASING SIZE 1
BS1 .IN                        8.5000:   BIT SIZE 1
DDB1.F                     10500.0000:   DEPTH DRILLED BIT 1
BHF .                              60:   FLUID CODE
DPT .                        Oil Base:   DRILLING FLUID TYPE
MUDD.                         16.5000:   FLUID DENSITY
MUDV.                         57.0000:   FLUID VISCOSITY
FL  .                          5.4000:   FLUID LOSS
TMAX.DEGF                    238.0000:   MAX REC TEMP
TIMC.                          6.0000:   TIME SINCE CIRCLN
~Curve Information Block
#MNEM.UNIT                    API CODE    No Description
#=========                    ========    == ===========
DEPT.F                   00 001 00 00:     1  DEPTH
CNCF.%                               :     2  Neutron Porosity
CAL.IN                               :     3  Caliper
CILD.MMHO                            :     4  Deep Induction Conductivity
GR.GAPI                              :     5  Gamma Ray
RILD.OHMM                            :     6  Deep Resistivity
RILM.OHMM                            :     7  Medium Resistivity
RWA.OHMM                             :     8  Apparent Water Resistivity
TEN.LB                               :     9  Cable Tension
PORZ.%                               :    10  Porosity
ZCOR.G/C3                            :    11  Density Correction
ZDEN.G/C3                            :    12  Bulk Density
~ASCII
# ...
10329.5000    35.6401     9.9500  1797.2285    81.4426      .5346      .5605      .0101   -18.2798    12.2671     -.0049     2.4330
10330.0000    35.4634     9.9499  1805.6309    82.4421      .5381      .5630      .0111   -30.6934    12.7957     -.0074     2.4230
10330.5000    35.3638     9.9489  1816.6465    83.3719      .5416      .5736      .0123   -30.6934    13.4823     -.0051     2.4250
10331.0000    35.4328     9.9478  1820.9824    82.8849      .5407      .5857      .0130   -30.6934    13.7822      .0064     2.4290
10331.5000    35.3267     9.9466  1815.7402    81.5271      .5391      .5904      .0127   -39.0117    13.5075      .0126     2.4250
10332.0000    35.4958     9.9457  1803.4395    79.9586      .5382      .5916      .0125   -49.3374    13.5473      .0066     2.4170
10332.5000    35.8677     9.9455  1789.3535    80.3175      .5375      .5905      .0128   -55.4453    13.9802      .0034     2.4150
10333.0000    36.3444     9.9455  1777.8555    83.3098      .5390      .5866      .0136   -47.0747    14.1980      .0036     2.4190
10333.5000    36.7247     9.9455  1768.6172    85.8430      .5440      .5842      .0135   -35.6436    14.1190      .0045     2.4190
10334.0000    36.9860     9.9455  1756.4336    86.2166      .5490      .5841      .0140   -30.6934    13.9230      .0050     2.4150
10334.5000    37.2712     9.9455  1732.3613    85.0387      .5565      .5878      .0140   -30.6934    14.1611      .0037     2.4150
10335.0000    37.5563     9.9752  1691.8242    84.1188      .5662      .5962      .0143   -30.6934    14.2321     -.0030     2.4220
10335.5000    37.5684     9.9455  1641.7285    83.9106      .5765      .6063      .0145   -35.6436    13.9039     -.0030     2.4300
10336.0000    37.0563     9.9752  1599.1816    83.3478      .5883      .6208      .0132   -45.5444    13.4743     -.0030     2.4330
10336.5000    36.4609     9.9455  1581.5938    82.7126      .5979      .6341      .0130   -40.9341    13.2143     -.0030     2.4360
10337.0000    35.6880     9.9455  1589.6172    82.5939      .6044      .6448      .0130   -40.5942    13.0358     -.0004     2.4460
10337.5000    34.7703     9.9455  1608.1230    81.9797      .6086      .6501      .0116   -40.5942    12.5997      .0036     2.4600
10338.0000    33.7451     9.9455  1630.1289    79.7533      .6056      .6527      .0107   -40.5942    11.9406      .0059     2.4620
10338.5000    33.7515     9.9708  1664.8477    77.5486      .6011      .6434      .0100   -40.5942    11.4890      .0059     2.4530
10339.0000    34.1347     9.9485  1712.5820    77.5800      .5911      .6333      .0105   -40.5942    11.7150     -.0002     2.4440
10339.5000    35.2121     9.9455  1758.2188    77.6096      .5812      .6212      .0110   -35.6436    12.1766     -.0048     2.4410
10340.0000    35.6187     9.9752  1790.9180    77.7999      .5715      .6099      .0110   -31.6792    12.4852     -.0038     2.4420
10340.5000    35.2100     9.9752  1814.4395    79.5000      .5620      .5993      .0110   -21.7783    12.5347      .0074     2.4440
10341.0000    34.7457     9.9455  1837.5234    81.5841      .5526      .5886      .0105   -25.7427    12.5347      .0233     2.4430
10341.5000    34.5148     9.9455  1865.8691    82.5742      .5443      .5768      .0105   -34.6577    12.5692      .0297     2.4340
10342.0000    34.7665     9.9752  1899.2168    82.7722      .5387      .5637      .0110   -39.6079    12.9077      .0243     2.4220
10342.5000    35.4348     9.9455  1929.9238    82.6732      .5326      .5614      .0115   -44.5586    13.5292      .0165     2.4160
10343.0000    36.1544     9.9752  1950.4785    80.8910      .5258      .5570      .0125   -46.5308    14.0237      .0142     2.4200
10343.5000    36.6655     9.9752  1957.7012    79.5000      .5195      .5537      .0125   -45.5444    14.0476      .0203     2.4230
10344.0000    36.6771     9.9752  1948.3516    79.3999      .5140      .5519      .0125   -44.5586    13.8691      .0255     2.4220
10344.5000    36.5583     9.9752  1917.8594    81.9801      .5134      .5555      .0115   -41.5801    13.7822      .0162     2.4210
10345.0000    36.4752     9.9752  1867.2949    84.2573      .5197      .5623      .0125   -40.5942    13.8416      .0018     2.4210
10345.5000    36.3444     9.9752  1802.4199    87.2277      .5299      .5733      .0125   -45.5444    13.8691     -.0109     2.4220
10346.0000    36.1067     9.9752  1728.3691    87.7227      .5519      .5881      .0130   -41.5801    13.8096     -.0121     2.4280
10346.5000    35.5439     9.9455  1655.1387    86.7327      .5747      .6024      .0130   -40.5942    13.6256     -.0093     2.4430
10347.0000    34.4335     9.9752  1599.3047    82.4752      .5946      .6154      .0125   -36.6299    12.9521     -.0077     2.4560
10347.5000    32.9111     9.9752  1570.1699    78.7000      .6151      .6275      .0115   -30.6934    12.1437     -.0089     2.4590
10348.0000    32.5255     9.9752  1566.3301    75.8999      .6297      .6293      .0105   -30.6934    11.7266     -.0089     2.4520
10348.5000    32.8277     9.9392  1586.0566    75.0846      .6435      .6312      .0109   -34.6577    11.7744     -.0042     2.4370
10349.0000    33.5190     9.9925  1624.9629    75.7599      .6468      .6184      .0114   -44.5586    12.3310      .0078     2.4180
10349.5000    34.2682     9.9563  1657.9570    76.7250      .6416      .6035      .0137   -50.4951    13.3847      .0156     2.4050
10350.0000    35.0826     9.9500  1651.7383    77.2804      .6289      .5851      .0151   -43.4536    14.2943      .0152     2.3990
10350.5000    35.8073     9.9500  1597.0371    79.0221      .6208      .5627      .0167   -20.5400    14.9499      .0085     2.3920
10351.0000    36.1782     9.9500  1499.2500    83.6886      .6218      .5487      .0177   -13.3657    15.4043      .0042     2.3880
10351.5000    36.1841     9.9500  1361.6973    86.5511      .6470      .5790      .0195   -28.9717    15.7398      .0040     2.3910
10352.0000    35.7336     9.9500  1239.7793    85.8066      .7015      .6268      .0208   -39.7065    15.8475      .0030     2.4050
10352.5000    34.8214     9.9440  1251.9922    82.8527      .7556      .6846      .0219   -49.5088    15.3142      .0059     2.4310
10353.0000    33.4267     9.9500  1434.2930    79.5414      .8015      .7280      .0199   -46.5308    14.1135      .0088     2.4690
10353.5000    30.0043     9.9500  1686.6445    73.9261      .6911      .7472      .0122   -31.6792    12.1527      .0119     2.5080
10354.0000    25.3401     9.9500  1936.0312    61.7215      .6226      .6434      .0075   -30.6934     9.8953      .0080     2.5230
10354.5000    21.3374     9.9260  2219.5273    52.7222      .5610      .5338      .0028   -25.7427     8.2092     -.0119     2.4920
10355.0000    21.2678     9.9500  2598.4414    47.9614      .4844      .4367      .0022   -25.7427     8.5674     -.0317     2.4130
10355.5000    23.7195     9.9260  3094.5664    46.5153      .4033      .3601      .0066   -25.7427    12.3128     -.0307     2.3120
10356.0000    26.8350     9.9500  3653.4414    44.8128      .3434      .3153      .0127   -30.6934    17.8264     -.0149     2.2290
10356.5000    29.6862     9.9200  4140.6562    39.8593      .3004      .2902      .0207   -35.6436    23.2923      .0152     2.1830
10357.0000    31.2154     9.9500  4442.3281    35.2015      .2647      .2748      .0247   -40.5942    27.1219      .0226     2.1680
10357.5000    31.8820     9.9200  4551.7734    33.2601      .2424      .2643      .0260   -41.5801    28.7527      .0247     2.1630
10358.0000    33.5085     9.9499  4522.4219    33.4597      .2306      .2585      .0255   -35.7300    29.4366      .0199     2.1550
10358.5000    34.6343     9.9489  4399.4219    34.9797      .2278      .2573      .0265   -27.7871    29.8083      .0091     2.1490
10359.0000    34.6273     9.9179  4213.2109    35.1602      .2303      .2581      .0277   -36.8213    30.1639      .0050     2.1470
10359.5000    33.9248     9.9407  4004.3359    34.3004      .2381      .2611      .0296   -46.8931    30.4117      .0020     2.1490
