~VERSION INFORMATION
VERS.                             2.0:   CWLS Log ASCII Standard-VERSION 2.0
WRAP.                              NO:   One line per depth step
~Well Information Block
STRT.F                       374.0000:   Top Depth
STOP.F                      6106.0000:   Bottom Depth
STEP.F                         .50000:   Depth Increment
NULL.                        -999.250:   Null Value
FLD .                    MU BLK A 139:   Field Name
WELL.       OCSG06030   002 ST00 BP00:   NAME
API .                    427124009600:   WELL API
EDF .F                       103.0000:   ELEV DRILL FLOOR
COMP.       CITIES SERVICE OIL AND GA:   OPERATOR
BN  .                           A 139:   BLOCK
CTRY.                             USA:   COUNTRY NAME
CNTY.                        M I E AD:   COUNTY NAME
EKB .F                       104.0000:   ELEV KELLY BUSHING
TDD .F                       6111.000:   FINAL TD DRILLER
STAT.                           TEXAS:   STATE NAME
UWI .                    427124009600:   WELL API
DICO.               IHS : Digitizing Company
~PARAMETER INFORMATION (zones)
#MNEM.UNIT                       Value     Description
#=========                       =====     ===========
#ZONATION                          CNL:   ZONATION NAME
#ZONE                            RUN_2:   ZONE NAME
TOP .                       4521.0000:   TOP DEPTH
BOT .                       6106.5000:   BOTTOM DEPTH
RUN .                               2:   RUN NUMBER
LCCD.                             440:   LOGGING CONTRACTOR
SRVC.                    Schlumberger:   LOGGING CONT NAME
DICO.          QC Data Collectors Ltd:   DIG COMPANY NAME
LDAT.                      01/11/1988:   DATE LOGGED
ELD .F                       104.0000:   LOG DATUM ELEVATION
TDD .F                      4594.0000:   TOTAL DEPTH DRILLER
TDL .F                      2007.0000:   TOTAL DEPTH LOGGER
BOTL.F                      1998.0000:   BOTTOM DEPTH LOGGED
TOPL.F                      1006.0000:   TOP DEPTH LOGGED
CS1 .IN                       20.0000:   CASING SIZE 1
BS1 .IN                       17.5000:   BIT SIZE 1
DDB1.F                      4594.0000:   DEPTH DRILLED BIT 1
BHF .                              80:   FLUID CODE
DPT .                      Salt Water:   DRILLING FLUID TYPE
MUDD.                          9.3000:   FLUID DENSITY
MUDV.                         52.0000:   FLUID VISCOSITY
DFPH.                          8.0000:   FLUID PH
FL  .                         16.8000:   FLUID LOSS
RM  .OHMM                       .3600:   RM
RMT .DEGF                     53.0000:   RM TEMP
RMF .OHMM                       .3200:   RMF
RMFT.DEGF                     52.0000:   RMF TEMP
FSC .                               M:   RMF CODE
RMC .OHMM                       .5700:   RMC
RMCT.DEGF                     53.0000:   RMC TEMP
TMAX.DEGF                    100.0000:   MAX REC TEMP
TIMC.                          2.5000:   TIME SINCE CIRCLN
~PARAMETER INFORMATION (zones)
#MNEM.UNIT                       Value     Description
#=========                       =====     ===========
#ZONATION                          DIL:   ZONATION NAME
#ZONE                            RUN_1:   ZONE NAME
TOP .                        374.0000:   TOP DEPTH
BOT .                       6106.5000:   BOTTOM DEPTH
RUN .                               1:   RUN NUMBER
LCCD.                             440:   LOGGING CONTRACTOR
SRVC.                    Schlumberger:   LOGGING CONT NAME
DICO.          QC Data Collectors Ltd:   DIG COMPANY NAME
LDAT.                      01/06/1988:   DATE LOGGED
ELD .F                       104.0000:   LOG DATUM ELEVATION
TDD .F                      1005.0000:   TOTAL DEPTH DRILLER
TDL .F                      1004.0000:   TOTAL DEPTH LOGGER
BOTL.F                       998.0000:   BOTTOM DEPTH LOGGED
TOPL.F                       400.0000:   TOP DEPTH LOGGED
CS1 .IN                       30.0000:   CASING SIZE 1
BS1 .IN                       16.0000:   BIT SIZE 1
DDB1.F                      1005.0000:   DEPTH DRILLED BIT 1
BHF .                              80:   FLUID CODE
DPT .                      Salt Water:   DRILLING FLUID TYPE
MUDD.                          9.1000:   FLUID DENSITY
MUDV.                         34.0000:   FLUID VISCOSITY
DFPH.                          8.0000:   FLUID PH
RM  .OHMM                       .3900:   RM
RMT .DEGF                     76.0000:   RM TEMP
RMF .OHMM                       .3300:   RMF
RMFT.DEGF                     76.0000:   RMF TEMP
FSC .                               M:   RMF CODE
RMC .OHMM                       .3300:   RMC
RMCT.DEGF                     76.0000:   RMC TEMP
CMC .                               M:   RMC CODE
TMAX.DEGF                     86.0000:   MAX REC TEMP
TIMC.                          1.7500:   TIME SINCE CIRCLN
~PARAMETER INFORMATION (zones)
#MNEM.UNIT                       Value     Description
#=========                       =====     ===========
#ZONATION                          LDT:   ZONATION NAME
#ZONE                            RUN_3:   ZONE NAME
TOP .                       4521.0000:   TOP DEPTH
BOT .                       6106.5000:   BOTTOM DEPTH
RUN .                               3:   RUN NUMBER
LCCD.                             440:   LOGGING CONTRACTOR
SRVC.                    Schlumberger:   LOGGING CONT NAME
DICO.          QC Data Collectors Ltd:   DIG COMPANY NAME
LDAT.                      01/23/1988:   DATE LOGGED
ELD .F                       104.0000:   LOG DATUM ELEVATION
TDD .F                      6111.0000:   TOTAL DEPTH DRILLER
TDL .F                      6108.0000:   TOTAL DEPTH LOGGER
BOTL.F                      6106.0000:   BOTTOM DEPTH LOGGED
TOPL.F                      4594.0000:   TOP DEPTH LOGGED
CS1 .IN                       13.3750:   CASING SIZE 1
BS1 .IN                       12.2500:   BIT SIZE 1
DDB1.F                      6111.0000:   DEPTH DRILLED BIT 1
BHF .                              80:   FLUID CODE
DPT .                      Salt Water:   DRILLING FLUID TYPE
MUDD.                         12.7000:   FLUID DENSITY
MUDV.                         58.0000:   FLUID VISCOSITY
DFPH.                          9.5000:   FLUID PH
FL  .                          4.8000:   FLUID LOSS
RM  .OHMM                       .7700:   RM
RMT .DEGF                     64.0000:   RM TEMP
RMF .OHMM                       .4900:   RMF
RMFT.DEGF                     64.0000:   RMF TEMP
FSC .                               M:   RMF CODE
RMC .OHMM                      1.0900:   RMC
RMCT.DEGF                     64.0000:   RMC TEMP
CMC .                               M:   RMC CODE
TMAX.DEGF                    138.0000:   MAX REC TEMP
TIMC.                          7.5000:   TIME SINCE CIRCLN
~Curve Information Block
#MNEM.UNIT                    API CODE    No Description
#=========                    ========    == ===========
DEPT.F                   00 001 00 00:     1  DEPTH
NPHI.DEC                              :     2  Neutron Porosity
DT.US/F                              :     3  Sonic Transit Time
GR.GAPI                              :     4  Gamma Ray
ILD.OHMM                             :     5  Deep Induction Resistivity
ILM.OHMM                             :     6  Medium Induction Resistivity
SFL.OHMM                             :     7  Medium Resistivity
SP.MV                                :     8  Spontaneous Potential
CALI.IN                              :     9  Caliper
DPHI.DEC                              :    10  Porosity
DRHO.G/C3                            :    11  Bulk Density Correction
GR.GAPI                              :    12  Gamma Ray
~ASCII
# ...
 1502.5000  -999.2500   178.7815    70.4072      .5862      .5842      .6756   -44.9643  -999.2500  -999.2500  -999.2500  -999.2500
 1503.0000  -999.2500   178.3345    71.9069      .5922      .5894      .6684   -45.0471  -999.2500  -999.2500  -999.2500  -999.2500
 1503.5000  -999.2500   177.8508    72.5721      .5988      .5975      .6655   -44.7673  -999.2500  -999.2500  -999.2500  -999.2500
 1504.0000  -999.2500   176.9832    69.8701      .6058      .6062      .6702   -44.3738  -999.2500  -999.2500  -999.2500  -999.2500
 1504.5000  -999.2500   176.0723    63.0300      .6128      .6149      .6786   -43.9438  -999.2500  -999.2500  -999.2500  -999.2500
 1505.0000  -999.2500   174.7273    59.7758      .6199      .6235      .6893   -43.9608  -999.2500  -999.2500  -999.2500  -999.2500
 1505.5000  -999.2500   173.6475    58.0822      .6274      .6318      .7050   -44.3267  -999.2500  -999.2500  -999.2500  -999.2500
 1506.0000  -999.2500   172.7974    58.2884      .6357      .6381      .7216   -44.8057  -999.2500  -999.2500  -999.2500  -999.2500
 1506.5000  -999.2500   172.0557    60.1494      .6411      .6445      .7257   -45.5148  -999.2500  -999.2500  -999.2500  -999.2500
 1507.0000  -999.2500   171.3970    62.0826      .6443      .6461      .7240   -46.2414  -999.2500  -999.2500  -999.2500  -999.2500
 1507.5000  -999.2500   171.5725    63.2927      .6417      .6446      .7147   -46.9330  -999.2500  -999.2500  -999.2500  -999.2500
 1508.0000  -999.2500   172.6152    62.3383      .6365      .6438      .7015   -47.5945  -999.2500  -999.2500  -999.2500  -999.2500
 1508.5000  -999.2500   173.5457    61.8320      .6355      .6439      .6866   -47.5837  -999.2500  -999.2500  -999.2500  -999.2500
 1509.0000  -999.2500   174.1646    61.9413      .6348      .6441      .6742   -47.4484  -999.2500  -999.2500  -999.2500  -999.2500
 1509.5000  -999.2500   174.3477    62.3567      .6350      .6447      .6737   -47.1196  -999.2500  -999.2500  -999.2500  -999.2500
 1510.0000  -999.2500   174.3840    60.6950      .6363      .6453      .6855   -47.0070  -999.2500  -999.2500  -999.2500  -999.2500
 1510.5000  -999.2500   174.6218    59.7795      .6392      .6483      .6938   -47.1680  -999.2500  -999.2500  -999.2500  -999.2500
 1511.0000  -999.2500   174.9448    63.7366      .6426      .6518      .6997   -47.1928  -999.2500  -999.2500  -999.2500  -999.2500
 1511.5000  -999.2500   175.3794    67.1083      .6463      .6596      .6997   -46.9715  -999.2500  -999.2500  -999.2500  -999.2500
 1512.0000  -999.2500   174.8667    70.3802      .6574      .6693      .6987   -46.0737  -999.2500  -999.2500  -999.2500  -999.2500
 1512.5000  -999.2500   173.5117    70.5297      .6693      .6798      .6982   -45.1949  -999.2500  -999.2500  -999.2500  -999.2500
 1513.0000  -999.2500   171.2622    68.8496      .6816      .6902      .7025   -44.2930  -999.2500  -999.2500  -999.2500  -999.2500
 1513.5000  -999.2500   168.0369    67.8171      .6890      .6917      .7111   -43.3233  -999.2500  -999.2500  -999.2500  -999.2500
 1514.0000  -999.2500   166.7212    67.8630      .6918      .6932      .7239   -42.5775  -999.2500  -999.2500  -999.2500  -999.2500
 1514.5000  -999.2500   168.0178    68.7145      .6912      .6923      .7406   -42.0017  -999.2500  -999.2500  -999.2500  -999.2500
 1515.0000  -999.2500   169.6882    69.1862      .6885      .6880      .7489   -41.4672  -999.2500  -999.2500  -999.2500  -999.2500
 1515.5000  -999.2500   171.1809    65.6901      .6853      .6836      .7296   -43.1754  -999.2500  -999.2500  -999.2500  -999.2500
 1516.0000  -999.2500   172.3105    59.2149      .6816      .6788      .7110   -44.5282  -999.2500  -999.2500  -999.2500  -999.2500
 1516.5000  -999.2500   173.0022    56.6215      .6775      .6743      .6942   -44.7174  -999.2500  -999.2500  -999.2500  -999.2500
 1517.0000  -999.2500   173.2776    57.0538      .6710      .6707      .6912   -44.5716  -999.2500  -999.2500  -999.2500  -999.2500
 1517.5000  -999.2500   173.0742    59.5389      .6657      .6690      .6890   -44.4885  -999.2500  -999.2500  -999.2500  -999.2500
 1518.0000  -999.2500   172.3010    62.0790      .6626      .6686      .6899   -44.5762  -999.2500  -999.2500  -999.2500  -999.2500
 1518.5000  -999.2500   171.4026    63.9387      .6628      .6731      .6912   -45.4730  -999.2500  -999.2500  -999.2500  -999.2500
 1519.0000  -999.2500   170.4561    64.8729      .6661      .6766      .7013   -46.7612  -999.2500  -999.2500  -999.2500  -999.2500
 1519.5000  -999.2500   169.6860    64.9316      .6716      .6776      .7139   -47.8815  -999.2500  -999.2500  -999.2500  -999.2500
 1520.0000  -999.2500   168.9768    64.3822      .6770      .6774      .7253   -48.5938  -999.2500  -999.2500  -999.2500  -999.2500
 1520.5000  -999.2500   168.6304    63.7276      .6793      .6758      .7325   -48.9330  -999.2500  -999.2500  -999.2500  -999.2500
 1521.0000  -999.2500   168.4636    64.1603      .6804      .6737      .7320   -48.8196  -999.2500  -999.2500  -999.2500  -999.2500
 1521.5000  -999.2500   168.3533    64.4482      .6787      .6701      .7287   -48.4221  -999.2500  -999.2500  -999.2500  -999.2500
 1522.0000  -999.2500   168.3059    64.6346      .6772      .6665      .7229   -47.9536  -999.2500  -999.2500  -999.2500  -999.2500
 1522.5000  -999.2500   168.5344    65.2124      .6762      .6648      .7197   -47.5927  -999.2500  -999.2500  -999.2500  -999.2500
 1523.0000  -999.2500   168.7783    67.8701      .6750      .6644      .7186   -47.2343  -999.2500  -999.2500  -999.2500  -999.2500
 1523.5000  -999.2500   169.2529    71.2026      .6731      .6642      .7208   -47.0046  -999.2500  -999.2500  -999.2500  -999.2500
 1524.0000  -999.2500   169.7275    73.1025      .6711      .6666      .7254   -46.6978  -999.2500  -999.2500  -999.2500  -999.2500
 1524.5000  -999.2500   170.0334    72.6241      .6700      .6690      .7300   -46.2772  -999.2500  -999.2500  -999.2500  -999.2500
 1525.0000  -999.2500   170.1926    72.4979      .6690      .6704      .7343   -45.5987  -999.2500  -999.2500  -999.2500  -999.2500
 1525.5000  -999.2500   170.3516    72.6427      .6687      .6708      .7384   -44.8807  -999.2500  -999.2500  -999.2500  -999.2500
 1526.0000  -999.2500   169.9719    71.9399      .6692      .6713      .7296   -44.2579  -999.2500  -999.2500  -999.2500  -999.2500
 1526.5000  -999.2500   169.5710    62.7802      .6697      .6696      .7213   -43.7772  -999.2500  -999.2500  -999.2500  -999.2500
 1527.0000  -999.2500   169.1238    57.8273      .6699      .6670      .7166   -43.8632  -999.2500  -999.2500  -999.2500  -999.2500
 1527.5000  -999.2500   168.8630    56.2375      .6700      .6644      .7136   -44.1260  -999.2500  -999.2500  -999.2500  -999.2500
 1528.0000  -999.2500   168.9500    59.5884      .6689      .6619      .7158   -44.5113  -999.2500  -999.2500  -999.2500  -999.2500
 1528.5000  -999.2500   169.1445    67.7207      .6664      .6595      .7180   -45.1301  -999.2500  -999.2500  -999.2500  -999.2500
 1529.0000  -999.2500   169.3511    72.4714      .6640      .6571      .7199   -45.5518  -999.2500  -999.2500  -999.2500  -999.2500
 1529.5000  -999.2500   169.5579    71.6068      .6630      .6569      .7219   -44.9335  -999.2500  -999.2500  -999.2500  -999.2500
 1530.0000  -999.2500   169.2795    66.9387      .6617      .6568      .7193   -43.6592  -999.2500  -999.2500  -999.2500  -999.2500
 1530.5000  -999.2500   168.9773    65.1426      .6595      .6568      .7135   -42.7026  -999.2500  -999.2500  -999.2500  -999.2500
 1531.0000  -999.2500   168.8352    64.4070      .6566      .6528      .7038   -43.4785  -999.2500  -999.2500  -999.2500  -999.2500
 1531.5000  -999.2500   168.9644    65.0055      .6512      .6480      .6884   -45.0851  -999.2500  -999.2500  -999.2500  -999.2500
 1532.0000  -999.2500   169.9685    66.9406      .6441      .6427      .6811   -46.4142  -999.2500  -999.2500  -999.2500  -999.2500
 1532.5000  -999.2500   170.9971    69.1521      .6330      .6340      .6807   -47.3956  -999.2500  -999.2500  -999.2500  -999.2500
