~VERSION INFORMATION
VERS.                             2.0:   CWLS Log ASCII Standard-VERSION 2.0
WRAP.                              NO:   One line per depth step
~Well Information Block
STRT.F                      5785.0000:   Top Depth
STOP.F                     10595.0000:   Bottom Depth
STEP.F                         .50000:   Depth Increment
NULL.                        -999.250:   Null Value
FLD .                    MU BLK A 153:   Field Name
WELL.       OCSG14788   001 ST00 BP00:   NAME
API .                    427124011300:   WELL API
R1  .                           45310:   COMMENT  1
R2  .                           45310:   COMMENT  2
EDF .F                        95.0000:   ELEV DRILL FLOOR
COMP.         WALTER OIL AND GAS CORP:   OPERATOR
BN  .                           A 153:   BLOCK
CTRY.                             USA:   COUNTRY NAME
CNTY.                        M I E AD:   COUNTY NAME
TDD .F                      10613.000:   FINAL TD DRILLER
STAT.                           TEXAS:   STATE NAME
UWI .                    427124011300:   WELL API
DICO.               IHS : Digitizing Company
~PARAMETER INFORMATION (zones)
#MNEM.UNIT                       Value     Description
#=========                       =====     ===========
#ZONATION                          CNL:   ZONATION NAME
#ZONE                            RUN_2:   ZONE NAME
TOP .                       9494.0000:   TOP DEPTH
BOT .                      10469.5000:   BOTTOM DEPTH
RUN .                               2:   RUN NUMBER
LCCD.                             340:   LOGGING CONTRACTOR
SRVC.                   PAN GEO ATLAS:   LOGGING CONT NAME
DICO.          QC Data Collectors Ltd:   DIG COMPANY NAME
LDAT.                      07/01/1996:   DATE LOGGED
TDD .F                     10500.0000:   TOTAL DEPTH DRILLER
TDL .F                     10504.0000:   TOTAL DEPTH LOGGER
BOTL.F                     10500.0000:   BOTTOM DEPTH LOGGED
TOPL.F                      9350.0000:   TOP DEPTH LOGGED
CS1 .IN                        9.6250:   CASING SIZE 1
BS1 .IN                        8.5000:   BIT SIZE 1
DDB1.F                     10500.0000:   DEPTH DRILLED BIT 1
BHF .                              60:   FLUID CODE
DPT .                        Oil Base:   DRILLING FLUID TYPE
MUDD.                         16.5000:   FLUID DENSITY
MUDV.                         57.0000:   FLUID VISCOSITY
FL  .                          5.4000:   FLUID LOSS
TMAX.DEGF                    238.0000:   MAX REC TEMP
TIMC.                          6.0000:   TIME SINCE CIRCLN
~PARAMETER INFORMATION (zones)
#MNEM.UNIT                       Value     Description
#=========                       =====     ===========
#ZONATION                          DIL:   ZONATION NAME
#ZONE                            RUN_2:   ZONE NAME
TOP .                       9494.0000:   TOP DEPTH
BOT .                      10469.5000:   BOTTOM DEPTH
RUN .                               2:   RUN NUMBER
LCCD.                             340:   LOGGING CONTRACTOR
SRVC.                   PAN GEO ATLAS:   LOGGING CONT NAME
DICO.          QC Data Collectors Ltd:   DIG COMPANY NAME
LDAT.                      07/01/1996:   DATE LOGGED
TDD .F                     10500.0000:   TOTAL DEPTH DRILLER
TDL .F                     10504.0000:   TOTAL DEPTH LOGGER
BOTL.F                     10500.0000:   BOTTOM DEPTH LOGGED
TOPL.F                      9350.0000:   TOP DEPTH LOGGED
CS1 .IN                        9.6250:   CASING SIZE 1
BS1 .IN                        8.5000:   BIT SIZE 1
DDB1.F                     10500.0000:   DEPTH DRILLED BIT 1
BHF .                              60:   FLUID CODE
DPT .                        Oil Base:   DRILLING FLUID TYPE
MUDD.                         16.5000:   FLUID DENSITY
MUDV.                         57.0000:   FLUID VISCOSITY
FL  .                          5.4000:   FLUID LOSS
TMAX.DEGF                    238.0000:   MAX REC TEMP
TIMC.                          6.0000:   TIME SINCE CIRCLN
~PARAMETER INFORMATION (zones)
#MNEM.UNIT                       Value     Description
#=========                       =====     ===========
#ZONATION                          DIL:   ZONATION NAME
#ZONE                            RUN_1:   ZONE NAME
TOP .                       5785.0000:   TOP DEPTH
BOT .                       9493.5000:   BOTTOM DEPTH
RUN .                               1:   RUN NUMBER
LCCD.                             340:   LOGGING CONTRACTOR
SRVC.                   PAN GEO ATLAS:   LOGGING CONT NAME
DICO.          QC Data Collectors Ltd:   DIG COMPANY NAME
LDAT.                      06/23/1996:   DATE LOGGED
TDD .F                      9520.0000:   TOTAL DEPTH DRILLER
TDL .F                      9517.0000:   TOTAL DEPTH LOGGER
BOTL.F                      9515.0000:   BOTTOM DEPTH LOGGED
TOPL.F                      5800.0000:   TOP DEPTH LOGGED
CS1 .IN                       13.3750:   CASING SIZE 1
BS1 .IN                       12.2500:   BIT SIZE 1
DDB1.F                      9520.0000:   DEPTH DRILLED BIT 1
BHF .                              60:   FLUID CODE
DPT .                        Oil Base:   DRILLING FLUID TYPE
MUDD.                         14.8000:   FLUID DENSITY
MUDV.                         56.0000:   FLUID VISCOSITY
FL  .                          6.8000:   FLUID LOSS
TMAX.DEGF                    171.0000:   MAX REC TEMP
TIMC.                          6.0000:   TIME SINCE CIRCLN
~PARAMETER INFORMATION (zones)
#MNEM.UNIT                       Value     Description
#=========                       =====     ===========
#ZONATION                          DIL:   ZONATION NAME
#ZONE                            RUN_3:   ZONE NAME
TOP .                      10469.0000:   TOP DEPTH
BOT .                      10595.5000:   BOTTOM DEPTH
RUN .                               3:   RUN NUMBER
LCCD.                             340:   LOGGING CONTRACTOR
SRVC.                   PAN GEO ATLAS:   LOGGING CONT NAME
DICO.          QC Data Collectors Ltd:   DIG COMPANY NAME
LDAT.                      07/04/1996:   DATE LOGGED
TDD .F                     10613.0000:   TOTAL DEPTH DRILLER
TDL .F                     10596.0000:   TOTAL DEPTH LOGGER
BOTL.F                     10596.0000:   BOTTOM DEPTH LOGGED
TOPL.F                     10000.0000:   TOP DEPTH LOGGED
CS1 .IN                        9.6250:   CASING SIZE 1
BS1 .IN                        8.5000:   BIT SIZE 1
DDB1.F                     10613.0000:   DEPTH DRILLED BIT 1
BHF .                              60:   FLUID CODE
DPT .                        Oil Base:   DRILLING FLUID TYPE
MUDD.                         16.9000:   FLUID DENSITY
MUDV.                         55.0000:   FLUID VISCOSITY
FL  .                          5.0000:   FLUID LOSS
TMAX.DEGF                    240.0000:   MAX REC TEMP
TIMC.                         10.0000:   TIME SINCE CIRCLN
~PARAMETER INFORMATION (zones)
#MNEM.UNIT                       Value     Description
#=========                       =====     ===========
#ZONATION                          FDC:   ZONATION NAME
#ZONE                            RUN_2:   ZONE NAME
TOP .                       9494.0000:   TOP DEPTH
BOT .                      10469.5000:   BOTTOM DEPTH
RUN .                               2:   RUN NUMBER
LCCD.                             340:   LOGGING CONTRACTOR
SRVC.                   PAN GEO ATLAS:   LOGGING CONT NAME
DICO.          QC Data Collectors Ltd:   DIG COMPANY NAME
LDAT.                      07/01/1996:   DATE LOGGED
TDD .F                     10500.0000:   TOTAL DEPTH DRILLER
TDL .F                     10504.0000:   TOTAL DEPTH LOGGER
BOTL.F                     10500.0000:   BOTTOM DEPTH LOGGED
TOPL.F                      9350.0000:   TOP DEPTH LOGGED
CS1 .IN                        9.6250:   CASING SIZE 1
BS1 .IN                        8.5000:   BIT SIZE 1
DDB1.F                     10500.0000:   DEPTH DRILLED BIT 1
BHF .                              60:   FLUID CODE
DPT .                        Oil Base:   DRILLING FLUID TYPE
MUDD.                         16.5000:   FLUID DENSITY
MUDV.                         57.0000:   FLUID VISCOSITY
FL  .                          5.4000:   FLUID LOSS
TMAX.DEGF                    238.0000:   MAX REC TEMP
TIMC.                          6.0000:   TIME SINCE CIRCLN
~Curve Information Block
#MNEM.UNIT                    API CODE    No Description
#=========                    ========    == ===========
DEPT.F                   00 001 00 00:     1  DEPTH
CNCF.%                               :     2  Neutron Porosity
CAL.IN                               :     3  Caliper
CILD.MMHO                            :     4  Deep Induction Conductivity
GR.GAPI                              :     5  Gamma Ray
RILD.OHMM                            :     6  Deep Resistivity
RILM.OHMM                            :     7  Medium Resistivity
RWA.OHMM                             :     8  Apparent Water Resistivity
TEN.LB                               :     9  Cable Tension
PORZ.%                               :    10  Porosity
ZCOR.G/C3                            :    11  Density Correction
ZDEN.G/C3                            :    12  Bulk Density
~ASCII
# ...
10268.5000    35.7009     9.9455  1785.9941    84.3325      .5625      .6122      .0130   -19.6465    13.7836     -.0009     2.4150
10269.0000    35.8209     9.9455  1772.3379    83.0297      .5627      .6137      .0135   -24.6016    14.1185      .0013     2.4160
10269.5000    35.7013     9.9455  1758.2090    79.9604      .5651      .6170      .0140   -38.3809    14.1785      .0062     2.4230
10270.0000    35.4615     9.9455  1745.4473    77.8804      .5674      .6204      .0139   -49.3013    13.9602      .0103     2.4280
10270.5000    35.1046     9.9455  1732.8906    78.7187      .5705      .6246      .0131   -54.2080    13.6165      .0109     2.4270
10271.0000    35.0563     9.9455  1720.2734    82.1379      .5752      .6289      .0135   -52.9702    13.4971      .0091     2.4210
10271.5000    35.2369     9.9455  1711.0488    83.5442      .5798      .6306      .0140   -60.5659    13.7687      .0038     2.4160
10272.0000    35.4177     9.9455  1708.0859    83.9209      .5820      .6305      .0145   -56.6299    14.1379      .0020     2.4130
10272.5000    35.3228     9.9455  1710.3906    83.4061      .5841      .6302      .0151   -50.4951    14.3552      .0022     2.4090
10273.0000    35.0852     9.9455  1715.3887    81.8811      .5847      .6286      .0160   -41.6963    14.5919      .0032     2.4050
10273.5000    34.9662     9.9455  1721.7598    82.4749      .5821      .6271      .0160   -40.5942    14.8103      .0050     2.4060
10274.0000    35.3939     9.9455  1730.7480    83.5244      .5795      .6254      .0155   -40.5942    14.8515      .0040     2.4120
10274.5000    35.7029     9.9455  1744.0840    83.2081      .5769      .6236      .0150   -40.5942    14.6772      .0040     2.4160
10275.0000    35.5605     9.9455  1760.6309    81.5841      .5705      .6218      .0145   -40.5942    14.3380      .0044     2.4150
10275.5000    35.1091     9.9455  1777.5137    81.4851      .5638      .6182      .0145   -35.6436    14.2767      .0073     2.4110
10276.0000    34.2656     9.9455  1793.2051    81.5048      .5572      .6119      .0145   -35.6436    14.4331      .0099     2.4100
10276.5000    33.7426     9.9455  1807.1426    81.9601      .5502      .6056      .0150   -48.3208    14.5544      .0065     2.4140
10277.0000    33.9087     9.9455  1819.2656    83.2859      .5432      .5985      .0149   -54.3623    14.4762     -.0044     2.4160
10277.5000    34.4315     9.9455  1829.5371    85.1086      .5363      .5914      .0140   -51.5781    14.2976     -.0075     2.4150
10278.0000    34.8475     9.9455  1835.7441    85.9220      .5340      .5862      .0140   -50.4951    14.2766     -.0049     2.4090
10278.5000    35.0495     9.9455  1836.3691    86.5345      .5321      .5821      .0140   -50.4951    14.4366     -.0017     2.4030
10279.0000    35.1683     9.9455  1833.6602    86.2772      .5302      .5811      .0152   -45.5444    14.7958      .0003     2.4000
10279.5000    35.1552     9.9455  1831.5352    84.5305      .5329      .5835      .0151   -45.5444    15.1337      .0013     2.4020
10280.0000    35.0220     9.9752  1832.1914    81.5724      .5357      .5868      .0153   -50.4951    15.1248      .0057     2.4080
10280.5000    34.8713     9.9455  1837.0586    79.9396      .5386      .5926      .0143   -50.4951    14.8942      .0104     2.4160
10281.0000    34.9134     9.9455  1848.3633    79.2601      .5414      .5985      .0138   -50.4951    14.4456      .0140     2.4190
10281.5000    35.1548     9.9455  1868.6621    79.0398      .5421      .5949      .0135   -50.4951    14.1388      .0118     2.4140
10282.0000    35.1225     9.9455  1897.9453    80.9877      .5352      .5905      .0133   -50.4951    14.1725      .0114     2.4140
10282.5000    35.5502     9.9574  1931.1582    83.4250      .5273      .5847      .0130   -45.5444    14.3762      .0135     2.4230
10283.0000    36.0473     9.9158  1959.4863    84.4554      .5159      .5776      .0126   -45.5444    14.0717      .0119     2.4300
10283.5000    36.4395     9.9158  1976.2695    83.9016      .5072      .5665      .0113   -45.5444    13.5986      .0111     2.4280
10284.0000    36.7484     9.9455  1982.1758    83.5643      .5004      .5566      .0110   -45.5444    13.4588      .0068     2.4220
10284.5000    36.9741     9.9455  1982.5664    83.4854      .4975      .5508      .0112   -45.5444    13.6745      .0067     2.4180
10285.0000    37.1287     9.9455  1980.3848    82.4767      .4947      .5511      .0122   -45.9404    13.9388      .0106     2.4170
10285.5000    37.1644     9.9158  1977.8496    80.5159      .4943      .5529      .0125   -50.4951    14.1196      .0142     2.4180
10286.0000    36.9744     9.9158  1977.8848    80.0789      .4939      .5556      .0125   -55.4453    14.1386      .0158     2.4190
10286.5000    36.7723     9.9158  1976.0391    80.5344      .4940      .5584      .0125   -55.4453    14.0952      .0158     2.4200
10287.0000    37.0217     9.9455  1954.7070    81.1672      .4949      .5605      .0125   -55.4453    14.0198      .0158     2.4160
10287.5000    37.0574     9.9455  1890.4648    83.0282      .5005      .5624      .0132   -55.4453    14.1497      .0158     2.4070
10288.0000    36.7131     9.9455  1764.7871    85.1826      .5155      .5663      .0140   -55.4453    14.5290      .0145     2.4010
10288.5000    36.2258     9.9455  1579.6523    85.7781      .5520      .5713      .0149   -55.4453    15.0173      .0139     2.4020
10289.0000    36.1188     9.9455  1374.6758    84.5057      .5797      .5907      .0169   -55.4453    15.1072      .0170     2.4080
10289.5000    36.0356     9.9634  1211.8516    83.9457      .6294      .6654      .0182   -55.4453    14.8028      .0281     2.4220
10290.0000    35.5065     9.9574  1128.0723    82.3041      .7025      .7545      .0184   -55.4453    13.9837      .0284     2.4560
10290.5000    32.6138     9.9634  1109.1484    76.0483      .7803      .8419      .0157   -55.4453    12.3699      .0147     2.5170
10291.0000    28.5764     9.9634  1120.1563    64.4624      .8504      .9246      .0117   -55.4453     9.2896      .0091     2.5750
10291.5000    24.0654     9.9455  1149.8906    50.8897      .8846      .9849      .0020   -55.4453     5.6405      .0024     2.5860
10292.0000    22.6029     9.9277  1218.4688    42.3617      .8909      .9294      .0031   -54.5400     4.0396     -.0051     2.5390
10292.5000    25.9997     9.9158  1348.8496    43.3148      .8433      .8433      .0049   -50.4951     5.8682     -.0158     2.4700
10293.0000    31.3148     9.9337  1532.9609    52.5829      .7846      .7547      .0073   -50.4951     9.3402     -.0156     2.4160
10293.5000    34.9998     9.9455  1724.6113    67.5415      .6928      .6653      .0116   -50.4951    12.8339     -.0113     2.3910
10294.0000    35.9406     9.9455  1871.8945    81.5787      .6146      .5986      .0175   -50.4951    14.9759     -.0054     2.3920
10294.5000    34.8838     9.9455  1949.5820    85.6628      .5501      .5677      .0173   -51.3882    15.6620     -.0008     2.4040
10295.0000    34.0043     9.9634  1963.6758    84.0238      .5198      .5634      .0149   -55.4453    15.1621      .0060     2.4100
10295.5000    33.9918     9.9455  1941.5625    81.3876      .5011      .5598      .0138   -60.3960    14.7252      .0055     2.4090
10296.0000    34.5617     9.9455  1914.8809    81.3451      .4923      .5631      .0137   -61.3086    14.7153      .0072     2.4060
10296.5000    35.1326     9.9634  1898.1016    83.6030      .4927      .5665      .0145   -65.3467    14.8163      .0137     2.4050
10297.0000    35.3108     9.9634  1888.0039    84.4554      .4980      .5694      .0145   -60.3960    14.8691      .0201     2.4090
10297.5000    35.2871     9.9752  1880.3320    84.2573      .5039      .5717      .0145   -55.4453    14.6656      .0189     2.4160
10298.0000    35.3109     9.9455  1878.2305    84.8137      .5102      .5741      .0136   -44.6597    14.3242      .0136     2.4200
10298.5000    35.7984     9.9455  1884.3125    85.4355      .5165      .5739      .0129   -40.5942    14.0556      .0099     2.4240
