~VERSION INFORMATION
VERS.                             2.0:   CWLS Log ASCII Standard-VERSION 2.0
WRAP.                              NO:   One line per depth step
~Well Information Block
STRT.F                       374.0000:   Top Depth
STOP.F                      6106.0000:   Bottom Depth
STEP.F                         .50000:   Depth Increment
NULL.                        -999.250:   Null Value
FLD .                    MU BLK A 139:   Field Name
WELL.       OCSG06030   002 ST00 BP00:   NAME
API .                    427124009600:   WELL API
EDF .F                       103.0000:   ELEV DRILL FLOOR
COMP.       CITIES SERVICE OIL AND GA:   OPERATOR
BN  .                           A 139:   BLOCK
CTRY.                             USA:   COUNTRY NAME
CNTY.                        M I E AD:   COUNTY NAME
EKB .F                       104.0000:   ELEV KELLY BUSHING
TDD .F                       6111.000:   FINAL TD DRILLER
STAT.                           TEXAS:   STATE NAME
UWI .                    427124009600:   WELL API
DICO.               IHS : Digitizing Company
~PARAMETER INFORMATION (zones)
#MNEM.UNIT                       Value     Description
#=========                       =====     ===========
#ZONATION                          CNL:   ZONATION NAME
#ZONE                            RUN_2:   ZONE NAME
TOP .                       4521.0000:   TOP DEPTH
BOT .                       6106.5000:   BOTTOM DEPTH
RUN .                               2:   RUN NUMBER
LCCD.                             440:   LOGGING CONTRACTOR
SRVC.                    Schlumberger:   LOGGING CONT NAME
DICO.          QC Data Collectors Ltd:   DIG COMPANY NAME
LDAT.                      01/11/1988:   DATE LOGGED
ELD .F                       104.0000:   LOG DATUM ELEVATION
TDD .F                      4594.0000:   TOTAL DEPTH DRILLER
TDL .F                      2007.0000:   TOTAL DEPTH LOGGER
BOTL.F                      1998.0000:   BOTTOM DEPTH LOGGED
TOPL.F                      1006.0000:   TOP DEPTH LOGGED
CS1 .IN                       20.0000:   CASING SIZE 1
BS1 .IN                       17.5000:   BIT SIZE 1
DDB1.F                      4594.0000:   DEPTH DRILLED BIT 1
BHF .                              80:   FLUID CODE
DPT .                      Salt Water:   DRILLING FLUID TYPE
MUDD.                          9.3000:   FLUID DENSITY
MUDV.                         52.0000:   FLUID VISCOSITY
DFPH.                          8.0000:   FLUID PH
FL  .                         16.8000:   FLUID LOSS
RM  .OHMM                       .3600:   RM
RMT .DEGF                     53.0000:   RM TEMP
RMF .OHMM                       .3200:   RMF
RMFT.DEGF                     52.0000:   RMF TEMP
FSC .                               M:   RMF CODE
RMC .OHMM                       .5700:   RMC
RMCT.DEGF                     53.0000:   RMC TEMP
TMAX.DEGF                    100.0000:   MAX REC TEMP
TIMC.                          2.5000:   TIME SINCE CIRCLN
~PARAMETER INFORMATION (zones)
#MNEM.UNIT                       Value     Description
#=========                       =====     ===========
#ZONATION                          DIL:   ZONATION NAME
#ZONE                            RUN_1:   ZONE NAME
TOP .                        374.0000:   TOP DEPTH
BOT .                       6106.5000:   BOTTOM DEPTH
RUN .                               1:   RUN NUMBER
LCCD.                             440:   LOGGING CONTRACTOR
SRVC.                    Schlumberger:   LOGGING CONT NAME
DICO.          QC Data Collectors Ltd:   DIG COMPANY NAME
LDAT.                      01/06/1988:   DATE LOGGED
ELD .F                       104.0000:   LOG DATUM ELEVATION
TDD .F                      1005.0000:   TOTAL DEPTH DRILLER
TDL .F                      1004.0000:   TOTAL DEPTH LOGGER
BOTL.F                       998.0000:   BOTTOM DEPTH LOGGED
TOPL.F                       400.0000:   TOP DEPTH LOGGED
CS1 .IN                       30.0000:   CASING SIZE 1
BS1 .IN                       16.0000:   BIT SIZE 1
DDB1.F                      1005.0000:   DEPTH DRILLED BIT 1
BHF .                              80:   FLUID CODE
DPT .                      Salt Water:   DRILLING FLUID TYPE
MUDD.                          9.1000:   FLUID DENSITY
MUDV.                         34.0000:   FLUID VISCOSITY
DFPH.                          8.0000:   FLUID PH
RM  .OHMM                       .3900:   RM
RMT .DEGF                     76.0000:   RM TEMP
RMF .OHMM                       .3300:   RMF
RMFT.DEGF                     76.0000:   RMF TEMP
FSC .                               M:   RMF CODE
RMC .OHMM                       .3300:   RMC
RMCT.DEGF                     76.0000:   RMC TEMP
CMC .                               M:   RMC CODE
TMAX.DEGF                     86.0000:   MAX REC TEMP
TIMC.                          1.7500:   TIME SINCE CIRCLN
~PARAMETER INFORMATION (zones)
#MNEM.UNIT                       Value     Description
#=========                       =====     ===========
#ZONATION                          LDT:   ZONATION NAME
#ZONE                            RUN_3:   ZONE NAME
TOP .                       4521.0000:   TOP DEPTH
BOT .                       6106.5000:   BOTTOM DEPTH
RUN .                               3:   RUN NUMBER
LCCD.                             440:   LOGGING CONTRACTOR
SRVC.                    Schlumberger:   LOGGING CONT NAME
DICO.          QC Data Collectors Ltd:   DIG COMPANY NAME
LDAT.                      01/23/1988:   DATE LOGGED
ELD .F                       104.0000:   LOG DATUM ELEVATION
TDD .F                      6111.0000:   TOTAL DEPTH DRILLER
TDL .F                      6108.0000:   TOTAL DEPTH LOGGER
BOTL.F                      6106.0000:   BOTTOM DEPTH LOGGED
TOPL.F                      4594.0000:   TOP DEPTH LOGGED
CS1 .IN                       13.3750:   CASING SIZE 1
BS1 .IN                       12.2500:   BIT SIZE 1
DDB1.F                      6111.0000:   DEPTH DRILLED BIT 1
BHF .                              80:   FLUID CODE
DPT .                      Salt Water:   DRILLING FLUID TYPE
MUDD.                         12.7000:   FLUID DENSITY
MUDV.                         58.0000:   FLUID VISCOSITY
DFPH.                          9.5000:   FLUID PH
FL  .                          4.8000:   FLUID LOSS
RM  .OHMM                       .7700:   RM
RMT .DEGF                     64.0000:   RM TEMP
RMF .OHMM                       .4900:   RMF
RMFT.DEGF                     64.0000:   RMF TEMP
FSC .                               M:   RMF CODE
RMC .OHMM                      1.0900:   RMC
RMCT.DEGF                     64.0000:   RMC TEMP
CMC .                               M:   RMC CODE
TMAX.DEGF                    138.0000:   MAX REC TEMP
TIMC.                          7.5000:   TIME SINCE CIRCLN
~Curve Information Block
#MNEM.UNIT                    API CODE    No Description
#=========                    ========    == ===========
DEPT.F                   00 001 00 00:     1  DEPTH
NPHI.DEC                              :     2  Neutron Porosity
DT.US/F                              :     3  Sonic Transit Time
GR.GAPI                              :     4  Gamma Ray
ILD.OHMM                             :     5  Deep Induction Resistivity
ILM.OHMM                             :     6  Medium Induction Resistivity
SFL.OHMM                             :     7  Medium Resistivity
SP.MV                                :     8  Spontaneous Potential
CALI.IN                              :     9  Caliper
DPHI.DEC                              :    10  Porosity
DRHO.G/C3                            :    11  Bulk Density Correction
GR.GAPI                              :    12  Gamma Ray
~ASCII
# ...
 5101.5000      .4250   107.5975  -999.2500      .4340      .5121      .7087   -93.7417    12.6457      .2955     -.0275    41.4523
 5102.0000      .4217   107.6058  -999.2500      .4351      .5132      .6904   -92.9082    12.6494      .2996     -.0255    40.7784
 5102.5000      .4039   107.4205  -999.2500      .4360      .5209      .6787   -91.5656    12.6164      .2998     -.0235    40.7205
 5103.0000      .3889   107.0464  -999.2500      .4392      .5293      .6819   -89.9255    12.5806      .2906     -.0191    41.4070
 5103.5000      .3823   106.4109  -999.2500      .4429      .5393      .6988   -88.8138    12.5665      .2753     -.0114    42.3592
 5104.0000      .3776   105.6163  -999.2500      .4528      .5502      .7298   -88.2428    12.5667      .2636     -.0100    43.6814
 5104.5000      .3704   105.0592  -999.2500      .4659      .5641      .7583   -88.4185    12.5730      .2586     -.0134    45.1740
 5105.0000      .3604   106.0294  -999.2500      .4835      .5814      .7853   -88.7567    12.5711      .2606     -.0179    46.4698
 5105.5000      .3567   107.0526  -999.2500      .5119      .6012      .7991   -89.1434    12.5507      .2675     -.0241    45.8798
 5106.0000      .3543   107.4905  -999.2500      .5473      .6270      .8062   -88.8021    12.4918      .2780     -.0290    45.3896
 5106.5000      .3544   106.1156  -999.2500      .5891      .6564      .8090   -85.7612    12.3516      .2863     -.0317    45.2921
 5107.0000      .3511   103.9928  -999.2500      .6291      .6894      .8300   -82.2675    12.1923      .2868     -.0266    46.8737
 5107.5000      .3400   102.6749  -999.2500      .6765      .7270      .8857   -78.8795    12.0746      .2677     -.0130    49.6284
 5108.0000      .3282   101.1647  -999.2500      .7222      .7654      .9646   -76.6254    12.0490      .2535      .0027    52.3072
 5108.5000      .3153    99.1886  -999.2500      .7657      .8032     1.0059   -76.9312    12.1380      .2270      .0116    53.0831
 5109.0000      .3061    98.5679  -999.2500      .8079      .8397     1.0249   -77.9496    12.2431      .2178      .0137    52.5406
 5109.5000      .3117    99.3069  -999.2500      .8464      .8755     1.0359   -78.7241    12.3070      .2156      .0123    51.8062
 5110.0000      .3165   100.9403  -999.2500      .8840      .9110     1.0488   -79.3936    12.3140      .2135      .0098    51.7680
 5110.5000      .3237   102.1375  -999.2500      .9201      .9452     1.0700   -79.9912    12.3041      .2085      .0052    51.7664
 5111.0000      .3194   102.2638  -999.2500      .9597      .9788     1.0711   -80.2775    12.2983      .2075      .0030    51.3961
 5111.5000      .3149   101.2609  -999.2500     1.0057     1.0187     1.0739   -78.9335    12.3091      .2194      .0008    50.5524
 5112.0000      .3106    99.9072  -999.2500     1.0590     1.0555     1.1131   -76.1278    12.3324      .2362     -.0046    49.8435
 5112.5000      .3073    98.6855  -999.2500     1.0953     1.0870     1.1950   -73.5062    12.3581      .2562     -.0129    48.6787
 5113.0000      .3051    98.1715  -999.2500     1.1125     1.1056     1.2490   -70.8762    12.5279      .3035     -.0253    47.4496
 5113.5000      .3103   101.2633  -999.2500     1.1191     1.1230     1.2805   -69.0028    13.3078      .3659     -.0322    46.2377
 5114.0000      .3405   106.4412  -999.2500     1.1164     1.0777     1.2714   -67.5532    14.4371      .4021     -.0278    45.5796
 5114.5000      .3714   110.6746  -999.2500     1.0933     1.0443     1.1957   -66.3838    16.8664      .3915     -.0206    47.2143
 5115.0000      .4012   112.1798  -999.2500     1.0565     1.0222     1.0675   -65.4417    17.8644      .3699     -.0155    48.7045
 5115.5000      .4310   113.1302  -999.2500     1.0233      .9985      .9728   -64.7881    17.4960      .3588     -.0128    47.5734
 5116.0000      .4761   115.0042  -999.2500      .9907      .9714      .9246   -64.2340    17.2314      .3657     -.0162    46.3081
 5116.5000      .4987   115.8191  -999.2500      .9710      .9456      .8919   -63.8314    17.4159      .3870     -.0211    45.9849
 5117.0000      .5049   113.6309  -999.2500      .9613      .9420      .8803   -63.4337    17.9673      .3999     -.0247    46.3541
 5117.5000      .4953   109.9004  -999.2500      .9655      .9517      .8836   -63.0505    18.1874      .3815     -.0260    46.8271
 5118.0000      .4819   107.2141  -999.2500      .9836      .9685      .9216   -62.6537    17.8757      .3513     -.0172    47.5427
 5118.5000      .4555   105.9727  -999.2500     1.0018      .9875      .9690   -62.2375    17.1537      .3226     -.0056    49.1848
 5119.0000      .4285   105.9159  -999.2500     1.0200     1.0036     1.0118   -61.9055    16.5517      .2803     -.0008    51.4911
 5119.5000      .4169   106.1571  -999.2500     1.0208     1.0237     1.0495   -61.7762    16.0439      .2577      .0029    50.8098
 5120.0000      .4256   107.1118  -999.2500     1.0112     1.0350     1.0779   -61.6484    15.8529      .2698      .0035    49.2412
 5120.5000      .4620   109.0917  -999.2500      .9913     1.0286     1.0469   -61.7219    15.8319      .3249     -.0068    46.6457
 5121.0000      .4780   112.0159  -999.2500      .9734     1.0091     1.0136   -61.7955    16.0811      .3572     -.0179    46.3342
 5121.5000      .4802   115.6871  -999.2500      .9569      .9865      .9817   -61.8196    16.4483      .3869     -.0250    46.7235
 5122.0000      .4742   120.2435  -999.2500      .9447      .9625      .9675   -61.8106    16.8108      .3792     -.0284    48.6848
 5122.5000      .4673   117.5659  -999.2500      .9376      .9479      .9556   -61.7477    17.0336      .3413     -.0161    50.7435
 5123.0000      .4624   113.5421  -999.2500      .9424      .9361      .9464   -61.5663    16.7654      .3345     -.0102    51.6110
 5123.5000      .4583   114.7527  -999.2500      .9541      .9312      .9354   -61.3850    15.8400      .3294     -.0139    51.3303
 5124.0000      .4555   115.3593  -999.2500      .9808      .9400      .9277   -61.1552    15.1533      .3161     -.0160    50.9069
 5124.5000      .4560   109.9965  -999.2500     1.0150      .9767      .9273   -60.9152    15.0690      .2976     -.0161    50.6054
 5125.0000      .4567   101.3965  -999.2500     1.0557     1.0446      .9477   -60.6926    15.9684      .2829     -.0139    50.2877
 5125.5000      .4399    92.9691  -999.2500     1.0945     1.1218     1.0042   -60.5847    16.4258      .2774     -.0099    48.7461
 5126.0000      .4078    89.2017  -999.2500     1.1061     1.1892     1.1425   -60.4767    16.0483      .2784     -.0058    46.0330
 5126.5000      .3593    92.0741  -999.2500     1.1032     1.2284     1.3223   -60.3953    15.5081      .2794     -.0017    43.1459
 5127.0000      .3376    96.9929  -999.2500     1.0945     1.2252     1.4857   -60.3220    14.8195      .2994      .0030    43.6863
 5127.5000      .3700   102.0770  -999.2500     1.0696     1.1618     1.4363   -60.0844    15.0459      .3233     -.0076    45.4570
 5128.0000      .4545   106.6334  -999.2500     1.0401     1.0840     1.2528   -59.8157    16.3547      .3601     -.0329    46.6727
 5128.5000      .4965   111.5079  -999.2500     1.0092     1.0262      .9337   -59.4868    17.0309      .4079     -.0554    46.2916
 5129.0000      .5237   114.8760  -999.2500      .9788      .9922      .8259   -59.1333    17.2464      .4429     -.0729    45.2316
 5129.5000      .5105   116.4435  -999.2500      .9385      .9702      .8051   -58.9406    17.3325      .4543     -.0821    45.6225
 5130.0000      .4897   116.0365  -999.2500      .8955      .9510      .8298   -58.9330    17.2827      .4205     -.0708    48.8735
 5130.5000      .4527   115.8840  -999.2500      .8581      .9244      .8566   -59.1996    16.2365      .3797     -.0524    52.5376
 5131.0000      .4358   116.3107  -999.2500      .8275      .8976      .8708   -59.2986    15.8476      .3489     -.0330    56.4406
 5131.5000      .4274   116.7233  -999.2500      .8132      .8799      .8753   -59.2669    15.6268      .3158     -.0228    58.1979
