~VERSION INFORMATION
VERS.                             2.0:   CWLS Log ASCII Standard-VERSION 2.0
WRAP.                              NO:   One line per depth step
~Well Information Block
STRT.F                       374.0000:   Top Depth
STOP.F                      6106.0000:   Bottom Depth
STEP.F                         .50000:   Depth Increment
NULL.                        -999.250:   Null Value
FLD .                    MU BLK A 139:   Field Name
WELL.       OCSG06030   002 ST00 BP00:   NAME
API .                    427124009600:   WELL API
EDF .F                       103.0000:   ELEV DRILL FLOOR
COMP.       CITIES SERVICE OIL AND GA:   OPERATOR
BN  .                           A 139:   BLOCK
CTRY.                             USA:   COUNTRY NAME
CNTY.                        M I E AD:   COUNTY NAME
EKB .F                       104.0000:   ELEV KELLY BUSHING
TDD .F                       6111.000:   FINAL TD DRILLER
STAT.                           TEXAS:   STATE NAME
UWI .                    427124009600:   WELL API
DICO.               IHS : Digitizing Company
~PARAMETER INFORMATION (zones)
#MNEM.UNIT                       Value     Description
#=========                       =====     ===========
#ZONATION                          CNL:   ZONATION NAME
#ZONE                            RUN_2:   ZONE NAME
TOP .                       4521.0000:   TOP DEPTH
BOT .                       6106.5000:   BOTTOM DEPTH
RUN .                               2:   RUN NUMBER
LCCD.                             440:   LOGGING CONTRACTOR
SRVC.                    Schlumberger:   LOGGING CONT NAME
DICO.          QC Data Collectors Ltd:   DIG COMPANY NAME
LDAT.                      01/11/1988:   DATE LOGGED
ELD .F                       104.0000:   LOG DATUM ELEVATION
TDD .F                      4594.0000:   TOTAL DEPTH DRILLER
TDL .F                      2007.0000:   TOTAL DEPTH LOGGER
BOTL.F                      1998.0000:   BOTTOM DEPTH LOGGED
TOPL.F                      1006.0000:   TOP DEPTH LOGGED
CS1 .IN                       20.0000:   CASING SIZE 1
BS1 .IN                       17.5000:   BIT SIZE 1
DDB1.F                      4594.0000:   DEPTH DRILLED BIT 1
BHF .                              80:   FLUID CODE
DPT .                      Salt Water:   DRILLING FLUID TYPE
MUDD.                          9.3000:   FLUID DENSITY
MUDV.                         52.0000:   FLUID VISCOSITY
DFPH.                          8.0000:   FLUID PH
FL  .                         16.8000:   FLUID LOSS
RM  .OHMM                       .3600:   RM
RMT .DEGF                     53.0000:   RM TEMP
RMF .OHMM                       .3200:   RMF
RMFT.DEGF                     52.0000:   RMF TEMP
FSC .                               M:   RMF CODE
RMC .OHMM                       .5700:   RMC
RMCT.DEGF                     53.0000:   RMC TEMP
TMAX.DEGF                    100.0000:   MAX REC TEMP
TIMC.                          2.5000:   TIME SINCE CIRCLN
~PARAMETER INFORMATION (zones)
#MNEM.UNIT                       Value     Description
#=========                       =====     ===========
#ZONATION                          DIL:   ZONATION NAME
#ZONE                            RUN_1:   ZONE NAME
TOP .                        374.0000:   TOP DEPTH
BOT .                       6106.5000:   BOTTOM DEPTH
RUN .                               1:   RUN NUMBER
LCCD.                             440:   LOGGING CONTRACTOR
SRVC.                    Schlumberger:   LOGGING CONT NAME
DICO.          QC Data Collectors Ltd:   DIG COMPANY NAME
LDAT.                      01/06/1988:   DATE LOGGED
ELD .F                       104.0000:   LOG DATUM ELEVATION
TDD .F                      1005.0000:   TOTAL DEPTH DRILLER
TDL .F                      1004.0000:   TOTAL DEPTH LOGGER
BOTL.F                       998.0000:   BOTTOM DEPTH LOGGED
TOPL.F                       400.0000:   TOP DEPTH LOGGED
CS1 .IN                       30.0000:   CASING SIZE 1
BS1 .IN                       16.0000:   BIT SIZE 1
DDB1.F                      1005.0000:   DEPTH DRILLED BIT 1
BHF .                              80:   FLUID CODE
DPT .                      Salt Water:   DRILLING FLUID TYPE
MUDD.                          9.1000:   FLUID DENSITY
MUDV.                         34.0000:   FLUID VISCOSITY
DFPH.                          8.0000:   FLUID PH
RM  .OHMM                       .3900:   RM
RMT .DEGF                     76.0000:   RM TEMP
RMF .OHMM                       .3300:   RMF
RMFT.DEGF                     76.0000:   RMF TEMP
FSC .                               M:   RMF CODE
RMC .OHMM                       .3300:   RMC
RMCT.DEGF                     76.0000:   RMC TEMP
CMC .                               M:   RMC CODE
TMAX.DEGF                     86.0000:   MAX REC TEMP
TIMC.                          1.7500:   TIME SINCE CIRCLN
~PARAMETER INFORMATION (zones)
#MNEM.UNIT                       Value     Description
#=========                       =====     ===========
#ZONATION                          LDT:   ZONATION NAME
#ZONE                            RUN_3:   ZONE NAME
TOP .                       4521.0000:   TOP DEPTH
BOT .                       6106.5000:   BOTTOM DEPTH
RUN .                               3:   RUN NUMBER
LCCD.                             440:   LOGGING CONTRACTOR
SRVC.                    Schlumberger:   LOGGING CONT NAME
DICO.          QC Data Collectors Ltd:   DIG COMPANY NAME
LDAT.                      01/23/1988:   DATE LOGGED
ELD .F                       104.0000:   LOG DATUM ELEVATION
TDD .F                      6111.0000:   TOTAL DEPTH DRILLER
TDL .F                      6108.0000:   TOTAL DEPTH LOGGER
BOTL.F                      6106.0000:   BOTTOM DEPTH LOGGED
TOPL.F                      4594.0000:   TOP DEPTH LOGGED
CS1 .IN                       13.3750:   CASING SIZE 1
BS1 .IN                       12.2500:   BIT SIZE 1
DDB1.F                      6111.0000:   DEPTH DRILLED BIT 1
BHF .                              80:   FLUID CODE
DPT .                      Salt Water:   DRILLING FLUID TYPE
MUDD.                         12.7000:   FLUID DENSITY
MUDV.                         58.0000:   FLUID VISCOSITY
DFPH.                          9.5000:   FLUID PH
FL  .                          4.8000:   FLUID LOSS
RM  .OHMM                       .7700:   RM
RMT .DEGF                     64.0000:   RM TEMP
RMF .OHMM                       .4900:   RMF
RMFT.DEGF                     64.0000:   RMF TEMP
FSC .                               M:   RMF CODE
RMC .OHMM                      1.0900:   RMC
RMCT.DEGF                     64.0000:   RMC TEMP
CMC .                               M:   RMC CODE
TMAX.DEGF                    138.0000:   MAX REC TEMP
TIMC.                          7.5000:   TIME SINCE CIRCLN
~Curve Information Block
#MNEM.UNIT                    API CODE    No Description
#=========                    ========    == ===========
DEPT.F                   00 001 00 00:     1  DEPTH
NPHI.DEC                              :     2  Neutron Porosity
DT.US/F                              :     3  Sonic Transit Time
GR.GAPI                              :     4  Gamma Ray
ILD.OHMM                             :     5  Deep Induction Resistivity
ILM.OHMM                             :     6  Medium Induction Resistivity
SFL.OHMM                             :     7  Medium Resistivity
SP.MV                                :     8  Spontaneous Potential
CALI.IN                              :     9  Caliper
DPHI.DEC                              :    10  Porosity
DRHO.G/C3                            :    11  Bulk Density Correction
GR.GAPI                              :    12  Gamma Ray
~ASCII
# ...
 6077.5000      .4550  -999.2500  -999.2500      .5898      .5929      .6535   -42.2383    21.0797      .3233     -.0028    63.9372
 6078.0000      .4416  -999.2500  -999.2500      .5900      .5883      .6523   -42.3651    21.5877      .3069     -.0044    69.0352
 6078.5000      .4194  -999.2500  -999.2500      .5908      .5864      .6256   -42.5105    21.8516      .2830     -.0053    71.6021
 6079.0000      .4293  -999.2500  -999.2500      .5957      .5851      .6035   -42.6935    21.5833      .2771     -.0056    74.0835
 6079.5000      .4371  -999.2500  -999.2500      .6007      .5890      .5936   -42.8518    21.2238      .2789     -.0042    74.1982
 6080.0000      .4366  -999.2500  -999.2500      .6075      .5930      .5947   -42.8096    20.4017      .2811     -.0020    73.3752
 6080.5000      .4030  -999.2500  -999.2500      .6153      .6006      .6038   -42.4553    20.0897      .2778      .0000    73.5248
 6081.0000      .3657  -999.2500  -999.2500      .6224      .6079      .6209   -42.7908    20.0217      .2687      .0009    73.9099
 6081.5000      .3487  -999.2500  -999.2500      .6285      .6144      .6453   -43.3564    20.4579      .2660      .0012    73.9404
 6082.0000      .3614  -999.2500  -999.2500      .6337      .6160      .6876   -43.5981    20.8447      .2710      .0017    73.8282
 6082.5000      .4071  -999.2500  -999.2500      .6370      .6166      .7268   -43.7107    20.5971      .2908      .0023    73.6940
 6083.0000      .4471  -999.2500  -999.2500      .6348      .6139      .6989   -43.5612    20.3919      .3076      .0031    73.2518
 6083.5000      .4640  -999.2500  -999.2500      .6307      .6112      .6682   -43.3625    20.4637      .3150      .0041    72.4935
 6084.0000      .4622  -999.2500  -999.2500      .6244      .6063      .6537   -43.1454    20.8608      .3163      .0053    70.7045
 6084.5000      .4382  -999.2500  -999.2500      .6155      .6008      .6432   -43.0085    21.3259      .3123      .0060    69.3466
 6085.0000      .4280  -999.2500  -999.2500      .6074      .5965      .6265   -42.9281    21.6136      .3040      .0067    68.4075
 6085.5000      .4272  -999.2500  -999.2500      .6011      .5925      .6094   -42.8774    21.9509      .2993      .0076    67.9086
 6086.0000      .4403  -999.2500  -999.2500      .5973      .5946      .6054   -42.8999    22.1509      .2977      .0085    67.5148
 6086.5000      .4728  -999.2500  -999.2500      .5947      .5969      .6285   -42.9224    22.3837      .3050      .0093  -999.2500
 6087.0000      .4921  -999.2500  -999.2500      .5917      .6003      .6486   -42.8948    22.3815      .3223      .0071  -999.2500
 6087.5000      .4978  -999.2500  -999.2500      .5901      .6004      .6507   -42.8599    22.4574      .3476      .0003  -999.2500
 6088.0000      .5017  -999.2500  -999.2500      .5888      .5974      .6429   -42.8169    22.5515      .3794     -.0067  -999.2500
 6088.5000      .5226  -999.2500  -999.2500      .5850      .5929      .6331   -42.7155    22.6116      .3870     -.0139  -999.2500
 6089.0000      .5306  -999.2500  -999.2500      .5803      .5862      .6237   -42.6141    22.6426      .3930     -.0211  -999.2500
 6089.5000      .5215  -999.2500  -999.2500      .5717      .5816      .6164   -42.5369    22.6567      .4050     -.0272  -999.2500
 6090.0000      .5017  -999.2500  -999.2500      .5654      .5821      .6112   -42.4773    22.6277      .4148     -.0327  -999.2500
 6090.5000      .4848  -999.2500  -999.2500      .5620      .5846      .6085   -42.4178    22.5364      .4162     -.0374  -999.2500
 6091.0000      .4751  -999.2500  -999.2500      .5613      .5877      .6098   -42.3857    22.2975      .3930     -.0254  -999.2500
 6091.5000      .4686  -999.2500  -999.2500      .5654      .5900      .6128   -42.4557    22.1339      .3605     -.0132  -999.2500
 6092.0000      .4757  -999.2500  -999.2500      .5715      .5896      .6139   -42.5258    22.1555      .3274     -.0037  -999.2500
 6092.5000      .4835  -999.2500  -999.2500      .5765      .5892      .6069   -42.5957    22.3073      .3192     -.0006  -999.2500
 6093.0000      .4846  -999.2500  -999.2500      .5807      .5893      .6149   -42.7958    22.3750      .3147     -.0020  -999.2500
 6093.5000      .4816  -999.2500  -999.2500      .5838      .5903      .6422   -43.0113    22.3844      .3119     -.0004  -999.2500
 6094.0000      .4778  -999.2500  -999.2500      .5865      .5912      .6533   -43.2264    22.3715      .3104      .0045  -999.2500
 6094.5000      .4766  -999.2500  -999.2500      .5876      .5917      .6361   -43.4296    22.3512      .3103      .0089  -999.2500
 6095.0000      .4762  -999.2500  -999.2500      .5888      .5921      .6279   -43.6329    22.3148      .3111      .0097  -999.2500
 6095.5000      .4760  -999.2500  -999.2500      .5891      .5924      .6308   -43.8430    22.2073      .3139      .0085  -999.2500
 6096.0000      .4759  -999.2500  -999.2500      .5880      .5904      .6259   -44.0612    22.0378      .3280      .0053  -999.2500
 6096.5000      .4761  -999.2500  -999.2500      .5868      .5884      .6154   -44.2798    21.9934      .3351      .0019  -999.2500
 6097.0000      .4770  -999.2500  -999.2500      .5859      .5870      .6090   -44.4982    21.9490      .3346     -.0008  -999.2500
 6097.5000      .4780  -999.2500  -999.2500      .5852      .5862      .6141   -44.7167    21.8378      .3291     -.0011  -999.2500
 6098.0000      .4793  -999.2500  -999.2500      .5844      .5855      .6207   -44.8443    21.3689      .3141     -.0009  -999.2500
 6098.5000      .4806  -999.2500  -999.2500      .5827      .5858      .6126   -44.8324    20.9996      .2986      .0001  -999.2500
 6099.0000      .4820  -999.2500  -999.2500      .5803      .5863      .6033   -44.8396    20.7108      .2982      .0014  -999.2500
 6099.5000      .4831  -999.2500  -999.2500      .5781      .5873      .6070   -45.0172    20.6082      .3003      .0027  -999.2500
 6100.0000      .4826  -999.2500  -999.2500      .5751      .5904      .6101   -45.1945  -999.2500      .3006      .0042  -999.2500
 6100.5000      .4813  -999.2500  -999.2500      .5722      .5934      .6016   -45.3718  -999.2500      .2967      .0061  -999.2500
 6101.0000      .4808  -999.2500  -999.2500      .5697      .5982      .5842   -45.5492  -999.2500      .2884      .0082  -999.2500
 6101.5000      .4872  -999.2500  -999.2500      .5700      .6038      .5790   -45.6804    19.0523      .2845      .0086  -999.2500
 6102.0000      .5024  -999.2500  -999.2500      .5704      .6082      .5956   -45.7693    17.1563      .2915      .0070  -999.2500
 6102.5000      .5133  -999.2500  -999.2500      .5708      .6118      .6310   -45.8651    14.9015      .3027      .0053  -999.2500
 6103.0000      .5200  -999.2500  -999.2500      .5712      .6153      .6569   -45.9999    12.6272      .3128      .0032  -999.2500
 6103.5000      .5261  -999.2500  -999.2500      .5716      .6186      .6590   -46.1348    11.6615      .3208      .0006  -999.2500
 6104.0000      .5297  -999.2500  -999.2500      .5714      .6204      .6490   -46.1342    11.0555      .3305     -.0032  -999.2500
 6104.5000      .5317  -999.2500  -999.2500      .5707      .6202      .6350   -46.0739    10.9410      .3563     -.0086  -999.2500
 6105.0000      .5307  -999.2500  -999.2500      .5702      .6186      .6245   -46.0117    11.7426      .3813     -.0159  -999.2500
 6105.5000      .5252  -999.2500  -999.2500      .5705      .6161      .6252   -45.9454    11.9714      .3957     -.0261  -999.2500
 6106.0000      .5219  -999.2500  -999.2500      .5711      .6152      .6269   -45.8792    12.7390      .4013     -.0326  -999.2500
