~VERSION INFORMATION
VERS.                             2.0:   CWLS Log ASCII Standard-VERSION 2.0
WRAP.                              NO:   One line per depth step
~Well Information Block
STRT.F                      5785.0000:   Top Depth
STOP.F                     10595.0000:   Bottom Depth
STEP.F                         .50000:   Depth Increment
NULL.                        -999.250:   Null Value
FLD .                    MU BLK A 153:   Field Name
WELL.       OCSG14788   001 ST00 BP00:   NAME
API .                    427124011300:   WELL API
R1  .                           45310:   COMMENT  1
R2  .                           45310:   COMMENT  2
EDF .F                        95.0000:   ELEV DRILL FLOOR
COMP.         WALTER OIL AND GAS CORP:   OPERATOR
BN  .                           A 153:   BLOCK
CTRY.                             USA:   COUNTRY NAME
CNTY.                        M I E AD:   COUNTY NAME
TDD .F                      10613.000:   FINAL TD DRILLER
STAT.                           TEXAS:   STATE NAME
UWI .                    427124011300:   WELL API
DICO.               IHS : Digitizing Company
~PARAMETER INFORMATION (zones)
#MNEM.UNIT                       Value     Description
#=========                       =====     ===========
#ZONATION                          CNL:   ZONATION NAME
#ZONE                            RUN_2:   ZONE NAME
TOP .                       9494.0000:   TOP DEPTH
BOT .                      10469.5000:   BOTTOM DEPTH
RUN .                               2:   RUN NUMBER
LCCD.                             340:   LOGGING CONTRACTOR
SRVC.                   PAN GEO ATLAS:   LOGGING CONT NAME
DICO.          QC Data Collectors Ltd:   DIG COMPANY NAME
LDAT.                      07/01/1996:   DATE LOGGED
TDD .F                     10500.0000:   TOTAL DEPTH DRILLER
TDL .F                     10504.0000:   TOTAL DEPTH LOGGER
BOTL.F                     10500.0000:   BOTTOM DEPTH LOGGED
TOPL.F                      9350.0000:   TOP DEPTH LOGGED
CS1 .IN                        9.6250:   CASING SIZE 1
BS1 .IN                        8.5000:   BIT SIZE 1
DDB1.F                     10500.0000:   DEPTH DRILLED BIT 1
BHF .                              60:   FLUID CODE
DPT .                        Oil Base:   DRILLING FLUID TYPE
MUDD.                         16.5000:   FLUID DENSITY
MUDV.                         57.0000:   FLUID VISCOSITY
FL  .                          5.4000:   FLUID LOSS
TMAX.DEGF                    238.0000:   MAX REC TEMP
TIMC.                          6.0000:   TIME SINCE CIRCLN
~PARAMETER INFORMATION (zones)
#MNEM.UNIT                       Value     Description
#=========                       =====     ===========
#ZONATION                          DIL:   ZONATION NAME
#ZONE                            RUN_2:   ZONE NAME
TOP .                       9494.0000:   TOP DEPTH
BOT .                      10469.5000:   BOTTOM DEPTH
RUN .                               2:   RUN NUMBER
LCCD.                             340:   LOGGING CONTRACTOR
SRVC.                   PAN GEO ATLAS:   LOGGING CONT NAME
DICO.          QC Data Collectors Ltd:   DIG COMPANY NAME
LDAT.                      07/01/1996:   DATE LOGGED
TDD .F                     10500.0000:   TOTAL DEPTH DRILLER
TDL .F                     10504.0000:   TOTAL DEPTH LOGGER
BOTL.F                     10500.0000:   BOTTOM DEPTH LOGGED
TOPL.F                      9350.0000:   TOP DEPTH LOGGED
CS1 .IN                        9.6250:   CASING SIZE 1
BS1 .IN                        8.5000:   BIT SIZE 1
DDB1.F                     10500.0000:   DEPTH DRILLED BIT 1
BHF .                              60:   FLUID CODE
DPT .                        Oil Base:   DRILLING FLUID TYPE
MUDD.                         16.5000:   FLUID DENSITY
MUDV.                         57.0000:   FLUID VISCOSITY
FL  .                          5.4000:   FLUID LOSS
TMAX.DEGF                    238.0000:   MAX REC TEMP
TIMC.                          6.0000:   TIME SINCE CIRCLN
~PARAMETER INFORMATION (zones)
#MNEM.UNIT                       Value     Description
#=========                       =====     ===========
#ZONATION                          DIL:   ZONATION NAME
#ZONE                            RUN_1:   ZONE NAME
TOP .                       5785.0000:   TOP DEPTH
BOT .                       9493.5000:   BOTTOM DEPTH
RUN .                               1:   RUN NUMBER
LCCD.                             340:   LOGGING CONTRACTOR
SRVC.                   PAN GEO ATLAS:   LOGGING CONT NAME
DICO.          QC Data Collectors Ltd:   DIG COMPANY NAME
LDAT.                      06/23/1996:   DATE LOGGED
TDD .F                      9520.0000:   TOTAL DEPTH DRILLER
TDL .F                      9517.0000:   TOTAL DEPTH LOGGER
BOTL.F                      9515.0000:   BOTTOM DEPTH LOGGED
TOPL.F                      5800.0000:   TOP DEPTH LOGGED
CS1 .IN                       13.3750:   CASING SIZE 1
BS1 .IN                       12.2500:   BIT SIZE 1
DDB1.F                      9520.0000:   DEPTH DRILLED BIT 1
BHF .                              60:   FLUID CODE
DPT .                        Oil Base:   DRILLING FLUID TYPE
MUDD.                         14.8000:   FLUID DENSITY
MUDV.                         56.0000:   FLUID VISCOSITY
FL  .                          6.8000:   FLUID LOSS
TMAX.DEGF                    171.0000:   MAX REC TEMP
TIMC.                          6.0000:   TIME SINCE CIRCLN
~PARAMETER INFORMATION (zones)
#MNEM.UNIT                       Value     Description
#=========                       =====     ===========
#ZONATION                          DIL:   ZONATION NAME
#ZONE                            RUN_3:   ZONE NAME
TOP .                      10469.0000:   TOP DEPTH
BOT .                      10595.5000:   BOTTOM DEPTH
RUN .                               3:   RUN NUMBER
LCCD.                             340:   LOGGING CONTRACTOR
SRVC.                   PAN GEO ATLAS:   LOGGING CONT NAME
DICO.          QC Data Collectors Ltd:   DIG COMPANY NAME
LDAT.                      07/04/1996:   DATE LOGGED
TDD .F                     10613.0000:   TOTAL DEPTH DRILLER
TDL .F                     10596.0000:   TOTAL DEPTH LOGGER
BOTL.F                     10596.0000:   BOTTOM DEPTH LOGGED
TOPL.F                     10000.0000:   TOP DEPTH LOGGED
CS1 .IN                        9.6250:   CASING SIZE 1
BS1 .IN                        8.5000:   BIT SIZE 1
DDB1.F                     10613.0000:   DEPTH DRILLED BIT 1
BHF .                              60:   FLUID CODE
DPT .                        Oil Base:   DRILLING FLUID TYPE
MUDD.                         16.9000:   FLUID DENSITY
MUDV.                         55.0000:   FLUID VISCOSITY
FL  .                          5.0000:   FLUID LOSS
TMAX.DEGF                    240.0000:   MAX REC TEMP
TIMC.                         10.0000:   TIME SINCE CIRCLN
~PARAMETER INFORMATION (zones)
#MNEM.UNIT                       Value     Description
#=========                       =====     ===========
#ZONATION                          FDC:   ZONATION NAME
#ZONE                            RUN_2:   ZONE NAME
TOP .                       9494.0000:   TOP DEPTH
BOT .                      10469.5000:   BOTTOM DEPTH
RUN .                               2:   RUN NUMBER
LCCD.                             340:   LOGGING CONTRACTOR
SRVC.                   PAN GEO ATLAS:   LOGGING CONT NAME
DICO.          QC Data Collectors Ltd:   DIG COMPANY NAME
LDAT.                      07/01/1996:   DATE LOGGED
TDD .F                     10500.0000:   TOTAL DEPTH DRILLER
TDL .F                     10504.0000:   TOTAL DEPTH LOGGER
BOTL.F                     10500.0000:   BOTTOM DEPTH LOGGED
TOPL.F                      9350.0000:   TOP DEPTH LOGGED
CS1 .IN                        9.6250:   CASING SIZE 1
BS1 .IN                        8.5000:   BIT SIZE 1
DDB1.F                     10500.0000:   DEPTH DRILLED BIT 1
BHF .                              60:   FLUID CODE
DPT .                        Oil Base:   DRILLING FLUID TYPE
MUDD.                         16.5000:   FLUID DENSITY
MUDV.                         57.0000:   FLUID VISCOSITY
FL  .                          5.4000:   FLUID LOSS
TMAX.DEGF                    238.0000:   MAX REC TEMP
TIMC.                          6.0000:   TIME SINCE CIRCLN
~Curve Information Block
#MNEM.UNIT                    API CODE    No Description
#=========                    ========    == ===========
DEPT.F                   00 001 00 00:     1  DEPTH
CNCF.%                               :     2  Neutron Porosity
CAL.IN                               :     3  Caliper
CILD.MMHO                            :     4  Deep Induction Conductivity
GR.GAPI                              :     5  Gamma Ray
RILD.OHMM                            :     6  Deep Resistivity
RILM.OHMM                            :     7  Medium Resistivity
RWA.OHMM                             :     8  Apparent Water Resistivity
TEN.LB                               :     9  Cable Tension
PORZ.%                               :    10  Porosity
ZCOR.G/C3                            :    11  Density Correction
ZDEN.G/C3                            :    12  Bulk Density
~ASCII
# ...
 9750.0000    36.7723    10.0091  1676.9199    71.8970      .6030      .6051      .0177   -80.0000    15.5567      .0008     2.4010
 9750.5000    36.0928     9.9800  1699.0410    72.0203      .6073      .6038      .0172   -80.0000    15.2268     -.0011     2.4030
 9751.0000    35.0010     9.9800  1714.9375    72.7211      .6025      .6026      .0165   -80.0000    15.0059      .0031     2.3980
 9751.5000    34.3863     9.9800  1728.4707    73.5203      .5938      .5970      .0165   -80.0000    15.1421      .0057     2.3910
 9752.0000    34.5620     9.9800  1748.4766    74.2609      .5846      .5894      .0173   -80.0000    15.4725      .0053     2.3860
 9752.5000    35.5482     9.9800  1777.9336    75.8015      .5716      .5820      .0180   -80.0000    15.8579      .0034     2.3810
 9753.0000    36.3204     9.9980  1815.5469    78.5804      .5589      .5756      .0185   -80.0000    16.1812      .0004     2.3770
 9753.5000    37.0927     9.9980  1855.9082    79.5804      .5490      .5692      .0188   -80.0000    16.3907     -.0012     2.3780
 9754.0000    37.4257     9.9800  1891.9004    78.4905      .5404      .5632      .0184   -80.0000    16.5742     -.0020     2.3840
 9754.5000    37.1310     9.9800  1917.8926    75.3892      .5331      .5573      .0177   -80.0000    16.3058     -.0017     2.3870
 9755.0000    36.5499     9.9980  1931.7598    72.6499      .5296      .5515      .0167   -80.0000    16.0060     -.0048     2.3850
 9755.5000    36.1371     9.9800  1937.5117    70.4995      .5261      .5464      .0163   -80.0000    16.0168     -.0077     2.3840
 9756.0000    35.9763    10.0100  1944.9551    71.7170      .5228      .5412      .0152   -80.0000    16.1182     -.0073     2.3840
 9756.5000    35.8575     9.9800  1959.4883    73.4207      .5207      .5371      .0168   -80.0000    16.1190     -.0051     2.3820
 9757.0000    35.9048     9.9800  1974.9355    74.6003      .5187      .5336      .0170   -80.0000    16.1976     -.0022     2.3770
 9757.5000    36.0707     9.9800  1983.6758    76.1003      .5165      .5302      .0170   -75.0000    16.4527     -.0053     2.3730
 9758.0000    36.3663    10.0100  1985.8340    77.3627      .5140      .5272      .0175   -75.0000    16.6719     -.0067     2.3730
 9758.5000    36.7217     9.9965  1984.1152    78.4257      .5115      .5241      .0175   -75.0000    16.7525     -.0078     2.3800
 9759.0000    37.1236     9.9950  1975.4922    78.8899      .5105      .5224      .0175   -70.0000    16.5777     -.0079     2.3920
 9759.5000    37.3200    10.0265  1958.9746    77.6193      .5107      .5208      .0157   -70.0000    16.0800     -.0001     2.3970
 9760.0000    37.1407    10.0223  1941.8691    77.1000      .5110      .5215      .0151   -70.9414    15.5213      .0030     2.3910
 9760.5000    36.8804     9.9800  1931.2578    77.2950      .5122      .5224      .0150   -75.0000    15.5264      .0040     2.3860
 9761.0000    36.5708     9.9950  1927.0195    77.4801      .5142      .5247      .0158   -75.0000    15.9212     -.0007     2.3880
 9761.5000    36.5575     9.9800  1928.2871    77.7701      .5162      .5285      .0163   -80.0000    15.9802     -.0055     2.3950
 9762.0000    37.2307     9.9922  1936.8691    78.7046      .5182      .5321      .0162   -80.0000    15.7412     -.0059     2.4000
 9762.5000    37.5059     9.9800  1953.5508    80.1385      .5196      .5343      .0150   -80.9961    15.3228     -.0016     2.4030
 9763.0000    37.2812     9.9919  1974.7813    79.9396      .5195      .5360      .0145   -85.0000    15.0656      .0131     2.4020
 9763.5000    36.9723     9.9800  1993.2773    79.7000      .5170      .5330      .0145   -85.0000    15.0118      .0185     2.3950
 9764.0000    37.4156    10.0100  2004.6348    80.1780      .5141      .5290      .0145   -90.0000    15.3125      .0165     2.3850
 9764.5000    38.0396    10.0400  2009.7227    81.6638      .5100      .5236      .0153   -90.0000    15.8038      .0083     2.3820
 9765.0000    38.4735    10.0280  2010.6797    83.6049      .5055      .5211      .0160   -90.0000    16.2365      .0034     2.3860
 9765.5000    38.2607     9.9980  2006.8926    85.5649      .5031      .5201      .0160   -90.0000    16.1391      .0000     2.3890
 9766.0000    37.3976    10.0100  1994.2148    85.3063      .5014      .5230      .0157   -90.0000    15.9005      .0016     2.3870
 9766.5000    36.8317     9.9919  1969.4023    82.5734      .5037      .5268      .0158   -90.0000    15.9208      .0038     2.3850
 9767.0000    36.7500    10.0219  1939.3418    82.6342      .5074      .5338      .0160   -90.0000    16.0592      .0024     2.3820
 9767.5000    36.6309    10.0400  1914.5332    84.5950      .5124      .5410      .0163   -75.0000    16.1776     -.0026     2.3780
 9768.0000    36.8825    10.0280  1898.6426    85.5444      .5197      .5484      .0168   -70.0000    16.4140     -.0155     2.3780
 9768.5000    37.5302    10.0100  1887.6953    83.6425      .5271      .5535      .0175   -75.7417    16.5148     -.0224     2.3840
 9769.0000    37.8690     9.9800  1876.8262    80.8701      .5330      .5568      .0175   -80.4771    16.3564     -.0176     2.3860
 9769.5000    37.6039     9.9919  1862.9941    79.7794      .5391      .5579      .0170   -90.0000    16.0974     -.0125     2.3830
 9770.0000    37.6870    10.0100  1846.8164    80.0988      .5452      .5572      .0170   -90.0000    16.0672     -.0099     2.3840
 9770.5000    37.6515     9.9919  1831.2773    81.2677      .5513      .5582      .0175   -85.0000    16.1309     -.0107     2.3910
 9771.0000    37.4731     9.9980  1818.0195    81.8615      .5535      .5606      .0173   -85.0000    15.9243     -.0093     2.3990
 9771.5000    38.0671     9.9800  1807.2129    82.2574      .5558      .5652      .0163   -80.0000    15.5087     -.0046     2.4050
 9772.0000    38.7916    10.0100  1796.6250    84.4368      .5580      .5718      .0158   -80.0000    15.0893     -.0008     2.4070
 9772.5000    39.5049     9.9800  1784.5977    86.0597      .5603      .5778      .0155   -89.9805    14.8214     -.0010     2.4050
 9773.0000    39.3743     9.9800  1770.1250    85.4056      .5625      .5814      .0150   -90.0000    14.7628     -.0010     2.4010
 9773.5000    38.8754     9.9800  1752.1094    82.8113      .5648      .5850      .0150   -85.0391    14.9705      .0016     2.4010
 9774.0000    38.8039    10.0100  1732.6875    81.4054      .5671      .5886      .0157   -85.0000    15.0595      .0079     2.4070
 9774.5000    38.9345     9.9800  1718.1426    80.9108      .5697      .5922      .0158   -80.0391    14.9402      .0170     2.4100
 9775.0000    39.3740     9.9800  1712.0117    82.0598      .5755      .5958      .0150   -70.1167    14.6429      .0214     2.4050
 9775.5000    39.7662     9.9800  1711.1270    82.0393      .5809      .5993      .0152   -55.0972    14.7035      .0154     2.3990
 9776.0000    39.7070     9.9800  1711.7266    81.0886      .5845      .6030      .0162   -54.9023    15.0591      .0077     2.3960
 9776.5000    39.3624     9.9919  1711.7441    80.5148      .5881      .6066      .0167   -59.9214    15.3256      .0002     2.3960
 9777.0000    39.0060     9.9800  1713.4121    79.8595      .5917      .6103      .0170   -69.9414    15.4455     -.0093     2.4000
 9777.5000    38.7090     9.9800  1721.2480    78.0199      .5877      .6140      .0165   -79.9604    15.2976     -.0117     2.4050
 9778.0000    38.4714     9.9800  1737.5625    77.6000      .5832      .6133      .0163   -80.0000    15.0299     -.0091     2.4030
 9778.5000    38.3050     9.9800  1757.0820    77.7999      .5787      .6101      .0158   -80.0000    14.9407     -.0089     2.3930
 9779.0000    38.5305     9.9800  1770.8242    77.6398      .5740      .6053      .0162   -80.0000    15.3240     -.0089     2.3840
 9779.5000    38.7681     9.9800  1775.9902    77.2397      .5697      .5971      .0170   -84.9609    15.8549     -.0099     2.3840
 9780.0000    39.0415     9.9800  1777.2969    77.4601      .5693      .5891      .0177   -89.9829    16.1265     -.0073     2.3870
