~VERSION INFORMATION
VERS.                             2.0:   CWLS Log ASCII Standard-VERSION 2.0
WRAP.                              NO:   One line per depth step
~Well Information Block
STRT.F                      5785.0000:   Top Depth
STOP.F                     10595.0000:   Bottom Depth
STEP.F                         .50000:   Depth Increment
NULL.                        -999.250:   Null Value
FLD .                    MU BLK A 153:   Field Name
WELL.       OCSG14788   001 ST00 BP00:   NAME
API .                    427124011300:   WELL API
R1  .                           45310:   COMMENT  1
R2  .                           45310:   COMMENT  2
EDF .F                        95.0000:   ELEV DRILL FLOOR
COMP.         WALTER OIL AND GAS CORP:   OPERATOR
BN  .                           A 153:   BLOCK
CTRY.                             USA:   COUNTRY NAME
CNTY.                        M I E AD:   COUNTY NAME
TDD .F                      10613.000:   FINAL TD DRILLER
STAT.                           TEXAS:   STATE NAME
UWI .                    427124011300:   WELL API
DICO.               IHS : Digitizing Company
~PARAMETER INFORMATION (zones)
#MNEM.UNIT                       Value     Description
#=========                       =====     ===========
#ZONATION                          CNL:   ZONATION NAME
#ZONE                            RUN_2:   ZONE NAME
TOP .                       9494.0000:   TOP DEPTH
BOT .                      10469.5000:   BOTTOM DEPTH
RUN .                               2:   RUN NUMBER
LCCD.                             340:   LOGGING CONTRACTOR
SRVC.                   PAN GEO ATLAS:   LOGGING CONT NAME
DICO.          QC Data Collectors Ltd:   DIG COMPANY NAME
LDAT.                      07/01/1996:   DATE LOGGED
TDD .F                     10500.0000:   TOTAL DEPTH DRILLER
TDL .F                     10504.0000:   TOTAL DEPTH LOGGER
BOTL.F                     10500.0000:   BOTTOM DEPTH LOGGED
TOPL.F                      9350.0000:   TOP DEPTH LOGGED
CS1 .IN                        9.6250:   CASING SIZE 1
BS1 .IN                        8.5000:   BIT SIZE 1
DDB1.F                     10500.0000:   DEPTH DRILLED BIT 1
BHF .                              60:   FLUID CODE
DPT .                        Oil Base:   DRILLING FLUID TYPE
MUDD.                         16.5000:   FLUID DENSITY
MUDV.                         57.0000:   FLUID VISCOSITY
FL  .                          5.4000:   FLUID LOSS
TMAX.DEGF                    238.0000:   MAX REC TEMP
TIMC.                          6.0000:   TIME SINCE CIRCLN
~PARAMETER INFORMATION (zones)
#MNEM.UNIT                       Value     Description
#=========                       =====     ===========
#ZONATION                          DIL:   ZONATION NAME
#ZONE                            RUN_2:   ZONE NAME
TOP .                       9494.0000:   TOP DEPTH
BOT .                      10469.5000:   BOTTOM DEPTH
RUN .                               2:   RUN NUMBER
LCCD.                             340:   LOGGING CONTRACTOR
SRVC.                   PAN GEO ATLAS:   LOGGING CONT NAME
DICO.          QC Data Collectors Ltd:   DIG COMPANY NAME
LDAT.                      07/01/1996:   DATE LOGGED
TDD .F                     10500.0000:   TOTAL DEPTH DRILLER
TDL .F                     10504.0000:   TOTAL DEPTH LOGGER
BOTL.F                     10500.0000:   BOTTOM DEPTH LOGGED
TOPL.F                      9350.0000:   TOP DEPTH LOGGED
CS1 .IN                        9.6250:   CASING SIZE 1
BS1 .IN                        8.5000:   BIT SIZE 1
DDB1.F                     10500.0000:   DEPTH DRILLED BIT 1
BHF .                              60:   FLUID CODE
DPT .                        Oil Base:   DRILLING FLUID TYPE
MUDD.                         16.5000:   FLUID DENSITY
MUDV.                         57.0000:   FLUID VISCOSITY
FL  .                          5.4000:   FLUID LOSS
TMAX.DEGF                    238.0000:   MAX REC TEMP
TIMC.                          6.0000:   TIME SINCE CIRCLN
~PARAMETER INFORMATION (zones)
#MNEM.UNIT                       Value     Description
#=========                       =====     ===========
#ZONATION                          DIL:   ZONATION NAME
#ZONE                            RUN_1:   ZONE NAME
TOP .                       5785.0000:   TOP DEPTH
BOT .                       9493.5000:   BOTTOM DEPTH
RUN .                               1:   RUN NUMBER
LCCD.                             340:   LOGGING CONTRACTOR
SRVC.                   PAN GEO ATLAS:   LOGGING CONT NAME
DICO.          QC Data Collectors Ltd:   DIG COMPANY NAME
LDAT.                      06/23/1996:   DATE LOGGED
TDD .F                      9520.0000:   TOTAL DEPTH DRILLER
TDL .F                      9517.0000:   TOTAL DEPTH LOGGER
BOTL.F                      9515.0000:   BOTTOM DEPTH LOGGED
TOPL.F                      5800.0000:   TOP DEPTH LOGGED
CS1 .IN                       13.3750:   CASING SIZE 1
BS1 .IN                       12.2500:   BIT SIZE 1
DDB1.F                      9520.0000:   DEPTH DRILLED BIT 1
BHF .                              60:   FLUID CODE
DPT .                        Oil Base:   DRILLING FLUID TYPE
MUDD.                         14.8000:   FLUID DENSITY
MUDV.                         56.0000:   FLUID VISCOSITY
FL  .                          6.8000:   FLUID LOSS
TMAX.DEGF                    171.0000:   MAX REC TEMP
TIMC.                          6.0000:   TIME SINCE CIRCLN
~PARAMETER INFORMATION (zones)
#MNEM.UNIT                       Value     Description
#=========                       =====     ===========
#ZONATION                          DIL:   ZONATION NAME
#ZONE                            RUN_3:   ZONE NAME
TOP .                      10469.0000:   TOP DEPTH
BOT .                      10595.5000:   BOTTOM DEPTH
RUN .                               3:   RUN NUMBER
LCCD.                             340:   LOGGING CONTRACTOR
SRVC.                   PAN GEO ATLAS:   LOGGING CONT NAME
DICO.          QC Data Collectors Ltd:   DIG COMPANY NAME
LDAT.                      07/04/1996:   DATE LOGGED
TDD .F                     10613.0000:   TOTAL DEPTH DRILLER
TDL .F                     10596.0000:   TOTAL DEPTH LOGGER
BOTL.F                     10596.0000:   BOTTOM DEPTH LOGGED
TOPL.F                     10000.0000:   TOP DEPTH LOGGED
CS1 .IN                        9.6250:   CASING SIZE 1
BS1 .IN                        8.5000:   BIT SIZE 1
DDB1.F                     10613.0000:   DEPTH DRILLED BIT 1
BHF .                              60:   FLUID CODE
DPT .                        Oil Base:   DRILLING FLUID TYPE
MUDD.                         16.9000:   FLUID DENSITY
MUDV.                         55.0000:   FLUID VISCOSITY
FL  .                          5.0000:   FLUID LOSS
TMAX.DEGF                    240.0000:   MAX REC TEMP
TIMC.                         10.0000:   TIME SINCE CIRCLN
~PARAMETER INFORMATION (zones)
#MNEM.UNIT                       Value     Description
#=========                       =====     ===========
#ZONATION                          FDC:   ZONATION NAME
#ZONE                            RUN_2:   ZONE NAME
TOP .                       9494.0000:   TOP DEPTH
BOT .                      10469.5000:   BOTTOM DEPTH
RUN .                               2:   RUN NUMBER
LCCD.                             340:   LOGGING CONTRACTOR
SRVC.                   PAN GEO ATLAS:   LOGGING CONT NAME
DICO.          QC Data Collectors Ltd:   DIG COMPANY NAME
LDAT.                      07/01/1996:   DATE LOGGED
TDD .F                     10500.0000:   TOTAL DEPTH DRILLER
TDL .F                     10504.0000:   TOTAL DEPTH LOGGER
BOTL.F                     10500.0000:   BOTTOM DEPTH LOGGED
TOPL.F                      9350.0000:   TOP DEPTH LOGGED
CS1 .IN                        9.6250:   CASING SIZE 1
BS1 .IN                        8.5000:   BIT SIZE 1
DDB1.F                     10500.0000:   DEPTH DRILLED BIT 1
BHF .                              60:   FLUID CODE
DPT .                        Oil Base:   DRILLING FLUID TYPE
MUDD.                         16.5000:   FLUID DENSITY
MUDV.                         57.0000:   FLUID VISCOSITY
FL  .                          5.4000:   FLUID LOSS
TMAX.DEGF                    238.0000:   MAX REC TEMP
TIMC.                          6.0000:   TIME SINCE CIRCLN
~Curve Information Block
#MNEM.UNIT                    API CODE    No Description
#=========                    ========    == ===========
DEPT.F                   00 001 00 00:     1  DEPTH
CNCF.%                               :     2  Neutron Porosity
CAL.IN                               :     3  Caliper
CILD.MMHO                            :     4  Deep Induction Conductivity
GR.GAPI                              :     5  Gamma Ray
RILD.OHMM                            :     6  Deep Resistivity
RILM.OHMM                            :     7  Medium Resistivity
RWA.OHMM                             :     8  Apparent Water Resistivity
TEN.LB                               :     9  Cable Tension
PORZ.%                               :    10  Porosity
ZCOR.G/C3                            :    11  Density Correction
ZDEN.G/C3                            :    12  Bulk Density
~ASCII
# ...
 9811.0000    33.8343    10.0400  1430.1543    76.0996      .6702      .6843      .0132   -92.5005    12.8953      .0197     2.4390
 9811.5000    33.9960    10.0400  1364.1211    76.5399      .6946      .7086      .0138   -91.2505    12.8762      .0222     2.4470
 9812.0000    33.9644    10.0400  1294.6699    75.8961      .7267      .7363      .0140   -90.0024    12.5744      .0189     2.4550
 9812.5000    33.8614    10.0519  1230.4316    74.9194      .7584      .7665      .0133   -90.0000    12.0954      .0085     2.4530
 9813.0000    33.8614    10.0400  1176.0332    74.6000      .7890      .7983      .0135   -90.0000    11.8812     -.0004     2.4460
 9813.5000    33.8614    10.0219  1133.9805    74.7000      .8184      .8319      .0153   -85.0391    12.1895     -.0044     2.4400
 9814.0000    34.0273    10.0400  1112.9336    75.2406      .8452      .8644      .0167   -85.0000    12.4955     -.0076     2.4380
 9814.5000    34.2107    10.0400  1121.1855    74.8789      .8662      .8929      .0172   -85.0000    12.8402     -.0092     2.4380
 9815.0000    32.6807    10.0400  1154.2500    72.9180      .8764      .9029      .0177   -85.0000    12.8911     -.0140     2.4380
 9815.5000    33.6317    10.0400  1201.0098    70.3984      .8742      .8998      .0175   -85.0000    12.8317     -.0164     2.4360
 9816.0000    35.5424    10.0400  1256.0469    70.0812      .8472      .8797      .0170   -85.0000    12.9841     -.0138     2.4310
 9816.5000    36.1896    10.0400  1321.1172    70.6398      .8148      .8452      .0172   -80.0000    13.1953     -.0104     2.4220
 9817.0000    37.6631    10.0400  1396.7617    71.5804      .7780      .8081      .0175   -80.0000    13.6150     -.0106     2.4120
 9817.5000    36.5540    10.0400  1470.0273    72.1202      .7447      .7677      .0180   -80.0000    14.1451     -.0138     2.4090
 9818.0000    34.3200    10.0400  1519.4063    73.4647      .7174      .7328      .0178   -80.0000    14.5257     -.0192     2.4130
 9818.5000    34.2201    10.0280  1538.2852    75.5265      .6966      .7042      .0171   -84.9609    14.4930     -.0215     2.4170
 9819.0000    34.3956    10.0219  1539.8477    76.8102      .6805      .6882      .0165   -85.0000    14.2544     -.0181     2.4170
 9819.5000    33.9404    10.0219  1535.9238    76.1133      .6718      .6830      .0160   -85.0000    14.1386     -.0111     2.4120
 9820.0000    33.2922    10.0400  1526.3008    75.4368      .6707      .6818      .0162   -85.0039    14.3194     -.0079     2.4080
 9820.5000    33.0283    10.0280  1506.8613    75.0593      .6740      .6871      .0170   -91.2300    14.6006     -.0147     2.4090
 9821.0000    32.6045    10.0219  1475.6953    73.4382      .6792      .7008      .0175   -92.4995    14.6726     -.0220     2.4120
 9821.5000    32.2227    10.0100  1432.6543    70.3064      .6905      .7114      .0175   -93.7490    14.5387     -.0248     2.4130
 9822.0000    31.9409    10.0100  1381.7012    69.0923      .7035      .7221      .0175   -94.9976    14.4356     -.0232     2.4150
 9822.5000    31.6653    10.0219  1332.9785    69.5601      .7168      .7421      .0175   -95.0000    14.3452     -.0210     2.4230
 9823.0000    31.3284     9.9980  1295.2656    71.5616      .7303      .7655      .0175   -95.0000    14.0439     -.0150     2.4320
 9823.5000    30.9129     9.9800  1266.9609    72.5203      .7451      .7896      .0170   -90.0200    13.5333     -.0049     2.4360
 9824.0000    30.5572     9.9800  1237.6367    72.6593      .7651      .8144      .0168   -90.0000    13.0358      .0038     2.4340
 9824.5000    29.8861     9.9800  1198.9199    69.7021      .7908      .8349      .0165   -90.0000    13.0434      .0047     2.4370
 9825.0000    28.5966     9.9800  1156.4492    66.3048      .8176      .8570      .0170   -90.0000    13.0358      .0014     2.4450
 9825.5000    28.7747     9.9800  1128.8867    63.5701      .8406      .8798      .0163   -90.0000    12.6942      .0026     2.4470
 9826.0000    30.4565     9.9500  1127.6602    64.0488      .8621      .8930      .0160   -90.0000    12.3214      .0042     2.4360
 9826.5000    32.6907     9.9200  1143.2090    65.5039      .8729      .9040      .0168   -90.0000    12.6223     -.0004     2.4230
 9827.0000    34.6452     9.9800  1159.0215    67.4186      .8790      .9026      .0197   -90.0000    13.4177     -.0123     2.4160
 9827.5000    35.7134     9.9800  1168.3359    68.2178      .8792      .8919      .0207   -85.0391    13.9960     -.0133     2.4180
 9828.0000    36.8755     9.9809  1172.7988    68.4293      .8698      .8759      .0208   -85.0000    14.1072     -.0055     2.4230
 9828.5000    37.4840    10.0175  1162.7910    69.9296      .8605      .8578      .0198   -85.0000    13.9564     -.0006     2.4280
 9829.0000    37.9342    10.0250  1111.5273    72.4406      .8510      .8612      .0188   -85.0000    13.6256      .0058     2.4340
 9829.5000    38.0725    10.0325  1042.6172    72.4991      .8737      .9036      .0185   -85.0000    13.3268      .0095     2.4460
 9830.0000    37.8177    10.0391  1039.8008    69.2847      .9081      .9817      .0181   -65.1172    12.6737      .0057     2.4670
 9830.5000    37.5743    10.0400  1117.7109    64.0814      .9473     1.0634      .0161   -70.1807    11.6135     -.0038     2.4970
 9831.0000    37.4851    10.0219  1194.7598    59.2933      .9381     1.1029      .0106   -85.9272    10.0931     -.0085     2.5200
 9831.5000    37.4436    10.0161  1224.6387    56.2999      .8946     1.1174      .0071   -95.0000     8.5688     -.0099     2.5150
 9832.0000    37.2835    10.0400  1231.3184    56.4732      .8589     1.1157      .0067   -95.0000     8.1859     -.0111     2.4930
 9832.5000    37.1287    10.0400  1234.8145    59.6765      .8321     1.0781      .0074   -95.0000     8.9947     -.0091     2.4760
 9833.0000    37.2475    10.0400  1236.9688    63.9836      .8265     1.0049      .0094   -95.0000    10.2895      .0000     2.4710
 9833.5000    37.2475    10.0219  1238.9922    68.1594      .8219      .8932      .0105   -95.0000    10.7882      .0037     2.4730
 9834.0000    36.9983    10.0400  1242.5547    71.4226      .8200      .7702      .0105   -95.0000    10.7525     -.0024     2.4780
 9834.5000    36.6655    10.0400  1250.2656    74.2015      .8180      .7185      .0102   -90.0000    10.6098     -.0073     2.4860
 9835.0000    36.5346    10.0400  1267.3633    75.2601      .8119      .7022      .0096   -90.0000    10.2057     -.0093     2.4900
 9835.5000    36.6177    10.0400  1298.2988    74.9991      .8020      .6982      .0090   -90.0000     9.8375     -.0047     2.4840
 9836.0000    36.6298    10.0400  1338.4492    73.2983      .7921      .6965      .0089   -90.0000    10.0398     -.0008     2.4640
 9836.5000    36.4279    10.0400  1379.3750    71.6992      .7776      .6963      .0114   -90.0000    10.9787      .0016     2.4380
 9837.0000    36.1072    10.0400  1420.4902    71.0796      .7598      .6961      .0129   -90.0000    12.3244      .0030     2.4200
 9837.5000    35.8812    10.0100  1465.2285    70.4796      .7424      .6955      .0147   -85.0000    13.5297      .0036     2.4150
 9838.0000    36.1541    10.0400  1509.9785    71.0273      .7204      .6948      .0157   -85.0000    14.1497      .0040     2.4170
 9838.5000    36.6177    10.0400  1545.2031    72.4153      .6984      .6943      .0159   -85.0000    14.2143      .0040     2.4190
 9839.0000    36.2854    10.0100  1559.4102    72.7699      .6784      .6941      .0156   -85.0000    14.1113      .0040     2.4200
 9839.5000    36.0951    10.0400  1546.5352    71.3990      .6599      .6939      .0149   -85.0000    13.9921      .0042     2.4220
 9840.0000    36.0576    10.0400  1526.0117    70.0996      .6537      .6930      .0156   -84.9995    13.9744      .0022     2.4240
 9840.5000    36.1576    10.0280  1539.0488    69.6243      .6506      .6914      .0150   -86.2495    13.7921      .0014     2.4230
 9841.0000    36.4169    10.0400  1589.4414    69.8811      .6545      .6898      .0150   -62.8179    13.7525      .0005     2.4200
