~VERSION INFORMATION
VERS.                             2.0:   CWLS Log ASCII Standard-VERSION 2.0
WRAP.                              NO:   One line per depth step
~Well Information Block
STRT.F                       374.0000:   Top Depth
STOP.F                      6106.0000:   Bottom Depth
STEP.F                         .50000:   Depth Increment
NULL.                        -999.250:   Null Value
FLD .                    MU BLK A 139:   Field Name
WELL.       OCSG06030   002 ST00 BP00:   NAME
API .                    427124009600:   WELL API
EDF .F                       103.0000:   ELEV DRILL FLOOR
COMP.       CITIES SERVICE OIL AND GA:   OPERATOR
BN  .                           A 139:   BLOCK
CTRY.                             USA:   COUNTRY NAME
CNTY.                        M I E AD:   COUNTY NAME
EKB .F                       104.0000:   ELEV KELLY BUSHING
TDD .F                       6111.000:   FINAL TD DRILLER
STAT.                           TEXAS:   STATE NAME
UWI .                    427124009600:   WELL API
DICO.               IHS : Digitizing Company
~PARAMETER INFORMATION (zones)
#MNEM.UNIT                       Value     Description
#=========                       =====     ===========
#ZONATION                          CNL:   ZONATION NAME
#ZONE                            RUN_2:   ZONE NAME
TOP .                       4521.0000:   TOP DEPTH
BOT .                       6106.5000:   BOTTOM DEPTH
RUN .                               2:   RUN NUMBER
LCCD.                             440:   LOGGING CONTRACTOR
SRVC.                    Schlumberger:   LOGGING CONT NAME
DICO.          QC Data Collectors Ltd:   DIG COMPANY NAME
LDAT.                      01/11/1988:   DATE LOGGED
ELD .F                       104.0000:   LOG DATUM ELEVATION
TDD .F                      4594.0000:   TOTAL DEPTH DRILLER
TDL .F                      2007.0000:   TOTAL DEPTH LOGGER
BOTL.F                      1998.0000:   BOTTOM DEPTH LOGGED
TOPL.F                      1006.0000:   TOP DEPTH LOGGED
CS1 .IN                       20.0000:   CASING SIZE 1
BS1 .IN                       17.5000:   BIT SIZE 1
DDB1.F                      4594.0000:   DEPTH DRILLED BIT 1
BHF .                              80:   FLUID CODE
DPT .                      Salt Water:   DRILLING FLUID TYPE
MUDD.                          9.3000:   FLUID DENSITY
MUDV.                         52.0000:   FLUID VISCOSITY
DFPH.                          8.0000:   FLUID PH
FL  .                         16.8000:   FLUID LOSS
RM  .OHMM                       .3600:   RM
RMT .DEGF                     53.0000:   RM TEMP
RMF .OHMM                       .3200:   RMF
RMFT.DEGF                     52.0000:   RMF TEMP
FSC .                               M:   RMF CODE
RMC .OHMM                       .5700:   RMC
RMCT.DEGF                     53.0000:   RMC TEMP
TMAX.DEGF                    100.0000:   MAX REC TEMP
TIMC.                          2.5000:   TIME SINCE CIRCLN
~PARAMETER INFORMATION (zones)
#MNEM.UNIT                       Value     Description
#=========                       =====     ===========
#ZONATION                          DIL:   ZONATION NAME
#ZONE                            RUN_1:   ZONE NAME
TOP .                        374.0000:   TOP DEPTH
BOT .                       6106.5000:   BOTTOM DEPTH
RUN .                               1:   RUN NUMBER
LCCD.                             440:   LOGGING CONTRACTOR
SRVC.                    Schlumberger:   LOGGING CONT NAME
DICO.          QC Data Collectors Ltd:   DIG COMPANY NAME
LDAT.                      01/06/1988:   DATE LOGGED
ELD .F                       104.0000:   LOG DATUM ELEVATION
TDD .F                      1005.0000:   TOTAL DEPTH DRILLER
TDL .F                      1004.0000:   TOTAL DEPTH LOGGER
BOTL.F                       998.0000:   BOTTOM DEPTH LOGGED
TOPL.F                       400.0000:   TOP DEPTH LOGGED
CS1 .IN                       30.0000:   CASING SIZE 1
BS1 .IN                       16.0000:   BIT SIZE 1
DDB1.F                      1005.0000:   DEPTH DRILLED BIT 1
BHF .                              80:   FLUID CODE
DPT .                      Salt Water:   DRILLING FLUID TYPE
MUDD.                          9.1000:   FLUID DENSITY
MUDV.                         34.0000:   FLUID VISCOSITY
DFPH.                          8.0000:   FLUID PH
RM  .OHMM                       .3900:   RM
RMT .DEGF                     76.0000:   RM TEMP
RMF .OHMM                       .3300:   RMF
RMFT.DEGF                     76.0000:   RMF TEMP
FSC .                               M:   RMF CODE
RMC .OHMM                       .3300:   RMC
RMCT.DEGF                     76.0000:   RMC TEMP
CMC .                               M:   RMC CODE
TMAX.DEGF                     86.0000:   MAX REC TEMP
TIMC.                          1.7500:   TIME SINCE CIRCLN
~PARAMETER INFORMATION (zones)
#MNEM.UNIT                       Value     Description
#=========                       =====     ===========
#ZONATION                          LDT:   ZONATION NAME
#ZONE                            RUN_3:   ZONE NAME
TOP .                       4521.0000:   TOP DEPTH
BOT .                       6106.5000:   BOTTOM DEPTH
RUN .                               3:   RUN NUMBER
LCCD.                             440:   LOGGING CONTRACTOR
SRVC.                    Schlumberger:   LOGGING CONT NAME
DICO.          QC Data Collectors Ltd:   DIG COMPANY NAME
LDAT.                      01/23/1988:   DATE LOGGED
ELD .F                       104.0000:   LOG DATUM ELEVATION
TDD .F                      6111.0000:   TOTAL DEPTH DRILLER
TDL .F                      6108.0000:   TOTAL DEPTH LOGGER
BOTL.F                      6106.0000:   BOTTOM DEPTH LOGGED
TOPL.F                      4594.0000:   TOP DEPTH LOGGED
CS1 .IN                       13.3750:   CASING SIZE 1
BS1 .IN                       12.2500:   BIT SIZE 1
DDB1.F                      6111.0000:   DEPTH DRILLED BIT 1
BHF .                              80:   FLUID CODE
DPT .                      Salt Water:   DRILLING FLUID TYPE
MUDD.                         12.7000:   FLUID DENSITY
MUDV.                         58.0000:   FLUID VISCOSITY
DFPH.                          9.5000:   FLUID PH
FL  .                          4.8000:   FLUID LOSS
RM  .OHMM                       .7700:   RM
RMT .DEGF                     64.0000:   RM TEMP
RMF .OHMM                       .4900:   RMF
RMFT.DEGF                     64.0000:   RMF TEMP
FSC .                               M:   RMF CODE
RMC .OHMM                      1.0900:   RMC
RMCT.DEGF                     64.0000:   RMC TEMP
CMC .                               M:   RMC CODE
TMAX.DEGF                    138.0000:   MAX REC TEMP
TIMC.                          7.5000:   TIME SINCE CIRCLN
~Curve Information Block
#MNEM.UNIT                    API CODE    No Description
#=========                    ========    == ===========
DEPT.F                   00 001 00 00:     1  DEPTH
NPHI.DEC                              :     2  Neutron Porosity
DT.US/F                              :     3  Sonic Transit Time
GR.GAPI                              :     4  Gamma Ray
ILD.OHMM                             :     5  Deep Induction Resistivity
ILM.OHMM                             :     6  Medium Induction Resistivity
SFL.OHMM                             :     7  Medium Resistivity
SP.MV                                :     8  Spontaneous Potential
CALI.IN                              :     9  Caliper
DPHI.DEC                              :    10  Porosity
DRHO.G/C3                            :    11  Bulk Density Correction
GR.GAPI                              :    12  Gamma Ray
~ASCII
# ...
 5254.0000      .3961   110.9734  -999.2500      .9291      .9173      .9578   -57.7759    14.9238      .2725     -.0030    60.5341
 5254.5000      .4020   110.6093  -999.2500      .9503      .9372      .9639   -57.8860    15.0877      .2702     -.0026    60.7404
 5255.0000      .3960   109.6587  -999.2500      .9707      .9593      .9733   -58.0808    14.9785      .2679     -.0014    59.1647
 5255.5000      .3774   108.3877  -999.2500      .9861      .9773      .9832   -58.2418    14.8137      .2653      .0009    55.3340
 5256.0000      .3574   107.1210  -999.2500      .9979      .9874     1.0077   -58.3359    14.8338      .2626      .0040    55.1649
 5256.5000      .3409   106.2063  -999.2500     1.0069      .9930     1.0435   -58.3734    14.8745      .2593      .0080    56.7567
 5257.0000      .3308   107.0205  -999.2500     1.0111      .9975     1.0895   -58.3431    14.8126      .2557      .0140    57.8302
 5257.5000      .3402   107.8203  -999.2500     1.0153      .9980     1.1318   -58.3347    14.8170      .2559      .0213    58.0030
 5258.0000      .3790   107.8489  -999.2500     1.0134      .9984     1.1155   -58.3452    14.9146      .2749      .0271    55.6526
 5258.5000      .4184   108.2472  -999.2500     1.0115      .9965     1.0650   -58.3373    15.1440      .2875      .0299    52.9861
 5259.0000      .4251   109.3900  -999.2500     1.0070      .9946     1.0445   -58.2406    15.5219      .2950      .0301    50.7166
 5259.5000      .4080   110.3867  -999.2500     1.0007      .9925     1.0364   -58.1438    16.5245      .2892      .0278    50.0527
 5260.0000      .3945   111.0022  -999.2500      .9944      .9904     1.0231   -58.0555    16.9426      .2816      .0232    49.9747
 5260.5000      .4092   111.3135  -999.2500      .9880      .9884     1.0079   -57.9727    17.1346      .2748      .0147    50.2902
 5261.0000      .4532   111.3317  -999.2500      .9817      .9864      .9931   -57.8879    16.9744      .2848      .0073    50.8018
 5261.5000      .4645   111.2529  -999.2500      .9740      .9842      .9789   -57.7820    16.9137      .2911      .0042    52.0768
 5262.0000      .4638   111.5156  -999.2500      .9657      .9815      .9667   -57.6762    17.1019      .2803      .0062    53.0471
 5262.5000      .4511   111.9492  -999.2500      .9605      .9788      .9656   -57.4875    17.2418      .2601      .0121    52.7171
 5263.0000      .4536   112.6514  -999.2500      .9586      .9762      .9645   -57.2888    17.2710      .2528      .0173    52.2614
 5263.5000      .4584   113.2068  -999.2500      .9571      .9735      .9682   -57.3901    17.2635      .2570      .0155    52.2701
 5264.0000      .4491   113.5834  -999.2500      .9580      .9718      .9732   -57.7768    17.2493      .2689      .0099    52.8415
 5264.5000      .4286   113.4359  -999.2500      .9590      .9705      .9766   -58.0679    17.0291      .2773      .0030    53.9162
 5265.0000      .4014   112.7826  -999.2500      .9571      .9681      .9726   -58.1761    16.8355      .2760      .0004    53.9324
 5265.5000      .3793   112.0288  -999.2500      .9522      .9646      .9731   -58.2686    16.7550      .2656     -.0002    52.8219
 5266.0000      .3605   111.3036  -999.2500      .9467      .9590      .9925   -58.2391    16.8124      .2566      .0010    52.3611
 5266.5000      .3587   111.3723  -999.2500      .9386      .9520      .9961   -58.2028    16.9613      .2606      .0024    53.6895
 5267.0000      .3904   112.4670  -999.2500      .9307      .9433      .9861   -57.9850    17.0485      .2822     -.0036    54.8157
 5267.5000      .4382   113.4752  -999.2500      .9240      .9331      .9670   -57.7772    17.1480      .3059     -.0098    55.0448
 5268.0000      .4558   113.7039  -999.2500      .9185      .9243      .9415   -57.5916    17.1769      .3102     -.0135    53.9983
 5268.5000      .4715   113.8521  -999.2500      .9130      .9183      .9236   -57.4282    16.7875      .3053     -.0131    51.7582
 5269.0000      .4713   113.9152  -999.2500      .9110      .9144      .9174   -57.4387    16.5238      .2905     -.0080    49.9452
 5269.5000      .4692   114.1283  -999.2500      .9093      .9120      .9204   -57.4493    16.2745      .2774     -.0017    49.4398
 5270.0000      .4655   114.4584  -999.2500      .9106      .9138      .9279   -57.5574    16.2533      .2798      .0036    49.8251
 5270.5000      .4578   114.6361  -999.2500      .9166      .9159      .9233   -57.6661    16.2600      .2831      .0073    52.3354
 5271.0000      .4535   114.7662  -999.2500      .9248      .9265      .9147   -57.7525    16.2369      .2827      .0079    53.3978
 5271.5000      .4392   114.7253  -999.2500      .9379      .9388      .9096   -57.8387    16.1890      .2794      .0072    54.2930
 5272.0000      .4254   114.2379  -999.2500      .9550      .9560      .9061   -57.9235    16.2130      .2747      .0058    55.0657
 5272.5000      .4120   112.0972  -999.2500      .9756      .9707      .9203   -58.0082    16.3880      .2722      .0037    54.9536
 5273.0000      .4060   108.6650  -999.2500      .9912      .9839      .9476   -58.1608    16.6719      .2715      .0001    53.6111
 5273.5000      .4055   106.0121  -999.2500     1.0006      .9957      .9906   -58.3319    16.6697      .2695     -.0036    51.8685
 5274.0000      .4089   104.6091  -999.2500     1.0077     1.0079     1.0433   -58.3704    16.5061      .2594     -.0052    50.2362
 5274.5000      .4172   105.9775  -999.2500     1.0081     1.0225     1.0796   -58.3810    16.0037      .2472     -.0024    49.1799
 5275.0000      .4418   107.2893  -999.2500     1.0085     1.0403     1.0884   -58.2507    15.6694      .2337      .0017    48.9789
 5275.5000      .4477   108.1979  -999.2500     1.0068     1.0560     1.0782   -58.1377    15.4917      .2306      .0031    49.8992
 5276.0000      .4528   108.2792  -999.2500     1.0050     1.0503     1.0488   -58.2528    15.9454      .2411      .0038    50.7215
 5276.5000      .4611   107.8407  -999.2500     1.0027     1.0376     1.0256   -58.4002    16.6054      .2549      .0046    51.8575
 5277.0000      .4689   107.8367  -999.2500      .9990     1.0251     1.0089   -58.6622    16.3983      .2664      .0055    54.3708
 5277.5000      .4501   109.1669  -999.2500      .9955     1.0169      .9955   -58.7984    16.0214      .2776      .0063    57.1182
 5278.0000      .4187   109.7040  -999.2500      .9930     1.0087      .9889   -58.8091    15.6351      .2860      .0072    59.2297
 5278.5000      .3962   109.7993  -999.2500      .9905     1.0012      .9831   -58.5498    15.4468      .2828      .0070    60.1304
 5279.0000      .3860   110.1826  -999.2500      .9857      .9962      .9790   -58.3090    15.1709      .2776      .0056    57.9393
 5279.5000      .3961   110.9630  -999.2500      .9782      .9913      .9750   -58.1525    14.5871      .2747      .0039    53.2875
 5280.0000      .4134   112.5854  -999.2500      .9694      .9805      .9602   -58.1123    13.6065      .2759      .0025    52.0742
 5280.5000      .4362   114.1930  -999.2500      .9593      .9623      .9434   -58.2362    13.3014      .2790      .0013    52.7692
 5281.0000      .4362   115.3296  -999.2500      .9455      .9414      .9237   -58.3367    12.7514      .2828      .0004    54.7286
 5281.5000      .4283   116.1298  -999.2500      .9280      .9185      .9014   -58.3900    12.3630      .2840     -.0014    57.9638
 5282.0000      .4144   116.6622  -999.2500      .9039      .8939      .8904   -58.3046    12.2565      .2814     -.0040    61.6107
 5282.5000      .4110   117.2589  -999.2500      .8797      .8692      .8883   -58.0757    12.3835      .2758     -.0042    64.2343
 5283.0000      .4152   117.9148  -999.2500      .8559      .8530      .8819   -57.8900    12.5945      .2689      .0020    64.6083
 5283.5000      .4342   118.7106  -999.2500      .8296      .8378      .8734   -57.7117    12.6561      .2638      .0067    63.2307
 5284.0000      .4652   119.5581  -999.2500      .8042      .8249      .8631   -57.6182    12.6494      .2595      .0091    60.8533
