~VERSION INFORMATION
VERS.                             2.0:   CWLS Log ASCII Standard-VERSION 2.0
WRAP.                              NO:   One line per depth step
~Well Information Block
STRT.F                       374.0000:   Top Depth
STOP.F                      6106.0000:   Bottom Depth
STEP.F                         .50000:   Depth Increment
NULL.                        -999.250:   Null Value
FLD .                    MU BLK A 139:   Field Name
WELL.       OCSG06030   002 ST00 BP00:   NAME
API .                    427124009600:   WELL API
EDF .F                       103.0000:   ELEV DRILL FLOOR
COMP.       CITIES SERVICE OIL AND GA:   OPERATOR
BN  .                           A 139:   BLOCK
CTRY.                             USA:   COUNTRY NAME
CNTY.                        M I E AD:   COUNTY NAME
EKB .F                       104.0000:   ELEV KELLY BUSHING
TDD .F                       6111.000:   FINAL TD DRILLER
STAT.                           TEXAS:   STATE NAME
UWI .                    427124009600:   WELL API
DICO.               IHS : Digitizing Company
~PARAMETER INFORMATION (zones)
#MNEM.UNIT                       Value     Description
#=========                       =====     ===========
#ZONATION                          CNL:   ZONATION NAME
#ZONE                            RUN_2:   ZONE NAME
TOP .                       4521.0000:   TOP DEPTH
BOT .                       6106.5000:   BOTTOM DEPTH
RUN .                               2:   RUN NUMBER
LCCD.                             440:   LOGGING CONTRACTOR
SRVC.                    Schlumberger:   LOGGING CONT NAME
DICO.          QC Data Collectors Ltd:   DIG COMPANY NAME
LDAT.                      01/11/1988:   DATE LOGGED
ELD .F                       104.0000:   LOG DATUM ELEVATION
TDD .F                      4594.0000:   TOTAL DEPTH DRILLER
TDL .F                      2007.0000:   TOTAL DEPTH LOGGER
BOTL.F                      1998.0000:   BOTTOM DEPTH LOGGED
TOPL.F                      1006.0000:   TOP DEPTH LOGGED
CS1 .IN                       20.0000:   CASING SIZE 1
BS1 .IN                       17.5000:   BIT SIZE 1
DDB1.F                      4594.0000:   DEPTH DRILLED BIT 1
BHF .                              80:   FLUID CODE
DPT .                      Salt Water:   DRILLING FLUID TYPE
MUDD.                          9.3000:   FLUID DENSITY
MUDV.                         52.0000:   FLUID VISCOSITY
DFPH.                          8.0000:   FLUID PH
FL  .                         16.8000:   FLUID LOSS
RM  .OHMM                       .3600:   RM
RMT .DEGF                     53.0000:   RM TEMP
RMF .OHMM                       .3200:   RMF
RMFT.DEGF                     52.0000:   RMF TEMP
FSC .                               M:   RMF CODE
RMC .OHMM                       .5700:   RMC
RMCT.DEGF                     53.0000:   RMC TEMP
TMAX.DEGF                    100.0000:   MAX REC TEMP
TIMC.                          2.5000:   TIME SINCE CIRCLN
~PARAMETER INFORMATION (zones)
#MNEM.UNIT                       Value     Description
#=========                       =====     ===========
#ZONATION                          DIL:   ZONATION NAME
#ZONE                            RUN_1:   ZONE NAME
TOP .                        374.0000:   TOP DEPTH
BOT .                       6106.5000:   BOTTOM DEPTH
RUN .                               1:   RUN NUMBER
LCCD.                             440:   LOGGING CONTRACTOR
SRVC.                    Schlumberger:   LOGGING CONT NAME
DICO.          QC Data Collectors Ltd:   DIG COMPANY NAME
LDAT.                      01/06/1988:   DATE LOGGED
ELD .F                       104.0000:   LOG DATUM ELEVATION
TDD .F                      1005.0000:   TOTAL DEPTH DRILLER
TDL .F                      1004.0000:   TOTAL DEPTH LOGGER
BOTL.F                       998.0000:   BOTTOM DEPTH LOGGED
TOPL.F                       400.0000:   TOP DEPTH LOGGED
CS1 .IN                       30.0000:   CASING SIZE 1
BS1 .IN                       16.0000:   BIT SIZE 1
DDB1.F                      1005.0000:   DEPTH DRILLED BIT 1
BHF .                              80:   FLUID CODE
DPT .                      Salt Water:   DRILLING FLUID TYPE
MUDD.                          9.1000:   FLUID DENSITY
MUDV.                         34.0000:   FLUID VISCOSITY
DFPH.                          8.0000:   FLUID PH
RM  .OHMM                       .3900:   RM
RMT .DEGF                     76.0000:   RM TEMP
RMF .OHMM                       .3300:   RMF
RMFT.DEGF                     76.0000:   RMF TEMP
FSC .                               M:   RMF CODE
RMC .OHMM                       .3300:   RMC
RMCT.DEGF                     76.0000:   RMC TEMP
CMC .                               M:   RMC CODE
TMAX.DEGF                     86.0000:   MAX REC TEMP
TIMC.                          1.7500:   TIME SINCE CIRCLN
~PARAMETER INFORMATION (zones)
#MNEM.UNIT                       Value     Description
#=========                       =====     ===========
#ZONATION                          LDT:   ZONATION NAME
#ZONE                            RUN_3:   ZONE NAME
TOP .                       4521.0000:   TOP DEPTH
BOT .                       6106.5000:   BOTTOM DEPTH
RUN .                               3:   RUN NUMBER
LCCD.                             440:   LOGGING CONTRACTOR
SRVC.                    Schlumberger:   LOGGING CONT NAME
DICO.          QC Data Collectors Ltd:   DIG COMPANY NAME
LDAT.                      01/23/1988:   DATE LOGGED
ELD .F                       104.0000:   LOG DATUM ELEVATION
TDD .F                      6111.0000:   TOTAL DEPTH DRILLER
TDL .F                      6108.0000:   TOTAL DEPTH LOGGER
BOTL.F                      6106.0000:   BOTTOM DEPTH LOGGED
TOPL.F                      4594.0000:   TOP DEPTH LOGGED
CS1 .IN                       13.3750:   CASING SIZE 1
BS1 .IN                       12.2500:   BIT SIZE 1
DDB1.F                      6111.0000:   DEPTH DRILLED BIT 1
BHF .                              80:   FLUID CODE
DPT .                      Salt Water:   DRILLING FLUID TYPE
MUDD.                         12.7000:   FLUID DENSITY
MUDV.                         58.0000:   FLUID VISCOSITY
DFPH.                          9.5000:   FLUID PH
FL  .                          4.8000:   FLUID LOSS
RM  .OHMM                       .7700:   RM
RMT .DEGF                     64.0000:   RM TEMP
RMF .OHMM                       .4900:   RMF
RMFT.DEGF                     64.0000:   RMF TEMP
FSC .                               M:   RMF CODE
RMC .OHMM                      1.0900:   RMC
RMCT.DEGF                     64.0000:   RMC TEMP
CMC .                               M:   RMC CODE
TMAX.DEGF                    138.0000:   MAX REC TEMP
TIMC.                          7.5000:   TIME SINCE CIRCLN
~Curve Information Block
#MNEM.UNIT                    API CODE    No Description
#=========                    ========    == ===========
DEPT.F                   00 001 00 00:     1  DEPTH
NPHI.DEC                              :     2  Neutron Porosity
DT.US/F                              :     3  Sonic Transit Time
GR.GAPI                              :     4  Gamma Ray
ILD.OHMM                             :     5  Deep Induction Resistivity
ILM.OHMM                             :     6  Medium Induction Resistivity
SFL.OHMM                             :     7  Medium Resistivity
SP.MV                                :     8  Spontaneous Potential
CALI.IN                              :     9  Caliper
DPHI.DEC                              :    10  Porosity
DRHO.G/C3                            :    11  Bulk Density Correction
GR.GAPI                              :    12  Gamma Ray
~ASCII
# ...
 5589.5000      .4362   113.3712  -999.2500      .8456      .8743      .9135   -51.3574    16.3466      .3043     -.0051    58.4109
 5590.0000      .4287   114.1539  -999.2500      .8483      .8864      .9232   -51.3107    15.7065      .2973     -.0057    59.5747
 5590.5000      .4266   114.8734  -999.2500      .8521      .8890      .9087   -51.3186    14.7542      .2905     -.0056    59.3934
 5591.0000      .4272   115.3125  -999.2500      .8559      .8916      .8948   -51.3582    14.8292      .2885     -.0046    58.7382
 5591.5000      .4245   114.9739  -999.2500      .8593      .8873      .8883   -51.3759    15.2815      .2864     -.0036    58.5096
 5592.0000      .4168   114.3151  -999.2500      .8497      .8812      .8982   -51.3587    15.5822      .2821     -.0019    58.6776
 5592.5000      .4093   114.3405  -999.2500      .8395      .8701      .9046   -51.2716    15.5150      .2736      .0021    59.7322
 5593.0000      .4165   117.0934  -999.2500      .8186      .8562      .9092   -51.0701    15.0471      .2624      .0055    59.9008
 5593.5000      .4340   119.7297  -999.2500      .7984      .8405      .9039   -51.1429    14.7789      .2583      .0068    58.5501
 5594.0000      .4495   121.0176  -999.2500      .7814      .8215      .8891   -51.2541    15.1223      .2664      .0068    58.1646
 5594.5000      .4510   121.2178  -999.2500      .7649      .8040      .8457   -51.1728    15.6357      .2816      .0064    59.2316
 5595.0000      .4518   120.4270  -999.2500      .7544      .7926      .8025   -50.9379    16.1097      .2913      .0051    60.7726
 5595.5000      .4520   119.7917  -999.2500      .7464      .7833      .7815   -50.7819    16.3415      .2977      .0030    61.8577
 5596.0000      .4518   119.4109  -999.2500      .7417      .7802      .7762   -50.7125    16.5155      .2999      .0020    61.1488
 5596.5000      .4482   119.0302  -999.2500      .7413      .7782      .7783   -50.7160    16.3528      .3010      .0009    59.8684
 5597.0000      .4294   118.2920  -999.2500      .7410      .7781      .7898   -50.7586    16.1514      .3016     -.0004    59.2569
 5597.5000      .4155   117.5186  -999.2500      .7435      .7807      .7963   -50.8563    16.0678      .3010     -.0013    59.2789
 5598.0000      .4149   116.5889  -999.2500      .7478      .7865      .7954   -50.8998    16.0160      .2988     -.0017    59.5720
 5598.5000      .4215   115.5360  -999.2500      .7542      .7959      .7955   -50.8326    15.9283      .2944     -.0018    60.0002
 5599.0000      .4356   114.7130  -999.2500      .7625      .8050      .8164   -50.8040    15.8394      .2884     -.0001    60.5556
 5599.5000      .4477   114.2828  -999.2500      .7734      .8136      .8540   -50.8057    15.8151      .2818      .0022    60.8112
 5600.0000      .4603   115.5453  -999.2500      .7885      .8258      .8640   -50.7935    15.7256      .2716      .0046    59.8287
 5600.5000      .4649   116.8064  -999.2500      .8026      .8390      .8514   -50.7735    14.7247      .2659      .0043    58.4671
 5601.0000      .4587   115.4696  -999.2500      .8102      .8451      .8393   -50.7690    14.8602      .2713      .0019    57.2276
 5601.5000      .4560   113.3787  -999.2500      .8179      .8506      .8589   -50.7704    15.1912      .2766     -.0003    56.5718
 5602.0000      .4548   112.5259  -999.2500      .8171      .8441      .8992   -50.6821    15.2943      .2786     -.0009    56.8069
 5602.5000      .4478   113.9724  -999.2500      .8126      .8377      .9223   -50.5979    15.2752      .2798     -.0018    57.8516
 5603.0000      .4320   117.3091  -999.2500      .8077      .8296      .9177   -50.5425    15.2466      .2813     -.0054    59.6663
 5603.5000      .4288   119.4175  -999.2500      .8022      .8205      .8830   -50.5297    15.2013      .2830     -.0101    60.4057
 5604.0000      .4262   120.4425  -999.2500      .7967      .8145      .8389   -50.6409    15.2160      .2848     -.0142    59.6284
 5604.5000      .4174   119.5811  -999.2500      .7903      .8103      .8179   -50.7487    15.5009      .2869     -.0152    57.8126
 5605.0000      .4059   117.7355  -999.2500      .7833      .8063      .8162   -50.8526    15.9058      .2893     -.0149    57.2762
 5605.5000      .3987   116.5945  -999.2500      .7764      .8025      .8241   -50.9246    16.1488      .2908     -.0140    57.9224
 5606.0000      .4046   116.6801  -999.2500      .7687      .7984      .8446   -50.9658    15.6411      .2878     -.0083    59.5662
 5606.5000      .4159   117.5433  -999.2500      .7599      .7941      .8548   -51.0014    14.5923      .2825     -.0021    62.3724
 5607.0000      .4234   119.1237  -999.2500      .7511      .7872      .8458   -51.0247    14.3503      .2803      .0005    63.7258
 5607.5000      .4289   120.9891  -999.2500      .7424      .7775      .8168   -51.0480    14.6783      .2833      .0010    62.9500
 5608.0000      .4403   122.2943  -999.2500      .7369      .7709      .7971   -51.0293    14.9802      .2897     -.0002    62.0708
 5608.5000      .4618   121.4502  -999.2500      .7316      .7683      .7815   -51.0059    15.0916      .2922     -.0015    61.4858
 5609.0000      .4780   120.3669  -999.2500      .7263      .7659      .7865   -50.9873    14.7994      .2934     -.0034    61.8815
 5609.5000      .4854   120.1212  -999.2500      .7247      .7644      .7942   -50.9773    14.0618      .2945     -.0058    63.6091
 5610.0000      .4779   120.7598  -999.2500      .7240      .7632      .8035   -50.9673    14.3339      .2966     -.0094    62.4823
 5610.5000      .4474   121.3309  -999.2500      .7233      .7625      .8168   -51.0089    14.8077      .2986     -.0127    60.9644
 5611.0000      .4361   121.4725  -999.2500      .7279      .7657      .8049   -51.0507    14.5049      .2964     -.0130    60.3785
 5611.5000      .4358   120.8564  -999.2500      .7343      .7720      .7900   -51.0609    13.8618      .2892     -.0087    60.2420
 5612.0000      .4357   119.7620  -999.2500      .7408      .7761      .7871   -51.0667    13.9939      .2829     -.0037    60.1138
 5612.5000      .4344   118.5808  -999.2500      .7477      .7803      .7960   -51.0715    14.5063      .2812     -.0003    59.6095
 5613.0000      .4364   118.1274  -999.2500      .7547      .7798      .8085   -51.0757    14.8308      .2875      .0013    58.5300
 5613.5000      .4425   119.0258  -999.2500      .7608      .7791      .8270   -51.1259    14.6712      .2915      .0018    58.3304
 5614.0000      .4454   120.3706  -999.2500      .7587      .7739      .8353   -51.4071    14.6356      .2913      .0013    58.5063
 5614.5000      .4420   121.2411  -999.2500      .7566      .7684      .8383   -51.6497    15.0012      .2847      .0006    58.4995
 5615.0000      .4352   120.9541  -999.2500      .7539      .7630      .8309   -51.8276    15.4520      .2741      .0001    58.4233
 5615.5000      .4368   120.5485  -999.2500      .7458      .7578      .8198   -51.9341    15.7063      .2656     -.0005    57.9762
 5616.0000      .4417   121.1515  -999.2500      .7378      .7531      .8056   -51.9822    15.4525      .2594     -.0011    56.3923
 5616.5000      .4417   123.0430  -999.2500      .7300      .7518      .7919   -52.1000    15.2995      .2534     -.0012    54.8035
 5617.0000      .4324   125.6954  -999.2500      .7229      .7506      .7764   -52.2928    15.5617      .2512      .0009    54.0771
 5617.5000      .4315   128.0530  -999.2500      .7159      .7509      .7624   -52.2832    15.8637      .2566      .0018    54.4048
 5618.0000      .4489   128.6016  -999.2500      .7116      .7517      .7612   -52.2307    15.8795      .2652     -.0008    55.5265
 5618.5000      .4728   127.6564  -999.2500      .7104      .7510      .7715   -52.0999    15.7395      .2700     -.0039    56.9199
 5619.0000      .4952   125.7079  -999.2500      .7093      .7500      .7814   -51.9675    15.2493      .2713     -.0073    58.6356
 5619.5000      .5035   124.0829  -999.2500      .7125      .7476      .7908   -51.8065    14.8492      .2715     -.0108    59.2288
