~VERSION INFORMATION
VERS.                             2.0:   CWLS Log ASCII Standard-VERSION 2.0
WRAP.                              NO:   One line per depth step
~Well Information Block
STRT.F                       374.0000:   Top Depth
STOP.F                      6106.0000:   Bottom Depth
STEP.F                         .50000:   Depth Increment
NULL.                        -999.250:   Null Value
FLD .                    MU BLK A 139:   Field Name
WELL.       OCSG06030   002 ST00 BP00:   NAME
API .                    427124009600:   WELL API
EDF .F                       103.0000:   ELEV DRILL FLOOR
COMP.       CITIES SERVICE OIL AND GA:   OPERATOR
BN  .                           A 139:   BLOCK
CTRY.                             USA:   COUNTRY NAME
CNTY.                        M I E AD:   COUNTY NAME
EKB .F                       104.0000:   ELEV KELLY BUSHING
TDD .F                       6111.000:   FINAL TD DRILLER
STAT.                           TEXAS:   STATE NAME
UWI .                    427124009600:   WELL API
DICO.               IHS : Digitizing Company
~PARAMETER INFORMATION (zones)
#MNEM.UNIT                       Value     Description
#=========                       =====     ===========
#ZONATION                          CNL:   ZONATION NAME
#ZONE                            RUN_2:   ZONE NAME
TOP .                       4521.0000:   TOP DEPTH
BOT .                       6106.5000:   BOTTOM DEPTH
RUN .                               2:   RUN NUMBER
LCCD.                             440:   LOGGING CONTRACTOR
SRVC.                    Schlumberger:   LOGGING CONT NAME
DICO.          QC Data Collectors Ltd:   DIG COMPANY NAME
LDAT.                      01/11/1988:   DATE LOGGED
ELD .F                       104.0000:   LOG DATUM ELEVATION
TDD .F                      4594.0000:   TOTAL DEPTH DRILLER
TDL .F                      2007.0000:   TOTAL DEPTH LOGGER
BOTL.F                      1998.0000:   BOTTOM DEPTH LOGGED
TOPL.F                      1006.0000:   TOP DEPTH LOGGED
CS1 .IN                       20.0000:   CASING SIZE 1
BS1 .IN                       17.5000:   BIT SIZE 1
DDB1.F                      4594.0000:   DEPTH DRILLED BIT 1
BHF .                              80:   FLUID CODE
DPT .                      Salt Water:   DRILLING FLUID TYPE
MUDD.                          9.3000:   FLUID DENSITY
MUDV.                         52.0000:   FLUID VISCOSITY
DFPH.                          8.0000:   FLUID PH
FL  .                         16.8000:   FLUID LOSS
RM  .OHMM                       .3600:   RM
RMT .DEGF                     53.0000:   RM TEMP
RMF .OHMM                       .3200:   RMF
RMFT.DEGF                     52.0000:   RMF TEMP
FSC .                               M:   RMF CODE
RMC .OHMM                       .5700:   RMC
RMCT.DEGF                     53.0000:   RMC TEMP
TMAX.DEGF                    100.0000:   MAX REC TEMP
TIMC.                          2.5000:   TIME SINCE CIRCLN
~PARAMETER INFORMATION (zones)
#MNEM.UNIT                       Value     Description
#=========                       =====     ===========
#ZONATION                          DIL:   ZONATION NAME
#ZONE                            RUN_1:   ZONE NAME
TOP .                        374.0000:   TOP DEPTH
BOT .                       6106.5000:   BOTTOM DEPTH
RUN .                               1:   RUN NUMBER
LCCD.                             440:   LOGGING CONTRACTOR
SRVC.                    Schlumberger:   LOGGING CONT NAME
DICO.          QC Data Collectors Ltd:   DIG COMPANY NAME
LDAT.                      01/06/1988:   DATE LOGGED
ELD .F                       104.0000:   LOG DATUM ELEVATION
TDD .F                      1005.0000:   TOTAL DEPTH DRILLER
TDL .F                      1004.0000:   TOTAL DEPTH LOGGER
BOTL.F                       998.0000:   BOTTOM DEPTH LOGGED
TOPL.F                       400.0000:   TOP DEPTH LOGGED
CS1 .IN                       30.0000:   CASING SIZE 1
BS1 .IN                       16.0000:   BIT SIZE 1
DDB1.F                      1005.0000:   DEPTH DRILLED BIT 1
BHF .                              80:   FLUID CODE
DPT .                      Salt Water:   DRILLING FLUID TYPE
MUDD.                          9.1000:   FLUID DENSITY
MUDV.                         34.0000:   FLUID VISCOSITY
DFPH.                          8.0000:   FLUID PH
RM  .OHMM                       .3900:   RM
RMT .DEGF                     76.0000:   RM TEMP
RMF .OHMM                       .3300:   RMF
RMFT.DEGF                     76.0000:   RMF TEMP
FSC .                               M:   RMF CODE
RMC .OHMM                       .3300:   RMC
RMCT.DEGF                     76.0000:   RMC TEMP
CMC .                               M:   RMC CODE
TMAX.DEGF                     86.0000:   MAX REC TEMP
TIMC.                          1.7500:   TIME SINCE CIRCLN
~PARAMETER INFORMATION (zones)
#MNEM.UNIT                       Value     Description
#=========                       =====     ===========
#ZONATION                          LDT:   ZONATION NAME
#ZONE                            RUN_3:   ZONE NAME
TOP .                       4521.0000:   TOP DEPTH
BOT .                       6106.5000:   BOTTOM DEPTH
RUN .                               3:   RUN NUMBER
LCCD.                             440:   LOGGING CONTRACTOR
SRVC.                    Schlumberger:   LOGGING CONT NAME
DICO.          QC Data Collectors Ltd:   DIG COMPANY NAME
LDAT.                      01/23/1988:   DATE LOGGED
ELD .F                       104.0000:   LOG DATUM ELEVATION
TDD .F                      6111.0000:   TOTAL DEPTH DRILLER
TDL .F                      6108.0000:   TOTAL DEPTH LOGGER
BOTL.F                      6106.0000:   BOTTOM DEPTH LOGGED
TOPL.F                      4594.0000:   TOP DEPTH LOGGED
CS1 .IN                       13.3750:   CASING SIZE 1
BS1 .IN                       12.2500:   BIT SIZE 1
DDB1.F                      6111.0000:   DEPTH DRILLED BIT 1
BHF .                              80:   FLUID CODE
DPT .                      Salt Water:   DRILLING FLUID TYPE
MUDD.                         12.7000:   FLUID DENSITY
MUDV.                         58.0000:   FLUID VISCOSITY
DFPH.                          9.5000:   FLUID PH
FL  .                          4.8000:   FLUID LOSS
RM  .OHMM                       .7700:   RM
RMT .DEGF                     64.0000:   RM TEMP
RMF .OHMM                       .4900:   RMF
RMFT.DEGF                     64.0000:   RMF TEMP
FSC .                               M:   RMF CODE
RMC .OHMM                      1.0900:   RMC
RMCT.DEGF                     64.0000:   RMC TEMP
CMC .                               M:   RMC CODE
TMAX.DEGF                    138.0000:   MAX REC TEMP
TIMC.                          7.5000:   TIME SINCE CIRCLN
~Curve Information Block
#MNEM.UNIT                    API CODE    No Description
#=========                    ========    == ===========
DEPT.F                   00 001 00 00:     1  DEPTH
NPHI.DEC                              :     2  Neutron Porosity
DT.US/F                              :     3  Sonic Transit Time
GR.GAPI                              :     4  Gamma Ray
ILD.OHMM                             :     5  Deep Induction Resistivity
ILM.OHMM                             :     6  Medium Induction Resistivity
SFL.OHMM                             :     7  Medium Resistivity
SP.MV                                :     8  Spontaneous Potential
CALI.IN                              :     9  Caliper
DPHI.DEC                              :    10  Porosity
DRHO.G/C3                            :    11  Bulk Density Correction
GR.GAPI                              :    12  Gamma Ray
~ASCII
# ...
 5925.0000      .3860   118.4717  -999.2500      .6116      .6664      .6678   -43.7006    15.4180      .2141      .0044    61.3979
 5925.5000      .3645   116.9534  -999.2500      .6182      .6691      .6930   -43.6728    15.2906      .2068      .0028    59.7725
 5926.0000      .3633   118.5782  -999.2500      .6173      .6688      .7263   -43.7427    15.1077      .2030     -.0040    58.5794
 5926.5000      .3979   120.9879  -999.2500      .6162      .6637      .7447   -43.8427    15.2620      .2030     -.0068    60.1682
 5927.0000      .4370   122.9351  -999.2500      .6135      .6537      .7318   -43.8593    15.3505      .2095     -.0094    61.7496
 5927.5000      .4564   123.7878  -999.2500      .6102      .6433      .6923   -43.6653    15.2978      .2180     -.0100    63.2944
 5928.0000      .4527   124.3351  -999.2500      .6065      .6356      .6509   -43.4658    15.2890      .2253     -.0096    63.7429
 5928.5000      .4440   125.1836  -999.2500      .6026      .6334      .6155   -43.2043    15.3475      .2322     -.0084    64.1254
 5929.0000      .4291   126.3351  -999.2500      .6009      .6340      .6087   -42.9426    15.3812      .2359     -.0073    65.1334
 5929.5000      .4136   126.0177  -999.2500      .6008      .6371      .6236   -42.8668    15.3934      .2386     -.0066    65.9358
 5930.0000      .3936   122.0563  -999.2500      .6042      .6451      .6401   -42.8693    15.5045      .2415     -.0069    64.4655
 5930.5000      .3521   117.9115  -999.2500      .6096      .6554      .6415   -42.8521    15.7209      .2400     -.0071    61.3393
 5931.0000      .3373   113.2782  -999.2500      .6155      .6674      .6527   -42.8156    15.9357      .2242     -.0071    56.5621
 5931.5000      .3508   111.4574  -999.2500      .6219      .6753      .7093   -42.8372    16.0164      .2116     -.0042    55.1699
 5932.0000      .3838   112.4528  -999.2500      .6268      .6760      .7679   -42.9354    16.0523      .2079     -.0020    57.4584
 5932.5000      .3942   115.3606  -999.2500      .6261      .6677      .7822   -43.1683    15.8897      .2090     -.0048    59.3671
 5933.0000      .3843   118.8088  -999.2500      .6254      .6552      .7514   -43.6776    15.5553      .2180     -.0078    60.2107
 5933.5000      .3773   122.6711  -999.2500      .6221      .6435      .7222   -44.4147    15.5863      .2297     -.0076    60.1294
 5934.0000      .3900   125.5021  -999.2500      .6176      .6361      .7065   -44.6290    15.9124      .2379      .0049    59.6095
 5934.5000      .4204   127.3031  -999.2500      .6126      .6309      .6760   -44.6495    16.1339      .2418      .0241    58.5159
 5935.0000      .4422   127.2219  -999.2500      .6065      .6280      .6082   -44.5345    16.3065      .2405      .0356    56.8136
 5935.5000      .4479   125.6757  -999.2500      .6010      .6255      .5745   -44.1389    16.4534      .2393      .0404    56.1200
 5936.0000      .4339   123.3157  -999.2500      .5967      .6242      .5972   -43.8199    16.6251      .2382      .0372    57.7173
 5936.5000      .4213   121.2631  -999.2500      .5974      .6234      .6545   -43.6239    16.7797      .2379      .0247    59.7750
 5937.0000      .4183   120.1766  -999.2500      .6033      .6246      .7199   -43.7874    16.8668      .2391      .0121    60.7794
 5937.5000      .4192   122.6166  -999.2500      .6081      .6265      .7542   -43.9839    16.7041      .2430      .0044    61.2853
 5938.0000      .4198   126.3102  -999.2500      .6118      .6292      .7267   -44.2121    16.6159      .2480      .0006    61.6342
 5938.5000      .4216   129.8726  -999.2500      .6154      .6315      .6954   -44.5215    16.4868      .2499     -.0006    62.1135
 5939.0000      .4178   129.3892  -999.2500      .6152      .6332      .6876   -44.8812    16.3335      .2496     -.0007    62.6716
 5939.5000      .4088   125.9929  -999.2500      .6145      .6333      .6923   -45.0682    16.1475      .2460     -.0010    63.0521
 5940.0000      .3984   122.5695  -999.2500      .6107      .6315      .7021   -45.1584    16.1478      .2391     -.0016    62.3504
 5940.5000      .3903   120.2615  -999.2500      .6054      .6268      .7093   -44.9808    16.4900      .2307     -.0023    60.4011
 5941.0000      .3856   119.7314  -999.2500      .6022      .6191      .6999   -44.6093    16.7887      .2224     -.0030    60.8557
 5941.5000      .3837   120.5887  -999.2500      .6006      .6143      .6745   -44.1025    16.9387      .2192     -.0039    61.9493
 5942.0000      .3828   124.7187  -999.2500      .5992      .6106      .6379   -43.9689    16.6214      .2262     -.0047    61.8778
 5942.5000      .3819   129.9939  -999.2500      .6003      .6104      .6117   -44.6746    16.1737      .2383     -.0054    60.6017
 5943.0000      .3822   132.1804  -999.2500      .6014      .6108      .6309   -44.9217    15.9815      .2474     -.0057    59.3298
 5943.5000      .3896   131.1714  -999.2500      .6033      .6159      .6498   -44.9875    16.0812      .2506     -.0059    60.1719
 5944.0000      .4003   127.1630  -999.2500      .6057      .6222      .6529   -45.0684    16.7899      .2499     -.0057    64.2799
 5944.5000      .3958   121.9596  -999.2500      .6081      .6289      .6496   -45.1504    18.7824      .2469     -.0057    66.4927
 5945.0000      .3566   119.9442  -999.2500      .6105      .6363      .6452   -45.2385    19.2396      .2418     -.0057    66.0725
 5945.5000      .3427   121.5481  -999.2500      .6129      .6425      .6638   -45.3371    18.2094      .2384     -.0046    63.9013
 5946.0000      .3673   123.9032  -999.2500      .6153      .6443      .6958   -45.4357    15.9400      .2386     -.0029    61.5860
 5946.5000      .4057   125.3831  -999.2500      .6164      .6438      .7193   -45.3923    14.6885      .2440     -.0005    60.4338
 5947.0000      .4210   125.0807  -999.2500      .6172      .6397      .6906   -45.3232    15.4867      .2483      .0014    62.2747
 5947.5000      .4117   123.5177  -999.2500      .6179      .6371      .6486   -45.1760    16.8925      .2485      .0031    64.5657
 5948.0000      .3975   122.3167  -999.2500      .6177      .6374      .6512   -44.9860    17.2496      .2461      .0039    65.4290
 5948.5000      .4259   121.6124  -999.2500      .6167      .6377      .6632   -44.9286    15.9117      .2447      .0033    60.2256
 5949.0000      .4572   122.2943  -999.2500      .6156      .6413      .6770   -45.0709    15.3216      .2504      .0007    56.9772
 5949.5000      .4625   124.8179  -999.2500      .6143      .6450      .6936   -45.1583    16.5799      .2568     -.0010    53.6538
 5950.0000      .4417   127.5819  -999.2500      .6125      .6441      .7114   -45.1805    17.5080      .2585     -.0021    53.8266
 5950.5000      .4257   129.1951  -999.2500      .6106      .6423      .7262   -44.8855    17.8665      .2490     -.0025    55.0331
 5951.0000      .4406   129.2756  -999.2500      .6098      .6370      .7133   -44.5083    17.2159      .2405     -.0019    57.3680
 5951.5000      .4675   127.7332  -999.2500      .6101      .6302      .7004   -44.1444    16.2067      .2340     -.0004    59.3134
 5952.0000      .4793   125.6558  -999.2500      .6110      .6255      .6876   -43.7850    15.3917      .2329      .0021    60.1993
 5952.5000      .4795   123.4247  -999.2500      .6160      .6222      .6811   -43.8239    15.2228      .2316      .0042    61.2513
 5953.0000      .4523   120.9928  -999.2500      .6209      .6289      .6757   -43.9109    15.1290      .2292      .0050    63.0197
 5953.5000      .4271   118.2437  -999.2500      .6313      .6401      .6821   -44.3753    15.1320      .2252      .0050    64.5876
 5954.0000      .4057   115.6903  -999.2500      .6420      .6593      .7010   -44.8501    15.1059      .2210      .0048    64.2041
 5954.5000      .3749   114.2699  -999.2500      .6568      .6795      .7333   -45.3926    14.9782      .2184      .0045    61.3759
 5955.0000      .3582   112.8630  -999.2500      .6720      .7008      .7727   -45.7523    14.7704      .2167      .0044    59.3524
