~VERSION INFORMATION
VERS.                             2.0:   CWLS Log ASCII Standard-VERSION 2.0
WRAP.                              NO:   One line per depth step
~Well Information Block
STRT.F                       374.0000:   Top Depth
STOP.F                      6106.0000:   Bottom Depth
STEP.F                         .50000:   Depth Increment
NULL.                        -999.250:   Null Value
FLD .                    MU BLK A 139:   Field Name
WELL.       OCSG06030   002 ST00 BP00:   NAME
API .                    427124009600:   WELL API
EDF .F                       103.0000:   ELEV DRILL FLOOR
COMP.       CITIES SERVICE OIL AND GA:   OPERATOR
BN  .                           A 139:   BLOCK
CTRY.                             USA:   COUNTRY NAME
CNTY.                        M I E AD:   COUNTY NAME
EKB .F                       104.0000:   ELEV KELLY BUSHING
TDD .F                       6111.000:   FINAL TD DRILLER
STAT.                           TEXAS:   STATE NAME
UWI .                    427124009600:   WELL API
DICO.               IHS : Digitizing Company
~PARAMETER INFORMATION (zones)
#MNEM.UNIT                       Value     Description
#=========                       =====     ===========
#ZONATION                          CNL:   ZONATION NAME
#ZONE                            RUN_2:   ZONE NAME
TOP .                       4521.0000:   TOP DEPTH
BOT .                       6106.5000:   BOTTOM DEPTH
RUN .                               2:   RUN NUMBER
LCCD.                             440:   LOGGING CONTRACTOR
SRVC.                    Schlumberger:   LOGGING CONT NAME
DICO.          QC Data Collectors Ltd:   DIG COMPANY NAME
LDAT.                      01/11/1988:   DATE LOGGED
ELD .F                       104.0000:   LOG DATUM ELEVATION
TDD .F                      4594.0000:   TOTAL DEPTH DRILLER
TDL .F                      2007.0000:   TOTAL DEPTH LOGGER
BOTL.F                      1998.0000:   BOTTOM DEPTH LOGGED
TOPL.F                      1006.0000:   TOP DEPTH LOGGED
CS1 .IN                       20.0000:   CASING SIZE 1
BS1 .IN                       17.5000:   BIT SIZE 1
DDB1.F                      4594.0000:   DEPTH DRILLED BIT 1
BHF .                              80:   FLUID CODE
DPT .                      Salt Water:   DRILLING FLUID TYPE
MUDD.                          9.3000:   FLUID DENSITY
MUDV.                         52.0000:   FLUID VISCOSITY
DFPH.                          8.0000:   FLUID PH
FL  .                         16.8000:   FLUID LOSS
RM  .OHMM                       .3600:   RM
RMT .DEGF                     53.0000:   RM TEMP
RMF .OHMM                       .3200:   RMF
RMFT.DEGF                     52.0000:   RMF TEMP
FSC .                               M:   RMF CODE
RMC .OHMM                       .5700:   RMC
RMCT.DEGF                     53.0000:   RMC TEMP
TMAX.DEGF                    100.0000:   MAX REC TEMP
TIMC.                          2.5000:   TIME SINCE CIRCLN
~PARAMETER INFORMATION (zones)
#MNEM.UNIT                       Value     Description
#=========                       =====     ===========
#ZONATION                          DIL:   ZONATION NAME
#ZONE                            RUN_1:   ZONE NAME
TOP .                        374.0000:   TOP DEPTH
BOT .                       6106.5000:   BOTTOM DEPTH
RUN .                               1:   RUN NUMBER
LCCD.                             440:   LOGGING CONTRACTOR
SRVC.                    Schlumberger:   LOGGING CONT NAME
DICO.          QC Data Collectors Ltd:   DIG COMPANY NAME
LDAT.                      01/06/1988:   DATE LOGGED
ELD .F                       104.0000:   LOG DATUM ELEVATION
TDD .F                      1005.0000:   TOTAL DEPTH DRILLER
TDL .F                      1004.0000:   TOTAL DEPTH LOGGER
BOTL.F                       998.0000:   BOTTOM DEPTH LOGGED
TOPL.F                       400.0000:   TOP DEPTH LOGGED
CS1 .IN                       30.0000:   CASING SIZE 1
BS1 .IN                       16.0000:   BIT SIZE 1
DDB1.F                      1005.0000:   DEPTH DRILLED BIT 1
BHF .                              80:   FLUID CODE
DPT .                      Salt Water:   DRILLING FLUID TYPE
MUDD.                          9.1000:   FLUID DENSITY
MUDV.                         34.0000:   FLUID VISCOSITY
DFPH.                          8.0000:   FLUID PH
RM  .OHMM                       .3900:   RM
RMT .DEGF                     76.0000:   RM TEMP
RMF .OHMM                       .3300:   RMF
RMFT.DEGF                     76.0000:   RMF TEMP
FSC .                               M:   RMF CODE
RMC .OHMM                       .3300:   RMC
RMCT.DEGF                     76.0000:   RMC TEMP
CMC .                               M:   RMC CODE
TMAX.DEGF                     86.0000:   MAX REC TEMP
TIMC.                          1.7500:   TIME SINCE CIRCLN
~PARAMETER INFORMATION (zones)
#MNEM.UNIT                       Value     Description
#=========                       =====     ===========
#ZONATION                          LDT:   ZONATION NAME
#ZONE                            RUN_3:   ZONE NAME
TOP .                       4521.0000:   TOP DEPTH
BOT .                       6106.5000:   BOTTOM DEPTH
RUN .                               3:   RUN NUMBER
LCCD.                             440:   LOGGING CONTRACTOR
SRVC.                    Schlumberger:   LOGGING CONT NAME
DICO.          QC Data Collectors Ltd:   DIG COMPANY NAME
LDAT.                      01/23/1988:   DATE LOGGED
ELD .F                       104.0000:   LOG DATUM ELEVATION
TDD .F                      6111.0000:   TOTAL DEPTH DRILLER
TDL .F                      6108.0000:   TOTAL DEPTH LOGGER
BOTL.F                      6106.0000:   BOTTOM DEPTH LOGGED
TOPL.F                      4594.0000:   TOP DEPTH LOGGED
CS1 .IN                       13.3750:   CASING SIZE 1
BS1 .IN                       12.2500:   BIT SIZE 1
DDB1.F                      6111.0000:   DEPTH DRILLED BIT 1
BHF .                              80:   FLUID CODE
DPT .                      Salt Water:   DRILLING FLUID TYPE
MUDD.                         12.7000:   FLUID DENSITY
MUDV.                         58.0000:   FLUID VISCOSITY
DFPH.                          9.5000:   FLUID PH
FL  .                          4.8000:   FLUID LOSS
RM  .OHMM                       .7700:   RM
RMT .DEGF                     64.0000:   RM TEMP
RMF .OHMM                       .4900:   RMF
RMFT.DEGF                     64.0000:   RMF TEMP
FSC .                               M:   RMF CODE
RMC .OHMM                      1.0900:   RMC
RMCT.DEGF                     64.0000:   RMC TEMP
CMC .                               M:   RMC CODE
TMAX.DEGF                    138.0000:   MAX REC TEMP
TIMC.                          7.5000:   TIME SINCE CIRCLN
~Curve Information Block
#MNEM.UNIT                    API CODE    No Description
#=========                    ========    == ===========
DEPT.F                   00 001 00 00:     1  DEPTH
NPHI.DEC                              :     2  Neutron Porosity
DT.US/F                              :     3  Sonic Transit Time
GR.GAPI                              :     4  Gamma Ray
ILD.OHMM                             :     5  Deep Induction Resistivity
ILM.OHMM                             :     6  Medium Induction Resistivity
SFL.OHMM                             :     7  Medium Resistivity
SP.MV                                :     8  Spontaneous Potential
CALI.IN                              :     9  Caliper
DPHI.DEC                              :    10  Porosity
DRHO.G/C3                            :    11  Bulk Density Correction
GR.GAPI                              :    12  Gamma Ray
~ASCII
# ...
 4766.0000      .4474   119.6606  -999.2500      .8051      .8533      .9234   -69.3738    13.2215      .2371      .0047    68.4829
 4766.5000      .4686   119.0237  -999.2500      .8231      .8641      .9168   -68.6693    13.3019      .2314      .0019    70.0894
 4767.0000      .4816   118.2920  -999.2500      .8396      .8778      .9113   -68.0005    13.3842      .2323     -.0013    68.3162
 4767.5000      .4810   118.4684  -999.2500      .8502      .8892      .8999   -67.6516    13.4698      .2361     -.0028    66.9413
 4768.0000      .4692   120.2338  -999.2500      .8591      .8934      .9114   -67.4023    13.5428      .2401     -.0040    66.4244
 4768.5000      .4430   122.9237  -999.2500      .8628      .8872      .9302   -67.4346    13.6018      .2434     -.0044    66.3488
 4769.0000      .4312   125.1896  -999.2500      .8664      .8784      .9532   -67.4836    13.6405      .2462     -.0046    64.4855
 4769.5000      .4256   125.2937  -999.2500      .8690      .8765      .9650   -67.6720    13.6630      .2486     -.0055    62.1180
 4770.0000      .4242   123.7090  -999.2500      .8714      .8793      .9711   -67.8726    13.6822      .2502     -.0065    60.2909
 4770.5000      .4468   122.7301  -999.2500      .8768      .8807      .9684   -67.8538    13.7080      .2499     -.0045    61.6695
 4771.0000      .4637   122.2053  -999.2500      .8836      .8810      .9571   -67.7590    13.7492      .2462     -.0005    63.9855
 4771.5000      .4720   122.0640  -999.2500      .8881      .8806      .9538   -67.2063    13.8965      .2413      .0028    65.3225
 4772.0000      .4662   121.5892  -999.2500      .8916      .8842      .9555   -66.6648    14.1031      .2387      .0036    65.0173
 4772.5000      .4456   120.5709  -999.2500      .8946      .8903      .9642   -66.3224    14.3199      .2381      .0032    62.2201
 4773.0000      .4375   119.8336  -999.2500      .8974      .8964      .9629   -65.9796    14.4866      .2377      .0031    62.6443
 4773.5000      .4365   119.3103  -999.2500      .9011      .9025      .9574   -65.7004    14.5816      .2373      .0012    62.8928
 4774.0000      .4437   118.9938  -999.2500      .9056      .9082      .9493   -65.4869    14.6234      .2441     -.0024    62.3827
 4774.5000      .4600   118.2526  -999.2500      .9070      .9105      .9446   -65.4729    14.6042      .2498     -.0056    61.1585
 4775.0000      .4779   117.2811  -999.2500      .9060      .9129      .9553   -65.7831    14.5656      .2526     -.0043    60.7357
 4775.5000      .5015   116.2567  -999.2500      .9049      .9132      .9681   -66.0874    14.5224      .2556     -.0018    61.4771
 4776.0000      .5089   115.5287  -999.2500      .9022      .9128      .9856   -66.3611    14.4823      .2599      .0008    61.7635
 4776.5000      .4969   116.0964  -999.2500      .8995      .9123      .9970   -66.5344    14.4444      .2626      .0036    60.8484
 4777.0000      .4793   117.7792  -999.2500      .8969      .9119      .9889   -66.3359    14.4547      .2628      .0055    59.9055
 4777.5000      .4634   119.8762  -999.2500      .8948      .9076      .9753   -66.2581    14.6229      .2626      .0081    59.6849
 4778.0000      .4569   121.7377  -999.2500      .8927      .9023      .9533   -66.2926    14.8746      .2627      .0104    59.7828
 4778.5000      .4594   122.5251  -999.2500      .8911      .8968      .9329   -66.6992    15.0379      .2626      .0125    59.6824
 4779.0000      .4703   121.3728  -999.2500      .8907      .8912      .9151   -67.1401    15.0962      .2630      .0144    58.6157
 4779.5000      .4855   119.3030  -999.2500      .8903      .8889      .8994   -67.0583    15.0915      .2681      .0165    57.9695
 4780.0000      .4969   117.5475  -999.2500      .8893      .8870      .8898   -66.8530    14.9536      .2809      .0178    58.4589
 4780.5000      .5004   116.4120  -999.2500      .8878      .8893      .9102   -66.6411    14.7706      .2889      .0182    60.4722
 4781.0000      .4984   116.9705  -999.2500      .8863      .8928      .9416   -66.9237    14.6782      .2860      .0182    60.6665
 4781.5000      .4849   118.2625  -999.2500      .8851      .8980      .9604   -67.2173    14.6247      .2707      .0176    59.7578
 4782.0000      .4713   119.0298  -999.2500      .8842      .9039      .9564   -67.5330    14.5732      .2626      .0171    59.2609
 4782.5000      .4637   118.5743  -999.2500      .8832      .9084      .9352   -67.8346    14.4961      .2650      .0136    61.1033
 4783.0000      .4557   117.8976  -999.2500      .8819      .9120      .9249   -68.0586    14.2496      .2807      .0075    63.5909
 4783.5000      .4512   118.2415  -999.2500      .8804      .9085      .9675   -68.2521    14.0202      .2841      .0012    65.4597
 4784.0000      .4495   120.7539  -999.2500      .8789      .9005     1.0152   -68.2412    14.0493      .2797     -.0029    66.5105
 4784.5000      .4533   123.7423  -999.2500      .8765      .8916     1.0096   -68.1693    14.2893      .2652     -.0042    66.5133
 4785.0000      .4643   125.1884  -999.2500      .8740      .8826      .9380   -67.9329    14.6935      .2803     -.0040    65.9303
 4785.5000      .4737   122.5439  -999.2500      .8714      .8761      .8975   -67.6979    14.9957      .3023     -.0026    64.9071
 4786.0000      .4738   118.8850  -999.2500      .8684      .8708      .8879   -67.4968    15.1416      .3103     -.0023    63.4451
 4786.5000      .4715   116.6783  -999.2500      .8653      .8711      .8860   -67.2957    15.1945      .3152     -.0038    61.4465
 4787.0000      .4713   115.7075  -999.2500      .8623      .8714      .8892   -67.3906    15.1697      .3170     -.0070    59.5900
 4787.5000      .4733   116.6278  -999.2500      .8658      .8752      .8926   -67.5562    15.1633      .3186     -.0094    59.5299
 4788.0000      .4758   118.8160  -999.2500      .8700      .8798      .8974   -67.5300    15.2289      .3181     -.0090    60.1104
 4788.5000      .4773   121.1559  -999.2500      .8782      .8874      .9035   -67.2894    15.3481      .3159     -.0053    60.2181
 4789.0000      .4783   122.6580  -999.2500      .8864      .8969      .9133   -66.8607    15.3223      .3273     -.0029    60.1753
 4789.5000      .4786   122.6290  -999.2500      .8901      .9081      .9120   -66.4729    15.2204      .3372     -.0025    60.7553
 4790.0000      .4756   121.3778  -999.2500      .8883      .9186      .8989   -66.6135    14.9648      .3377     -.0018    61.9820
 4790.5000      .4585   120.2657  -999.2500      .8777      .9236      .9017   -67.4746    14.5935      .3252      .0001    62.4979
 4791.0000      .4388   122.8077  -999.2500      .8605      .9227      .9406   -67.7229    14.3607      .3013      .0021    61.3619
 4791.5000      .4217   129.5339  -999.2500      .8513      .9175     1.0081   -67.7596    14.1580      .2745     -.0029    60.3938
 4792.0000      .4239   128.7375  -999.2500      .8488      .9117      .9856   -67.7920    14.2090      .2567     -.0120    60.8901
 4792.5000      .4451   125.4312  -999.2500      .8589      .9085      .9388   -68.2510    14.2663      .2528     -.0119    63.2356
 4793.0000      .4568   122.3936  -999.2500      .8689      .9103      .8856   -69.1379    14.2618      .2713     -.0072    65.3978
 4793.5000      .4628   119.1587  -999.2500      .8790      .9157      .8554   -70.6440    14.0428      .2899     -.0014    65.7653
 4794.0000      .4574   116.1371  -999.2500      .8774      .9326      .8705   -72.3945    13.6296      .2956      .0034    65.6395
 4794.5000      .4354   115.1725  -999.2500      .8660      .9554      .9429   -74.6782    13.2980      .2799      .0048    64.5161
 4795.0000      .4135   116.6389  -999.2500      .8453      .9882     1.1171   -76.3182    13.1685      .2621      .0015    62.0911
 4795.5000      .3906   120.5875  -999.2500      .8410      .9915     1.2605   -76.7749    13.1264      .2505     -.0048    59.4147
 4796.0000      .4040   122.2124  -999.2500      .8428      .9564     1.2317   -77.0795    13.1489      .2541     -.0120    58.3375
