~VERSION INFORMATION
VERS.                             2.0:   CWLS Log ASCII Standard-VERSION 2.0
WRAP.                              NO:   One line per depth step
~Well Information Block
STRT.F                       374.0000:   Top Depth
STOP.F                      6106.0000:   Bottom Depth
STEP.F                         .50000:   Depth Increment
NULL.                        -999.250:   Null Value
FLD .                    MU BLK A 139:   Field Name
WELL.       OCSG06030   002 ST00 BP00:   NAME
API .                    427124009600:   WELL API
EDF .F                       103.0000:   ELEV DRILL FLOOR
COMP.       CITIES SERVICE OIL AND GA:   OPERATOR
BN  .                           A 139:   BLOCK
CTRY.                             USA:   COUNTRY NAME
CNTY.                        M I E AD:   COUNTY NAME
EKB .F                       104.0000:   ELEV KELLY BUSHING
TDD .F                       6111.000:   FINAL TD DRILLER
STAT.                           TEXAS:   STATE NAME
UWI .                    427124009600:   WELL API
DICO.               IHS : Digitizing Company
~PARAMETER INFORMATION (zones)
#MNEM.UNIT                       Value     Description
#=========                       =====     ===========
#ZONATION                          CNL:   ZONATION NAME
#ZONE                            RUN_2:   ZONE NAME
TOP .                       4521.0000:   TOP DEPTH
BOT .                       6106.5000:   BOTTOM DEPTH
RUN .                               2:   RUN NUMBER
LCCD.                             440:   LOGGING CONTRACTOR
SRVC.                    Schlumberger:   LOGGING CONT NAME
DICO.          QC Data Collectors Ltd:   DIG COMPANY NAME
LDAT.                      01/11/1988:   DATE LOGGED
ELD .F                       104.0000:   LOG DATUM ELEVATION
TDD .F                      4594.0000:   TOTAL DEPTH DRILLER
TDL .F                      2007.0000:   TOTAL DEPTH LOGGER
BOTL.F                      1998.0000:   BOTTOM DEPTH LOGGED
TOPL.F                      1006.0000:   TOP DEPTH LOGGED
CS1 .IN                       20.0000:   CASING SIZE 1
BS1 .IN                       17.5000:   BIT SIZE 1
DDB1.F                      4594.0000:   DEPTH DRILLED BIT 1
BHF .                              80:   FLUID CODE
DPT .                      Salt Water:   DRILLING FLUID TYPE
MUDD.                          9.3000:   FLUID DENSITY
MUDV.                         52.0000:   FLUID VISCOSITY
DFPH.                          8.0000:   FLUID PH
FL  .                         16.8000:   FLUID LOSS
RM  .OHMM                       .3600:   RM
RMT .DEGF                     53.0000:   RM TEMP
RMF .OHMM                       .3200:   RMF
RMFT.DEGF                     52.0000:   RMF TEMP
FSC .                               M:   RMF CODE
RMC .OHMM                       .5700:   RMC
RMCT.DEGF                     53.0000:   RMC TEMP
TMAX.DEGF                    100.0000:   MAX REC TEMP
TIMC.                          2.5000:   TIME SINCE CIRCLN
~PARAMETER INFORMATION (zones)
#MNEM.UNIT                       Value     Description
#=========                       =====     ===========
#ZONATION                          DIL:   ZONATION NAME
#ZONE                            RUN_1:   ZONE NAME
TOP .                        374.0000:   TOP DEPTH
BOT .                       6106.5000:   BOTTOM DEPTH
RUN .                               1:   RUN NUMBER
LCCD.                             440:   LOGGING CONTRACTOR
SRVC.                    Schlumberger:   LOGGING CONT NAME
DICO.          QC Data Collectors Ltd:   DIG COMPANY NAME
LDAT.                      01/06/1988:   DATE LOGGED
ELD .F                       104.0000:   LOG DATUM ELEVATION
TDD .F                      1005.0000:   TOTAL DEPTH DRILLER
TDL .F                      1004.0000:   TOTAL DEPTH LOGGER
BOTL.F                       998.0000:   BOTTOM DEPTH LOGGED
TOPL.F                       400.0000:   TOP DEPTH LOGGED
CS1 .IN                       30.0000:   CASING SIZE 1
BS1 .IN                       16.0000:   BIT SIZE 1
DDB1.F                      1005.0000:   DEPTH DRILLED BIT 1
BHF .                              80:   FLUID CODE
DPT .                      Salt Water:   DRILLING FLUID TYPE
MUDD.                          9.1000:   FLUID DENSITY
MUDV.                         34.0000:   FLUID VISCOSITY
DFPH.                          8.0000:   FLUID PH
RM  .OHMM                       .3900:   RM
RMT .DEGF                     76.0000:   RM TEMP
RMF .OHMM                       .3300:   RMF
RMFT.DEGF                     76.0000:   RMF TEMP
FSC .                               M:   RMF CODE
RMC .OHMM                       .3300:   RMC
RMCT.DEGF                     76.0000:   RMC TEMP
CMC .                               M:   RMC CODE
TMAX.DEGF                     86.0000:   MAX REC TEMP
TIMC.                          1.7500:   TIME SINCE CIRCLN
~PARAMETER INFORMATION (zones)
#MNEM.UNIT                       Value     Description
#=========                       =====     ===========
#ZONATION                          LDT:   ZONATION NAME
#ZONE                            RUN_3:   ZONE NAME
TOP .                       4521.0000:   TOP DEPTH
BOT .                       6106.5000:   BOTTOM DEPTH
RUN .                               3:   RUN NUMBER
LCCD.                             440:   LOGGING CONTRACTOR
SRVC.                    Schlumberger:   LOGGING CONT NAME
DICO.          QC Data Collectors Ltd:   DIG COMPANY NAME
LDAT.                      01/23/1988:   DATE LOGGED
ELD .F                       104.0000:   LOG DATUM ELEVATION
TDD .F                      6111.0000:   TOTAL DEPTH DRILLER
TDL .F                      6108.0000:   TOTAL DEPTH LOGGER
BOTL.F                      6106.0000:   BOTTOM DEPTH LOGGED
TOPL.F                      4594.0000:   TOP DEPTH LOGGED
CS1 .IN                       13.3750:   CASING SIZE 1
BS1 .IN                       12.2500:   BIT SIZE 1
DDB1.F                      6111.0000:   DEPTH DRILLED BIT 1
BHF .                              80:   FLUID CODE
DPT .                      Salt Water:   DRILLING FLUID TYPE
MUDD.                         12.7000:   FLUID DENSITY
MUDV.                         58.0000:   FLUID VISCOSITY
DFPH.                          9.5000:   FLUID PH
FL  .                          4.8000:   FLUID LOSS
RM  .OHMM                       .7700:   RM
RMT .DEGF                     64.0000:   RM TEMP
RMF .OHMM                       .4900:   RMF
RMFT.DEGF                     64.0000:   RMF TEMP
FSC .                               M:   RMF CODE
RMC .OHMM                      1.0900:   RMC
RMCT.DEGF                     64.0000:   RMC TEMP
CMC .                               M:   RMC CODE
TMAX.DEGF                    138.0000:   MAX REC TEMP
TIMC.                          7.5000:   TIME SINCE CIRCLN
~Curve Information Block
#MNEM.UNIT                    API CODE    No Description
#=========                    ========    == ===========
DEPT.F                   00 001 00 00:     1  DEPTH
NPHI.DEC                              :     2  Neutron Porosity
DT.US/F                              :     3  Sonic Transit Time
GR.GAPI                              :     4  Gamma Ray
ILD.OHMM                             :     5  Deep Induction Resistivity
ILM.OHMM                             :     6  Medium Induction Resistivity
SFL.OHMM                             :     7  Medium Resistivity
SP.MV                                :     8  Spontaneous Potential
CALI.IN                              :     9  Caliper
DPHI.DEC                              :    10  Porosity
DRHO.G/C3                            :    11  Bulk Density Correction
GR.GAPI                              :    12  Gamma Ray
~ASCII
# ...
 1838.0000  -999.2500   167.9194    62.8091      .5871      .5990      .6590   -43.5944  -999.2500  -999.2500  -999.2500  -999.2500
 1838.5000  -999.2500   168.0840    62.0688      .5882      .5972      .6617   -45.0571  -999.2500  -999.2500  -999.2500  -999.2500
 1839.0000  -999.2500   168.3052    60.1644      .5893      .5954      .6647   -46.4102  -999.2500  -999.2500  -999.2500  -999.2500
 1839.5000  -999.2500   168.5706    58.2341      .5904      .5955      .6701   -47.3282  -999.2500  -999.2500  -999.2500  -999.2500
 1840.0000  -999.2500   168.3801    56.9194      .5914      .5956      .6754   -47.9576  -999.2500  -999.2500  -999.2500  -999.2500
 1840.5000  -999.2500   167.5239    56.1909      .5957      .5962      .6786   -48.0913  -999.2500  -999.2500  -999.2500  -999.2500
 1841.0000  -999.2500   166.3245    58.4896      .6022      .5997      .6816   -48.1215  -999.2500  -999.2500  -999.2500  -999.2500
 1841.5000  -999.2500   165.1270    65.1738      .6103      .6032      .6848   -47.9584  -999.2500  -999.2500  -999.2500  -999.2500
 1842.0000  -999.2500   164.2041    69.9740      .6197      .6069      .6898   -47.7952  -999.2500  -999.2500  -999.2500  -999.2500
 1842.5000  -999.2500   164.5840    69.8278      .6284      .6108      .7024   -47.8741  -999.2500  -999.2500  -999.2500  -999.2500
 1843.0000  -999.2500   164.8452    67.9974      .6365      .6150      .7110   -47.9802  -999.2500  -999.2500  -999.2500  -999.2500
 1843.5000  -999.2500   164.8511    63.8698      .6430      .6193      .7123   -48.0181  -999.2500  -999.2500  -999.2500  -999.2500
 1844.0000  -999.2500   164.5837    58.4259      .6483      .6254      .7105   -47.9951  -999.2500  -999.2500  -999.2500  -999.2500
 1844.5000  -999.2500   165.2927    55.3450      .6559      .6317      .7042   -47.4750  -999.2500  -999.2500  -999.2500  -999.2500
 1845.0000  -999.2500   165.7529    54.8162      .6645      .6389      .7016   -46.8991  -999.2500  -999.2500  -999.2500  -999.2500
 1845.5000  -999.2500   164.7107    54.1295      .6756      .6481      .7017   -46.1672  -999.2500  -999.2500  -999.2500  -999.2500
 1846.0000  -999.2500   162.5020    51.8692      .6869      .6633      .7165   -45.0007  -999.2500  -999.2500  -999.2500  -999.2500
 1846.5000  -999.2500   159.9639    50.0850      .6984      .6808      .7446   -44.4230  -999.2500  -999.2500  -999.2500  -999.2500
 1847.0000  -999.2500   157.7200    51.2050      .7089      .6986      .7693   -44.5190  -999.2500  -999.2500  -999.2500  -999.2500
 1847.5000  -999.2500   158.1033    54.9073      .7166      .7092      .7801   -44.8760  -999.2500  -999.2500  -999.2500  -999.2500
 1848.0000  -999.2500   160.5371    56.7834      .7244      .7173      .7684   -45.3715  -999.2500  -999.2500  -999.2500  -999.2500
 1848.5000  -999.2500   162.8528    57.4671      .7246      .7185      .7596   -45.5174  -999.2500  -999.2500  -999.2500  -999.2500
 1849.0000  -999.2500   164.0945    57.6771      .7247      .7188      .7531   -45.1117  -999.2500  -999.2500  -999.2500  -999.2500
 1849.5000  -999.2500   163.7397    58.9627      .7236      .7156      .7628   -44.0258  -999.2500  -999.2500  -999.2500  -999.2500
 1850.0000  -999.2500   161.7424    61.3709      .7191      .7118      .7754   -43.3276  -999.2500  -999.2500  -999.2500  -999.2500
 1850.5000  -999.2500   160.3115    61.2711      .7146      .7058      .7894   -44.6135  -999.2500  -999.2500  -999.2500  -999.2500
 1851.0000  -999.2500   159.8079    59.0632      .7099      .7019      .7901   -45.7603  -999.2500  -999.2500  -999.2500  -999.2500
 1851.5000  -999.2500   160.9644    57.0021      .7051      .6992      .7820   -46.7355  -999.2500  -999.2500  -999.2500  -999.2500
 1852.0000  -999.2500   162.8032    55.9736      .7007      .6968      .7638   -47.6014  -999.2500  -999.2500  -999.2500  -999.2500
 1852.5000  -999.2500   164.2290    56.1118      .6979      .6937      .7452   -48.3943  -999.2500  -999.2500  -999.2500  -999.2500
 1853.0000  -999.2500   165.0066    57.7108      .6951      .6906      .7270   -48.7348  -999.2500  -999.2500  -999.2500  -999.2500
 1853.5000  -999.2500   165.7600    60.8353      .6918      .6875      .7128   -48.7372  -999.2500  -999.2500  -999.2500  -999.2500
 1854.0000  -999.2500   166.2498    64.2117      .6881      .6859      .7003   -48.3338  -999.2500  -999.2500  -999.2500  -999.2500
 1854.5000  -999.2500   165.6589    65.4143      .6843      .6853      .6960   -47.9185  -999.2500  -999.2500  -999.2500  -999.2500
 1855.0000  -999.2500   164.4080    65.5128      .6791      .6850      .6980   -47.4987  -999.2500  -999.2500  -999.2500  -999.2500
 1855.5000  -999.2500   163.2234    65.3254      .6739      .6849      .7090   -47.2217  -999.2500  -999.2500  -999.2500  -999.2500
 1856.0000  -999.2500   162.7039    64.9777      .6690      .6825      .7216   -47.0424  -999.2500  -999.2500  -999.2500  -999.2500
 1856.5000  -999.2500   162.6335    58.1857      .6646      .6789      .7276   -46.8232  -999.2500  -999.2500  -999.2500  -999.2500
 1857.0000  -999.2500   163.8286    54.1395      .6602      .6743      .7182   -46.5817  -999.2500  -999.2500  -999.2500  -999.2500
 1857.5000  -999.2500   165.3069    52.5237      .6559      .6686      .7077   -46.1330  -999.2500  -999.2500  -999.2500  -999.2500
 1858.0000  -999.2500   166.6270    55.6433      .6515      .6634      .6966   -45.6759  -999.2500  -999.2500  -999.2500  -999.2500
 1858.5000  -999.2500   167.1284    57.3391      .6469      .6595      .6936   -45.1978  -999.2500  -999.2500  -999.2500  -999.2500
 1859.0000  -999.2500   167.5530    57.5560      .6381      .6528      .6923   -45.1415  -999.2500  -999.2500  -999.2500  -999.2500
 1859.5000  -999.2500   167.8032    57.7812      .6294      .6446      .6878   -45.1843  -999.2500  -999.2500  -999.2500  -999.2500
 1860.0000  -999.2500   168.1919    58.0479      .6205      .6312      .6828   -45.3109  -999.2500  -999.2500  -999.2500  -999.2500
 1860.5000  -999.2500   168.6362    59.1851      .6114      .6188      .6773   -45.6164  -999.2500  -999.2500  -999.2500  -999.2500
 1861.0000  -999.2500   168.7346    62.0400      .6065      .6093      .6726   -45.9767  -999.2500  -999.2500  -999.2500  -999.2500
 1861.5000  -999.2500   167.8984    66.9631      .6028      .6022      .6747   -46.3370  -999.2500  -999.2500  -999.2500  -999.2500
 1862.0000  -999.2500   167.0176    74.4905      .6003      .5993      .6789   -46.0406  -999.2500  -999.2500  -999.2500  -999.2500
 1862.5000  -999.2500   166.2620    79.5275      .5985      .5998      .6872   -45.3367  -999.2500  -999.2500  -999.2500  -999.2500
 1863.0000  -999.2500   166.0847    81.8308      .6001      .6035      .6911   -44.9396  -999.2500  -999.2500  -999.2500  -999.2500
 1863.5000  -999.2500   166.4709    83.4192      .6024      .6070      .6910   -45.5320  -999.2500  -999.2500  -999.2500  -999.2500
 1864.0000  -999.2500   167.2578    83.4363      .6052      .6102      .6921   -46.1108  -999.2500  -999.2500  -999.2500  -999.2500
 1864.5000  -999.2500   168.1580    79.9625      .6082      .6122      .6945   -46.5866  -999.2500  -999.2500  -999.2500  -999.2500
 1865.0000  -999.2500   168.7166    77.2258      .6114      .6138      .7029   -46.9756  -999.2500  -999.2500  -999.2500  -999.2500
 1865.5000  -999.2500   168.0530    76.2402      .6152      .6192      .7119   -47.1324  -999.2500  -999.2500  -999.2500  -999.2500
 1866.0000  -999.2500   166.6606    78.3595      .6190      .6259      .7128   -46.9514  -999.2500  -999.2500  -999.2500  -999.2500
 1866.5000  -999.2500   165.4863    81.2750      .6214      .6336      .7132   -46.5768  -999.2500  -999.2500  -999.2500  -999.2500
 1867.0000  -999.2500   164.7065    85.0890      .6236      .6427      .7131   -45.9527  -999.2500  -999.2500  -999.2500  -999.2500
 1867.5000  -999.2500   164.4592    87.7908      .6256      .6519      .7286   -45.6044  -999.2500  -999.2500  -999.2500  -999.2500
 1868.0000  -999.2500   164.6814    88.8048      .6256      .6613      .7375   -45.5225  -999.2500  -999.2500  -999.2500  -999.2500
