~VERSION INFORMATION
VERS.                             2.0:   CWLS Log ASCII Standard-VERSION 2.0
WRAP.                              NO:   One line per depth step
~Well Information Block
STRT.F                       374.0000:   Top Depth
STOP.F                      6106.0000:   Bottom Depth
STEP.F                         .50000:   Depth Increment
NULL.                        -999.250:   Null Value
FLD .                    MU BLK A 139:   Field Name
WELL.       OCSG06030   002 ST00 BP00:   NAME
API .                    427124009600:   WELL API
EDF .F                       103.0000:   ELEV DRILL FLOOR
COMP.       CITIES SERVICE OIL AND GA:   OPERATOR
BN  .                           A 139:   BLOCK
CTRY.                             USA:   COUNTRY NAME
CNTY.                        M I E AD:   COUNTY NAME
EKB .F                       104.0000:   ELEV KELLY BUSHING
TDD .F                       6111.000:   FINAL TD DRILLER
STAT.                           TEXAS:   STATE NAME
UWI .                    427124009600:   WELL API
DICO.               IHS : Digitizing Company
~PARAMETER INFORMATION (zones)
#MNEM.UNIT                       Value     Description
#=========                       =====     ===========
#ZONATION                          CNL:   ZONATION NAME
#ZONE                            RUN_2:   ZONE NAME
TOP .                       4521.0000:   TOP DEPTH
BOT .                       6106.5000:   BOTTOM DEPTH
RUN .                               2:   RUN NUMBER
LCCD.                             440:   LOGGING CONTRACTOR
SRVC.                    Schlumberger:   LOGGING CONT NAME
DICO.          QC Data Collectors Ltd:   DIG COMPANY NAME
LDAT.                      01/11/1988:   DATE LOGGED
ELD .F                       104.0000:   LOG DATUM ELEVATION
TDD .F                      4594.0000:   TOTAL DEPTH DRILLER
TDL .F                      2007.0000:   TOTAL DEPTH LOGGER
BOTL.F                      1998.0000:   BOTTOM DEPTH LOGGED
TOPL.F                      1006.0000:   TOP DEPTH LOGGED
CS1 .IN                       20.0000:   CASING SIZE 1
BS1 .IN                       17.5000:   BIT SIZE 1
DDB1.F                      4594.0000:   DEPTH DRILLED BIT 1
BHF .                              80:   FLUID CODE
DPT .                      Salt Water:   DRILLING FLUID TYPE
MUDD.                          9.3000:   FLUID DENSITY
MUDV.                         52.0000:   FLUID VISCOSITY
DFPH.                          8.0000:   FLUID PH
FL  .                         16.8000:   FLUID LOSS
RM  .OHMM                       .3600:   RM
RMT .DEGF                     53.0000:   RM TEMP
RMF .OHMM                       .3200:   RMF
RMFT.DEGF                     52.0000:   RMF TEMP
FSC .                               M:   RMF CODE
RMC .OHMM                       .5700:   RMC
RMCT.DEGF                     53.0000:   RMC TEMP
TMAX.DEGF                    100.0000:   MAX REC TEMP
TIMC.                          2.5000:   TIME SINCE CIRCLN
~PARAMETER INFORMATION (zones)
#MNEM.UNIT                       Value     Description
#=========                       =====     ===========
#ZONATION                          DIL:   ZONATION NAME
#ZONE                            RUN_1:   ZONE NAME
TOP .                        374.0000:   TOP DEPTH
BOT .                       6106.5000:   BOTTOM DEPTH
RUN .                               1:   RUN NUMBER
LCCD.                             440:   LOGGING CONTRACTOR
SRVC.                    Schlumberger:   LOGGING CONT NAME
DICO.          QC Data Collectors Ltd:   DIG COMPANY NAME
LDAT.                      01/06/1988:   DATE LOGGED
ELD .F                       104.0000:   LOG DATUM ELEVATION
TDD .F                      1005.0000:   TOTAL DEPTH DRILLER
TDL .F                      1004.0000:   TOTAL DEPTH LOGGER
BOTL.F                       998.0000:   BOTTOM DEPTH LOGGED
TOPL.F                       400.0000:   TOP DEPTH LOGGED
CS1 .IN                       30.0000:   CASING SIZE 1
BS1 .IN                       16.0000:   BIT SIZE 1
DDB1.F                      1005.0000:   DEPTH DRILLED BIT 1
BHF .                              80:   FLUID CODE
DPT .                      Salt Water:   DRILLING FLUID TYPE
MUDD.                          9.1000:   FLUID DENSITY
MUDV.                         34.0000:   FLUID VISCOSITY
DFPH.                          8.0000:   FLUID PH
RM  .OHMM                       .3900:   RM
RMT .DEGF                     76.0000:   RM TEMP
RMF .OHMM                       .3300:   RMF
RMFT.DEGF                     76.0000:   RMF TEMP
FSC .                               M:   RMF CODE
RMC .OHMM                       .3300:   RMC
RMCT.DEGF                     76.0000:   RMC TEMP
CMC .                               M:   RMC CODE
TMAX.DEGF                     86.0000:   MAX REC TEMP
TIMC.                          1.7500:   TIME SINCE CIRCLN
~PARAMETER INFORMATION (zones)
#MNEM.UNIT                       Value     Description
#=========                       =====     ===========
#ZONATION                          LDT:   ZONATION NAME
#ZONE                            RUN_3:   ZONE NAME
TOP .                       4521.0000:   TOP DEPTH
BOT .                       6106.5000:   BOTTOM DEPTH
RUN .                               3:   RUN NUMBER
LCCD.                             440:   LOGGING CONTRACTOR
SRVC.                    Schlumberger:   LOGGING CONT NAME
DICO.          QC Data Collectors Ltd:   DIG COMPANY NAME
LDAT.                      01/23/1988:   DATE LOGGED
ELD .F                       104.0000:   LOG DATUM ELEVATION
TDD .F                      6111.0000:   TOTAL DEPTH DRILLER
TDL .F                      6108.0000:   TOTAL DEPTH LOGGER
BOTL.F                      6106.0000:   BOTTOM DEPTH LOGGED
TOPL.F                      4594.0000:   TOP DEPTH LOGGED
CS1 .IN                       13.3750:   CASING SIZE 1
BS1 .IN                       12.2500:   BIT SIZE 1
DDB1.F                      6111.0000:   DEPTH DRILLED BIT 1
BHF .                              80:   FLUID CODE
DPT .                      Salt Water:   DRILLING FLUID TYPE
MUDD.                         12.7000:   FLUID DENSITY
MUDV.                         58.0000:   FLUID VISCOSITY
DFPH.                          9.5000:   FLUID PH
FL  .                          4.8000:   FLUID LOSS
RM  .OHMM                       .7700:   RM
RMT .DEGF                     64.0000:   RM TEMP
RMF .OHMM                       .4900:   RMF
RMFT.DEGF                     64.0000:   RMF TEMP
FSC .                               M:   RMF CODE
RMC .OHMM                      1.0900:   RMC
RMCT.DEGF                     64.0000:   RMC TEMP
CMC .                               M:   RMC CODE
TMAX.DEGF                    138.0000:   MAX REC TEMP
TIMC.                          7.5000:   TIME SINCE CIRCLN
~Curve Information Block
#MNEM.UNIT                    API CODE    No Description
#=========                    ========    == ===========
DEPT.F                   00 001 00 00:     1  DEPTH
NPHI.DEC                              :     2  Neutron Porosity
DT.US/F                              :     3  Sonic Transit Time
GR.GAPI                              :     4  Gamma Ray
ILD.OHMM                             :     5  Deep Induction Resistivity
ILM.OHMM                             :     6  Medium Induction Resistivity
SFL.OHMM                             :     7  Medium Resistivity
SP.MV                                :     8  Spontaneous Potential
CALI.IN                              :     9  Caliper
DPHI.DEC                              :    10  Porosity
DRHO.G/C3                            :    11  Bulk Density Correction
GR.GAPI                              :    12  Gamma Ray
~ASCII
# ...
 5406.5000      .3823   109.9401  -999.2500      .8747      .9114      .8815   -55.8019    16.8786      .3263     -.0119    59.9667
 5407.0000      .3862   110.9396  -999.2500      .8805      .9232      .9707   -55.9210    16.4592      .2957     -.0054    60.0803
 5407.5000      .4013   112.2316  -999.2500      .8962      .9299     1.0325   -55.8515    15.8965      .2737     -.0008    58.9189
 5408.0000      .4260   113.4117  -999.2500      .9108      .9342     1.0478   -55.7787    15.3509      .2847      .0012    57.4889
 5408.5000      .4303   113.8583  -999.2500      .9190      .9339     1.0108   -55.6827    15.0577      .3081      .0006    55.7390
 5409.0000      .4309   114.6848  -999.2500      .9214      .9218      .9688   -55.5869    15.2625      .3206     -.0003    54.4006
 5409.5000      .4332   115.4800  -999.2500      .9204      .9155      .9375   -55.4929    16.1095      .3241     -.0011    55.1565
 5410.0000      .4406   115.5978  -999.2500      .9143      .9111      .9272   -55.4514    16.4463      .3134     -.0015    56.4167
 5410.5000      .4583   115.3718  -999.2500      .9041      .9063      .9248   -55.4099    16.4822      .3033     -.0016    58.0616
 5411.0000      .4641   115.7565  -999.2500      .8933      .9016      .9224   -55.2952    16.3012      .3087     -.0020    57.7832
 5411.5000      .4765   116.2666  -999.2500      .8814      .8914      .9129   -55.1203    15.9898      .3224     -.0043    54.0513
 5412.0000      .4858   116.8706  -999.2500      .8697      .8807      .8946   -54.9454    15.9159      .3357     -.0089    52.2992
 5412.5000      .4825   117.3141  -999.2500      .8551      .8724      .8842   -54.7256    15.9643      .3454     -.0127    52.5358
 5413.0000      .4645   117.5416  -999.2500      .8404      .8648      .8784   -54.5029    16.1818      .3577     -.0162    53.7546
 5413.5000      .4554   117.2247  -999.2500      .8210      .8546      .8821   -54.2739    16.4666      .3852     -.0285    54.7037
 5414.0000      .4647   116.7847  -999.2500      .7964      .8400      .8919   -54.0396    16.8178      .4142     -.0402    52.2195
 5414.5000      .4888   117.3292  -999.2500      .7782      .8235      .8810   -53.9025    17.0776      .4255     -.0497    49.3525
 5415.0000      .5004   118.8763  -999.2500      .7637      .8079      .8419   -53.9083    17.3097      .4181     -.0451    49.7973
 5415.5000      .4919   119.5100  -999.2500      .7527      .7930      .8165   -53.7966    17.5373      .3971     -.0376    51.4417
 5416.0000      .4678   119.2499  -999.2500      .7451      .7812      .7978   -53.6456    17.5076      .3769     -.0273    52.3136
 5416.5000      .4514   117.6793  -999.2500      .7456      .7744      .7897   -53.2230    17.1573      .3824     -.0241    51.9710
 5417.0000      .4311   115.2606  -999.2500      .7750      .8022      .7869   -54.5122    16.4827      .3952     -.0283    51.6791
 5417.5000      .4074   111.2589  -999.2500      .8153      .8851      .7996   -55.0386    16.0817      .3955     -.0313    51.7833
 5418.0000      .3574   103.6353  -999.2500      .8665      .9729      .8538   -55.4667    15.7739      .3745     -.0311    51.9401
 5418.5000      .2998    99.5522  -999.2500      .9326     1.0677     1.0750   -55.9513    15.4256      .3285     -.0247    50.8677
 5419.0000      .2783   100.1390  -999.2500     1.0127     1.1505     1.4208   -56.4900    14.7941      .2741     -.0156    49.5616
 5419.5000      .3287   105.1245  -999.2500     1.0680     1.1462     1.7741   -56.9982    13.6071      .2581     -.0078    49.3243
 5420.0000      .3780   111.8358  -999.2500     1.1053     1.0689     1.7168   -57.3265    12.9071      .2676     -.0033    49.8761
 5420.5000      .4730   113.7196  -999.2500     1.1221     1.0247     1.6126   -57.5130    13.0805      .3087     -.0035    50.8027
 5421.0000      .5014   111.9789  -999.2500     1.1252      .9995     1.1629   -57.5111    13.9470      .3404     -.0067    50.5978
 5421.5000      .5064   110.2523  -999.2500     1.1164      .9923      .9817   -57.2550    15.2776      .3625     -.0125    49.2411
 5422.0000      .4983   110.3411  -999.2500     1.0779      .9832      .9262   -56.9743    16.3953      .3761     -.0197    47.5021
 5422.5000      .4934   111.2244  -999.2500     1.0112      .9681      .9499   -56.8895    16.3752      .3787     -.0234    45.6862
 5423.0000      .5059   112.0115  -999.2500      .9662      .9491      .9523   -56.8046    16.3507      .3640     -.0154    43.8582
 5423.5000      .5383   112.5006  -999.2500      .9486      .9323      .9388   -56.7996    16.3444      .3446     -.0089    42.3964
 5424.0000      .5681   112.7848  -999.2500      .9334      .9185      .9251   -56.8055    16.4355      .3403     -.0060    41.4084
 5424.5000      .5360   113.2104  -999.2500      .9243      .9071      .9151   -56.8440    16.8676      .3382     -.0064    41.4542
 5425.0000      .5006   113.4601  -999.2500      .9160      .8983      .9066   -56.9186    17.1566      .3309     -.0087    42.6797
 5425.5000      .4744   113.4426  -999.2500      .9049      .8909      .8998   -56.9553    17.0286      .3142     -.0121    44.4650
 5426.0000      .4554   113.1219  -999.2500      .8920      .8860      .8941   -56.8266    17.0690      .2959     -.0133    45.7198
 5426.5000      .4478   112.7931  -999.2500      .8824      .8828      .8898   -56.7073    17.1890      .2872     -.0132    46.5007
 5427.0000      .4429   112.4584  -999.2500      .8739      .8806      .8923   -56.6445    17.1946      .2846     -.0120    47.9552
 5427.5000      .4472   112.3007  -999.2500      .8671      .8795      .9026   -56.5816    16.9521      .2848     -.0086    50.2999
 5428.0000      .4512   113.3719  -999.2500      .8619      .8765      .9067   -56.5775    16.3874      .2856     -.0055    52.3423
 5428.5000      .4519   114.2029  -999.2500      .8587      .8719      .9036   -56.5834    16.0548      .2871     -.0026    52.4542
 5429.0000      .4533   114.7511  -999.2500      .8562      .8690      .9018   -56.5782    16.0019      .2890     -.0008    52.5987
 5429.5000      .4686   115.1252  -999.2500      .8553      .8687      .9058   -56.5540    16.1107      .2896     -.0010    52.8402
 5430.0000      .4878   115.4054  -999.2500      .8541      .8742      .9081   -56.5298    16.4036      .2896     -.0018    52.9667
 5430.5000      .4896   115.8270  -999.2500      .8516      .8756      .9046   -56.4722    16.4690      .2914     -.0028    53.1660
 5431.0000      .4806   116.1935  -999.2500      .8495      .8720      .8990   -56.4042    16.2807      .2936     -.0037    53.6385
 5431.5000      .4510   116.1488  -999.2500      .8502      .8671      .8859   -56.3126    16.0097      .2950     -.0043    54.8182
 5432.0000      .4311   115.1434  -999.2500      .8562      .8720      .8791   -56.2075    15.7265      .2967     -.0042    57.5536
 5432.5000      .4078   110.8521  -999.2500      .8701      .9045      .8848   -56.2584    15.2671      .2943     -.0034    60.8826
 5433.0000      .3736   106.6482  -999.2500      .9017      .9449      .9067   -56.9279    15.0820      .2927     -.0014    61.7606
 5433.5000      .3555   104.1272  -999.2500      .9384     1.0028      .9421   -57.3723    14.9579      .2890      .0018    59.6467
 5434.0000      .3469   102.0671  -999.2500      .9803     1.0589      .9976   -57.1055    14.8241      .2794      .0057    58.1679
 5434.5000      .3415   102.2891  -999.2500     1.0297     1.0829     1.1099   -56.8115    14.2543      .2639      .0103    56.8698
 5435.0000      .3421   104.1469  -999.2500     1.0652     1.0886     1.2003   -56.6076    13.9456      .2550      .0163    55.3799
 5435.5000      .3541   105.9185  -999.2500     1.0872     1.0902     1.2241   -56.7361    14.0146      .2653      .0229    53.7875
 5436.0000      .3836   107.1768  -999.2500     1.0894     1.0864     1.2032   -56.7155    14.1877      .2902      .0159    53.1113
 5436.5000      .4057   106.7185  -999.2500     1.0827     1.0803     1.1466   -56.5310    15.5385      .3328     -.0064    53.6196
