~VERSION INFORMATION
VERS.                             2.0:   CWLS Log ASCII Standard-VERSION 2.0
WRAP.                              NO:   One line per depth step
~Well Information Block
STRT.F                      5785.0000:   Top Depth
STOP.F                     10595.0000:   Bottom Depth
STEP.F                         .50000:   Depth Increment
NULL.                        -999.250:   Null Value
FLD .                    MU BLK A 153:   Field Name
WELL.       OCSG14788   001 ST00 BP00:   NAME
API .                    427124011300:   WELL API
R1  .                           45310:   COMMENT  1
R2  .                           45310:   COMMENT  2
EDF .F                        95.0000:   ELEV DRILL FLOOR
COMP.         WALTER OIL AND GAS CORP:   OPERATOR
BN  .                           A 153:   BLOCK
CTRY.                             USA:   COUNTRY NAME
CNTY.                        M I E AD:   COUNTY NAME
TDD .F                      10613.000:   FINAL TD DRILLER
STAT.                           TEXAS:   STATE NAME
UWI .                    427124011300:   WELL API
DICO.               IHS : Digitizing Company
~PARAMETER INFORMATION (zones)
#MNEM.UNIT                       Value     Description
#=========                       =====     ===========
#ZONATION                          CNL:   ZONATION NAME
#ZONE                            RUN_2:   ZONE NAME
TOP .                       9494.0000:   TOP DEPTH
BOT .                      10469.5000:   BOTTOM DEPTH
RUN .                               2:   RUN NUMBER
LCCD.                             340:   LOGGING CONTRACTOR
SRVC.                   PAN GEO ATLAS:   LOGGING CONT NAME
DICO.          QC Data Collectors Ltd:   DIG COMPANY NAME
LDAT.                      07/01/1996:   DATE LOGGED
TDD .F                     10500.0000:   TOTAL DEPTH DRILLER
TDL .F                     10504.0000:   TOTAL DEPTH LOGGER
BOTL.F                     10500.0000:   BOTTOM DEPTH LOGGED
TOPL.F                      9350.0000:   TOP DEPTH LOGGED
CS1 .IN                        9.6250:   CASING SIZE 1
BS1 .IN                        8.5000:   BIT SIZE 1
DDB1.F                     10500.0000:   DEPTH DRILLED BIT 1
BHF .                              60:   FLUID CODE
DPT .                        Oil Base:   DRILLING FLUID TYPE
MUDD.                         16.5000:   FLUID DENSITY
MUDV.                         57.0000:   FLUID VISCOSITY
FL  .                          5.4000:   FLUID LOSS
TMAX.DEGF                    238.0000:   MAX REC TEMP
TIMC.                          6.0000:   TIME SINCE CIRCLN
~PARAMETER INFORMATION (zones)
#MNEM.UNIT                       Value     Description
#=========                       =====     ===========
#ZONATION                          DIL:   ZONATION NAME
#ZONE                            RUN_2:   ZONE NAME
TOP .                       9494.0000:   TOP DEPTH
BOT .                      10469.5000:   BOTTOM DEPTH
RUN .                               2:   RUN NUMBER
LCCD.                             340:   LOGGING CONTRACTOR
SRVC.                   PAN GEO ATLAS:   LOGGING CONT NAME
DICO.          QC Data Collectors Ltd:   DIG COMPANY NAME
LDAT.                      07/01/1996:   DATE LOGGED
TDD .F                     10500.0000:   TOTAL DEPTH DRILLER
TDL .F                     10504.0000:   TOTAL DEPTH LOGGER
BOTL.F                     10500.0000:   BOTTOM DEPTH LOGGED
TOPL.F                      9350.0000:   TOP DEPTH LOGGED
CS1 .IN                        9.6250:   CASING SIZE 1
BS1 .IN                        8.5000:   BIT SIZE 1
DDB1.F                     10500.0000:   DEPTH DRILLED BIT 1
BHF .                              60:   FLUID CODE
DPT .                        Oil Base:   DRILLING FLUID TYPE
MUDD.                         16.5000:   FLUID DENSITY
MUDV.                         57.0000:   FLUID VISCOSITY
FL  .                          5.4000:   FLUID LOSS
TMAX.DEGF                    238.0000:   MAX REC TEMP
TIMC.                          6.0000:   TIME SINCE CIRCLN
~PARAMETER INFORMATION (zones)
#MNEM.UNIT                       Value     Description
#=========                       =====     ===========
#ZONATION                          DIL:   ZONATION NAME
#ZONE                            RUN_1:   ZONE NAME
TOP .                       5785.0000:   TOP DEPTH
BOT .                       9493.5000:   BOTTOM DEPTH
RUN .                               1:   RUN NUMBER
LCCD.                             340:   LOGGING CONTRACTOR
SRVC.                   PAN GEO ATLAS:   LOGGING CONT NAME
DICO.          QC Data Collectors Ltd:   DIG COMPANY NAME
LDAT.                      06/23/1996:   DATE LOGGED
TDD .F                      9520.0000:   TOTAL DEPTH DRILLER
TDL .F                      9517.0000:   TOTAL DEPTH LOGGER
BOTL.F                      9515.0000:   BOTTOM DEPTH LOGGED
TOPL.F                      5800.0000:   TOP DEPTH LOGGED
CS1 .IN                       13.3750:   CASING SIZE 1
BS1 .IN                       12.2500:   BIT SIZE 1
DDB1.F                      9520.0000:   DEPTH DRILLED BIT 1
BHF .                              60:   FLUID CODE
DPT .                        Oil Base:   DRILLING FLUID TYPE
MUDD.                         14.8000:   FLUID DENSITY
MUDV.                         56.0000:   FLUID VISCOSITY
FL  .                          6.8000:   FLUID LOSS
TMAX.DEGF                    171.0000:   MAX REC TEMP
TIMC.                          6.0000:   TIME SINCE CIRCLN
~PARAMETER INFORMATION (zones)
#MNEM.UNIT                       Value     Description
#=========                       =====     ===========
#ZONATION                          DIL:   ZONATION NAME
#ZONE                            RUN_3:   ZONE NAME
TOP .                      10469.0000:   TOP DEPTH
BOT .                      10595.5000:   BOTTOM DEPTH
RUN .                               3:   RUN NUMBER
LCCD.                             340:   LOGGING CONTRACTOR
SRVC.                   PAN GEO ATLAS:   LOGGING CONT NAME
DICO.          QC Data Collectors Ltd:   DIG COMPANY NAME
LDAT.                      07/04/1996:   DATE LOGGED
TDD .F                     10613.0000:   TOTAL DEPTH DRILLER
TDL .F                     10596.0000:   TOTAL DEPTH LOGGER
BOTL.F                     10596.0000:   BOTTOM DEPTH LOGGED
TOPL.F                     10000.0000:   TOP DEPTH LOGGED
CS1 .IN                        9.6250:   CASING SIZE 1
BS1 .IN                        8.5000:   BIT SIZE 1
DDB1.F                     10613.0000:   DEPTH DRILLED BIT 1
BHF .                              60:   FLUID CODE
DPT .                        Oil Base:   DRILLING FLUID TYPE
MUDD.                         16.9000:   FLUID DENSITY
MUDV.                         55.0000:   FLUID VISCOSITY
FL  .                          5.0000:   FLUID LOSS
TMAX.DEGF                    240.0000:   MAX REC TEMP
TIMC.                         10.0000:   TIME SINCE CIRCLN
~PARAMETER INFORMATION (zones)
#MNEM.UNIT                       Value     Description
#=========                       =====     ===========
#ZONATION                          FDC:   ZONATION NAME
#ZONE                            RUN_2:   ZONE NAME
TOP .                       9494.0000:   TOP DEPTH
BOT .                      10469.5000:   BOTTOM DEPTH
RUN .                               2:   RUN NUMBER
LCCD.                             340:   LOGGING CONTRACTOR
SRVC.                   PAN GEO ATLAS:   LOGGING CONT NAME
DICO.          QC Data Collectors Ltd:   DIG COMPANY NAME
LDAT.                      07/01/1996:   DATE LOGGED
TDD .F                     10500.0000:   TOTAL DEPTH DRILLER
TDL .F                     10504.0000:   TOTAL DEPTH LOGGER
BOTL.F                     10500.0000:   BOTTOM DEPTH LOGGED
TOPL.F                      9350.0000:   TOP DEPTH LOGGED
CS1 .IN                        9.6250:   CASING SIZE 1
BS1 .IN                        8.5000:   BIT SIZE 1
DDB1.F                     10500.0000:   DEPTH DRILLED BIT 1
BHF .                              60:   FLUID CODE
DPT .                        Oil Base:   DRILLING FLUID TYPE
MUDD.                         16.5000:   FLUID DENSITY
MUDV.                         57.0000:   FLUID VISCOSITY
FL  .                          5.4000:   FLUID LOSS
TMAX.DEGF                    238.0000:   MAX REC TEMP
TIMC.                          6.0000:   TIME SINCE CIRCLN
~Curve Information Block
#MNEM.UNIT                    API CODE    No Description
#=========                    ========    == ===========
DEPT.F                   00 001 00 00:     1  DEPTH
CNCF.%                               :     2  Neutron Porosity
CAL.IN                               :     3  Caliper
CILD.MMHO                            :     4  Deep Induction Conductivity
GR.GAPI                              :     5  Gamma Ray
RILD.OHMM                            :     6  Deep Resistivity
RILM.OHMM                            :     7  Medium Resistivity
RWA.OHMM                             :     8  Apparent Water Resistivity
TEN.LB                               :     9  Cable Tension
PORZ.%                               :    10  Porosity
ZCOR.G/C3                            :    11  Density Correction
ZDEN.G/C3                            :    12  Bulk Density
~ASCII
# ...
 9994.0000    36.0000     9.9451  1642.9824    81.2067      .6140      .6292      .0162   -77.3066    15.0475      .0101     2.4060
 9994.5000    35.7476     9.9466  1641.5371    78.2347      .6117      .6357      .0163   -18.9600    14.9672     -.0022     2.4150
 9995.0000    35.5547     9.9269  1653.9180    74.9976      .6096      .6427      .0155    44.5859    14.4900     -.0012     2.4170
 9995.5000    35.3043     9.9593  1668.1836    74.2813      .6071      .6452      .0148    76.4429    14.1386      .0046     2.4110
 9996.0000    34.9938     9.9680  1679.6094    75.9617      .6045      .6469      .0150    78.5757    14.3503      .0081     2.4050
 9996.5000    34.7571     9.9500  1689.3809    77.9210      .5997      .6453      .0152    59.3511    14.6744      .0111     2.4050
 9997.0000    34.4020     9.9500  1698.1777    78.8203      .5941      .6374      .0160    24.7759    14.8515      .0137     2.4080
 9997.5000    34.1765     9.9680  1709.2754    78.1390      .5856      .6235      .0155   -15.3174    14.7315      .0142     2.4100
 9998.0000    34.2422     9.9208  1729.7695    77.6202      .5847      .6092      .0140   -50.1055    14.5833      .0012     2.4110
 9998.5000    34.6714     9.9563  1761.4512    78.5609      .5873      .5979      .0146   -75.1309    14.4643     -.0026     2.4100
 9999.0000    35.2681     9.9627  1795.0996    81.2484      .5784      .5900      .0147   -85.1099    14.4950     -.0008     2.4090
 9999.5000    35.6828     9.9690  1819.1875    80.9893      .5701      .5868      .0149   -85.1484    14.5850      .0012     2.4130
10000.0000    36.0708     9.9745  1830.7793    80.1577      .5623      .5874      .0143   -60.6274    14.4930      .0048     2.4160
10000.5000    36.1099     9.9752  1832.6172    79.5195      .5547      .5895      .0140   -26.2031    14.2544      .0090     2.4150
10001.0000    36.3206     9.9752  1823.3047    78.5398      .5490      .5918      .0137   -10.8911    14.1980      .0149     2.4160
10001.5000    36.9117     9.9752  1801.6113    78.1602      .5434      .5940      .0139   -15.6675    14.1667      .0163     2.4220
10002.0000    37.6039     9.9752  1777.3301    79.0609      .5461      .5962      .0135   -40.2432    13.9564      .0146     2.4240
10002.5000    37.6633     9.9752  1761.5938    79.6602      .5507      .5985      .0131   -50.3013    13.7500      .0103     2.4190
10003.0000    37.3069     9.9752  1752.7539    79.1187      .5580      .6007      .0135   -50.4951    13.8460      .0077     2.4140
10003.5000    37.4257     9.9752  1745.1406    77.9594      .5657      .6053      .0141   -55.3491    14.1421      .0047     2.4160
10004.0000    37.9604     9.9752  1738.9434    76.3984      .5720      .6100      .0145   -70.1802    14.1667      .0046     2.4180
10004.5000    37.9009     9.9752  1736.0996    73.5961      .5779      .6081      .0144   -75.2476    14.0757      .0056     2.4150
10005.0000    37.7227     9.9752  1736.4238    71.8992      .5814      .5998      .0141   -60.4736    14.1106      .0057     2.4130
10005.5000    37.5446     9.9752  1739.9531    71.9805      .5826      .5938      .0145    23.2402    14.2885      .0040     2.4180
10006.0000    37.3069     9.9746  1748.4336    72.5804      .5829      .5879      .0140    83.1685    14.1950      .0084     2.4240
10006.5000    37.4406     9.9678  1761.3379    73.1602      .5799      .5831      .0135   112.8716    13.8926      .0219     2.4230
10007.0000    37.6336     9.9604  1773.1758    75.3812      .5763      .5806      .0131   102.9702    13.7228      .0317     2.4160
10007.5000    37.7079     9.9530  1779.8066    77.4617      .5713      .5781      .0140    73.2676    13.9687      .0259     2.4070
10008.0000    37.4851     9.9461  1785.0664    79.5850      .5673      .5774      .0141    43.5645    14.4121      .0085     2.4000
10008.5000    36.6980     9.9455  1794.5078    81.0627      .5636      .5767      .0152     9.1421    14.9318     -.0010     2.3990
10009.0000    35.9704     9.9455  1807.6758    80.0077      .5599      .5766      .0160   -25.5937    15.1720     -.0048     2.4010
10009.5000    35.6609     9.9455  1820.3945    78.0320      .5562      .5777      .0155   -63.0420    15.1279     -.0060     2.4010
10010.0000    35.9418     9.9455  1829.0098    76.9969      .5494      .5787      .0155   -61.0742    15.0891     -.0044     2.4020
10010.5000    36.1188     9.9455  1829.4121    77.9846      .5431      .5786      .0154   -46.0786    15.0537     -.0002     2.4060
10011.0000    36.1188     9.8861  1821.0605    79.0000      .5371      .5784      .0150   -48.9414    14.9344      .0069     2.4060
10011.5000    36.0594     9.9158  1811.0000    78.9198      .5388      .5778      .0150   -58.9805    14.7921      .0060     2.4090
10012.0000    36.0000     9.9455  1805.7617    78.3003      .5419      .5771      .0150   -83.0054    14.6959     -.0018     2.4180
10012.5000    36.0000     9.9466  1800.6367    78.1798      .5445      .5765      .0140   -79.7974    14.3398     -.0095     2.4290
10013.0000    35.8235     9.9478  1786.5137    79.5502      .5476      .5773      .0135   -42.7710    13.7398     -.0034     2.4320
10013.5000    35.6470     9.9489  1763.6016    81.4109      .5514      .5780      .0120      .0088    13.3239      .0156     2.4270
10014.0000    35.1765     9.9500  1740.8242    80.6737      .5560      .5825      .0120    13.8613    13.3700      .0165     2.4170
10014.5000    35.0000     9.9500  1722.8789    79.1007      .5621      .5880      .0140     9.8970    13.7647      .0082     2.4110
10015.0000    35.2353     9.9500  1708.3223    77.2406      .5685      .5942      .0145    -4.9546    14.2754      .0024     2.4120
10015.5000    35.2941     9.9500  1697.2168    76.1602      .5778      .6007      .0150   -14.8555    14.4573     -.0012     2.4160
10016.0000    35.0588     9.9200  1693.0645    76.1403      .5873      .6070      .0146   -23.7700    14.2782      .0014     2.4170
10016.5000    34.8235     9.9563  1698.8496    76.4297      .5941      .6107      .0140   -43.5723    14.1386      .0044     2.4170
10017.0000    34.7646     9.9627  1712.7676    76.8999      .5950      .6141      .0144   -41.5801    14.1581      .0135     2.4170
10017.5000    34.8235     9.9690  1729.8535    76.9851      .5941      .6116      .0140   -39.6079    14.1190      .0181     2.4160
10018.0000    35.2941     9.9752  1747.7930    76.2999      .5879      .6090      .0140   -49.5010    14.1775      .0125     2.4110
10018.5000    35.7413     9.9764  1766.5605    75.7999      .5819      .6022      .0144   -55.4453    14.4082      .0026     2.4080
10019.0000    36.3483     9.9776  1784.0625    76.3999      .5761      .5955      .0145   -68.7852    14.6391     -.0109     2.4070
10019.5000    36.8687     9.9788  1797.3398    78.1000      .5705      .5905      .0150   -67.1279    14.7327     -.0098     2.4080
10020.0000    37.4290     9.9800  1803.6738    77.5000      .5653      .5883      .0150   -52.5742    14.7262     -.0040     2.4080
10020.5000    37.8218     9.9800  1801.0684    75.2999      .5614      .5891      .0149   -42.4160    14.6828      .0071     2.4020
10021.0000    37.7379     9.9800  1790.1465    73.8999      .5576      .5908      .0149   -32.2437    14.8756      .0116     2.3980
10021.5000    37.5602     9.9500  1775.9766    74.1000      .5557      .5942      .0154   -39.3218    15.1630      .0068     2.4040
10022.0000    37.4851     9.9800  1768.9043    74.3999      .5550      .5977      .0156   -49.5088    15.0358      .0086     2.4170
10022.5000    37.3691     9.9800  1776.1387    73.2000      .5587      .6009      .0142   -59.4097    14.4818      .0140     2.4260
10023.0000    36.9561     9.9800  1790.5234    71.3999      .5622      .6042      .0131   -65.3467    13.8598      .0195     2.4280
10023.5000    36.5381     9.9800  1800.1387    71.7999      .5639      .6049      .0125   -65.3467    13.4851      .0238     2.4280
10024.0000    36.4743     9.9800  1804.4570    73.1000      .5656      .6046      .0121   -65.3467    13.4047      .0290     2.4340
