~VERSION INFORMATION
VERS.                             2.0:   CWLS Log ASCII Standard-VERSION 2.0
WRAP.                              NO:   One line per depth step
~Well Information Block
STRT.F                       374.0000:   Top Depth
STOP.F                      6106.0000:   Bottom Depth
STEP.F                         .50000:   Depth Increment
NULL.                        -999.250:   Null Value
FLD .                    MU BLK A 139:   Field Name
WELL.       OCSG06030   002 ST00 BP00:   NAME
API .                    427124009600:   WELL API
EDF .F                       103.0000:   ELEV DRILL FLOOR
COMP.       CITIES SERVICE OIL AND GA:   OPERATOR
BN  .                           A 139:   BLOCK
CTRY.                             USA:   COUNTRY NAME
CNTY.                        M I E AD:   COUNTY NAME
EKB .F                       104.0000:   ELEV KELLY BUSHING
TDD .F                       6111.000:   FINAL TD DRILLER
STAT.                           TEXAS:   STATE NAME
UWI .                    427124009600:   WELL API
DICO.               IHS : Digitizing Company
~PARAMETER INFORMATION (zones)
#MNEM.UNIT                       Value     Description
#=========                       =====     ===========
#ZONATION                          CNL:   ZONATION NAME
#ZONE                            RUN_2:   ZONE NAME
TOP .                       4521.0000:   TOP DEPTH
BOT .                       6106.5000:   BOTTOM DEPTH
RUN .                               2:   RUN NUMBER
LCCD.                             440:   LOGGING CONTRACTOR
SRVC.                    Schlumberger:   LOGGING CONT NAME
DICO.          QC Data Collectors Ltd:   DIG COMPANY NAME
LDAT.                      01/11/1988:   DATE LOGGED
ELD .F                       104.0000:   LOG DATUM ELEVATION
TDD .F                      4594.0000:   TOTAL DEPTH DRILLER
TDL .F                      2007.0000:   TOTAL DEPTH LOGGER
BOTL.F                      1998.0000:   BOTTOM DEPTH LOGGED
TOPL.F                      1006.0000:   TOP DEPTH LOGGED
CS1 .IN                       20.0000:   CASING SIZE 1
BS1 .IN                       17.5000:   BIT SIZE 1
DDB1.F                      4594.0000:   DEPTH DRILLED BIT 1
BHF .                              80:   FLUID CODE
DPT .                      Salt Water:   DRILLING FLUID TYPE
MUDD.                          9.3000:   FLUID DENSITY
MUDV.                         52.0000:   FLUID VISCOSITY
DFPH.                          8.0000:   FLUID PH
FL  .                         16.8000:   FLUID LOSS
RM  .OHMM                       .3600:   RM
RMT .DEGF                     53.0000:   RM TEMP
RMF .OHMM                       .3200:   RMF
RMFT.DEGF                     52.0000:   RMF TEMP
FSC .                               M:   RMF CODE
RMC .OHMM                       .5700:   RMC
RMCT.DEGF                     53.0000:   RMC TEMP
TMAX.DEGF                    100.0000:   MAX REC TEMP
TIMC.                          2.5000:   TIME SINCE CIRCLN
~PARAMETER INFORMATION (zones)
#MNEM.UNIT                       Value     Description
#=========                       =====     ===========
#ZONATION                          DIL:   ZONATION NAME
#ZONE                            RUN_1:   ZONE NAME
TOP .                        374.0000:   TOP DEPTH
BOT .                       6106.5000:   BOTTOM DEPTH
RUN .                               1:   RUN NUMBER
LCCD.                             440:   LOGGING CONTRACTOR
SRVC.                    Schlumberger:   LOGGING CONT NAME
DICO.          QC Data Collectors Ltd:   DIG COMPANY NAME
LDAT.                      01/06/1988:   DATE LOGGED
ELD .F                       104.0000:   LOG DATUM ELEVATION
TDD .F                      1005.0000:   TOTAL DEPTH DRILLER
TDL .F                      1004.0000:   TOTAL DEPTH LOGGER
BOTL.F                       998.0000:   BOTTOM DEPTH LOGGED
TOPL.F                       400.0000:   TOP DEPTH LOGGED
CS1 .IN                       30.0000:   CASING SIZE 1
BS1 .IN                       16.0000:   BIT SIZE 1
DDB1.F                      1005.0000:   DEPTH DRILLED BIT 1
BHF .                              80:   FLUID CODE
DPT .                      Salt Water:   DRILLING FLUID TYPE
MUDD.                          9.1000:   FLUID DENSITY
MUDV.                         34.0000:   FLUID VISCOSITY
DFPH.                          8.0000:   FLUID PH
RM  .OHMM                       .3900:   RM
RMT .DEGF                     76.0000:   RM TEMP
RMF .OHMM                       .3300:   RMF
RMFT.DEGF                     76.0000:   RMF TEMP
FSC .                               M:   RMF CODE
RMC .OHMM                       .3300:   RMC
RMCT.DEGF                     76.0000:   RMC TEMP
CMC .                               M:   RMC CODE
TMAX.DEGF                     86.0000:   MAX REC TEMP
TIMC.                          1.7500:   TIME SINCE CIRCLN
~PARAMETER INFORMATION (zones)
#MNEM.UNIT                       Value     Description
#=========                       =====     ===========
#ZONATION                          LDT:   ZONATION NAME
#ZONE                            RUN_3:   ZONE NAME
TOP .                       4521.0000:   TOP DEPTH
BOT .                       6106.5000:   BOTTOM DEPTH
RUN .                               3:   RUN NUMBER
LCCD.                             440:   LOGGING CONTRACTOR
SRVC.                    Schlumberger:   LOGGING CONT NAME
DICO.          QC Data Collectors Ltd:   DIG COMPANY NAME
LDAT.                      01/23/1988:   DATE LOGGED
ELD .F                       104.0000:   LOG DATUM ELEVATION
TDD .F                      6111.0000:   TOTAL DEPTH DRILLER
TDL .F                      6108.0000:   TOTAL DEPTH LOGGER
BOTL.F                      6106.0000:   BOTTOM DEPTH LOGGED
TOPL.F                      4594.0000:   TOP DEPTH LOGGED
CS1 .IN                       13.3750:   CASING SIZE 1
BS1 .IN                       12.2500:   BIT SIZE 1
DDB1.F                      6111.0000:   DEPTH DRILLED BIT 1
BHF .                              80:   FLUID CODE
DPT .                      Salt Water:   DRILLING FLUID TYPE
MUDD.                         12.7000:   FLUID DENSITY
MUDV.                         58.0000:   FLUID VISCOSITY
DFPH.                          9.5000:   FLUID PH
FL  .                          4.8000:   FLUID LOSS
RM  .OHMM                       .7700:   RM
RMT .DEGF                     64.0000:   RM TEMP
RMF .OHMM                       .4900:   RMF
RMFT.DEGF                     64.0000:   RMF TEMP
FSC .                               M:   RMF CODE
RMC .OHMM                      1.0900:   RMC
RMCT.DEGF                     64.0000:   RMC TEMP
CMC .                               M:   RMC CODE
TMAX.DEGF                    138.0000:   MAX REC TEMP
TIMC.                          7.5000:   TIME SINCE CIRCLN
~Curve Information Block
#MNEM.UNIT                    API CODE    No Description
#=========                    ========    == ===========
DEPT.F                   00 001 00 00:     1  DEPTH
NPHI.DEC                              :     2  Neutron Porosity
DT.US/F                              :     3  Sonic Transit Time
GR.GAPI                              :     4  Gamma Ray
ILD.OHMM                             :     5  Deep Induction Resistivity
ILM.OHMM                             :     6  Medium Induction Resistivity
SFL.OHMM                             :     7  Medium Resistivity
SP.MV                                :     8  Spontaneous Potential
CALI.IN                              :     9  Caliper
DPHI.DEC                              :    10  Porosity
DRHO.G/C3                            :    11  Bulk Density Correction
GR.GAPI                              :    12  Gamma Ray
~ASCII
# ...
 1350.0000  -999.2500   177.0596    64.0281      .6268      .6412      .6895   -44.9272  -999.2500  -999.2500  -999.2500  -999.2500
 1350.5000  -999.2500   177.6360    65.9669      .6251      .6400      .6955   -43.9935  -999.2500  -999.2500  -999.2500  -999.2500
 1351.0000  -999.2500   177.9714    64.9736      .6234      .6391      .7034   -43.0654  -999.2500  -999.2500  -999.2500  -999.2500
 1351.5000  -999.2500   178.5305    65.6497      .6226      .6377      .7037   -43.4252  -999.2500  -999.2500  -999.2500  -999.2500
 1352.0000  -999.2500   179.2903    68.1543      .6226      .6359      .7025   -44.6108  -999.2500  -999.2500  -999.2500  -999.2500
 1352.5000  -999.2500   179.6555    70.9828      .6226      .6341      .6972   -45.7795  -999.2500  -999.2500  -999.2500  -999.2500
 1353.0000  -999.2500   179.7258    68.8904      .6218      .6327      .6901   -46.8472  -999.2500  -999.2500  -999.2500  -999.2500
 1353.5000  -999.2500   179.7725    65.9247      .6207      .6312      .6834   -47.8959  -999.2500  -999.2500  -999.2500  -999.2500
 1354.0000  -999.2500   179.8110    63.4666      .6195      .6306      .6820   -48.7478  -999.2500  -999.2500  -999.2500  -999.2500
 1354.5000  -999.2500   179.9294    61.1840      .6189      .6302      .6862   -49.0319  -999.2500  -999.2500  -999.2500  -999.2500
 1355.0000  -999.2500   180.1731    59.9791      .6185      .6300      .6917   -48.7395  -999.2500  -999.2500  -999.2500  -999.2500
 1355.5000  -999.2500   180.4395    59.8518      .6181      .6303      .6990   -48.2928  -999.2500  -999.2500  -999.2500  -999.2500
 1356.0000  -999.2500   180.7229    61.2229      .6177      .6306      .7046   -47.9974  -999.2500  -999.2500  -999.2500  -999.2500
 1356.5000  -999.2500   180.9453    60.3154      .6173      .6308      .7003   -47.9620  -999.2500  -999.2500  -999.2500  -999.2500
 1357.0000  -999.2500   181.1223    57.8297      .6169      .6281      .6942   -48.2834  -999.2500  -999.2500  -999.2500  -999.2500
 1357.5000  -999.2500   181.3328    55.0851      .6163      .6254      .6869   -48.6929  -999.2500  -999.2500  -999.2500  -999.2500
 1358.0000  -999.2500   181.5767    53.6725      .6154      .6229      .6868   -48.6940  -999.2500  -999.2500  -999.2500  -999.2500
 1358.5000  -999.2500   181.8577    54.0242      .6146      .6207      .6895   -47.8751  -999.2500  -999.2500  -999.2500  -999.2500
 1359.0000  -999.2500   182.1895    56.4323      .6120      .6186      .6843   -45.4188  -999.2500  -999.2500  -999.2500  -999.2500
 1359.5000  -999.2500   183.0200    59.3809      .6094      .6177      .6757   -43.0300  -999.2500  -999.2500  -999.2500  -999.2500
 1360.0000  -999.2500   184.0095    61.7881      .6077      .6169      .6628   -41.5582  -999.2500  -999.2500  -999.2500  -999.2500
 1360.5000  -999.2500   185.1008    62.7478      .6068      .6176      .6510   -41.0278  -999.2500  -999.2500  -999.2500  -999.2500
 1361.0000  -999.2500   186.6179    62.0891      .6077      .6177      .6447   -41.1425  -999.2500  -999.2500  -999.2500  -999.2500
 1361.5000  -999.2500   187.1523    59.4630      .6121      .6133      .6585   -42.0202  -999.2500  -999.2500  -999.2500  -999.2500
 1362.0000  -999.2500   187.2830    55.1917      .6161      .6089      .6829   -43.4069  -999.2500  -999.2500  -999.2500  -999.2500
 1362.5000  -999.2500   187.1548    50.9431      .6188      .6042      .6931   -44.5606  -999.2500  -999.2500  -999.2500  -999.2500
 1363.0000  -999.2500   186.6970    48.5263      .6209      .5995      .6893   -45.1169  -999.2500  -999.2500  -999.2500  -999.2500
 1363.5000  -999.2500   186.5789    47.0551      .6178      .5956      .6711   -44.7942  -999.2500  -999.2500  -999.2500  -999.2500
 1364.0000  -999.2500   186.8989    45.9363      .6148      .5928      .6486   -44.3686  -999.2500  -999.2500  -999.2500  -999.2500
 1364.5000  -999.2500   187.5933    46.0502      .6098      .5900      .6347   -44.3043  -999.2500  -999.2500  -999.2500  -999.2500
 1365.0000  -999.2500   188.4824    50.2167      .6049      .5875      .6293   -45.0618  -999.2500  -999.2500  -999.2500  -999.2500
 1365.5000  -999.2500   189.3147    53.4127      .5985      .5850      .6287   -46.0722  -999.2500  -999.2500  -999.2500  -999.2500
 1366.0000  -999.2500   189.9385    55.7574      .5917      .5827      .6289   -47.0352  -999.2500  -999.2500  -999.2500  -999.2500
 1366.5000  -999.2500   190.6318    57.8221      .5871      .5806      .6286   -47.7755  -999.2500  -999.2500  -999.2500  -999.2500
 1367.0000  -999.2500   191.0000    58.2689      .5854      .5788      .6282   -46.8781  -999.2500  -999.2500  -999.2500  -999.2500
 1367.5000  -999.2500   191.0522    57.3392      .5838      .5772      .6290   -45.4025  -999.2500  -999.2500  -999.2500  -999.2500
 1368.0000  -999.2500   191.1272    53.6326      .5835      .5706      .6301   -44.9200  -999.2500  -999.2500  -999.2500  -999.2500
 1368.5000  -999.2500   191.2200    49.4047      .5831      .5677      .6305   -45.1799  -999.2500  -999.2500  -999.2500  -999.2500
 1369.0000  -999.2500   191.3745    47.7548      .5819      .5676      .6301   -45.3005  -999.2500  -999.2500  -999.2500  -999.2500
 1369.5000  -999.2500   191.3389    52.8904      .5806      .5678      .6271   -45.3328  -999.2500  -999.2500  -999.2500  -999.2500
 1370.0000  -999.2500   191.0527    58.2180      .5802      .5687      .6206   -45.1884  -999.2500  -999.2500  -999.2500  -999.2500
 1370.5000  -999.2500   190.3328    60.5517      .5803      .5695      .6144   -45.2814  -999.2500  -999.2500  -999.2500  -999.2500
 1371.0000  -999.2500   188.9126    58.1077      .5810      .5703      .6096   -45.6215  -999.2500  -999.2500  -999.2500  -999.2500
 1371.5000  -999.2500   188.4346    55.9424      .5825      .5737      .6106   -46.0664  -999.2500  -999.2500  -999.2500  -999.2500
 1372.0000  -999.2500   188.2375    55.6631      .5848      .5787      .6155   -46.1421  -999.2500  -999.2500  -999.2500  -999.2500
 1372.5000  -999.2500   187.8501    57.6488      .5886      .5827      .6233   -45.4863  -999.2500  -999.2500  -999.2500  -999.2500
 1373.0000  -999.2500   187.2732    59.2553      .5949      .5869      .6339   -44.5514  -999.2500  -999.2500  -999.2500  -999.2500
 1373.5000  -999.2500   186.4739    58.4452      .6070      .5915      .6440   -43.7103  -999.2500  -999.2500  -999.2500  -999.2500
 1374.0000  -999.2500   185.2688    56.4838      .6214      .5984      .6537   -43.4998  -999.2500  -999.2500  -999.2500  -999.2500
 1374.5000  -999.2500   184.6116    54.6965      .6378      .6080      .6625   -44.2157  -999.2500  -999.2500  -999.2500  -999.2500
 1375.0000  -999.2500   184.4631    53.5055      .6487      .6191      .6711   -44.6163  -999.2500  -999.2500  -999.2500  -999.2500
 1375.5000  -999.2500   183.7925    52.9586      .6569      .6306      .6785   -44.1307  -999.2500  -999.2500  -999.2500  -999.2500
 1376.0000  -999.2500   182.8088    53.8281      .6629      .6425      .6856   -42.8754  -999.2500  -999.2500  -999.2500  -999.2500
 1376.5000  -999.2500   181.1616    54.2305      .6682      .6532      .6918   -41.5318  -999.2500  -999.2500  -999.2500  -999.2500
 1377.0000  -999.2500   179.1353    53.8696      .6734      .6629      .6981   -40.0031  -999.2500  -999.2500  -999.2500  -999.2500
 1377.5000  -999.2500   177.2148    53.8997      .6795      .6692      .7021   -39.5655  -999.2500  -999.2500  -999.2500  -999.2500
 1378.0000  -999.2500   176.0298    55.7263      .6852      .6749      .7057   -41.5205  -999.2500  -999.2500  -999.2500  -999.2500
 1378.5000  -999.2500   175.5952    58.1696      .6879      .6764      .7093   -43.8420  -999.2500  -999.2500  -999.2500  -999.2500
 1379.0000  -999.2500   175.5171    59.4628      .6867      .6769      .7078   -45.4418  -999.2500  -999.2500  -999.2500  -999.2500
 1379.5000  -999.2500   175.6416    59.4894      .6827      .6766      .7061   -46.5078  -999.2500  -999.2500  -999.2500  -999.2500
 1380.0000  -999.2500   175.4678    59.3195      .6787      .6750      .7044   -47.3325  -999.2500  -999.2500  -999.2500  -999.2500
