~VERSION INFORMATION
VERS.                             2.0:   CWLS Log ASCII Standard-VERSION 2.0
WRAP.                              NO:   One line per depth step
~Well Information Block
STRT.F                      5785.0000:   Top Depth
STOP.F                     10595.0000:   Bottom Depth
STEP.F                         .50000:   Depth Increment
NULL.                        -999.250:   Null Value
FLD .                    MU BLK A 153:   Field Name
WELL.       OCSG14788   001 ST00 BP00:   NAME
API .                    427124011300:   WELL API
R1  .                           45310:   COMMENT  1
R2  .                           45310:   COMMENT  2
EDF .F                        95.0000:   ELEV DRILL FLOOR
COMP.         WALTER OIL AND GAS CORP:   OPERATOR
BN  .                           A 153:   BLOCK
CTRY.                             USA:   COUNTRY NAME
CNTY.                        M I E AD:   COUNTY NAME
TDD .F                      10613.000:   FINAL TD DRILLER
STAT.                           TEXAS:   STATE NAME
UWI .                    427124011300:   WELL API
DICO.               IHS : Digitizing Company
~PARAMETER INFORMATION (zones)
#MNEM.UNIT                       Value     Description
#=========                       =====     ===========
#ZONATION                          CNL:   ZONATION NAME
#ZONE                            RUN_2:   ZONE NAME
TOP .                       9494.0000:   TOP DEPTH
BOT .                      10469.5000:   BOTTOM DEPTH
RUN .                               2:   RUN NUMBER
LCCD.                             340:   LOGGING CONTRACTOR
SRVC.                   PAN GEO ATLAS:   LOGGING CONT NAME
DICO.          QC Data Collectors Ltd:   DIG COMPANY NAME
LDAT.                      07/01/1996:   DATE LOGGED
TDD .F                     10500.0000:   TOTAL DEPTH DRILLER
TDL .F                     10504.0000:   TOTAL DEPTH LOGGER
BOTL.F                     10500.0000:   BOTTOM DEPTH LOGGED
TOPL.F                      9350.0000:   TOP DEPTH LOGGED
CS1 .IN                        9.6250:   CASING SIZE 1
BS1 .IN                        8.5000:   BIT SIZE 1
DDB1.F                     10500.0000:   DEPTH DRILLED BIT 1
BHF .                              60:   FLUID CODE
DPT .                        Oil Base:   DRILLING FLUID TYPE
MUDD.                         16.5000:   FLUID DENSITY
MUDV.                         57.0000:   FLUID VISCOSITY
FL  .                          5.4000:   FLUID LOSS
TMAX.DEGF                    238.0000:   MAX REC TEMP
TIMC.                          6.0000:   TIME SINCE CIRCLN
~PARAMETER INFORMATION (zones)
#MNEM.UNIT                       Value     Description
#=========                       =====     ===========
#ZONATION                          DIL:   ZONATION NAME
#ZONE                            RUN_2:   ZONE NAME
TOP .                       9494.0000:   TOP DEPTH
BOT .                      10469.5000:   BOTTOM DEPTH
RUN .                               2:   RUN NUMBER
LCCD.                             340:   LOGGING CONTRACTOR
SRVC.                   PAN GEO ATLAS:   LOGGING CONT NAME
DICO.          QC Data Collectors Ltd:   DIG COMPANY NAME
LDAT.                      07/01/1996:   DATE LOGGED
TDD .F                     10500.0000:   TOTAL DEPTH DRILLER
TDL .F                     10504.0000:   TOTAL DEPTH LOGGER
BOTL.F                     10500.0000:   BOTTOM DEPTH LOGGED
TOPL.F                      9350.0000:   TOP DEPTH LOGGED
CS1 .IN                        9.6250:   CASING SIZE 1
BS1 .IN                        8.5000:   BIT SIZE 1
DDB1.F                     10500.0000:   DEPTH DRILLED BIT 1
BHF .                              60:   FLUID CODE
DPT .                        Oil Base:   DRILLING FLUID TYPE
MUDD.                         16.5000:   FLUID DENSITY
MUDV.                         57.0000:   FLUID VISCOSITY
FL  .                          5.4000:   FLUID LOSS
TMAX.DEGF                    238.0000:   MAX REC TEMP
TIMC.                          6.0000:   TIME SINCE CIRCLN
~PARAMETER INFORMATION (zones)
#MNEM.UNIT                       Value     Description
#=========                       =====     ===========
#ZONATION                          DIL:   ZONATION NAME
#ZONE                            RUN_1:   ZONE NAME
TOP .                       5785.0000:   TOP DEPTH
BOT .                       9493.5000:   BOTTOM DEPTH
RUN .                               1:   RUN NUMBER
LCCD.                             340:   LOGGING CONTRACTOR
SRVC.                   PAN GEO ATLAS:   LOGGING CONT NAME
DICO.          QC Data Collectors Ltd:   DIG COMPANY NAME
LDAT.                      06/23/1996:   DATE LOGGED
TDD .F                      9520.0000:   TOTAL DEPTH DRILLER
TDL .F                      9517.0000:   TOTAL DEPTH LOGGER
BOTL.F                      9515.0000:   BOTTOM DEPTH LOGGED
TOPL.F                      5800.0000:   TOP DEPTH LOGGED
CS1 .IN                       13.3750:   CASING SIZE 1
BS1 .IN                       12.2500:   BIT SIZE 1
DDB1.F                      9520.0000:   DEPTH DRILLED BIT 1
BHF .                              60:   FLUID CODE
DPT .                        Oil Base:   DRILLING FLUID TYPE
MUDD.                         14.8000:   FLUID DENSITY
MUDV.                         56.0000:   FLUID VISCOSITY
FL  .                          6.8000:   FLUID LOSS
TMAX.DEGF                    171.0000:   MAX REC TEMP
TIMC.                          6.0000:   TIME SINCE CIRCLN
~PARAMETER INFORMATION (zones)
#MNEM.UNIT                       Value     Description
#=========                       =====     ===========
#ZONATION                          DIL:   ZONATION NAME
#ZONE                            RUN_3:   ZONE NAME
TOP .                      10469.0000:   TOP DEPTH
BOT .                      10595.5000:   BOTTOM DEPTH
RUN .                               3:   RUN NUMBER
LCCD.                             340:   LOGGING CONTRACTOR
SRVC.                   PAN GEO ATLAS:   LOGGING CONT NAME
DICO.          QC Data Collectors Ltd:   DIG COMPANY NAME
LDAT.                      07/04/1996:   DATE LOGGED
TDD .F                     10613.0000:   TOTAL DEPTH DRILLER
TDL .F                     10596.0000:   TOTAL DEPTH LOGGER
BOTL.F                     10596.0000:   BOTTOM DEPTH LOGGED
TOPL.F                     10000.0000:   TOP DEPTH LOGGED
CS1 .IN                        9.6250:   CASING SIZE 1
BS1 .IN                        8.5000:   BIT SIZE 1
DDB1.F                     10613.0000:   DEPTH DRILLED BIT 1
BHF .                              60:   FLUID CODE
DPT .                        Oil Base:   DRILLING FLUID TYPE
MUDD.                         16.9000:   FLUID DENSITY
MUDV.                         55.0000:   FLUID VISCOSITY
FL  .                          5.0000:   FLUID LOSS
TMAX.DEGF                    240.0000:   MAX REC TEMP
TIMC.                         10.0000:   TIME SINCE CIRCLN
~PARAMETER INFORMATION (zones)
#MNEM.UNIT                       Value     Description
#=========                       =====     ===========
#ZONATION                          FDC:   ZONATION NAME
#ZONE                            RUN_2:   ZONE NAME
TOP .                       9494.0000:   TOP DEPTH
BOT .                      10469.5000:   BOTTOM DEPTH
RUN .                               2:   RUN NUMBER
LCCD.                             340:   LOGGING CONTRACTOR
SRVC.                   PAN GEO ATLAS:   LOGGING CONT NAME
DICO.          QC Data Collectors Ltd:   DIG COMPANY NAME
LDAT.                      07/01/1996:   DATE LOGGED
TDD .F                     10500.0000:   TOTAL DEPTH DRILLER
TDL .F                     10504.0000:   TOTAL DEPTH LOGGER
BOTL.F                     10500.0000:   BOTTOM DEPTH LOGGED
TOPL.F                      9350.0000:   TOP DEPTH LOGGED
CS1 .IN                        9.6250:   CASING SIZE 1
BS1 .IN                        8.5000:   BIT SIZE 1
DDB1.F                     10500.0000:   DEPTH DRILLED BIT 1
BHF .                              60:   FLUID CODE
DPT .                        Oil Base:   DRILLING FLUID TYPE
MUDD.                         16.5000:   FLUID DENSITY
MUDV.                         57.0000:   FLUID VISCOSITY
FL  .                          5.4000:   FLUID LOSS
TMAX.DEGF                    238.0000:   MAX REC TEMP
TIMC.                          6.0000:   TIME SINCE CIRCLN
~Curve Information Block
#MNEM.UNIT                    API CODE    No Description
#=========                    ========    == ===========
DEPT.F                   00 001 00 00:     1  DEPTH
CNCF.%                               :     2  Neutron Porosity
CAL.IN                               :     3  Caliper
CILD.MMHO                            :     4  Deep Induction Conductivity
GR.GAPI                              :     5  Gamma Ray
RILD.OHMM                            :     6  Deep Resistivity
RILM.OHMM                            :     7  Medium Resistivity
RWA.OHMM                             :     8  Apparent Water Resistivity
TEN.LB                               :     9  Cable Tension
PORZ.%                               :    10  Porosity
ZCOR.G/C3                            :    11  Density Correction
ZDEN.G/C3                            :    12  Bulk Density
~ASCII
# ...
 9475.5000  -999.2500  -999.2500  1716.7832    69.3137      .5642      .6119  -999.2500   355.0000  -999.2500  -999.2500  -999.2500
 9476.0000  -999.2500  -999.2500  1719.4805    70.1554      .5640      .6117  -999.2500   360.0000  -999.2500  -999.2500  -999.2500
 9476.5000  -999.2500  -999.2500  1721.3125    74.1448      .5650      .6131  -999.2500   355.0000  -999.2500  -999.2500  -999.2500
 9477.0000  -999.2500  -999.2500  1720.7441    75.5000      .5666      .6153  -999.2500   360.0000  -999.2500  -999.2500  -999.2500
 9477.5000  -999.2500  -999.2500  1717.1504    74.2715      .5683      .6181  -999.2500   365.0000  -999.2500  -999.2500  -999.2500
 9478.0000  -999.2500  -999.2500  1712.6426    69.4576      .5703      .6190  -999.2500   380.0000  -999.2500  -999.2500  -999.2500
 9478.5000  -999.2500  -999.2500  1709.3223    66.5847      .5724      .6165  -999.2500   385.0000  -999.2500  -999.2500  -999.2500
 9479.0000  -999.2500  -999.2500  1706.2109    67.3689      .5739      .6140  -999.2500   384.0146  -999.2500  -999.2500  -999.2500
 9479.5000  -999.2500  -999.2500  1702.3457    69.5015      .5748      .6115  -999.2500   380.0000  -999.2500  -999.2500  -999.2500
 9480.0000  -999.2500  -999.2500  1699.6680    71.7191      .5751      .6090  -999.2500   385.0005  -999.2500  -999.2500  -999.2500
 9480.5000  -999.2500  -999.2500  1700.8672    73.8051      .5756      .6066  -999.2500   383.7505  -999.2500  -999.2500  -999.2500
 9481.0000  -999.2500  -999.2500  1707.0117    72.8905      .5772      .6053  -999.2500   382.5010  -999.2500  -999.2500  -999.2500
 9481.5000  -999.2500  -999.2500  1716.3184    71.3953      .5794      .6041  -999.2500   389.2769  -999.2500  -999.2500  -999.2500
 9482.0000  -999.2500  -999.2500  1724.0000    70.4003      .5806      .6030  -999.2500   385.0000  -999.2500  -999.2500  -999.2500
 9482.5000  -999.2500  -999.2500  1724.4980    69.2838      .5804      .6019  -999.2500   385.0000  -999.2500  -999.2500  -999.2500
 9483.0000  -999.2500  -999.2500  1715.5918    67.0956      .5802      .6007  -999.2500   393.0151  -999.2500  -999.2500  -999.2500
 9483.5000  -999.2500  -999.2500  1700.7305    67.9390      .5800      .5995  -999.2500   395.0000  -999.2500  -999.2500  -999.2500
 9484.0000  -999.2500  -999.2500  1687.0879    69.8768      .5838      .6000  -999.2500   395.0005  -999.2500  -999.2500  -999.2500
 9484.5000  -999.2500  -999.2500  1680.4883    70.1844      .5891      .5996  -999.2500   388.7495  -999.2500  -999.2500  -999.2500
 9485.0000  -999.2500  -999.2500  1682.0137    68.8938      .5944      .6000  -999.2500   387.4995  -999.2500  -999.2500  -999.2500
 9485.5000  -999.2500  -999.2500  1688.9824  -999.2500      .5980      .6021  -999.2500   386.2500  -999.2500  -999.2500  -999.2500
 9486.0000  -999.2500  -999.2500  1697.9277  -999.2500      .5948      .6038  -999.2500   388.0273  -999.2500  -999.2500  -999.2500
 9486.5000  -999.2500  -999.2500  1708.0176  -999.2500      .5885      .6061  -999.2500   393.0151  -999.2500  -999.2500  -999.2500
 9487.0000  -999.2500  -999.2500  1720.4590  -999.2500      .5808      .6075  -999.2500   395.0000  -999.2500  -999.2500  -999.2500
 9487.5000  -999.2500  -999.2500  1735.8359  -999.2500      .5736      .6071  -999.2500   400.0000  -999.2500  -999.2500  -999.2500
 9488.0000  -999.2500  -999.2500  1752.2266  -999.2500      .5675      .6043  -999.2500   400.0000  -999.2500  -999.2500  -999.2500
 9488.5000  -999.2500  -999.2500  1765.4648  -999.2500      .5658      .5989  -999.2500   404.9507  -999.2500  -999.2500  -999.2500
 9489.0000  -999.2500  -999.2500  1769.7949  -999.2500      .5666      .5921  -999.2500   404.9507  -999.2500  -999.2500  -999.2500
 9489.5000  -999.2500  -999.2500  1760.8027  -999.2500      .5675      .5892  -999.2500   404.9507  -999.2500  -999.2500  -999.2500
 9490.0000  -999.2500  -999.2500  1737.5059  -999.2500      .5685      .5895  -999.2500   404.9507  -999.2500  -999.2500  -999.2500
 9490.5000  -999.2500  -999.2500  1702.6133  -999.2500      .5730      .5938  -999.2500   409.9009  -999.2500  -999.2500  -999.2500
 9491.0000  -999.2500  -999.2500  1660.4902  -999.2500      .5793      .6038  -999.2500   409.9009  -999.2500  -999.2500  -999.2500
 9491.5000  -999.2500  -999.2500  1614.9453  -999.2500      .5870      .6163  -999.2500   409.9009  -999.2500  -999.2500  -999.2500
 9492.0000  -999.2500  -999.2500  1571.2402  -999.2500      .5995      .6259  -999.2500   409.9009  -999.2500  -999.2500  -999.2500
 9492.5000  -999.2500  -999.2500  1537.0254  -999.2500      .6172      .6369  -999.2500   412.8794  -999.2500  -999.2500  -999.2500
 9493.0000  -999.2500  -999.2500  2203.3398  -999.2500      .6343      .6476  -999.2500   414.8516  -999.2500  -999.2500  -999.2500
 9493.5000  -999.2500  -999.2500  2288.2539  -999.2500  -999.2500  -999.2500  -999.2500  -999.2500  -999.2500  -999.2500  -999.2500
 9494.0000    46.2879    14.1877  2107.0508    47.7413      .4279      .5132      .0175   -63.9180    17.6243     -.0640     2.3420
 9494.5000    47.8088    15.3162  1853.0195    46.5339      .4262      .5481      .0202   -62.7241    18.3473     -.0501     2.3280
 9495.0000    49.3176    16.2905  1711.1777    45.6629      .4795      .5900      .0237   -61.5386    19.4400     -.0763     2.3280
 9495.5000    50.6486    17.1518  1695.2676    45.2668      .5282      .6247      .0275   -60.3569    19.5719     -.1392     2.3190
 9496.0000    51.4692    17.8349  1688.7363    44.9304      .5548      .6582      .0293   -64.2856    19.9917     -.1920     2.3170
 9496.5000    51.5049    18.4943  1662.9063    44.7324      .5740      .6921      .0302   -63.1055    20.1361     -.1883     2.3350
 9497.0000    51.0895    19.3617  1637.8945    43.5427      .5848      .7212      .0289   -61.9292    19.4768     -.1787     2.3690
 9497.5000    50.7447    20.2528  1619.9180    41.1858      .5885      .7464      .0247   -60.7603    17.4461     -.1839     2.3920
 9498.0000    50.7206    20.7457  1596.6816    38.5977      .5957      .7636      .0191   -59.5962    16.0080     -.2063     2.3740
 9498.5000    51.5397    20.9297  1548.8203    37.5000      .6100      .7675      .0210   -58.4390    16.1812     -.2322     2.3130
 9499.0000    52.1347    20.9891  1496.7500    37.6804      .6245      .7676      .0341   -57.2866    19.2827     -.2867     2.2580
 9499.5000    51.8497    20.9713  1480.9199    38.6414      .6386      .7570      .0486   -56.1406    22.5586     -.3392     2.2410
 9500.0000    51.5049    20.8643  1505.7676    39.5601      .6530      .7450      .0515   -60.0000    24.5278     -.3682     2.2460
 9500.5000    51.5049    20.5909  1548.3164    39.7000      .6511      .7225      .0515   -58.8530    24.6480     -.3650     2.2450
 9501.0000    51.7542    20.2285  1592.6797    38.8383      .6474      .7006      .0515   -57.7119    24.5039     -.3514     2.2300
 9501.5000    52.1106    20.0267  1625.8301    37.6594      .6349      .6856      .0521   -56.5757    24.9837     -.3238     2.2210
 9502.0000    52.1589    19.9376  1642.8633    37.8804      .6226      .6709      .0548   -55.5791    25.6797     -.2763     2.2310
 9502.5000    51.3870    19.9019  1649.4453    39.1211      .6129      .6648      .0529   -55.4453    25.7163     -.2210     2.2550
 9503.0000    50.1158    19.6701  1647.8086    41.4673      .6038      .6592      .0478   -55.4453    24.5405     -.1770     2.2810
 9503.5000    49.3547    19.2781  1636.1816    44.4376      .6008      .6562      .0433   -55.4453    23.1365     -.1580     2.3060
 9504.0000    48.9746    18.8444  1618.5723    45.3658      .6039      .6561      .0378   -60.3960    21.6966     -.1866     2.3140
 9504.5000    48.4757    18.3156  1602.2578    44.0981      .6072      .6561      .0337   -60.3960    20.7122     -.2380     2.3030
 9505.0000    48.1666    17.7334  1588.3848    41.6429      .6113      .6598      .0341   -60.3960    20.5917     -.2354     2.2980
 9505.5000    47.8102    17.3057  1577.8496    41.1285      .6155      .6635      .0367   -60.3960    21.1800     -.1710     2.3170
