~VERSION INFORMATION
VERS.                             2.0:   CWLS Log ASCII Standard-VERSION 2.0
WRAP.                              NO:   One line per depth step
~Well Information Block
STRT.F                       374.0000:   Top Depth
STOP.F                      6106.0000:   Bottom Depth
STEP.F                         .50000:   Depth Increment
NULL.                        -999.250:   Null Value
FLD .                    MU BLK A 139:   Field Name
WELL.       OCSG06030   002 ST00 BP00:   NAME
API .                    427124009600:   WELL API
EDF .F                       103.0000:   ELEV DRILL FLOOR
COMP.       CITIES SERVICE OIL AND GA:   OPERATOR
BN  .                           A 139:   BLOCK
CTRY.                             USA:   COUNTRY NAME
CNTY.                        M I E AD:   COUNTY NAME
EKB .F                       104.0000:   ELEV KELLY BUSHING
TDD .F                       6111.000:   FINAL TD DRILLER
STAT.                           TEXAS:   STATE NAME
UWI .                    427124009600:   WELL API
DICO.               IHS : Digitizing Company
~PARAMETER INFORMATION (zones)
#MNEM.UNIT                       Value     Description
#=========                       =====     ===========
#ZONATION                          CNL:   ZONATION NAME
#ZONE                            RUN_2:   ZONE NAME
TOP .                       4521.0000:   TOP DEPTH
BOT .                       6106.5000:   BOTTOM DEPTH
RUN .                               2:   RUN NUMBER
LCCD.                             440:   LOGGING CONTRACTOR
SRVC.                    Schlumberger:   LOGGING CONT NAME
DICO.          QC Data Collectors Ltd:   DIG COMPANY NAME
LDAT.                      01/11/1988:   DATE LOGGED
ELD .F                       104.0000:   LOG DATUM ELEVATION
TDD .F                      4594.0000:   TOTAL DEPTH DRILLER
TDL .F                      2007.0000:   TOTAL DEPTH LOGGER
BOTL.F                      1998.0000:   BOTTOM DEPTH LOGGED
TOPL.F                      1006.0000:   TOP DEPTH LOGGED
CS1 .IN                       20.0000:   CASING SIZE 1
BS1 .IN                       17.5000:   BIT SIZE 1
DDB1.F                      4594.0000:   DEPTH DRILLED BIT 1
BHF .                              80:   FLUID CODE
DPT .                      Salt Water:   DRILLING FLUID TYPE
MUDD.                          9.3000:   FLUID DENSITY
MUDV.                         52.0000:   FLUID VISCOSITY
DFPH.                          8.0000:   FLUID PH
FL  .                         16.8000:   FLUID LOSS
RM  .OHMM                       .3600:   RM
RMT .DEGF                     53.0000:   RM TEMP
RMF .OHMM                       .3200:   RMF
RMFT.DEGF                     52.0000:   RMF TEMP
FSC .                               M:   RMF CODE
RMC .OHMM                       .5700:   RMC
RMCT.DEGF                     53.0000:   RMC TEMP
TMAX.DEGF                    100.0000:   MAX REC TEMP
TIMC.                          2.5000:   TIME SINCE CIRCLN
~PARAMETER INFORMATION (zones)
#MNEM.UNIT                       Value     Description
#=========                       =====     ===========
#ZONATION                          DIL:   ZONATION NAME
#ZONE                            RUN_1:   ZONE NAME
TOP .                        374.0000:   TOP DEPTH
BOT .                       6106.5000:   BOTTOM DEPTH
RUN .                               1:   RUN NUMBER
LCCD.                             440:   LOGGING CONTRACTOR
SRVC.                    Schlumberger:   LOGGING CONT NAME
DICO.          QC Data Collectors Ltd:   DIG COMPANY NAME
LDAT.                      01/06/1988:   DATE LOGGED
ELD .F                       104.0000:   LOG DATUM ELEVATION
TDD .F                      1005.0000:   TOTAL DEPTH DRILLER
TDL .F                      1004.0000:   TOTAL DEPTH LOGGER
BOTL.F                       998.0000:   BOTTOM DEPTH LOGGED
TOPL.F                       400.0000:   TOP DEPTH LOGGED
CS1 .IN                       30.0000:   CASING SIZE 1
BS1 .IN                       16.0000:   BIT SIZE 1
DDB1.F                      1005.0000:   DEPTH DRILLED BIT 1
BHF .                              80:   FLUID CODE
DPT .                      Salt Water:   DRILLING FLUID TYPE
MUDD.                          9.1000:   FLUID DENSITY
MUDV.                         34.0000:   FLUID VISCOSITY
DFPH.                          8.0000:   FLUID PH
RM  .OHMM                       .3900:   RM
RMT .DEGF                     76.0000:   RM TEMP
RMF .OHMM                       .3300:   RMF
RMFT.DEGF                     76.0000:   RMF TEMP
FSC .                               M:   RMF CODE
RMC .OHMM                       .3300:   RMC
RMCT.DEGF                     76.0000:   RMC TEMP
CMC .                               M:   RMC CODE
TMAX.DEGF                     86.0000:   MAX REC TEMP
TIMC.                          1.7500:   TIME SINCE CIRCLN
~PARAMETER INFORMATION (zones)
#MNEM.UNIT                       Value     Description
#=========                       =====     ===========
#ZONATION                          LDT:   ZONATION NAME
#ZONE                            RUN_3:   ZONE NAME
TOP .                       4521.0000:   TOP DEPTH
BOT .                       6106.5000:   BOTTOM DEPTH
RUN .                               3:   RUN NUMBER
LCCD.                             440:   LOGGING CONTRACTOR
SRVC.                    Schlumberger:   LOGGING CONT NAME
DICO.          QC Data Collectors Ltd:   DIG COMPANY NAME
LDAT.                      01/23/1988:   DATE LOGGED
ELD .F                       104.0000:   LOG DATUM ELEVATION
TDD .F                      6111.0000:   TOTAL DEPTH DRILLER
TDL .F                      6108.0000:   TOTAL DEPTH LOGGER
BOTL.F                      6106.0000:   BOTTOM DEPTH LOGGED
TOPL.F                      4594.0000:   TOP DEPTH LOGGED
CS1 .IN                       13.3750:   CASING SIZE 1
BS1 .IN                       12.2500:   BIT SIZE 1
DDB1.F                      6111.0000:   DEPTH DRILLED BIT 1
BHF .                              80:   FLUID CODE
DPT .                      Salt Water:   DRILLING FLUID TYPE
MUDD.                         12.7000:   FLUID DENSITY
MUDV.                         58.0000:   FLUID VISCOSITY
DFPH.                          9.5000:   FLUID PH
FL  .                          4.8000:   FLUID LOSS
RM  .OHMM                       .7700:   RM
RMT .DEGF                     64.0000:   RM TEMP
RMF .OHMM                       .4900:   RMF
RMFT.DEGF                     64.0000:   RMF TEMP
FSC .                               M:   RMF CODE
RMC .OHMM                      1.0900:   RMC
RMCT.DEGF                     64.0000:   RMC TEMP
CMC .                               M:   RMC CODE
TMAX.DEGF                    138.0000:   MAX REC TEMP
TIMC.                          7.5000:   TIME SINCE CIRCLN
~Curve Information Block
#MNEM.UNIT                    API CODE    No Description
#=========                    ========    == ===========
DEPT.F                   00 001 00 00:     1  DEPTH
NPHI.DEC                              :     2  Neutron Porosity
DT.US/F                              :     3  Sonic Transit Time
GR.GAPI                              :     4  Gamma Ray
ILD.OHMM                             :     5  Deep Induction Resistivity
ILM.OHMM                             :     6  Medium Induction Resistivity
SFL.OHMM                             :     7  Medium Resistivity
SP.MV                                :     8  Spontaneous Potential
CALI.IN                              :     9  Caliper
DPHI.DEC                              :    10  Porosity
DRHO.G/C3                            :    11  Bulk Density Correction
GR.GAPI                              :    12  Gamma Ray
~ASCII
# ...
 4918.5000      .4663   126.9340  -999.2500      .7594      .8029      .9394   -64.1130    14.4636      .2367      .0065    61.4747
 4919.0000      .4699   128.2864  -999.2500      .7591      .7990      .8786   -64.1987    14.5641      .2375      .0066    62.8349
 4919.5000      .4671   128.9373  -999.2500      .7573      .7936      .8441   -64.2306    14.6432      .2413      .0058    63.9647
 4920.0000      .4635   128.8423  -999.2500      .7507      .7883      .8581   -64.2562    14.5986      .2460      .0049    64.3308
 4920.5000      .4669   127.2717  -999.2500      .7441      .7833      .8700   -64.2469    14.5167      .2510      .0039    64.6926
 4921.0000      .4733   125.2943  -999.2500      .7362      .7812      .8687   -64.1923    14.4120      .2551      .0029    65.7771
 4921.5000      .4878   124.9801  -999.2500      .7284      .7764      .8563   -63.9205    14.2820      .2568      .0019    66.3450
 4922.0000      .4984   126.0341  -999.2500      .7230      .7690      .8415   -63.6487    14.1670      .2569      .0012    66.0669
 4922.5000      .5005   127.3507  -999.2500      .7190      .7621      .8200   -63.3063    14.0949      .2591      .0014    65.0701
 4923.0000      .4935   128.4761  -999.2500      .7172      .7561      .8002   -62.9598    14.0899      .2638      .0022    63.9592
 4923.5000      .4801   129.3428  -999.2500      .7176      .7523      .7847   -62.7910    14.1427      .2688      .0036    63.8318
 4924.0000      .4753   129.7163  -999.2500      .7220      .7515      .7699   -62.7246    14.2538      .2731      .0058    64.5768
 4924.5000      .4835   127.3914  -999.2500      .7289      .7579      .7636   -62.6859    14.3657      .2781      .0088    65.2925
 4925.0000      .4891   124.2773  -999.2500      .7366      .7707      .7572   -62.9694    14.4274      .2792      .0128    65.3243
 4925.5000      .4603   120.0167  -999.2500      .7447      .7871      .7813   -63.2467    14.4257      .2753      .0173    64.7251
 4926.0000      .4398   117.8224  -999.2500      .7541      .8029      .8474   -63.4293    14.4065      .2609      .0215    64.0786
 4926.5000      .4280   117.9124  -999.2500      .7643      .8158      .9415   -63.6111    14.4033      .2499      .0223    63.2601
 4927.0000      .4356   119.3091  -999.2500      .7712      .8262      .9844   -63.6758    14.5262      .2426      .0153    61.4979
 4927.5000      .4461   121.9843  -999.2500      .7704      .8221      .9549   -63.7404    14.6935      .2393      .0109    59.0029
 4928.0000      .4635   124.6052  -999.2500      .7696      .8138      .9047   -63.6630    14.9138      .2398      .0115    56.6305
 4928.5000      .4709   127.4086  -999.2500      .7610      .7966      .8586   -63.5544    15.1139      .2416      .0160    56.4957
 4929.0000      .4713   130.1108  -999.2500      .7487      .7789      .8293   -63.4548    15.2270      .2443      .0211    60.6720
 4929.5000      .4721   132.1636  -999.2500      .7373      .7679      .8027   -63.3640    15.2579      .2511      .0218    64.5027
 4930.0000      .4744   132.9636  -999.2500      .7296      .7648      .7805   -63.4167    15.2451      .2633      .0159    70.9680
 4930.5000      .4930   130.9910  -999.2500      .7220      .7695      .7720   -63.5759    15.1793      .2679      .0111    73.2914
 4931.0000      .5055   128.0742  -999.2500      .7221      .7745      .7823   -64.0946    15.1030      .2697      .0098    72.5782
 4931.5000      .5025   125.5569  -999.2500      .7237      .7798      .8270   -64.6990    14.9556      .2731      .0081    68.3162
 4932.0000      .4853   124.2391  -999.2500      .7289      .7838      .8654   -65.0970    14.7897      .2774      .0005    65.0001
 4932.5000      .4568   125.3116  -999.2500      .7351      .7820      .8778   -65.2020    14.7601      .2720     -.0084    63.3104
 4933.0000      .4615   127.0043  -999.2500      .7426      .7803      .8605   -65.1682    14.8608      .2657     -.0095    63.5872
 4933.5000      .4775   128.1687  -999.2500      .7508      .7792      .8255   -65.0896    14.9648      .2621     -.0073    63.5562
 4934.0000      .4825   128.3972  -999.2500      .7620      .7879      .7886   -65.0065    15.0211      .2657     -.0025    63.2907
 4934.5000      .4743   125.1698  -999.2500      .7743      .8022      .7806   -64.9601    15.0164      .2750      .0024    62.8821
 4935.0000      .4692   121.3580  -999.2500      .7993      .8206      .7944   -64.9707    14.9442      .2789      .0063    62.3625
 4935.5000      .4730   117.4747  -999.2500      .8311      .8476      .8253   -64.9813    14.8649      .2797      .0080    61.0543
 4936.0000      .4708   113.9020  -999.2500      .8755      .8777      .8697   -65.0697    14.8285      .2773      .0075    57.5594
 4936.5000      .4522   111.3970  -999.2500      .9382      .9248      .9197   -65.1611    14.8648      .2671      .0073    55.9394
 4937.0000      .4306   110.0483  -999.2500      .9869      .9648      .9808   -65.2715    15.0136      .2580      .0090    55.1422
 4937.5000      .4129   108.7576  -999.2500     1.0174      .9908     1.0312   -65.3986    15.2014      .2524      .0121    54.7265
 4938.0000      .4026   107.3176  -999.2500     1.0272     1.0081     1.0891   -65.4275    15.3539      .2498      .0159    54.4529
 4938.5000      .3987   107.6455  -999.2500     1.0223     1.0078     1.1568   -65.4381    15.4447      .2445      .0190    54.3883
 4939.0000      .4133   110.7041  -999.2500      .9997      .9871     1.1763   -65.2632    15.5103      .2388      .0169    55.2121
 4939.5000      .4349   115.0658  -999.2500      .9810      .9608     1.0849   -64.8977    15.5559      .2363      .0128    55.6729
 4940.0000      .4614   118.4561  -999.2500      .9584      .9305      .9406   -64.6017    15.5751      .2408      .0089    55.5494
 4940.5000      .4760   120.5012  -999.2500      .9318      .9007      .8029   -64.5294    15.5702      .2521      .0063    55.4601
 4941.0000      .4913   120.6455  -999.2500      .9054      .8691      .7754   -64.8491    15.5327      .2703      .0039    55.6047
 4941.5000      .5009   118.3007  -999.2500      .8781      .8511      .7704   -65.0819    15.4672      .2777      .0019    56.5656
 4942.0000      .4824   114.8525  -999.2500      .8434      .8395      .8170   -65.0337    15.4075      .2751      .0005    58.1378
 4942.5000      .4443   114.5936  -999.2500      .8166      .8315      .8921   -64.7267    15.3821      .2666     -.0003    59.6855
 4943.0000      .4218   117.2552  -999.2500      .8027      .8238      .9360   -64.6019    15.3879      .2500     -.0004    59.8596
 4943.5000      .4207   120.5986  -999.2500      .8020      .8151      .9383   -64.5273    15.4060      .2334     -.0005    59.5565
 4944.0000      .4491   124.4597  -999.2500      .8036      .8113      .8982   -64.6052    15.4249      .2328     -.0005    59.2341
 4944.5000      .5063   126.6332  -999.2500      .8017      .8192      .8439   -64.8505    15.4330      .2398     -.0001    59.4916
 4945.0000      .5180   127.1178  -999.2500      .7964      .8278      .8069   -65.1299    15.4106      .2528      .0013    60.0305
 4945.5000      .5115   125.5607  -999.2500      .7904      .8375      .7858   -65.6376    15.3223      .2718      .0041    60.7418
 4946.0000      .4690   122.3640  -999.2500      .7807      .8467      .7891   -66.1774    14.9557      .2831      .0084    61.4728
 4946.5000      .4466   119.0305  -999.2500      .7702      .8464      .8256   -67.1196    14.5200      .2926      .0125    62.2363
 4947.0000      .4295   116.3430  -999.2500      .7559      .8461      .8904   -68.1503    14.0680      .2929      .0141    62.9072
 4947.5000      .4146   115.3937  -999.2500      .7418      .8342      .9492   -69.3959    13.9368      .2790      .0134    63.3885
 4948.0000      .4099   115.7617  -999.2500      .7227      .8204      .9633   -71.0015    13.8860      .2588      .0116    63.5941
 4948.5000      .4225   116.7319  -999.2500      .7056      .7992      .9510   -72.4904    13.6742      .2429      .0093    59.5765
