~VERSION INFORMATION
VERS.                             2.0:   CWLS Log ASCII Standard-VERSION 2.0
WRAP.                              NO:   One line per depth step
~Well Information Block
STRT.F                      5785.0000:   Top Depth
STOP.F                     10595.0000:   Bottom Depth
STEP.F                         .50000:   Depth Increment
NULL.                        -999.250:   Null Value
FLD .                    MU BLK A 153:   Field Name
WELL.       OCSG14788   001 ST00 BP00:   NAME
API .                    427124011300:   WELL API
R1  .                           45310:   COMMENT  1
R2  .                           45310:   COMMENT  2
EDF .F                        95.0000:   ELEV DRILL FLOOR
COMP.         WALTER OIL AND GAS CORP:   OPERATOR
BN  .                           A 153:   BLOCK
CTRY.                             USA:   COUNTRY NAME
CNTY.                        M I E AD:   COUNTY NAME
TDD .F                      10613.000:   FINAL TD DRILLER
STAT.                           TEXAS:   STATE NAME
UWI .                    427124011300:   WELL API
DICO.               IHS : Digitizing Company
~PARAMETER INFORMATION (zones)
#MNEM.UNIT                       Value     Description
#=========                       =====     ===========
#ZONATION                          CNL:   ZONATION NAME
#ZONE                            RUN_2:   ZONE NAME
TOP .                       9494.0000:   TOP DEPTH
BOT .                      10469.5000:   BOTTOM DEPTH
RUN .                               2:   RUN NUMBER
LCCD.                             340:   LOGGING CONTRACTOR
SRVC.                   PAN GEO ATLAS:   LOGGING CONT NAME
DICO.          QC Data Collectors Ltd:   DIG COMPANY NAME
LDAT.                      07/01/1996:   DATE LOGGED
TDD .F                     10500.0000:   TOTAL DEPTH DRILLER
TDL .F                     10504.0000:   TOTAL DEPTH LOGGER
BOTL.F                     10500.0000:   BOTTOM DEPTH LOGGED
TOPL.F                      9350.0000:   TOP DEPTH LOGGED
CS1 .IN                        9.6250:   CASING SIZE 1
BS1 .IN                        8.5000:   BIT SIZE 1
DDB1.F                     10500.0000:   DEPTH DRILLED BIT 1
BHF .                              60:   FLUID CODE
DPT .                        Oil Base:   DRILLING FLUID TYPE
MUDD.                         16.5000:   FLUID DENSITY
MUDV.                         57.0000:   FLUID VISCOSITY
FL  .                          5.4000:   FLUID LOSS
TMAX.DEGF                    238.0000:   MAX REC TEMP
TIMC.                          6.0000:   TIME SINCE CIRCLN
~PARAMETER INFORMATION (zones)
#MNEM.UNIT                       Value     Description
#=========                       =====     ===========
#ZONATION                          DIL:   ZONATION NAME
#ZONE                            RUN_2:   ZONE NAME
TOP .                       9494.0000:   TOP DEPTH
BOT .                      10469.5000:   BOTTOM DEPTH
RUN .                               2:   RUN NUMBER
LCCD.                             340:   LOGGING CONTRACTOR
SRVC.                   PAN GEO ATLAS:   LOGGING CONT NAME
DICO.          QC Data Collectors Ltd:   DIG COMPANY NAME
LDAT.                      07/01/1996:   DATE LOGGED
TDD .F                     10500.0000:   TOTAL DEPTH DRILLER
TDL .F                     10504.0000:   TOTAL DEPTH LOGGER
BOTL.F                     10500.0000:   BOTTOM DEPTH LOGGED
TOPL.F                      9350.0000:   TOP DEPTH LOGGED
CS1 .IN                        9.6250:   CASING SIZE 1
BS1 .IN                        8.5000:   BIT SIZE 1
DDB1.F                     10500.0000:   DEPTH DRILLED BIT 1
BHF .                              60:   FLUID CODE
DPT .                        Oil Base:   DRILLING FLUID TYPE
MUDD.                         16.5000:   FLUID DENSITY
MUDV.                         57.0000:   FLUID VISCOSITY
FL  .                          5.4000:   FLUID LOSS
TMAX.DEGF                    238.0000:   MAX REC TEMP
TIMC.                          6.0000:   TIME SINCE CIRCLN
~PARAMETER INFORMATION (zones)
#MNEM.UNIT                       Value     Description
#=========                       =====     ===========
#ZONATION                          DIL:   ZONATION NAME
#ZONE                            RUN_1:   ZONE NAME
TOP .                       5785.0000:   TOP DEPTH
BOT .                       9493.5000:   BOTTOM DEPTH
RUN .                               1:   RUN NUMBER
LCCD.                             340:   LOGGING CONTRACTOR
SRVC.                   PAN GEO ATLAS:   LOGGING CONT NAME
DICO.          QC Data Collectors Ltd:   DIG COMPANY NAME
LDAT.                      06/23/1996:   DATE LOGGED
TDD .F                      9520.0000:   TOTAL DEPTH DRILLER
TDL .F                      9517.0000:   TOTAL DEPTH LOGGER
BOTL.F                      9515.0000:   BOTTOM DEPTH LOGGED
TOPL.F                      5800.0000:   TOP DEPTH LOGGED
CS1 .IN                       13.3750:   CASING SIZE 1
BS1 .IN                       12.2500:   BIT SIZE 1
DDB1.F                      9520.0000:   DEPTH DRILLED BIT 1
BHF .                              60:   FLUID CODE
DPT .                        Oil Base:   DRILLING FLUID TYPE
MUDD.                         14.8000:   FLUID DENSITY
MUDV.                         56.0000:   FLUID VISCOSITY
FL  .                          6.8000:   FLUID LOSS
TMAX.DEGF                    171.0000:   MAX REC TEMP
TIMC.                          6.0000:   TIME SINCE CIRCLN
~PARAMETER INFORMATION (zones)
#MNEM.UNIT                       Value     Description
#=========                       =====     ===========
#ZONATION                          DIL:   ZONATION NAME
#ZONE                            RUN_3:   ZONE NAME
TOP .                      10469.0000:   TOP DEPTH
BOT .                      10595.5000:   BOTTOM DEPTH
RUN .                               3:   RUN NUMBER
LCCD.                             340:   LOGGING CONTRACTOR
SRVC.                   PAN GEO ATLAS:   LOGGING CONT NAME
DICO.          QC Data Collectors Ltd:   DIG COMPANY NAME
LDAT.                      07/04/1996:   DATE LOGGED
TDD .F                     10613.0000:   TOTAL DEPTH DRILLER
TDL .F                     10596.0000:   TOTAL DEPTH LOGGER
BOTL.F                     10596.0000:   BOTTOM DEPTH LOGGED
TOPL.F                     10000.0000:   TOP DEPTH LOGGED
CS1 .IN                        9.6250:   CASING SIZE 1
BS1 .IN                        8.5000:   BIT SIZE 1
DDB1.F                     10613.0000:   DEPTH DRILLED BIT 1
BHF .                              60:   FLUID CODE
DPT .                        Oil Base:   DRILLING FLUID TYPE
MUDD.                         16.9000:   FLUID DENSITY
MUDV.                         55.0000:   FLUID VISCOSITY
FL  .                          5.0000:   FLUID LOSS
TMAX.DEGF                    240.0000:   MAX REC TEMP
TIMC.                         10.0000:   TIME SINCE CIRCLN
~PARAMETER INFORMATION (zones)
#MNEM.UNIT                       Value     Description
#=========                       =====     ===========
#ZONATION                          FDC:   ZONATION NAME
#ZONE                            RUN_2:   ZONE NAME
TOP .                       9494.0000:   TOP DEPTH
BOT .                      10469.5000:   BOTTOM DEPTH
RUN .                               2:   RUN NUMBER
LCCD.                             340:   LOGGING CONTRACTOR
SRVC.                   PAN GEO ATLAS:   LOGGING CONT NAME
DICO.          QC Data Collectors Ltd:   DIG COMPANY NAME
LDAT.                      07/01/1996:   DATE LOGGED
TDD .F                     10500.0000:   TOTAL DEPTH DRILLER
TDL .F                     10504.0000:   TOTAL DEPTH LOGGER
BOTL.F                     10500.0000:   BOTTOM DEPTH LOGGED
TOPL.F                      9350.0000:   TOP DEPTH LOGGED
CS1 .IN                        9.6250:   CASING SIZE 1
BS1 .IN                        8.5000:   BIT SIZE 1
DDB1.F                     10500.0000:   DEPTH DRILLED BIT 1
BHF .                              60:   FLUID CODE
DPT .                        Oil Base:   DRILLING FLUID TYPE
MUDD.                         16.5000:   FLUID DENSITY
MUDV.                         57.0000:   FLUID VISCOSITY
FL  .                          5.4000:   FLUID LOSS
TMAX.DEGF                    238.0000:   MAX REC TEMP
TIMC.                          6.0000:   TIME SINCE CIRCLN
~Curve Information Block
#MNEM.UNIT                    API CODE    No Description
#=========                    ========    == ===========
DEPT.F                   00 001 00 00:     1  DEPTH
CNCF.%                               :     2  Neutron Porosity
CAL.IN                               :     3  Caliper
CILD.MMHO                            :     4  Deep Induction Conductivity
GR.GAPI                              :     5  Gamma Ray
RILD.OHMM                            :     6  Deep Resistivity
RILM.OHMM                            :     7  Medium Resistivity
RWA.OHMM                             :     8  Apparent Water Resistivity
TEN.LB                               :     9  Cable Tension
PORZ.%                               :    10  Porosity
ZCOR.G/C3                            :    11  Density Correction
ZDEN.G/C3                            :    12  Bulk Density
~ASCII
# ...
10390.5000    33.1276    10.0035  4310.9063    36.0650      .2530      .2561      .0333    29.6992    31.5237     -.0030     2.1220
10391.0000    33.2970    10.0049  4471.8047    35.6498      .2414      .2514      .0325    28.7129    31.9010     -.0040     2.1210
10391.5000    33.4128    10.0049  4603.9922    34.7996      .2307      .2474      .0320    19.7983    32.0198     -.0040     2.1200
10392.0000    33.4937    10.0049  4694.8672    34.0178      .2212      .2443      .0314     -.0039    32.0439     -.0050     2.1230
10392.5000    33.7662    10.0049  4735.3750    33.2402      .2159      .2424      .0300     3.9604    32.0319     -.0099     2.1240
10393.0000    33.8019    10.0049  4710.5000    32.5801      .2122      .2414      .0295     6.9385    31.9367     -.0099     2.1220
10393.5000    33.8256    10.0049  4601.0859    32.6797      .2100      .2429      .0296     9.8970    31.9604     -.0099     2.1220
10394.0000    33.7542    10.0049  4399.0703    33.9172      .2114      .2477      .0300     4.9463    32.0198     -.0069     2.1290
10394.5000    34.0512    10.0049  4106.7656    36.9489      .2181      .2565      .0301     -.0039    31.8063     -.0040     2.1420
10395.0000    34.2415    10.0049  3719.2852    39.3694      .2288      .2701      .0310    -5.9404    31.2006     -.0020     2.1630
10395.5000    34.1231    10.0049  3245.2227    40.6284      .2436      .2894      .0315    -9.9048    30.1306     -.0030     2.1990
10396.0000    33.4107     9.9277  2731.2305    41.4851      .2749      .3223      .0310   -11.8774    28.2740     -.0079     2.2560
10396.5000    32.0931     9.8920  2234.6133    42.8713      .3268      .3785      .0290   -10.8911    25.4667     -.0030     2.3180
10397.0000    30.5829     9.7495  1790.4941    47.9208      .3875      .4458      .0260    -6.9268    21.8878      .0149     2.3640
10397.5000    29.7244     9.7079  1423.3496    55.8000      .4865      .5197      .0225    -9.9048    18.6891      .0248     2.3890
10398.0000    29.5073     9.6777  1153.5215    65.5446      .6866      .5750      .0210    -6.9575    16.6472      .0089     2.4020
10398.5000    30.3202     9.6414   985.9258    72.2000      .8581      .6298      .0220    -5.9404    15.4587     -.0010     2.4120
10399.0000    31.1756     9.6045   907.2256    75.5000      .9817      .6784      .0260    -4.4536    14.7168     -.0030     2.4240
10399.5000    31.6039     9.5493   892.8789    77.1000     1.0578      .7192      .0255    -5.9404    14.0696      .0020     2.4320
10400.0000    31.3908     9.5546   922.8184    77.5000     1.1070      .7433      .0245   -10.8911    13.5665      .0059     2.4300
10400.5000    30.9649     9.5898   988.4072    76.8999     1.1039      .7400      .0230    -5.9404    13.2736      .0040     2.4210
10401.0000    30.9431     9.5895  1096.6016    75.1000     1.0914      .7281      .0230    -5.9404    13.5666      .0010     2.4100
10401.5000    31.4478     9.5893  1275.4277    74.8999      .9630      .6845      .0235    -5.9404    14.1966     -.0059     2.3970
10402.0000    32.6018     9.5891  1550.2813    78.7000      .8184      .6435      .0230    -5.9404    15.0278     -.0099     2.3790
10402.5000    34.2590     9.5653  1913.8125    82.4752      .6659      .5907      .0220    -5.9404    15.9377     -.0089     2.3620
10403.0000    34.9800     9.5594  2327.9688    80.3960      .5428      .5377      .0220    -5.9404    17.0433     -.0069     2.3480
10403.5000    34.6204     9.5594  2753.7812    75.0000      .4429      .4795      .0185    -1.9761    17.8716     -.0059     2.3250
10404.0000    33.8526     9.5832  3164.4766    69.2999      .3648      .4224      .0180     -.9902    19.0326     -.0059     2.2800
10404.5000    33.5039     9.5594  3540.8750    65.2698      .3249      .3761      .0182     -.9902    20.8612     -.0050     2.2250
10405.0000    33.8756     9.5594  3866.4141    57.9406      .2948      .3369      .0231     -.9902    23.8701     -.0004     2.1840
10405.5000    34.2478     9.5594  4128.0937    49.5245      .2707      .3079      .0256    -4.9546    26.8659      .0107     2.1660
10406.0000    34.3799     9.5594  4307.9453    43.2235      .2507      .2924      .0271    -5.9404    28.7151      .0219     2.1600
10406.5000    34.3799     9.5594  4385.1406    42.2000      .2374      .2819      .0280    -5.9404    29.5317      .0276     2.1590
10407.0000    34.2722     9.5594  4356.2031    42.2000      .2298      .2749      .0279    -1.9761    29.7839      .0256     2.1610
10407.5000    33.9244     9.5594  4243.5547    41.6812      .2300      .2732      .0280     -.9902    29.7600      .0218     2.1620
10408.0000    33.8049     9.5827  4082.1523    40.0394      .2336      .2722      .0280     -.9902    29.7132      .0206     2.1630
10408.5000    34.0458     9.5565  3905.7773    39.4063      .2407      .2752      .0286     2.9741    29.5080      .0186     2.1670
10409.0000    34.2089     9.5746  3741.8906    38.7822      .2442      .2782      .0296     7.9248    29.4000      .0175     2.1720
10409.5000    34.1151     9.5673  3612.2266    38.6484      .2533      .2836      .0302     3.9604    29.1390      .0155     2.1740
10410.0000    33.8398     9.5300  3519.6328    39.0421      .2615      .2900      .0312     3.9810    28.9429      .0092     2.1760
10410.5000    33.3417     9.5300  3433.5039    40.1749      .2694      .3017      .0318     8.1934    28.8270      .0049     2.1880
10411.0000    32.6732     9.5600  3309.5469    40.9201      .2775      .3097      .0313     4.4775    28.3200      .0101     2.2080
10411.5000    31.8828     9.5300  3127.5195    41.4000      .2856      .3132      .0309     4.7383    27.3568      .0167     2.2190
10412.0000    31.1512     9.5541  2924.6641    41.4000      .2967      .3169      .0299     5.0581    26.4940      .0187     2.2120
10412.5000    30.8911     9.5360  2784.9883    41.4149      .3094      .3265      .0306     5.9849    26.3156      .0163     2.1990
10413.0000    30.8911     9.5600  2767.1992    41.4801      .3241      .3368      .0327    10.9482    26.8795      .0110     2.2040
10413.5000    30.8438     9.5600  2840.6914    40.6801      .3395      .3476      .0355    12.9038    27.1083      .0128     2.2370
10414.0000    30.2794     9.5594  2927.0078    39.8019      .3465      .3508      .0320    13.7046    25.9398      .0020     2.2710
10414.5000    28.4642     9.5525  2990.8828    39.8019      .3474      .3523      .0260    16.6221    23.9690     -.0228     2.2710
10415.0000    27.6059     9.5450  3060.7930    39.8019      .3454      .3448      .0235    16.9155    22.8891     -.0287     2.2370
10415.5000    28.0962     9.5375  3180.6328    39.2079      .3334      .3342      .0260    15.9595    23.8391     -.0139     2.2030
10416.0000    30.6965     9.5309  3360.1367    38.5148      .3219      .3197      .0295    15.1162    25.7925      .0029     2.1870
10416.5000    32.0195     9.5300  3554.2500    38.5099      .3091      .3055      .0305    18.0078    27.5037      .0098     2.1820
10417.0000    32.5781     9.5180  3684.0391    39.6636      .2937      .2957      .0310    20.0000    28.1758      .0108     2.1780
10417.5000    32.8157     9.5300  3690.3281    40.6553      .2790      .2918      .0305    20.0000    28.4639      .0101     2.1760
10418.0000    33.1127     9.5300  3568.6172    40.6998      .2705      .2953      .0305    20.0000    28.5719      .0073     2.1790
10418.5000    33.5168     9.5180  3358.1367    39.8411      .2700      .3042      .0308    20.0000    28.6680      .0075     2.1890
10419.0000    33.6119     9.5300  3117.1406    38.5663      .2816      .3150      .0312    20.0000    28.3083      .0097     2.2030
10419.5000    33.2200     9.5300  2902.7031    38.3643      .2977      .3292      .0315    20.0000    27.5524      .0064     2.2160
10420.0000    32.6498     9.5300  2757.9336    39.0608      .3224      .3495      .0315    20.0000    26.6662      .0044     2.2340
10420.5000    32.4749     9.5299  2698.5117    41.0701      .3468      .3624      .0315    20.0000    25.7796      .0083     2.2570
