~VERSION INFORMATION
VERS.                             2.0:   CWLS Log ASCII Standard-VERSION 2.0
WRAP.                              NO:   One line per depth step
~Well Information Block
STRT.F                      5785.0000:   Top Depth
STOP.F                     10595.0000:   Bottom Depth
STEP.F                         .50000:   Depth Increment
NULL.                        -999.250:   Null Value
FLD .                    MU BLK A 153:   Field Name
WELL.       OCSG14788   001 ST00 BP00:   NAME
API .                    427124011300:   WELL API
R1  .                           45310:   COMMENT  1
R2  .                           45310:   COMMENT  2
EDF .F                        95.0000:   ELEV DRILL FLOOR
COMP.         WALTER OIL AND GAS CORP:   OPERATOR
BN  .                           A 153:   BLOCK
CTRY.                             USA:   COUNTRY NAME
CNTY.                        M I E AD:   COUNTY NAME
TDD .F                      10613.000:   FINAL TD DRILLER
STAT.                           TEXAS:   STATE NAME
UWI .                    427124011300:   WELL API
DICO.               IHS : Digitizing Company
~PARAMETER INFORMATION (zones)
#MNEM.UNIT                       Value     Description
#=========                       =====     ===========
#ZONATION                          CNL:   ZONATION NAME
#ZONE                            RUN_2:   ZONE NAME
TOP .                       9494.0000:   TOP DEPTH
BOT .                      10469.5000:   BOTTOM DEPTH
RUN .                               2:   RUN NUMBER
LCCD.                             340:   LOGGING CONTRACTOR
SRVC.                   PAN GEO ATLAS:   LOGGING CONT NAME
DICO.          QC Data Collectors Ltd:   DIG COMPANY NAME
LDAT.                      07/01/1996:   DATE LOGGED
TDD .F                     10500.0000:   TOTAL DEPTH DRILLER
TDL .F                     10504.0000:   TOTAL DEPTH LOGGER
BOTL.F                     10500.0000:   BOTTOM DEPTH LOGGED
TOPL.F                      9350.0000:   TOP DEPTH LOGGED
CS1 .IN                        9.6250:   CASING SIZE 1
BS1 .IN                        8.5000:   BIT SIZE 1
DDB1.F                     10500.0000:   DEPTH DRILLED BIT 1
BHF .                              60:   FLUID CODE
DPT .                        Oil Base:   DRILLING FLUID TYPE
MUDD.                         16.5000:   FLUID DENSITY
MUDV.                         57.0000:   FLUID VISCOSITY
FL  .                          5.4000:   FLUID LOSS
TMAX.DEGF                    238.0000:   MAX REC TEMP
TIMC.                          6.0000:   TIME SINCE CIRCLN
~PARAMETER INFORMATION (zones)
#MNEM.UNIT                       Value     Description
#=========                       =====     ===========
#ZONATION                          DIL:   ZONATION NAME
#ZONE                            RUN_2:   ZONE NAME
TOP .                       9494.0000:   TOP DEPTH
BOT .                      10469.5000:   BOTTOM DEPTH
RUN .                               2:   RUN NUMBER
LCCD.                             340:   LOGGING CONTRACTOR
SRVC.                   PAN GEO ATLAS:   LOGGING CONT NAME
DICO.          QC Data Collectors Ltd:   DIG COMPANY NAME
LDAT.                      07/01/1996:   DATE LOGGED
TDD .F                     10500.0000:   TOTAL DEPTH DRILLER
TDL .F                     10504.0000:   TOTAL DEPTH LOGGER
BOTL.F                     10500.0000:   BOTTOM DEPTH LOGGED
TOPL.F                      9350.0000:   TOP DEPTH LOGGED
CS1 .IN                        9.6250:   CASING SIZE 1
BS1 .IN                        8.5000:   BIT SIZE 1
DDB1.F                     10500.0000:   DEPTH DRILLED BIT 1
BHF .                              60:   FLUID CODE
DPT .                        Oil Base:   DRILLING FLUID TYPE
MUDD.                         16.5000:   FLUID DENSITY
MUDV.                         57.0000:   FLUID VISCOSITY
FL  .                          5.4000:   FLUID LOSS
TMAX.DEGF                    238.0000:   MAX REC TEMP
TIMC.                          6.0000:   TIME SINCE CIRCLN
~PARAMETER INFORMATION (zones)
#MNEM.UNIT                       Value     Description
#=========                       =====     ===========
#ZONATION                          DIL:   ZONATION NAME
#ZONE                            RUN_1:   ZONE NAME
TOP .                       5785.0000:   TOP DEPTH
BOT .                       9493.5000:   BOTTOM DEPTH
RUN .                               1:   RUN NUMBER
LCCD.                             340:   LOGGING CONTRACTOR
SRVC.                   PAN GEO ATLAS:   LOGGING CONT NAME
DICO.          QC Data Collectors Ltd:   DIG COMPANY NAME
LDAT.                      06/23/1996:   DATE LOGGED
TDD .F                      9520.0000:   TOTAL DEPTH DRILLER
TDL .F                      9517.0000:   TOTAL DEPTH LOGGER
BOTL.F                      9515.0000:   BOTTOM DEPTH LOGGED
TOPL.F                      5800.0000:   TOP DEPTH LOGGED
CS1 .IN                       13.3750:   CASING SIZE 1
BS1 .IN                       12.2500:   BIT SIZE 1
DDB1.F                      9520.0000:   DEPTH DRILLED BIT 1
BHF .                              60:   FLUID CODE
DPT .                        Oil Base:   DRILLING FLUID TYPE
MUDD.                         14.8000:   FLUID DENSITY
MUDV.                         56.0000:   FLUID VISCOSITY
FL  .                          6.8000:   FLUID LOSS
TMAX.DEGF                    171.0000:   MAX REC TEMP
TIMC.                          6.0000:   TIME SINCE CIRCLN
~PARAMETER INFORMATION (zones)
#MNEM.UNIT                       Value     Description
#=========                       =====     ===========
#ZONATION                          DIL:   ZONATION NAME
#ZONE                            RUN_3:   ZONE NAME
TOP .                      10469.0000:   TOP DEPTH
BOT .                      10595.5000:   BOTTOM DEPTH
RUN .                               3:   RUN NUMBER
LCCD.                             340:   LOGGING CONTRACTOR
SRVC.                   PAN GEO ATLAS:   LOGGING CONT NAME
DICO.          QC Data Collectors Ltd:   DIG COMPANY NAME
LDAT.                      07/04/1996:   DATE LOGGED
TDD .F                     10613.0000:   TOTAL DEPTH DRILLER
TDL .F                     10596.0000:   TOTAL DEPTH LOGGER
BOTL.F                     10596.0000:   BOTTOM DEPTH LOGGED
TOPL.F                     10000.0000:   TOP DEPTH LOGGED
CS1 .IN                        9.6250:   CASING SIZE 1
BS1 .IN                        8.5000:   BIT SIZE 1
DDB1.F                     10613.0000:   DEPTH DRILLED BIT 1
BHF .                              60:   FLUID CODE
DPT .                        Oil Base:   DRILLING FLUID TYPE
MUDD.                         16.9000:   FLUID DENSITY
MUDV.                         55.0000:   FLUID VISCOSITY
FL  .                          5.0000:   FLUID LOSS
TMAX.DEGF                    240.0000:   MAX REC TEMP
TIMC.                         10.0000:   TIME SINCE CIRCLN
~PARAMETER INFORMATION (zones)
#MNEM.UNIT                       Value     Description
#=========                       =====     ===========
#ZONATION                          FDC:   ZONATION NAME
#ZONE                            RUN_2:   ZONE NAME
TOP .                       9494.0000:   TOP DEPTH
BOT .                      10469.5000:   BOTTOM DEPTH
RUN .                               2:   RUN NUMBER
LCCD.                             340:   LOGGING CONTRACTOR
SRVC.                   PAN GEO ATLAS:   LOGGING CONT NAME
DICO.          QC Data Collectors Ltd:   DIG COMPANY NAME
LDAT.                      07/01/1996:   DATE LOGGED
TDD .F                     10500.0000:   TOTAL DEPTH DRILLER
TDL .F                     10504.0000:   TOTAL DEPTH LOGGER
BOTL.F                     10500.0000:   BOTTOM DEPTH LOGGED
TOPL.F                      9350.0000:   TOP DEPTH LOGGED
CS1 .IN                        9.6250:   CASING SIZE 1
BS1 .IN                        8.5000:   BIT SIZE 1
DDB1.F                     10500.0000:   DEPTH DRILLED BIT 1
BHF .                              60:   FLUID CODE
DPT .                        Oil Base:   DRILLING FLUID TYPE
MUDD.                         16.5000:   FLUID DENSITY
MUDV.                         57.0000:   FLUID VISCOSITY
FL  .                          5.4000:   FLUID LOSS
TMAX.DEGF                    238.0000:   MAX REC TEMP
TIMC.                          6.0000:   TIME SINCE CIRCLN
~Curve Information Block
#MNEM.UNIT                    API CODE    No Description
#=========                    ========    == ===========
DEPT.F                   00 001 00 00:     1  DEPTH
CNCF.%                               :     2  Neutron Porosity
CAL.IN                               :     3  Caliper
CILD.MMHO                            :     4  Deep Induction Conductivity
GR.GAPI                              :     5  Gamma Ray
RILD.OHMM                            :     6  Deep Resistivity
RILM.OHMM                            :     7  Medium Resistivity
RWA.OHMM                             :     8  Apparent Water Resistivity
TEN.LB                               :     9  Cable Tension
PORZ.%                               :    10  Porosity
ZCOR.G/C3                            :    11  Density Correction
ZDEN.G/C3                            :    12  Bulk Density
~ASCII
# ...
 9536.5000    38.1622    10.1960  1729.6094    80.0780      .5762      .5894      .0167   -55.0000    15.5807     -.0151     2.4110
 9537.0000    37.7344    10.2140  1738.2676    75.9210      .5764      .5879      .0157   -80.0000    15.0180     -.0149     2.4140
 9537.5000    37.4494    10.1900  1752.9883    74.1211      .5760      .5853      .0147   -35.0000    14.7077     -.0162     2.4060
 9538.0000    37.2117    10.1900  1769.7363    73.8195      .5727      .5829      .0158   -40.0000    14.6139     -.0172     2.3940
 9538.5000    37.1763    10.1960  1785.0176    74.9390      .5695      .5803      .0163   -85.0000    15.0236     -.0188     2.3870
 9539.0000    37.7230    10.1900  1795.8457    76.0991      .5646      .5772      .0175   -80.0000    15.6806     -.0145     2.3840
 9539.5000    37.9367    10.1900  1800.1309    76.9594      .5572      .5739      .0185   -65.0000    16.0118     -.0036     2.3800
 9540.0000    38.1625    10.2200  1798.5840    77.7593      .5509      .5703      .0188   -60.0000    16.1938     -.0075     2.3770
 9540.5000    38.7211    10.1900  1795.3633    78.2195      .5472      .5690      .0188   -35.2412    16.4925     -.0143     2.3770
 9541.0000    39.2794    10.1960  1792.0195    78.7593      .5456      .5684      .0190   -40.5000    16.5148     -.0164     2.3800
 9541.5000    39.8140    10.2140  1785.1133    80.0355      .5477      .5696      .0190   -50.7432    16.4650     -.0103     2.3830
 9542.0000    39.8138    10.2140  1773.1504    81.5037      .5497      .5712      .0190   -65.9956    16.2347     -.0052     2.3860
 9542.5000    39.6474    10.1960  1759.4121    81.0317      .5539      .5741      .0185   -75.0000    16.0554     -.0036     2.3910
 9543.0000    39.7783    10.2200  1748.3184    78.0421      .5581      .5779      .0180   -75.9961    15.9208     -.0030     2.3930
 9543.5000    40.1942    10.2200  1742.6895    75.9812      .5629      .5839      .0178   -83.0078    15.6904     -.0030     2.3920
 9544.0000    39.8486    10.2200  1742.4336    74.4785      .5683      .5885      .0177   -73.0000    15.5574     -.0026     2.3880
 9544.5000    39.4214    10.2125  1742.7734    73.9899      .5731      .5924      .0178   -52.5098    15.6832     -.0015     2.3850
 9545.0000    38.9465    10.2200  1737.4746    75.7500      .5772      .5927      .0183   -31.5000    15.9764     -.0020     2.3870
 9545.5000    38.3905    10.2200  1724.5625    76.9449      .5813      .5929      .0185   -35.0000    16.0386     -.0009     2.3910
 9546.0000    37.9604    10.2200  1708.5527    73.0928      .5850      .5930      .0182   -57.8740    15.8530      .0020     2.3930
 9546.5000    37.6039    10.2200  1696.1211    69.3649      .5849      .5933      .0180   -88.9844    15.6238      .0004     2.3880
 9547.0000    37.2475    10.2200  1689.2344    69.0500      .5844      .5936      .0180   -81.0156    15.6924     -.0091     2.3840
 9547.5000    37.2475    10.2080  1688.4453    69.7230      .5839      .5959      .0183   -68.0078    15.9881     -.0166     2.3870
 9548.0000    37.2475    10.1712  1694.0000    70.2212      .5834      .5970      .0192   -56.0156    16.0358     -.0192     2.3970
 9548.5000    37.2955    10.1960  1702.8438    70.9904      .5829      .5981      .0182   -36.0156    15.6640     -.0152     2.4010
 9549.0000    36.6059    10.2050  1710.1113    73.1699      .5824      .5992      .0171   -23.0078    15.2499     -.0057     2.3980
 9549.5000    35.8506    10.1810  1715.5566    75.0763      .5819      .6003      .0171   -15.0000    15.2182      .0030     2.3950
 9550.0000    39.1403    10.1609  1720.7969    75.0609      .5814      .6014      .0174   -16.8755    15.3396     -.0032     2.3930
 9550.5000    41.3465    10.1300  1726.9922    74.3597      .5809      .6025      .0175   -18.7500    15.5329     -.0087     2.3900
 9551.0000    40.3487    10.1300  1734.9902    74.1801      .5805      .6036      .0180   -12.5000    15.7269     -.0071     2.3880
 9551.5000    40.0990    10.1480  1743.1250    74.4800      .5800      .6047      .0180    -9.0010    15.8615     -.0067     2.3880
 9552.0000    40.0159    10.1600  1748.3906    74.4199      .5795      .6059      .0185   -13.1240    15.9193     -.0099     2.3850
 9552.5000    39.6121    10.1420  1752.6836    74.0398      .5755      .6070      .0181   -23.0078    15.9527     -.0081     2.3780
 9553.0000    38.9587    10.1300  1760.8516    73.7198      .5719      .6068      .0189   -25.0000    16.2201     -.0051     2.3760
 9553.5000    38.3525    10.1480  1771.3906    73.8601      .5686      .6048      .0199   -16.9922    16.5889     -.0085     2.3820
 9554.0000    38.5424    10.1780  1779.9063    75.0605      .5648      .6021      .0196   -18.0078    16.5747     -.0133     2.3920
 9554.5000    39.0176    10.1900  1788.6367    76.6609      .5608      .5977      .0182   -29.0234    16.0203     -.0047     2.4000
 9555.0000    39.2673    10.1900  1799.4609    75.8394      .5570      .5910      .0166   -40.0000    15.4373      .0004     2.4020
 9555.5000    39.2197    10.1300  1811.2402    73.9792      .5538      .5847      .0165   -48.0078    15.1485      .0022     2.3970
 9556.0000    39.1367    10.1600  1824.7168    73.1199      .5505      .5796      .0164   -33.9844    15.2010     -.0024     2.3880
 9556.5000    39.0297    10.1480  1839.1172    73.7406      .5487      .5745      .0169   -21.9922    15.5878     -.0089     2.3850
 9557.0000    39.3859    10.1720  1848.9766    76.0609      .5481      .5715      .0178   -20.0000    15.9960     -.0208     2.3910
 9557.5000    39.9563    10.1720  1851.3438    78.3613      .5479      .5690      .0171   -19.0234    15.9325     -.0180     2.3960
 9558.0000    40.0990    10.1600  1843.1680    78.5587      .5488      .5693      .0174   -25.0000    15.5733      .0022     2.3960
 9558.5000    39.9358    10.1495  1818.7148    77.4891      .5504      .5716      .0160   -28.0078    15.4455      .0081     2.3950
 9559.0000    39.4515    10.1300  1776.9805    77.1899      .5545      .5781      .0162   -23.9844    15.4658      .0076     2.3930
 9559.5000    39.2079    10.1525  1727.2051    78.6324      .5603      .5858      .0161   -21.9922    15.5491      .0042     2.3910
 9560.0000    39.1845    10.1600  1678.6895    80.0990      .5702      .5940      .0175   -33.0317    15.7069      .0030     2.3910
 9560.5000    39.0775    10.1300  1632.7793    80.9900      .5805      .6023      .0180   -46.5059    15.7426      .0045     2.3950
 9561.0000    38.3766    10.1540  1589.2207    80.6930      .5936      .6117      .0185   -48.5000    15.6310      .0078     2.4000
 9561.5000    37.5455    10.1300  1553.4824    78.6000      .6071      .6218      .0180   -60.0000    15.3628      .0148     2.4050
 9562.0000    36.3337    10.1360  1529.0801    74.7999      .6220      .6324      .0180   -60.0000    15.0302      .0050     2.4090
 9562.5000    35.1924    10.1360  1514.1172    70.5000      .6351      .6438      .0175   -69.0039    14.7914     -.0030     2.4130
 9563.0000    34.6694    10.1840  1509.0195    69.1000      .6444      .6550      .0170   -70.0000    14.5238     -.0030     2.4070
 9563.5000    34.8351    10.1900  1518.8184    70.2999      .6495      .6597      .0175   -70.0000    14.5866      .0059     2.3900
 9564.0000    35.6945    10.1660  1545.4199    71.1000      .6515      .6643      .0185   -70.0000    15.2664      .0059     2.3730
 9564.5000    36.8464    10.1600  1582.8008    72.0000      .6464      .6635      .0220   -70.0000    16.2517      .0040     2.3670
 9565.0000    37.4257    10.1600  1618.4609    73.2999      .6396      .6585      .0230   -65.0405    16.9664      .0010     2.3740
 9565.5000    37.6633    10.1600  1642.0527    75.2999      .6298      .6534      .0225   -60.0000    16.9453      .0010     2.3870
 9566.0000    37.5332    10.1600  1653.8555    75.6000      .6202      .6429      .0200   -60.0000    16.2221      .0040     2.4000
 9566.5000    36.9142    10.1600  1662.7148    74.7999      .6109      .6326      .0185   -55.0000    15.5403      .0059     2.4050
