~VERSION INFORMATION
VERS.                             2.0:   CWLS Log ASCII Standard-VERSION 2.0
WRAP.                              NO:   One line per depth step
~Well Information Block
STRT.F                      5785.0000:   Top Depth
STOP.F                     10595.0000:   Bottom Depth
STEP.F                         .50000:   Depth Increment
NULL.                        -999.250:   Null Value
FLD .                    MU BLK A 153:   Field Name
WELL.       OCSG14788   001 ST00 BP00:   NAME
API .                    427124011300:   WELL API
R1  .                           45310:   COMMENT  1
R2  .                           45310:   COMMENT  2
EDF .F                        95.0000:   ELEV DRILL FLOOR
COMP.         WALTER OIL AND GAS CORP:   OPERATOR
BN  .                           A 153:   BLOCK
CTRY.                             USA:   COUNTRY NAME
CNTY.                        M I E AD:   COUNTY NAME
TDD .F                      10613.000:   FINAL TD DRILLER
STAT.                           TEXAS:   STATE NAME
UWI .                    427124011300:   WELL API
DICO.               IHS : Digitizing Company
~PARAMETER INFORMATION (zones)
#MNEM.UNIT                       Value     Description
#=========                       =====     ===========
#ZONATION                          CNL:   ZONATION NAME
#ZONE                            RUN_2:   ZONE NAME
TOP .                       9494.0000:   TOP DEPTH
BOT .                      10469.5000:   BOTTOM DEPTH
RUN .                               2:   RUN NUMBER
LCCD.                             340:   LOGGING CONTRACTOR
SRVC.                   PAN GEO ATLAS:   LOGGING CONT NAME
DICO.          QC Data Collectors Ltd:   DIG COMPANY NAME
LDAT.                      07/01/1996:   DATE LOGGED
TDD .F                     10500.0000:   TOTAL DEPTH DRILLER
TDL .F                     10504.0000:   TOTAL DEPTH LOGGER
BOTL.F                     10500.0000:   BOTTOM DEPTH LOGGED
TOPL.F                      9350.0000:   TOP DEPTH LOGGED
CS1 .IN                        9.6250:   CASING SIZE 1
BS1 .IN                        8.5000:   BIT SIZE 1
DDB1.F                     10500.0000:   DEPTH DRILLED BIT 1
BHF .                              60:   FLUID CODE
DPT .                        Oil Base:   DRILLING FLUID TYPE
MUDD.                         16.5000:   FLUID DENSITY
MUDV.                         57.0000:   FLUID VISCOSITY
FL  .                          5.4000:   FLUID LOSS
TMAX.DEGF                    238.0000:   MAX REC TEMP
TIMC.                          6.0000:   TIME SINCE CIRCLN
~PARAMETER INFORMATION (zones)
#MNEM.UNIT                       Value     Description
#=========                       =====     ===========
#ZONATION                          DIL:   ZONATION NAME
#ZONE                            RUN_2:   ZONE NAME
TOP .                       9494.0000:   TOP DEPTH
BOT .                      10469.5000:   BOTTOM DEPTH
RUN .                               2:   RUN NUMBER
LCCD.                             340:   LOGGING CONTRACTOR
SRVC.                   PAN GEO ATLAS:   LOGGING CONT NAME
DICO.          QC Data Collectors Ltd:   DIG COMPANY NAME
LDAT.                      07/01/1996:   DATE LOGGED
TDD .F                     10500.0000:   TOTAL DEPTH DRILLER
TDL .F                     10504.0000:   TOTAL DEPTH LOGGER
BOTL.F                     10500.0000:   BOTTOM DEPTH LOGGED
TOPL.F                      9350.0000:   TOP DEPTH LOGGED
CS1 .IN                        9.6250:   CASING SIZE 1
BS1 .IN                        8.5000:   BIT SIZE 1
DDB1.F                     10500.0000:   DEPTH DRILLED BIT 1
BHF .                              60:   FLUID CODE
DPT .                        Oil Base:   DRILLING FLUID TYPE
MUDD.                         16.5000:   FLUID DENSITY
MUDV.                         57.0000:   FLUID VISCOSITY
FL  .                          5.4000:   FLUID LOSS
TMAX.DEGF                    238.0000:   MAX REC TEMP
TIMC.                          6.0000:   TIME SINCE CIRCLN
~PARAMETER INFORMATION (zones)
#MNEM.UNIT                       Value     Description
#=========                       =====     ===========
#ZONATION                          DIL:   ZONATION NAME
#ZONE                            RUN_1:   ZONE NAME
TOP .                       5785.0000:   TOP DEPTH
BOT .                       9493.5000:   BOTTOM DEPTH
RUN .                               1:   RUN NUMBER
LCCD.                             340:   LOGGING CONTRACTOR
SRVC.                   PAN GEO ATLAS:   LOGGING CONT NAME
DICO.          QC Data Collectors Ltd:   DIG COMPANY NAME
LDAT.                      06/23/1996:   DATE LOGGED
TDD .F                      9520.0000:   TOTAL DEPTH DRILLER
TDL .F                      9517.0000:   TOTAL DEPTH LOGGER
BOTL.F                      9515.0000:   BOTTOM DEPTH LOGGED
TOPL.F                      5800.0000:   TOP DEPTH LOGGED
CS1 .IN                       13.3750:   CASING SIZE 1
BS1 .IN                       12.2500:   BIT SIZE 1
DDB1.F                      9520.0000:   DEPTH DRILLED BIT 1
BHF .                              60:   FLUID CODE
DPT .                        Oil Base:   DRILLING FLUID TYPE
MUDD.                         14.8000:   FLUID DENSITY
MUDV.                         56.0000:   FLUID VISCOSITY
FL  .                          6.8000:   FLUID LOSS
TMAX.DEGF                    171.0000:   MAX REC TEMP
TIMC.                          6.0000:   TIME SINCE CIRCLN
~PARAMETER INFORMATION (zones)
#MNEM.UNIT                       Value     Description
#=========                       =====     ===========
#ZONATION                          DIL:   ZONATION NAME
#ZONE                            RUN_3:   ZONE NAME
TOP .                      10469.0000:   TOP DEPTH
BOT .                      10595.5000:   BOTTOM DEPTH
RUN .                               3:   RUN NUMBER
LCCD.                             340:   LOGGING CONTRACTOR
SRVC.                   PAN GEO ATLAS:   LOGGING CONT NAME
DICO.          QC Data Collectors Ltd:   DIG COMPANY NAME
LDAT.                      07/04/1996:   DATE LOGGED
TDD .F                     10613.0000:   TOTAL DEPTH DRILLER
TDL .F                     10596.0000:   TOTAL DEPTH LOGGER
BOTL.F                     10596.0000:   BOTTOM DEPTH LOGGED
TOPL.F                     10000.0000:   TOP DEPTH LOGGED
CS1 .IN                        9.6250:   CASING SIZE 1
BS1 .IN                        8.5000:   BIT SIZE 1
DDB1.F                     10613.0000:   DEPTH DRILLED BIT 1
BHF .                              60:   FLUID CODE
DPT .                        Oil Base:   DRILLING FLUID TYPE
MUDD.                         16.9000:   FLUID DENSITY
MUDV.                         55.0000:   FLUID VISCOSITY
FL  .                          5.0000:   FLUID LOSS
TMAX.DEGF                    240.0000:   MAX REC TEMP
TIMC.                         10.0000:   TIME SINCE CIRCLN
~PARAMETER INFORMATION (zones)
#MNEM.UNIT                       Value     Description
#=========                       =====     ===========
#ZONATION                          FDC:   ZONATION NAME
#ZONE                            RUN_2:   ZONE NAME
TOP .                       9494.0000:   TOP DEPTH
BOT .                      10469.5000:   BOTTOM DEPTH
RUN .                               2:   RUN NUMBER
LCCD.                             340:   LOGGING CONTRACTOR
SRVC.                   PAN GEO ATLAS:   LOGGING CONT NAME
DICO.          QC Data Collectors Ltd:   DIG COMPANY NAME
LDAT.                      07/01/1996:   DATE LOGGED
TDD .F                     10500.0000:   TOTAL DEPTH DRILLER
TDL .F                     10504.0000:   TOTAL DEPTH LOGGER
BOTL.F                     10500.0000:   BOTTOM DEPTH LOGGED
TOPL.F                      9350.0000:   TOP DEPTH LOGGED
CS1 .IN                        9.6250:   CASING SIZE 1
BS1 .IN                        8.5000:   BIT SIZE 1
DDB1.F                     10500.0000:   DEPTH DRILLED BIT 1
BHF .                              60:   FLUID CODE
DPT .                        Oil Base:   DRILLING FLUID TYPE
MUDD.                         16.5000:   FLUID DENSITY
MUDV.                         57.0000:   FLUID VISCOSITY
FL  .                          5.4000:   FLUID LOSS
TMAX.DEGF                    238.0000:   MAX REC TEMP
TIMC.                          6.0000:   TIME SINCE CIRCLN
~Curve Information Block
#MNEM.UNIT                    API CODE    No Description
#=========                    ========    == ===========
DEPT.F                   00 001 00 00:     1  DEPTH
CNCF.%                               :     2  Neutron Porosity
CAL.IN                               :     3  Caliper
CILD.MMHO                            :     4  Deep Induction Conductivity
GR.GAPI                              :     5  Gamma Ray
RILD.OHMM                            :     6  Deep Resistivity
RILM.OHMM                            :     7  Medium Resistivity
RWA.OHMM                             :     8  Apparent Water Resistivity
TEN.LB                               :     9  Cable Tension
PORZ.%                               :    10  Porosity
ZCOR.G/C3                            :    11  Density Correction
ZDEN.G/C3                            :    12  Bulk Density
~ASCII
# ...
 9872.0000    35.9088     9.9800  1640.1035    78.6077      .6542      .7199      .0141   -80.1982    13.6471      .0307     2.4110
 9872.5000    37.1876     9.9800  1691.2715    81.4093      .6383      .6969      .0151   -83.1758    14.1929      .0291     2.4000
 9873.0000    38.1741     9.9980  1727.9355    84.1993      .6244      .6750      .0165   -61.4014    14.8234      .0178     2.3950
 9873.5000    38.4474     9.9800  1752.3242    84.5939      .6114      .6580      .0170   -22.7837    15.3307      .0041     2.3980
 9874.0000    38.4950    10.0100  1769.4160    84.0808      .6006      .6419      .0159     3.9604    15.3453      .0024     2.4010
 9874.5000    38.5663    10.0400  1781.8242    83.8516      .5908      .6302      .0160    -9.4229    15.2505      .0020     2.3980
 9875.0000    38.6257    10.0100  1790.8105    83.4653      .5847      .6199      .0160   -46.4136    15.1837     -.0000     2.3940
 9875.5000    38.3289    10.0100  1796.4883    83.2325      .5797      .6162      .0165   -65.3467    15.3906     -.0005     2.3990
 9876.0000    37.9367     9.9800  1798.2676    82.5314      .5768      .6138      .0159   -65.3545    15.3878      .0002     2.4080
 9876.5000    37.7822     9.9800  1798.4473    81.5060      .5745      .6101      .0154   -66.5020    14.9100     -.0012     2.4070
 9877.0000    37.7940     9.9800  1800.7500    80.4957      .5723      .6061      .0156   -67.6626    14.6443      .0018     2.3950
 9877.5000    37.9009     9.9800  1805.7617    79.3804      .5715      .6026      .0156   -68.8281    15.0588      .0050     2.3880
 9878.0000    37.9367     9.9910  1809.7070    79.0796      .5730      .5993      .0166   -74.9346    15.6187      .0045     2.3930
 9878.5000    37.6396     9.9725  1809.5117    79.6593      .5745      .5977      .0170   -75.0000    15.7748      .0036     2.4010
 9879.0000    37.3427     9.9650  1806.1914    80.0197      .5760      .5974      .0163   -75.0000    15.3732      .0034     2.4060
 9879.5000    37.1050     9.9575  1801.0781    79.2023      .5775      .5972      .0150   -75.0000    14.9198      .0069     2.4060
 9880.0000    36.9267     9.9509  1792.1973    78.2000      .5790      .5969      .0150   -75.0000    14.8278      .0107     2.4070
 9880.5000    36.6694     9.9500  1778.6602    78.9187      .5805      .5966      .0150   -75.0000    14.7327      .0127     2.4090
 9881.0000    36.3388     9.9500  1761.4766    80.2367      .5820      .5959      .0150   -79.4580    14.6733      .0153     2.4090
 9881.5000    36.1782     9.9500  1740.8848    80.4757      .5835      .5965      .0150   -80.0000    14.6426      .0207     2.4100
 9882.0000    36.4476     9.9500  1717.3105    79.3617      .5850      .6007      .0150   -75.0601    14.6429      .0175     2.4150
 9882.5000    36.8690     9.9500  1693.0527    76.7023      .5903      .6050      .0150   -75.0000    14.4335      .0087     2.4210
 9883.0000    36.7051     9.9500  1669.7910    73.7820      .5957      .6138      .0139   -75.0000    14.1037     -.0008     2.4230
 9883.5000    36.2504     9.9500  1647.6426    72.4203      .6044      .6230      .0135   -70.0586    13.8096     -.0020     2.4190
 9884.0000    36.0120     9.9507  1627.5840    72.5214      .6138      .6327      .0140   -70.0000    13.9054     -.0030     2.4160
 9884.5000    35.9879     9.9563  1611.0918    73.7646      .6233      .6448      .0146   -70.0000    14.1106     -.0030     2.4200
 9885.0000    36.1661     9.9627  1599.1367    75.4500      .6277      .6570      .0146   -65.0776    14.0792     -.0025     2.4270
 9885.5000    36.6878     9.9854  1592.7090    75.6698      .6310      .6663      .0145   -65.0000    13.7728     -.0049     2.4300
 9886.0000    37.0572     9.9865  1591.0859    74.2452      .6341      .6706      .0139   -65.0000    13.5387      .0014     2.4280
 9886.5000    36.9156     9.9752  1590.5039    72.2195      .6369      .6749      .0135   -65.0000    13.3992      .0062     2.4250
 9887.0000    36.3448     9.9634  1589.0352    72.8210      .6400      .6771      .0140   -65.0000    13.5446      .0079     2.4280
 9887.5000    36.1309     9.9752  1588.6719    74.0405      .6445      .6768      .0135   -65.0000    13.5715      .0079     2.4370
 9888.0000    36.0951     9.9754  1590.6289    74.4606      .6490      .6765      .0134   -64.9917    13.2335      .0114     2.4400
 9888.5000    36.0118     9.9764  1593.3418    73.9095      .6528      .6754      .0130   -63.8403    12.8567      .0185     2.4300
 9889.0000    35.9406     9.9776  1594.7734    72.5800      .6541      .6742      .0135   -62.6860    13.0888      .0177     2.4190
 9889.5000    35.7495     9.9788  1594.5664    71.3995      .6554      .6730      .0140   -61.5381    13.6839      .0091     2.4170
 9890.0000    35.4348     9.9799  1590.3184    71.4790      .6578      .6722      .0145   -60.4858    14.0312      .0026     2.4170
 9890.5000    34.9989     9.9800  1577.7520    71.6748      .6603      .6714      .0147   -60.3960    14.1137     -.0022     2.4150
 9891.0000    34.8713     9.9800  1557.5352    71.4299      .6637      .6745      .0155   -60.3960    14.1980     -.0030     2.4160
 9891.5000    34.8955     9.9800  1534.2188    71.2650      .6696      .6793      .0155   -60.3960    14.2574     -.0023     2.4220
 9892.0000    35.0021     9.9800  1511.5234    71.9646      .6756      .6896      .0154   -60.3960    14.0114      .0008     2.4280
 9892.5000    35.2750     9.9800  1491.8496    73.4210      .6822      .7027      .0145   -60.3960    13.6853      .0042     2.4290
 9893.0000    35.3228     9.9800  1477.1973    74.1202      .6896      .7151      .0141   -60.3960    13.4194      .0084     2.4270
 9893.5000    35.0736     9.9800  1468.6348    73.3187      .6972      .7270      .0150   -65.2690    13.5177      .0097     2.4280
 9894.0000    34.6578     9.9800  1468.3418    71.2458      .7048      .7374      .0146   -65.3467    13.5119      .0057     2.4290
 9894.5000    34.4554     9.9800  1477.7363    69.0892      .7126      .7360      .0149   -65.3467    13.4524      .0040     2.4290
 9895.0000    34.5264     9.9800  1495.0391    69.0099      .7065      .7346      .0145   -65.3467    13.3929      .0046     2.4290
 9895.5000    34.9543     9.9635  1514.3945    72.0458      .6984      .7247      .0145   -65.3467    13.3663      .0078     2.4260
 9896.0000    35.1799     9.9800  1530.1914    74.7675      .6840      .7097      .0146   -65.3467    13.5177      .0123     2.4190
 9896.5000    35.5958     9.9800  1541.6152    77.8781      .6677      .6964      .0146   -65.3467    13.8188      .0041     2.4140
 9897.0000    35.8334     9.9800  1549.1973    78.2812      .6606      .6896      .0156   -70.2388    14.2010     -.0065     2.4120
 9897.5000    35.9642     9.9800  1551.9766    74.9437      .6549      .6829      .0161   -70.2969    14.4071     -.0051     2.4090
 9898.0000    35.9167     9.9807  1549.7090    71.4015      .6543      .6850      .0165   -70.3042    14.5257     -.0008     2.4080
 9898.5000    35.6192     9.9863  1543.5371    70.3999      .6565      .6895      .0167   -71.4644    14.7018     -.0016     2.4130
 9899.0000    34.9167     9.9925  1534.0410    70.7593      .6589      .6942      .0167   -72.6372    14.5921     -.0054     2.4250
 9899.5000    34.1295     9.9808  1522.6484    70.5804      .6625      .6990      .0158   -73.8159    14.0439     -.0041     2.4340
 9900.0000    33.7857     9.9924  1513.3770    69.4716      .6656      .7029      .0150   -74.9087    13.4731     -.0001     2.4340
 9900.5000    33.6422     9.9752  1509.7871    68.0997      .6668      .7046      .0145   -75.0625    13.1138      .0019     2.4310
 9901.0000    33.8220     9.9871  1511.2188    66.9613      .6702      .7054      .0145   -80.0996    13.1869     -.0030     2.4300
 9901.5000    33.9427     9.9871  1512.0137    66.8320      .6738      .7045      .0145   -80.1489    13.2931     -.0073     2.4310
 9902.0000    33.7546    10.0049  1505.0176    67.4884      .6774      .7038      .0145   -80.1978    13.2738     -.0052     2.4370
