~VERSION INFORMATION
VERS.                             2.0:   CWLS Log ASCII Standard-VERSION 2.0
WRAP.                              NO:   One line per depth step
~Well Information Block
STRT.F                      5785.0000:   Top Depth
STOP.F                     10595.0000:   Bottom Depth
STEP.F                         .50000:   Depth Increment
NULL.                        -999.250:   Null Value
FLD .                    MU BLK A 153:   Field Name
WELL.       OCSG14788   001 ST00 BP00:   NAME
API .                    427124011300:   WELL API
R1  .                           45310:   COMMENT  1
R2  .                           45310:   COMMENT  2
EDF .F                        95.0000:   ELEV DRILL FLOOR
COMP.         WALTER OIL AND GAS CORP:   OPERATOR
BN  .                           A 153:   BLOCK
CTRY.                             USA:   COUNTRY NAME
CNTY.                        M I E AD:   COUNTY NAME
TDD .F                      10613.000:   FINAL TD DRILLER
STAT.                           TEXAS:   STATE NAME
UWI .                    427124011300:   WELL API
DICO.               IHS : Digitizing Company
~PARAMETER INFORMATION (zones)
#MNEM.UNIT                       Value     Description
#=========                       =====     ===========
#ZONATION                          CNL:   ZONATION NAME
#ZONE                            RUN_2:   ZONE NAME
TOP .                       9494.0000:   TOP DEPTH
BOT .                      10469.5000:   BOTTOM DEPTH
RUN .                               2:   RUN NUMBER
LCCD.                             340:   LOGGING CONTRACTOR
SRVC.                   PAN GEO ATLAS:   LOGGING CONT NAME
DICO.          QC Data Collectors Ltd:   DIG COMPANY NAME
LDAT.                      07/01/1996:   DATE LOGGED
TDD .F                     10500.0000:   TOTAL DEPTH DRILLER
TDL .F                     10504.0000:   TOTAL DEPTH LOGGER
BOTL.F                     10500.0000:   BOTTOM DEPTH LOGGED
TOPL.F                      9350.0000:   TOP DEPTH LOGGED
CS1 .IN                        9.6250:   CASING SIZE 1
BS1 .IN                        8.5000:   BIT SIZE 1
DDB1.F                     10500.0000:   DEPTH DRILLED BIT 1
BHF .                              60:   FLUID CODE
DPT .                        Oil Base:   DRILLING FLUID TYPE
MUDD.                         16.5000:   FLUID DENSITY
MUDV.                         57.0000:   FLUID VISCOSITY
FL  .                          5.4000:   FLUID LOSS
TMAX.DEGF                    238.0000:   MAX REC TEMP
TIMC.                          6.0000:   TIME SINCE CIRCLN
~PARAMETER INFORMATION (zones)
#MNEM.UNIT                       Value     Description
#=========                       =====     ===========
#ZONATION                          DIL:   ZONATION NAME
#ZONE                            RUN_2:   ZONE NAME
TOP .                       9494.0000:   TOP DEPTH
BOT .                      10469.5000:   BOTTOM DEPTH
RUN .                               2:   RUN NUMBER
LCCD.                             340:   LOGGING CONTRACTOR
SRVC.                   PAN GEO ATLAS:   LOGGING CONT NAME
DICO.          QC Data Collectors Ltd:   DIG COMPANY NAME
LDAT.                      07/01/1996:   DATE LOGGED
TDD .F                     10500.0000:   TOTAL DEPTH DRILLER
TDL .F                     10504.0000:   TOTAL DEPTH LOGGER
BOTL.F                     10500.0000:   BOTTOM DEPTH LOGGED
TOPL.F                      9350.0000:   TOP DEPTH LOGGED
CS1 .IN                        9.6250:   CASING SIZE 1
BS1 .IN                        8.5000:   BIT SIZE 1
DDB1.F                     10500.0000:   DEPTH DRILLED BIT 1
BHF .                              60:   FLUID CODE
DPT .                        Oil Base:   DRILLING FLUID TYPE
MUDD.                         16.5000:   FLUID DENSITY
MUDV.                         57.0000:   FLUID VISCOSITY
FL  .                          5.4000:   FLUID LOSS
TMAX.DEGF                    238.0000:   MAX REC TEMP
TIMC.                          6.0000:   TIME SINCE CIRCLN
~PARAMETER INFORMATION (zones)
#MNEM.UNIT                       Value     Description
#=========                       =====     ===========
#ZONATION                          DIL:   ZONATION NAME
#ZONE                            RUN_1:   ZONE NAME
TOP .                       5785.0000:   TOP DEPTH
BOT .                       9493.5000:   BOTTOM DEPTH
RUN .                               1:   RUN NUMBER
LCCD.                             340:   LOGGING CONTRACTOR
SRVC.                   PAN GEO ATLAS:   LOGGING CONT NAME
DICO.          QC Data Collectors Ltd:   DIG COMPANY NAME
LDAT.                      06/23/1996:   DATE LOGGED
TDD .F                      9520.0000:   TOTAL DEPTH DRILLER
TDL .F                      9517.0000:   TOTAL DEPTH LOGGER
BOTL.F                      9515.0000:   BOTTOM DEPTH LOGGED
TOPL.F                      5800.0000:   TOP DEPTH LOGGED
CS1 .IN                       13.3750:   CASING SIZE 1
BS1 .IN                       12.2500:   BIT SIZE 1
DDB1.F                      9520.0000:   DEPTH DRILLED BIT 1
BHF .                              60:   FLUID CODE
DPT .                        Oil Base:   DRILLING FLUID TYPE
MUDD.                         14.8000:   FLUID DENSITY
MUDV.                         56.0000:   FLUID VISCOSITY
FL  .                          6.8000:   FLUID LOSS
TMAX.DEGF                    171.0000:   MAX REC TEMP
TIMC.                          6.0000:   TIME SINCE CIRCLN
~PARAMETER INFORMATION (zones)
#MNEM.UNIT                       Value     Description
#=========                       =====     ===========
#ZONATION                          DIL:   ZONATION NAME
#ZONE                            RUN_3:   ZONE NAME
TOP .                      10469.0000:   TOP DEPTH
BOT .                      10595.5000:   BOTTOM DEPTH
RUN .                               3:   RUN NUMBER
LCCD.                             340:   LOGGING CONTRACTOR
SRVC.                   PAN GEO ATLAS:   LOGGING CONT NAME
DICO.          QC Data Collectors Ltd:   DIG COMPANY NAME
LDAT.                      07/04/1996:   DATE LOGGED
TDD .F                     10613.0000:   TOTAL DEPTH DRILLER
TDL .F                     10596.0000:   TOTAL DEPTH LOGGER
BOTL.F                     10596.0000:   BOTTOM DEPTH LOGGED
TOPL.F                     10000.0000:   TOP DEPTH LOGGED
CS1 .IN                        9.6250:   CASING SIZE 1
BS1 .IN                        8.5000:   BIT SIZE 1
DDB1.F                     10613.0000:   DEPTH DRILLED BIT 1
BHF .                              60:   FLUID CODE
DPT .                        Oil Base:   DRILLING FLUID TYPE
MUDD.                         16.9000:   FLUID DENSITY
MUDV.                         55.0000:   FLUID VISCOSITY
FL  .                          5.0000:   FLUID LOSS
TMAX.DEGF                    240.0000:   MAX REC TEMP
TIMC.                         10.0000:   TIME SINCE CIRCLN
~PARAMETER INFORMATION (zones)
#MNEM.UNIT                       Value     Description
#=========                       =====     ===========
#ZONATION                          FDC:   ZONATION NAME
#ZONE                            RUN_2:   ZONE NAME
TOP .                       9494.0000:   TOP DEPTH
BOT .                      10469.5000:   BOTTOM DEPTH
RUN .                               2:   RUN NUMBER
LCCD.                             340:   LOGGING CONTRACTOR
SRVC.                   PAN GEO ATLAS:   LOGGING CONT NAME
DICO.          QC Data Collectors Ltd:   DIG COMPANY NAME
LDAT.                      07/01/1996:   DATE LOGGED
TDD .F                     10500.0000:   TOTAL DEPTH DRILLER
TDL .F                     10504.0000:   TOTAL DEPTH LOGGER
BOTL.F                     10500.0000:   BOTTOM DEPTH LOGGED
TOPL.F                      9350.0000:   TOP DEPTH LOGGED
CS1 .IN                        9.6250:   CASING SIZE 1
BS1 .IN                        8.5000:   BIT SIZE 1
DDB1.F                     10500.0000:   DEPTH DRILLED BIT 1
BHF .                              60:   FLUID CODE
DPT .                        Oil Base:   DRILLING FLUID TYPE
MUDD.                         16.5000:   FLUID DENSITY
MUDV.                         57.0000:   FLUID VISCOSITY
FL  .                          5.4000:   FLUID LOSS
TMAX.DEGF                    238.0000:   MAX REC TEMP
TIMC.                          6.0000:   TIME SINCE CIRCLN
~Curve Information Block
#MNEM.UNIT                    API CODE    No Description
#=========                    ========    == ===========
DEPT.F                   00 001 00 00:     1  DEPTH
CNCF.%                               :     2  Neutron Porosity
CAL.IN                               :     3  Caliper
CILD.MMHO                            :     4  Deep Induction Conductivity
GR.GAPI                              :     5  Gamma Ray
RILD.OHMM                            :     6  Deep Resistivity
RILM.OHMM                            :     7  Medium Resistivity
RWA.OHMM                             :     8  Apparent Water Resistivity
TEN.LB                               :     9  Cable Tension
PORZ.%                               :    10  Porosity
ZCOR.G/C3                            :    11  Density Correction
ZDEN.G/C3                            :    12  Bulk Density
~ASCII
# ...
10451.5000    31.1366     9.6200  1238.6543  -999.2500      .8183      .7416      .0293    83.7490    16.5873      .0101     2.4000
10452.0000    29.7267     9.6200  1280.3867  -999.2500      .8212      .7521      .0255    90.0000    15.6206      .0115     2.4140
10452.5000    27.5992     9.6200  1331.8242  -999.2500      .8017      .7556      .0214    90.9961    14.7111      .0151     2.4250
10453.0000    26.9940     9.6200  1397.5039  -999.2500      .7827      .7368      .0172    95.9961    14.0397      .0115     2.4270
10453.5000    28.6703     9.6200  1490.8184  -999.2500      .7492      .7107      .0152   100.0000    13.6699      .0036     2.4130
10454.0000    30.9860     9.6194  1621.0098  -999.2500      .6987      .6748      .0162   100.0000    14.0041     -.0056     2.3800
10454.5000    32.5309     9.6125  1792.3164  -999.2500      .6464      .6313      .0192   100.0000    15.7213     -.0145     2.3330
10455.0000    32.9609     9.6050  2006.8750  -999.2500      .5951      .5895      .0217   100.9961    18.1367     -.0187     2.2860
10455.5000    32.8802     9.5975  2248.5508  -999.2500      .5430      .5494      .0297   105.0000    20.7457     -.0144     2.2530
10456.0000    32.5997     9.5909  2477.3633  -999.2500      .4940      .5131      .0323   109.0039    23.0265     -.0081     2.2390
10456.5000    32.0004     9.5900  2659.3672  -999.2500      .4433      .4801      .0330   105.0000    24.3483     -.0002     2.2300
10457.0000    31.8000     9.5900  2787.3359  -999.2500      .4029      .4507      .0321   105.0000    25.1763     -.0000     2.2140
10457.5000    31.6800     9.5900  2867.5117  -999.2500      .3739      .4256      .0328   105.0000    25.9444     -.0095     2.1900
10458.0000    31.7317     9.5900  2904.6758  -999.2500      .3572      .4106      .0351   105.0000    27.0629     -.0196     2.1760
10458.5000    31.7947     9.5900  2893.7227  -999.2500      .3486      .4030      .0374   105.0000    28.2351     -.0241     2.1790
10459.0000    31.9781     9.5900  2821.5820  -999.2500      .3443      .4017      .0384   104.0039    28.6746     -.0204     2.1940
10459.5000    31.9136     9.5900  2687.3320  -999.2500      .3480      .4080      .0375   100.0000    28.3440     -.0173     2.2150
10460.0000    30.8268     9.5900  2509.5352  -999.2500      .3615      .4147      .0350   100.0000    27.1485     -.0117     2.2490
10460.5000    29.6723     9.5900  2311.5781  -999.2500      .3893      .4331      .0314   100.0000    24.7220     -.0007     2.3000
10461.0000    28.3390     9.5900  2114.8711  -999.2500      .4263      .4535      .0268   100.0000    22.1667      .0104     2.3390
10461.5000    27.1497     9.5900  1937.9922  -999.2500      .4683      .4796      .0234   100.0000    19.7816      .0081     2.3310
10462.0000    26.2705     9.5900  1797.1387  -999.2500      .5111      .5092      .0233   100.0000    19.0668     -.0020     2.2870
10462.5000    27.1092     9.5900  1706.7051  -999.2500      .5473      .5372      .0279   100.0000    21.3410     -.0059     2.2570
10463.0000    28.0975     9.5900  1670.7832  -999.2500      .5762      .5632      .0388   105.0000    23.6529     -.0062     2.2530
10463.5000    28.5633     9.5900  1679.5078  -999.2500      .5887      .5740      .0447   105.0000    24.0458     -.0274     2.2550
10464.0000    28.8582     9.5900  1716.1816  -999.2500      .5943      .5744      .0450   105.0000    24.0612     -.0764     2.2600
10464.5000    29.9695     9.5900  1768.4336  -999.2500      .5841      .5686      .0431   105.0000    23.8711     -.1059     2.2760
10465.0000    32.3129     9.5900  1834.5723  -999.2500      .5701      .5575      .0400   105.9961    23.1075     -.1276     2.2810
10465.5000    34.7611  -999.2500  1915.0605  -999.2500      .5477      .5460      .0367   110.0000    22.6550  -999.2500     2.2770
10466.0000    36.7723  -999.2500  2001.2441  -999.2500      .5172      .5310      .0352   115.0000    22.7134  -999.2500     2.2710
10466.5000    37.6786  -999.2500  2074.7227  -999.2500      .4947      .5163      .0340   120.0000    22.9799  -999.2500     2.2730
10467.0000    37.7405  -999.2500  2119.1328  -999.2500      .4806      .5020      .0330   120.9961    23.0363  -999.2500     2.2810
10467.5000    36.8546  -999.2500  2132.6172  -999.2500      .4751      .4923      .0322   125.0000    22.7772  -999.2500     2.2890
10468.0000    35.8799  -999.2500  2125.9375  -999.2500      .4767      .4886      .0315   125.0000    22.5181  -999.2500     2.2900
10468.5000    35.9399  -999.2500  2104.8516  -999.2500      .4802      .4984      .0307  -999.2500    22.2591  -999.2500     2.2900
10469.0000    36.0000  -999.2500  1982.1934    45.6320      .4879      .5162      .0300   -24.6230    22.0000  -999.2500     2.2950
10469.5000  -999.2500  -999.2500  1948.5762    51.0906      .4959      .5378  -999.2500   -24.8120  -999.2500  -999.2500  -999.2500
10470.0000  -999.2500  -999.2500  1912.0020    55.5367      .5064      .5578  -999.2500   -29.8628  -999.2500  -999.2500  -999.2500
10470.5000  -999.2500  -999.2500  1865.6191    56.4476      .5167      .5785  -999.2500   -35.0254  -999.2500  -999.2500  -999.2500
10471.0000  -999.2500  -999.2500  1811.4824    53.6515      .5301      .6000  -999.2500   -35.3232  -999.2500  -999.2500  -999.2500
10471.5000  -999.2500  -999.2500  1759.6055    53.4132      .5433      .6085  -999.2500   -40.4468  -999.2500  -999.2500  -999.2500
10472.0000  -999.2500  -999.2500  1721.3535    56.6548      .5573      .6228  -999.2500   -35.7764  -999.2500  -999.2500  -999.2500
10472.5000  -999.2500  -999.2500  1702.5020    58.7593      .5722      .6405  -999.2500   -35.6436  -999.2500  -999.2500  -999.2500
10473.0000  -999.2500  -999.2500  1692.2012    56.8218      .5876      .6526  -999.2500   -35.6436  -999.2500  -999.2500  -999.2500
10473.5000  -999.2500  -999.2500  1666.5234    52.8469      .5902      .6557  -999.2500   -35.6436  -999.2500  -999.2500  -999.2500
10474.0000  -999.2500  -999.2500  1612.8789    46.9648      .5935      .6466  -999.2500   -35.6436  -999.2500  -999.2500  -999.2500
10474.5000  -999.2500  -999.2500  1537.0801    43.9195      .6131      .6228  -999.2500   -35.6436  -999.2500  -999.2500  -999.2500
10475.0000  -999.2500  -999.2500  1452.5723    49.0445      .6328      .6376  -999.2500   -35.6436  -999.2500  -999.2500  -999.2500
10475.5000  -999.2500  -999.2500  1382.1094    60.8136      .6600      .6838  -999.2500   -35.6436  -999.2500  -999.2500  -999.2500
10476.0000  -999.2500  -999.2500  1343.3496    71.8315      .6903      .7065  -999.2500   -35.6436  -999.2500  -999.2500  -999.2500
10476.5000  -999.2500  -999.2500  1327.1367    79.6016      .7196      .7364  -999.2500   -35.6436  -999.2500  -999.2500  -999.2500
10477.0000  -999.2500  -999.2500  1315.5449    79.7195      .7501      .7535  -999.2500   -35.6436  -999.2500  -999.2500  -999.2500
10477.5000  -999.2500  -999.2500  1303.4766    69.9745      .7626      .7501  -999.2500   -35.6436  -999.2500  -999.2500  -999.2500
10478.0000  -999.2500  -999.2500  1290.5293    66.7555      .7661      .7466  -999.2500   -35.6436  -999.2500  -999.2500  -999.2500
10478.5000  -999.2500  -999.2500  1278.4688    64.3861      .7675      .7466  -999.2500   -35.6436  -999.2500  -999.2500  -999.2500
10479.0000  -999.2500  -999.2500  1265.7637    69.3290      .7711      .7398  -999.2500   -30.8286  -999.2500  -999.2500  -999.2500
10479.5000  -999.2500  -999.2500  1240.5762    73.1367      .7789      .7330  -999.2500   -30.6934  -999.2500  -999.2500  -999.2500
10480.0000  -999.2500  -999.2500  1207.2070    74.8510      .7912      .7501  -999.2500   -30.7075  -999.2500  -999.2500  -999.2500
10480.5000  -999.2500  -999.2500  1190.2148    78.5325      .8044      .7818  -999.2500   -31.7617  -999.2500  -999.2500  -999.2500
10481.0000  -999.2500  -999.2500  1192.0781    82.2772      .8191      .8146  -999.2500   -32.8359  -999.2500  -999.2500  -999.2500
10481.5000  -999.2500  -999.2500  1192.8223    83.4796      .8363      .8371  -999.2500   -33.9146  -999.2500  -999.2500  -999.2500
