~VERSION INFORMATION
VERS.                             2.0:   CWLS Log ASCII Standard-VERSION 2.0
WRAP.                              NO:   One line per depth step
~Well Information Block
STRT.F                      5785.0000:   Top Depth
STOP.F                     10595.0000:   Bottom Depth
STEP.F                         .50000:   Depth Increment
NULL.                        -999.250:   Null Value
FLD .                    MU BLK A 153:   Field Name
WELL.       OCSG14788   001 ST00 BP00:   NAME
API .                    427124011300:   WELL API
R1  .                           45310:   COMMENT  1
R2  .                           45310:   COMMENT  2
EDF .F                        95.0000:   ELEV DRILL FLOOR
COMP.         WALTER OIL AND GAS CORP:   OPERATOR
BN  .                           A 153:   BLOCK
CTRY.                             USA:   COUNTRY NAME
CNTY.                        M I E AD:   COUNTY NAME
TDD .F                      10613.000:   FINAL TD DRILLER
STAT.                           TEXAS:   STATE NAME
UWI .                    427124011300:   WELL API
DICO.               IHS : Digitizing Company
~PARAMETER INFORMATION (zones)
#MNEM.UNIT                       Value     Description
#=========                       =====     ===========
#ZONATION                          CNL:   ZONATION NAME
#ZONE                            RUN_2:   ZONE NAME
TOP .                       9494.0000:   TOP DEPTH
BOT .                      10469.5000:   BOTTOM DEPTH
RUN .                               2:   RUN NUMBER
LCCD.                             340:   LOGGING CONTRACTOR
SRVC.                   PAN GEO ATLAS:   LOGGING CONT NAME
DICO.          QC Data Collectors Ltd:   DIG COMPANY NAME
LDAT.                      07/01/1996:   DATE LOGGED
TDD .F                     10500.0000:   TOTAL DEPTH DRILLER
TDL .F                     10504.0000:   TOTAL DEPTH LOGGER
BOTL.F                     10500.0000:   BOTTOM DEPTH LOGGED
TOPL.F                      9350.0000:   TOP DEPTH LOGGED
CS1 .IN                        9.6250:   CASING SIZE 1
BS1 .IN                        8.5000:   BIT SIZE 1
DDB1.F                     10500.0000:   DEPTH DRILLED BIT 1
BHF .                              60:   FLUID CODE
DPT .                        Oil Base:   DRILLING FLUID TYPE
MUDD.                         16.5000:   FLUID DENSITY
MUDV.                         57.0000:   FLUID VISCOSITY
FL  .                          5.4000:   FLUID LOSS
TMAX.DEGF                    238.0000:   MAX REC TEMP
TIMC.                          6.0000:   TIME SINCE CIRCLN
~PARAMETER INFORMATION (zones)
#MNEM.UNIT                       Value     Description
#=========                       =====     ===========
#ZONATION                          DIL:   ZONATION NAME
#ZONE                            RUN_2:   ZONE NAME
TOP .                       9494.0000:   TOP DEPTH
BOT .                      10469.5000:   BOTTOM DEPTH
RUN .                               2:   RUN NUMBER
LCCD.                             340:   LOGGING CONTRACTOR
SRVC.                   PAN GEO ATLAS:   LOGGING CONT NAME
DICO.          QC Data Collectors Ltd:   DIG COMPANY NAME
LDAT.                      07/01/1996:   DATE LOGGED
TDD .F                     10500.0000:   TOTAL DEPTH DRILLER
TDL .F                     10504.0000:   TOTAL DEPTH LOGGER
BOTL.F                     10500.0000:   BOTTOM DEPTH LOGGED
TOPL.F                      9350.0000:   TOP DEPTH LOGGED
CS1 .IN                        9.6250:   CASING SIZE 1
BS1 .IN                        8.5000:   BIT SIZE 1
DDB1.F                     10500.0000:   DEPTH DRILLED BIT 1
BHF .                              60:   FLUID CODE
DPT .                        Oil Base:   DRILLING FLUID TYPE
MUDD.                         16.5000:   FLUID DENSITY
MUDV.                         57.0000:   FLUID VISCOSITY
FL  .                          5.4000:   FLUID LOSS
TMAX.DEGF                    238.0000:   MAX REC TEMP
TIMC.                          6.0000:   TIME SINCE CIRCLN
~PARAMETER INFORMATION (zones)
#MNEM.UNIT                       Value     Description
#=========                       =====     ===========
#ZONATION                          DIL:   ZONATION NAME
#ZONE                            RUN_1:   ZONE NAME
TOP .                       5785.0000:   TOP DEPTH
BOT .                       9493.5000:   BOTTOM DEPTH
RUN .                               1:   RUN NUMBER
LCCD.                             340:   LOGGING CONTRACTOR
SRVC.                   PAN GEO ATLAS:   LOGGING CONT NAME
DICO.          QC Data Collectors Ltd:   DIG COMPANY NAME
LDAT.                      06/23/1996:   DATE LOGGED
TDD .F                      9520.0000:   TOTAL DEPTH DRILLER
TDL .F                      9517.0000:   TOTAL DEPTH LOGGER
BOTL.F                      9515.0000:   BOTTOM DEPTH LOGGED
TOPL.F                      5800.0000:   TOP DEPTH LOGGED
CS1 .IN                       13.3750:   CASING SIZE 1
BS1 .IN                       12.2500:   BIT SIZE 1
DDB1.F                      9520.0000:   DEPTH DRILLED BIT 1
BHF .                              60:   FLUID CODE
DPT .                        Oil Base:   DRILLING FLUID TYPE
MUDD.                         14.8000:   FLUID DENSITY
MUDV.                         56.0000:   FLUID VISCOSITY
FL  .                          6.8000:   FLUID LOSS
TMAX.DEGF                    171.0000:   MAX REC TEMP
TIMC.                          6.0000:   TIME SINCE CIRCLN
~PARAMETER INFORMATION (zones)
#MNEM.UNIT                       Value     Description
#=========                       =====     ===========
#ZONATION                          DIL:   ZONATION NAME
#ZONE                            RUN_3:   ZONE NAME
TOP .                      10469.0000:   TOP DEPTH
BOT .                      10595.5000:   BOTTOM DEPTH
RUN .                               3:   RUN NUMBER
LCCD.                             340:   LOGGING CONTRACTOR
SRVC.                   PAN GEO ATLAS:   LOGGING CONT NAME
DICO.          QC Data Collectors Ltd:   DIG COMPANY NAME
LDAT.                      07/04/1996:   DATE LOGGED
TDD .F                     10613.0000:   TOTAL DEPTH DRILLER
TDL .F                     10596.0000:   TOTAL DEPTH LOGGER
BOTL.F                     10596.0000:   BOTTOM DEPTH LOGGED
TOPL.F                     10000.0000:   TOP DEPTH LOGGED
CS1 .IN                        9.6250:   CASING SIZE 1
BS1 .IN                        8.5000:   BIT SIZE 1
DDB1.F                     10613.0000:   DEPTH DRILLED BIT 1
BHF .                              60:   FLUID CODE
DPT .                        Oil Base:   DRILLING FLUID TYPE
MUDD.                         16.9000:   FLUID DENSITY
MUDV.                         55.0000:   FLUID VISCOSITY
FL  .                          5.0000:   FLUID LOSS
TMAX.DEGF                    240.0000:   MAX REC TEMP
TIMC.                         10.0000:   TIME SINCE CIRCLN
~PARAMETER INFORMATION (zones)
#MNEM.UNIT                       Value     Description
#=========                       =====     ===========
#ZONATION                          FDC:   ZONATION NAME
#ZONE                            RUN_2:   ZONE NAME
TOP .                       9494.0000:   TOP DEPTH
BOT .                      10469.5000:   BOTTOM DEPTH
RUN .                               2:   RUN NUMBER
LCCD.                             340:   LOGGING CONTRACTOR
SRVC.                   PAN GEO ATLAS:   LOGGING CONT NAME
DICO.          QC Data Collectors Ltd:   DIG COMPANY NAME
LDAT.                      07/01/1996:   DATE LOGGED
TDD .F                     10500.0000:   TOTAL DEPTH DRILLER
TDL .F                     10504.0000:   TOTAL DEPTH LOGGER
BOTL.F                     10500.0000:   BOTTOM DEPTH LOGGED
TOPL.F                      9350.0000:   TOP DEPTH LOGGED
CS1 .IN                        9.6250:   CASING SIZE 1
BS1 .IN                        8.5000:   BIT SIZE 1
DDB1.F                     10500.0000:   DEPTH DRILLED BIT 1
BHF .                              60:   FLUID CODE
DPT .                        Oil Base:   DRILLING FLUID TYPE
MUDD.                         16.5000:   FLUID DENSITY
MUDV.                         57.0000:   FLUID VISCOSITY
FL  .                          5.4000:   FLUID LOSS
TMAX.DEGF                    238.0000:   MAX REC TEMP
TIMC.                          6.0000:   TIME SINCE CIRCLN
~Curve Information Block
#MNEM.UNIT                    API CODE    No Description
#=========                    ========    == ===========
DEPT.F                   00 001 00 00:     1  DEPTH
CNCF.%                               :     2  Neutron Porosity
CAL.IN                               :     3  Caliper
CILD.MMHO                            :     4  Deep Induction Conductivity
GR.GAPI                              :     5  Gamma Ray
RILD.OHMM                            :     6  Deep Resistivity
RILM.OHMM                            :     7  Medium Resistivity
RWA.OHMM                             :     8  Apparent Water Resistivity
TEN.LB                               :     9  Cable Tension
PORZ.%                               :    10  Porosity
ZCOR.G/C3                            :    11  Density Correction
ZDEN.G/C3                            :    12  Bulk Density
~ASCII
# ...
 9933.0000    35.2767     9.9776  1615.3379    75.1199      .6238      .6680      .0170  -100.0000    14.6702     -.0069     2.4040
 9933.5000    35.2871     9.9788  1603.5391    75.3999      .6275      .6720      .0170   -81.2500    14.8216     -.0038     2.4140
 9934.0000    35.0101     9.9800  1560.6973    75.0402      .6424      .6749      .0165   -28.5713    14.4988      .0018     2.4230
 9934.5000    34.7715     9.9800  1496.0000    74.0601      .6594      .6770      .0145     4.5190    13.9559      .0123     2.4230
 9935.0000    34.6336     9.9500  1445.7188    72.3198      .6769      .6791      .0150      .6084    13.6373      .0124     2.4190
 9935.5000    34.5742     9.9800  1426.9355    72.8995      .6947      .6812      .0155   -26.4443    13.8168      .0012     2.4200
 9936.0000    34.2685     9.9800  1422.4512    74.0597      .7063      .6833      .0160   -54.1982    13.9200     -.0008     2.4250
 9936.5000    33.7049    10.0162  1416.3105    74.2000      .7169      .6854      .0160   -79.0918    13.7145      .0014     2.4340
 9937.0000    33.3333    10.0224  1408.6563    73.8800      .7214      .6875      .0150   -93.0576    13.2822      .0050     2.4440
 9937.5000    33.3727    10.0285  1404.9219    73.6602      .7255      .6910      .0135   -95.0493    12.6560      .0078     2.4500
 9938.0000    33.6683     9.9752  1406.9570    73.1200      .7287      .6965      .0125   -92.0908    12.1565      .0119     2.4480
 9938.5000    33.7852    10.0062  1411.0645    72.7996      .7310      .7011      .0121   -87.1519    12.1200      .0109     2.4440
 9939.0000    33.8938    10.0045  1417.7344    73.9199      .7330      .7055      .0128   -43.1934    12.2400      .0112     2.4390
 9939.5000    33.7298    10.0043  1439.2910    75.8348      .7302      .7067      .0139   -25.7427    12.5728      .0095     2.4330
 9940.0000    33.0894     9.9799  1477.8066    75.9213      .7274      .7072      .0142   -39.2544    12.9307      .0028     2.4290
 9940.5000    32.5369     9.9800  1514.3945    75.4805      .7166      .7056      .0150   -66.2197    13.2694     -.0017     2.4330
 9941.0000    32.9820     9.9800  1534.8828    75.2000      .7048      .7041      .0140   -78.1792    13.2412     -.0007     2.4440
 9941.5000    33.5807     9.9800  1544.8691    75.3999      .6924      .7032      .0124   -85.1484    12.7667      .0007     2.4540
 9942.0000    34.4117    10.0040  1551.4531    75.4398      .6795      .7030      .0114   -80.1982    12.1937     -.0008     2.4520
 9942.5000    35.7059     9.9800  1556.0059    75.0007      .6706      .7042      .0111   -75.2476    11.8930     -.0038     2.4410
 9943.0000    37.5446     9.9800  1558.8574    73.9203      .6647      .7035      .0121   -70.2969    12.2149     -.0096     2.4290
 9943.5000    37.5446     9.9800  1557.6816    74.6577      .6607      .7007      .0136   -88.0991    12.9012     -.0080     2.4190
 9944.0000    37.1287    10.0100  1548.8008    77.6375      .6605      .6967      .0146   -90.0981    13.5441     -.0018     2.4150
 9944.5000    36.6534    10.0340  1533.4590    80.4187      .6616      .6910      .0156   -85.9224    14.0657      .0024     2.4190
 9945.0000    36.1782    10.0100  1517.5059    81.0804      .6648      .6889      .0159   -82.6729    14.1714      .0034     2.4290
 9945.5000    35.9412    10.0340  1503.9805    79.6016      .6680      .6900      .0154   -73.5649    13.8497      .0040     2.4360
 9946.0000    35.6470    10.0100  1491.4160    77.8608      .6754      .6910      .0139     7.8979    13.2284      .0050     2.4380
 9946.5000    35.3529     9.9800  1477.9336    77.7390      .6829      .6957      .0139    83.7056    12.9405      .0046     2.4400
 9947.0000    35.0588     9.9800  1464.9395    78.3796      .6911      .7008      .0135   100.5918    12.8214     -.0004     2.4480
 9947.5000    34.8235     9.9800  1454.7656    77.9812      .6997      .7053      .0124    85.2651    12.6104     -.0084     2.4580
 9948.0000    34.8823     9.9799  1442.8848    76.0052      .7077      .7088      .0119    50.0083    12.0722     -.0096     2.4620
 9948.5000    34.9975     9.9788  1426.0664    73.9054      .7117      .7122      .0110    -1.0322    11.7030     -.0034     2.4570
 9949.0000    35.1160     9.9776  1414.9805    74.0492      .7157      .7141      .0115   -52.2720    11.6554      .0049     2.4440
 9949.5000    35.5865    10.0003  1424.0645    74.9546      .7163      .7158      .0122   -79.7256    12.1661      .0147     2.4310
 9950.0000    35.7025     9.9753  1450.1543    74.5376      .7129      .7165      .0141   -87.9702    12.8433      .0245     2.4240
 9950.5000    35.3791     9.9752  1478.8418    74.1788      .7087      .7154      .0155   -90.0254    13.5127      .0301     2.4190
 9951.0000    34.4780     9.9752  1502.3105    75.9780      .7017      .7132      .0156   -69.8164    13.8439      .0303     2.4150
 9951.5000    33.9802     9.9752  1519.3828    78.1382      .6939      .7070      .0160     7.9995    14.1117      .0273     2.4180
 9952.0000    34.3243     9.9752  1529.1445    79.8405      .6860      .6996      .0160    82.7017    14.1785      .0241     2.4270
 9952.5000    35.1205     9.9826  1533.2969    79.6650      .6785      .6904      .0154    83.4927    13.8080      .0184     2.4370
 9953.0000    35.6199    10.0049  1536.4844    79.3500      .6743      .6817      .0138    49.1616    13.1977      .0163     2.4420
 9953.5000    35.1091    10.0049  1542.8867    79.6100      .6710      .6734      .0125    22.4487    12.7977      .0132     2.4460
 9954.0000    34.5505     9.9754  1555.9531    80.6294      .6728      .6695      .0123    -9.4390    12.5595      .0093     2.4510
 9954.5000    34.7374     9.9645  1597.3867    81.3861      .6751      .6713      .0118   -54.5078    12.2619      .0047     2.4530
 9955.0000    34.9128     9.9657  1670.2891    80.7518      .6622      .6754      .0108   -79.9214    12.0238      .0070     2.4520
 9955.5000    34.4082     9.9788  1733.7773    79.1382      .6263      .6821      .0103   -89.9805    11.9763      .0183     2.4460
 9956.0000    33.3870     9.9798  1754.7051    76.8330      .6018      .6889      .0102   -85.0000    12.1893      .0340     2.4370
 9956.5000    32.5067     9.9935  1749.9902    76.1300      .5866      .6948      .0107   -95.0000    12.6248      .0342     2.4280
 9957.0000    32.9814    10.0100  1743.9238    77.1899      .5778      .7005      .0117   -90.0000    13.1671      .0172     2.4260
 9957.5000    34.0507     9.9665  1738.3125    78.5758      .5703      .6962      .0128   -90.0000    13.5267      .0064     2.4280
 9958.0000    34.8831     9.9807  1731.8516    78.8999      .5671      .6882      .0127   -84.9995    13.5003      .0008     2.4280
 9958.5000    35.5964     9.9863  1724.9707    79.1702      .5674      .6681      .0128   -83.7900    13.4851      .0018     2.4230
 9959.0000    36.2608    10.0134  1719.2969    78.9299      .5715      .6472      .0136   -82.5884    13.6333      .0002     2.4180
 9959.5000    36.9973     9.9987  1715.6504    78.0240      .5764      .6249      .0141   -81.3906    13.9572     -.0049     2.4150
 9960.0000    37.8427     9.9809  1712.2422    77.7999      .5822      .6135      .0140   -80.1978    14.1671     -.0079     2.4150
 9960.5000    38.2545    10.0003  1701.2012    78.3999      .5877      .6091      .0145   -80.1489    14.2559     -.0047     2.4150
 9961.0000    37.7524     9.9836  1674.9727    79.5000      .5929      .6090      .0149   -80.0996    14.2707     -.0035     2.4140
 9961.5000    37.4940     9.9848  1642.9805    77.6000      .5981      .6113      .0150   -80.0498    14.3020     -.0002     2.4130
 9962.0000    36.6580     9.9799  1626.7910    73.8999      .5999      .6141      .0158   -79.0430    14.3153      .0010     2.4140
 9962.5000    36.1425     9.9800  1638.5410    71.3999      .6011      .6171      .0160   -74.0469    14.3762      .0040     2.4110
 9963.0000    36.1188     9.9800  1676.5273    72.3999      .6023      .6127      .0156   -64.0659    14.4190      .0198     2.4030
