~VERSION INFORMATION
VERS.                             2.0:   CWLS Log ASCII Standard-VERSION 2.0
WRAP.                              NO:   One line per depth step
~Well Information Block
STRT.F                       374.0000:   Top Depth
STOP.F                      6106.0000:   Bottom Depth
STEP.F                         .50000:   Depth Increment
NULL.                        -999.250:   Null Value
FLD .                    MU BLK A 139:   Field Name
WELL.       OCSG06030   002 ST00 BP00:   NAME
API .                    427124009600:   WELL API
EDF .F                       103.0000:   ELEV DRILL FLOOR
COMP.       CITIES SERVICE OIL AND GA:   OPERATOR
BN  .                           A 139:   BLOCK
CTRY.                             USA:   COUNTRY NAME
CNTY.                        M I E AD:   COUNTY NAME
EKB .F                       104.0000:   ELEV KELLY BUSHING
TDD .F                       6111.000:   FINAL TD DRILLER
STAT.                           TEXAS:   STATE NAME
UWI .                    427124009600:   WELL API
DICO.               IHS : Digitizing Company
~PARAMETER INFORMATION (zones)
#MNEM.UNIT                       Value     Description
#=========                       =====     ===========
#ZONATION                          CNL:   ZONATION NAME
#ZONE                            RUN_2:   ZONE NAME
TOP .                       4521.0000:   TOP DEPTH
BOT .                       6106.5000:   BOTTOM DEPTH
RUN .                               2:   RUN NUMBER
LCCD.                             440:   LOGGING CONTRACTOR
SRVC.                    Schlumberger:   LOGGING CONT NAME
DICO.          QC Data Collectors Ltd:   DIG COMPANY NAME
LDAT.                      01/11/1988:   DATE LOGGED
ELD .F                       104.0000:   LOG DATUM ELEVATION
TDD .F                      4594.0000:   TOTAL DEPTH DRILLER
TDL .F                      2007.0000:   TOTAL DEPTH LOGGER
BOTL.F                      1998.0000:   BOTTOM DEPTH LOGGED
TOPL.F                      1006.0000:   TOP DEPTH LOGGED
CS1 .IN                       20.0000:   CASING SIZE 1
BS1 .IN                       17.5000:   BIT SIZE 1
DDB1.F                      4594.0000:   DEPTH DRILLED BIT 1
BHF .                              80:   FLUID CODE
DPT .                      Salt Water:   DRILLING FLUID TYPE
MUDD.                          9.3000:   FLUID DENSITY
MUDV.                         52.0000:   FLUID VISCOSITY
DFPH.                          8.0000:   FLUID PH
FL  .                         16.8000:   FLUID LOSS
RM  .OHMM                       .3600:   RM
RMT .DEGF                     53.0000:   RM TEMP
RMF .OHMM                       .3200:   RMF
RMFT.DEGF                     52.0000:   RMF TEMP
FSC .                               M:   RMF CODE
RMC .OHMM                       .5700:   RMC
RMCT.DEGF                     53.0000:   RMC TEMP
TMAX.DEGF                    100.0000:   MAX REC TEMP
TIMC.                          2.5000:   TIME SINCE CIRCLN
~PARAMETER INFORMATION (zones)
#MNEM.UNIT                       Value     Description
#=========                       =====     ===========
#ZONATION                          DIL:   ZONATION NAME
#ZONE                            RUN_1:   ZONE NAME
TOP .                        374.0000:   TOP DEPTH
BOT .                       6106.5000:   BOTTOM DEPTH
RUN .                               1:   RUN NUMBER
LCCD.                             440:   LOGGING CONTRACTOR
SRVC.                    Schlumberger:   LOGGING CONT NAME
DICO.          QC Data Collectors Ltd:   DIG COMPANY NAME
LDAT.                      01/06/1988:   DATE LOGGED
ELD .F                       104.0000:   LOG DATUM ELEVATION
TDD .F                      1005.0000:   TOTAL DEPTH DRILLER
TDL .F                      1004.0000:   TOTAL DEPTH LOGGER
BOTL.F                       998.0000:   BOTTOM DEPTH LOGGED
TOPL.F                       400.0000:   TOP DEPTH LOGGED
CS1 .IN                       30.0000:   CASING SIZE 1
BS1 .IN                       16.0000:   BIT SIZE 1
DDB1.F                      1005.0000:   DEPTH DRILLED BIT 1
BHF .                              80:   FLUID CODE
DPT .                      Salt Water:   DRILLING FLUID TYPE
MUDD.                          9.1000:   FLUID DENSITY
MUDV.                         34.0000:   FLUID VISCOSITY
DFPH.                          8.0000:   FLUID PH
RM  .OHMM                       .3900:   RM
RMT .DEGF                     76.0000:   RM TEMP
RMF .OHMM                       .3300:   RMF
RMFT.DEGF                     76.0000:   RMF TEMP
FSC .                               M:   RMF CODE
RMC .OHMM                       .3300:   RMC
RMCT.DEGF                     76.0000:   RMC TEMP
CMC .                               M:   RMC CODE
TMAX.DEGF                     86.0000:   MAX REC TEMP
TIMC.                          1.7500:   TIME SINCE CIRCLN
~PARAMETER INFORMATION (zones)
#MNEM.UNIT                       Value     Description
#=========                       =====     ===========
#ZONATION                          LDT:   ZONATION NAME
#ZONE                            RUN_3:   ZONE NAME
TOP .                       4521.0000:   TOP DEPTH
BOT .                       6106.5000:   BOTTOM DEPTH
RUN .                               3:   RUN NUMBER
LCCD.                             440:   LOGGING CONTRACTOR
SRVC.                    Schlumberger:   LOGGING CONT NAME
DICO.          QC Data Collectors Ltd:   DIG COMPANY NAME
LDAT.                      01/23/1988:   DATE LOGGED
ELD .F                       104.0000:   LOG DATUM ELEVATION
TDD .F                      6111.0000:   TOTAL DEPTH DRILLER
TDL .F                      6108.0000:   TOTAL DEPTH LOGGER
BOTL.F                      6106.0000:   BOTTOM DEPTH LOGGED
TOPL.F                      4594.0000:   TOP DEPTH LOGGED
CS1 .IN                       13.3750:   CASING SIZE 1
BS1 .IN                       12.2500:   BIT SIZE 1
DDB1.F                      6111.0000:   DEPTH DRILLED BIT 1
BHF .                              80:   FLUID CODE
DPT .                      Salt Water:   DRILLING FLUID TYPE
MUDD.                         12.7000:   FLUID DENSITY
MUDV.                         58.0000:   FLUID VISCOSITY
DFPH.                          9.5000:   FLUID PH
FL  .                          4.8000:   FLUID LOSS
RM  .OHMM                       .7700:   RM
RMT .DEGF                     64.0000:   RM TEMP
RMF .OHMM                       .4900:   RMF
RMFT.DEGF                     64.0000:   RMF TEMP
FSC .                               M:   RMF CODE
RMC .OHMM                      1.0900:   RMC
RMCT.DEGF                     64.0000:   RMC TEMP
CMC .                               M:   RMC CODE
TMAX.DEGF                    138.0000:   MAX REC TEMP
TIMC.                          7.5000:   TIME SINCE CIRCLN
~Curve Information Block
#MNEM.UNIT                    API CODE    No Description
#=========                    ========    == ===========
DEPT.F                   00 001 00 00:     1  DEPTH
NPHI.DEC                              :     2  Neutron Porosity
DT.US/F                              :     3  Sonic Transit Time
GR.GAPI                              :     4  Gamma Ray
ILD.OHMM                             :     5  Deep Induction Resistivity
ILM.OHMM                             :     6  Medium Induction Resistivity
SFL.OHMM                             :     7  Medium Resistivity
SP.MV                                :     8  Spontaneous Potential
CALI.IN                              :     9  Caliper
DPHI.DEC                              :    10  Porosity
DRHO.G/C3                            :    11  Bulk Density Correction
GR.GAPI                              :    12  Gamma Ray
~ASCII
# ...
 1014.5000  -999.2500    42.2733    63.8043      .6727      .6892      .7406   -62.4797  -999.2500  -999.2500  -999.2500  -999.2500
 1015.0000  -999.2500    84.1094    61.8476      .6863      .6856      .7450   -61.4120  -999.2500  -999.2500  -999.2500  -999.2500
 1015.5000  -999.2500   176.4033    60.1977      .6933      .6809      .7477   -62.8528  -999.2500  -999.2500  -999.2500  -999.2500
 1016.0000  -999.2500   179.3125    59.1449      .6961      .6760      .7478   -66.4736  -999.2500  -999.2500  -999.2500  -999.2500
 1016.5000  -999.2500   179.4651    58.8583      .6948      .6739      .7406   -71.6371  -999.2500  -999.2500  -999.2500  -999.2500
 1017.0000  -999.2500   180.9314    60.0412      .6905      .6753      .7322   -75.2043  -999.2500  -999.2500  -999.2500  -999.2500
 1017.5000  -999.2500   181.5010    61.6650      .6850      .6812      .7265   -78.4384  -999.2500  -999.2500  -999.2500  -999.2500
 1018.0000  -999.2500   181.4971    63.3563      .6775      .6909      .7254   -81.2323  -999.2500  -999.2500  -999.2500  -999.2500
 1018.5000  -999.2500   181.3093    64.3927      .6718      .7014      .7243   -83.7012  -999.2500  -999.2500  -999.2500  -999.2500
 1019.0000  -999.2500   181.1714    64.3373      .6683      .7111      .7171   -86.6289  -999.2500  -999.2500  -999.2500  -999.2500
 1019.5000  -999.2500   181.4119    63.5190      .6683      .7190      .7105   -89.1984  -999.2500  -999.2500  -999.2500  -999.2500
 1020.0000  -999.2500   181.8818    62.6511      .6706      .7239      .7095   -92.0894  -999.2500  -999.2500  -999.2500  -999.2500
 1020.5000  -999.2500   181.9868    62.9826      .6720      .7281      .7132   -94.7548  -999.2500  -999.2500  -999.2500  -999.2500
 1021.0000  -999.2500   181.6187    65.0728      .6734      .7295      .7177   -96.5415  -999.2500  -999.2500  -999.2500  -999.2500
 1021.5000  -999.2500   180.9238    66.8262      .6747      .7267      .7214   -98.5077  -999.2500  -999.2500  -999.2500  -999.2500
 1022.0000  -999.2500   180.1138    67.2924      .6766      .7207      .7240  -100.8654  -999.2500  -999.2500  -999.2500  -999.2500
 1022.5000  -999.2500   179.6499    63.4720      .6788      .7161      .7254  -104.1792  -999.2500  -999.2500  -999.2500  -999.2500
 1023.0000  -999.2500   179.9912    61.9720      .6817      .7124      .7251  -108.5754  -999.2500  -999.2500  -999.2500  -999.2500
 1023.5000  -999.2500   180.6177    62.2500      .6837      .7094      .7244  -111.5450  -999.2500  -999.2500  -999.2500  -999.2500
 1024.0000  -999.2500   181.1023    62.5117      .6843      .7069      .7259  -112.9570  -999.2500  -999.2500  -999.2500  -999.2500
 1024.5000  -999.2500   181.2185    61.7845      .6825      .7050      .7271  -113.8335  -999.2500  -999.2500  -999.2500  -999.2500
 1025.0000  -999.2500   181.0874    60.7316      .6797      .7033      .7278  -113.7513  -999.2500  -999.2500  -999.2500  -999.2500
 1025.5000  -999.2500   180.8311    59.4235      .6786      .7032      .7279  -108.1588  -999.2500  -999.2500  -999.2500  -999.2500
 1026.0000  -999.2500   180.2449    58.6396      .6789      .7041      .7294   -97.6847  -999.2500  -999.2500  -999.2500  -999.2500
 1026.5000  -999.2500   179.7678    58.3378      .6820      .7063      .7363   -84.3228  -999.2500  -999.2500  -999.2500  -999.2500
 1027.0000  -999.2500   179.0439    58.6104      .6862      .7119      .7434   -73.8597  -999.2500  -999.2500  -999.2500  -999.2500
 1027.5000  -999.2500   178.0244    60.1345      .6918      .7202      .7495   -59.6129  -999.2500  -999.2500  -999.2500  -999.2500
 1028.0000  -999.2500   176.8792    64.6085      .6972      .7337      .7574   -53.1204  -999.2500  -999.2500  -999.2500  -999.2500
 1028.5000  -999.2500   175.8142    69.6829      .7026      .7439      .7654   -45.1513  -999.2500  -999.2500  -999.2500  -999.2500
 1029.0000  -999.2500   174.9097    67.6138      .7049      .7529      .7662   -42.2466  -999.2500  -999.2500  -999.2500  -999.2500
 1029.5000  -999.2500   175.1965    63.6316      .7073      .7585      .7724   -41.4299  -999.2500  -999.2500  -999.2500  -999.2500
 1030.0000  -999.2500   176.0435    60.6705      .7097      .7599      .7835   -41.1168  -999.2500  -999.2500  -999.2500  -999.2500
 1030.5000  -999.2500   176.7617    58.9731      .7154      .7562      .7931   -39.5671  -999.2500  -999.2500  -999.2500  -999.2500
 1031.0000  -999.2500   177.8552    58.8411      .7214      .7523      .7930   -35.6888  -999.2500  -999.2500  -999.2500  -999.2500
 1031.5000  -999.2500   179.6030    60.3754      .7214      .7497      .7794   -37.3614  -999.2500  -999.2500  -999.2500  -999.2500
 1032.0000  -999.2500   181.2317    60.5569      .6919      .7369      .7457   -39.0340  -999.2500  -999.2500  -999.2500  -999.2500
 1032.5000  -999.2500   181.6570    61.9672      .6860      .7290      .7321   -40.7066  -999.2500  -999.2500  -999.2500  -999.2500
 1033.0000  -999.2500   182.6577    62.5663      .6801      .7197      .7243   -42.3793  -999.2500  -999.2500  -999.2500  -999.2500
 1033.5000  -999.2500   183.6179    60.5205      .6745      .7089      .7184   -43.3975  -999.2500  -999.2500  -999.2500  -999.2500
 1034.0000  -999.2500   184.4263    59.5564      .6689      .6959      .7044   -44.3220  -999.2500  -999.2500  -999.2500  -999.2500
 1034.5000  -999.2500   185.3604    61.1567      .6584      .6815      .6930   -44.8928  -999.2500  -999.2500  -999.2500  -999.2500
 1035.0000  -999.2500   186.5310    65.1395      .6481      .6670      .6841   -45.3253  -999.2500  -999.2500  -999.2500  -999.2500
 1035.5000  -999.2500   187.2163    68.2428      .6385      .6515      .6790   -45.6291  -999.2500  -999.2500  -999.2500  -999.2500
 1036.0000  -999.2500   187.4258    69.1910      .6294      .6393      .6785   -45.7273  -999.2500  -999.2500  -999.2500  -999.2500
 1036.5000  -999.2500   187.4687    65.1840      .6209      .6298      .6775   -45.6980  -999.2500  -999.2500  -999.2500  -999.2500
 1037.0000  -999.2500   187.5210    64.3428      .6125      .6222      .6764   -45.5173  -999.2500  -999.2500  -999.2500  -999.2500
 1037.5000  -999.2500   187.8474    64.9639      .6042      .6177      .6713   -45.3549  -999.2500  -999.2500  -999.2500  -999.2500
 1038.0000  -999.2500   188.3437    64.6882      .5975      .6124      .6651   -45.2862  -999.2500  -999.2500  -999.2500  -999.2500
 1038.5000  -999.2500   188.6997    59.2455      .5911      .6063      .6576   -44.9800  -999.2500  -999.2500  -999.2500  -999.2500
 1039.0000  -999.2500   188.9294    57.2330      .5847      .6019      .6507   -44.4597  -999.2500  -999.2500  -999.2500  -999.2500
 1039.5000  -999.2500   189.0991    56.9696      .5794      .5977      .6441   -43.9763  -999.2500  -999.2500  -999.2500  -999.2500
 1040.0000  -999.2500   189.2004    57.2863      .5750      .5924      .6382   -43.5126  -999.2500  -999.2500  -999.2500  -999.2500
 1040.5000  -999.2500   189.3269    57.6393      .5730      .5884      .6334   -42.8862  -999.2500  -999.2500  -999.2500  -999.2500
 1041.0000  -999.2500   190.6238    56.9028      .5713      .5861      .6269   -42.3728  -999.2500  -999.2500  -999.2500  -999.2500
 1041.5000  -999.2500   191.0889    56.2919      .5697      .5842      .6223   -42.1862  -999.2500  -999.2500  -999.2500  -999.2500
 1042.0000  -999.2500   191.4497    56.5529      .5688      .5826      .6210   -42.6532  -999.2500  -999.2500  -999.2500  -999.2500
 1042.5000  -999.2500   191.5256    58.8824      .5685      .5822      .6212   -43.4040  -999.2500  -999.2500  -999.2500  -999.2500
 1043.0000  -999.2500   191.2300    62.2535      .5715      .5846      .6214   -44.0677  -999.2500  -999.2500  -999.2500  -999.2500
 1043.5000  -999.2500   190.3376    63.3328      .5766      .5890      .6210   -44.2065  -999.2500  -999.2500  -999.2500  -999.2500
 1044.0000  -999.2500   189.2542    62.0269      .5847      .5952      .6198   -43.7087  -999.2500  -999.2500  -999.2500  -999.2500
 1044.5000  -999.2500   188.3394    60.4240      .5937      .6047      .6204   -43.1409  -999.2500  -999.2500  -999.2500  -999.2500
