~VERSION INFORMATION
VERS.                             2.0:   CWLS Log ASCII Standard-VERSION 2.0
WRAP.                              NO:   One line per depth step
~Well Information Block
STRT.F                       374.0000:   Top Depth
STOP.F                      6106.0000:   Bottom Depth
STEP.F                         .50000:   Depth Increment
NULL.                        -999.250:   Null Value
FLD .                    MU BLK A 139:   Field Name
WELL.       OCSG06030   002 ST00 BP00:   NAME
API .                    427124009600:   WELL API
EDF .F                       103.0000:   ELEV DRILL FLOOR
COMP.       CITIES SERVICE OIL AND GA:   OPERATOR
BN  .                           A 139:   BLOCK
CTRY.                             USA:   COUNTRY NAME
CNTY.                        M I E AD:   COUNTY NAME
EKB .F                       104.0000:   ELEV KELLY BUSHING
TDD .F                       6111.000:   FINAL TD DRILLER
STAT.                           TEXAS:   STATE NAME
UWI .                    427124009600:   WELL API
DICO.               IHS : Digitizing Company
~PARAMETER INFORMATION (zones)
#MNEM.UNIT                       Value     Description
#=========                       =====     ===========
#ZONATION                          CNL:   ZONATION NAME
#ZONE                            RUN_2:   ZONE NAME
TOP .                       4521.0000:   TOP DEPTH
BOT .                       6106.5000:   BOTTOM DEPTH
RUN .                               2:   RUN NUMBER
LCCD.                             440:   LOGGING CONTRACTOR
SRVC.                    Schlumberger:   LOGGING CONT NAME
DICO.          QC Data Collectors Ltd:   DIG COMPANY NAME
LDAT.                      01/11/1988:   DATE LOGGED
ELD .F                       104.0000:   LOG DATUM ELEVATION
TDD .F                      4594.0000:   TOTAL DEPTH DRILLER
TDL .F                      2007.0000:   TOTAL DEPTH LOGGER
BOTL.F                      1998.0000:   BOTTOM DEPTH LOGGED
TOPL.F                      1006.0000:   TOP DEPTH LOGGED
CS1 .IN                       20.0000:   CASING SIZE 1
BS1 .IN                       17.5000:   BIT SIZE 1
DDB1.F                      4594.0000:   DEPTH DRILLED BIT 1
BHF .                              80:   FLUID CODE
DPT .                      Salt Water:   DRILLING FLUID TYPE
MUDD.                          9.3000:   FLUID DENSITY
MUDV.                         52.0000:   FLUID VISCOSITY
DFPH.                          8.0000:   FLUID PH
FL  .                         16.8000:   FLUID LOSS
RM  .OHMM                       .3600:   RM
RMT .DEGF                     53.0000:   RM TEMP
RMF .OHMM                       .3200:   RMF
RMFT.DEGF                     52.0000:   RMF TEMP
FSC .                               M:   RMF CODE
RMC .OHMM                       .5700:   RMC
RMCT.DEGF                     53.0000:   RMC TEMP
TMAX.DEGF                    100.0000:   MAX REC TEMP
TIMC.                          2.5000:   TIME SINCE CIRCLN
~PARAMETER INFORMATION (zones)
#MNEM.UNIT                       Value     Description
#=========                       =====     ===========
#ZONATION                          DIL:   ZONATION NAME
#ZONE                            RUN_1:   ZONE NAME
TOP .                        374.0000:   TOP DEPTH
BOT .                       6106.5000:   BOTTOM DEPTH
RUN .                               1:   RUN NUMBER
LCCD.                             440:   LOGGING CONTRACTOR
SRVC.                    Schlumberger:   LOGGING CONT NAME
DICO.          QC Data Collectors Ltd:   DIG COMPANY NAME
LDAT.                      01/06/1988:   DATE LOGGED
ELD .F                       104.0000:   LOG DATUM ELEVATION
TDD .F                      1005.0000:   TOTAL DEPTH DRILLER
TDL .F                      1004.0000:   TOTAL DEPTH LOGGER
BOTL.F                       998.0000:   BOTTOM DEPTH LOGGED
TOPL.F                       400.0000:   TOP DEPTH LOGGED
CS1 .IN                       30.0000:   CASING SIZE 1
BS1 .IN                       16.0000:   BIT SIZE 1
DDB1.F                      1005.0000:   DEPTH DRILLED BIT 1
BHF .                              80:   FLUID CODE
DPT .                      Salt Water:   DRILLING FLUID TYPE
MUDD.                          9.1000:   FLUID DENSITY
MUDV.                         34.0000:   FLUID VISCOSITY
DFPH.                          8.0000:   FLUID PH
RM  .OHMM                       .3900:   RM
RMT .DEGF                     76.0000:   RM TEMP
RMF .OHMM                       .3300:   RMF
RMFT.DEGF                     76.0000:   RMF TEMP
FSC .                               M:   RMF CODE
RMC .OHMM                       .3300:   RMC
RMCT.DEGF                     76.0000:   RMC TEMP
CMC .                               M:   RMC CODE
TMAX.DEGF                     86.0000:   MAX REC TEMP
TIMC.                          1.7500:   TIME SINCE CIRCLN
~PARAMETER INFORMATION (zones)
#MNEM.UNIT                       Value     Description
#=========                       =====     ===========
#ZONATION                          LDT:   ZONATION NAME
#ZONE                            RUN_3:   ZONE NAME
TOP .                       4521.0000:   TOP DEPTH
BOT .                       6106.5000:   BOTTOM DEPTH
RUN .                               3:   RUN NUMBER
LCCD.                             440:   LOGGING CONTRACTOR
SRVC.                    Schlumberger:   LOGGING CONT NAME
DICO.          QC Data Collectors Ltd:   DIG COMPANY NAME
LDAT.                      01/23/1988:   DATE LOGGED
ELD .F                       104.0000:   LOG DATUM ELEVATION
TDD .F                      6111.0000:   TOTAL DEPTH DRILLER
TDL .F                      6108.0000:   TOTAL DEPTH LOGGER
BOTL.F                      6106.0000:   BOTTOM DEPTH LOGGED
TOPL.F                      4594.0000:   TOP DEPTH LOGGED
CS1 .IN                       13.3750:   CASING SIZE 1
BS1 .IN                       12.2500:   BIT SIZE 1
DDB1.F                      6111.0000:   DEPTH DRILLED BIT 1
BHF .                              80:   FLUID CODE
DPT .                      Salt Water:   DRILLING FLUID TYPE
MUDD.                         12.7000:   FLUID DENSITY
MUDV.                         58.0000:   FLUID VISCOSITY
DFPH.                          9.5000:   FLUID PH
FL  .                          4.8000:   FLUID LOSS
RM  .OHMM                       .7700:   RM
RMT .DEGF                     64.0000:   RM TEMP
RMF .OHMM                       .4900:   RMF
RMFT.DEGF                     64.0000:   RMF TEMP
FSC .                               M:   RMF CODE
RMC .OHMM                      1.0900:   RMC
RMCT.DEGF                     64.0000:   RMC TEMP
CMC .                               M:   RMC CODE
TMAX.DEGF                    138.0000:   MAX REC TEMP
TIMC.                          7.5000:   TIME SINCE CIRCLN
~Curve Information Block
#MNEM.UNIT                    API CODE    No Description
#=========                    ========    == ===========
DEPT.F                   00 001 00 00:     1  DEPTH
NPHI.DEC                              :     2  Neutron Porosity
DT.US/F                              :     3  Sonic Transit Time
GR.GAPI                              :     4  Gamma Ray
ILD.OHMM                             :     5  Deep Induction Resistivity
ILM.OHMM                             :     6  Medium Induction Resistivity
SFL.OHMM                             :     7  Medium Resistivity
SP.MV                                :     8  Spontaneous Potential
CALI.IN                              :     9  Caliper
DPHI.DEC                              :    10  Porosity
DRHO.G/C3                            :    11  Bulk Density Correction
GR.GAPI                              :    12  Gamma Ray
~ASCII
# ...
 4583.0000      .6201  -999.2500  -999.2500  -999.2500  -999.2500  -999.2500  -999.2500  -999.2500  -999.2500  -999.2500    29.6423
 4583.5000      .6194  -999.2500  -999.2500  -999.2500  -999.2500  -999.2500  -999.2500  -999.2500  -999.2500  -999.2500    30.0231
 4584.0000      .6355  -999.2500  -999.2500  -999.2500  -999.2500  -999.2500  -999.2500  -999.2500  -999.2500  -999.2500    30.3414
 4584.5000      .6444  -999.2500  -999.2500  -999.2500  -999.2500  -999.2500  -999.2500  -999.2500  -999.2500  -999.2500    30.5637
 4585.0000      .6451  -999.2500  -999.2500  -999.2500  -999.2500  -999.2500  -999.2500  -999.2500  -999.2500  -999.2500    30.6173
 4585.5000      .6299  -999.2500  -999.2500  -999.2500  -999.2500  -999.2500  -999.2500  -999.2500  -999.2500  -999.2500    30.3824
 4586.0000      .6257  -999.2500  -999.2500  -999.2500  -999.2500  -999.2500  -999.2500  -999.2500  -999.2500  -999.2500    29.9489
 4586.5000      .6315  -999.2500  -999.2500  -999.2500  -999.2500  -999.2500  -999.2500  -999.2500  -999.2500  -999.2500    29.2471
 4587.0000      .6308  -999.2500  -999.2500  -999.2500  -999.2500  -999.2500  -999.2500  -999.2500  -999.2500  -999.2500    28.0033
 4587.5000      .6165  -999.2500  -999.2500  -999.2500  -999.2500  -999.2500  -999.2500  -999.2500  -999.2500  -999.2500    26.5658
 4588.0000      .6171  -999.2500  -999.2500  -999.2500  -999.2500  -999.2500  -999.2500  -999.2500  -999.2500  -999.2500    25.7536
 4588.5000      .6296  -999.2500  -999.2500  -999.2500  -999.2500  -999.2500  -999.2500  -999.2500  -999.2500  -999.2500    25.9537
 4589.0000      .6415  -999.2500  -999.2500  -999.2500  -999.2500  -999.2500  -999.2500  -999.2500  -999.2500  -999.2500    26.5940
 4589.5000      .6511  -999.2500  -999.2500  -999.2500  -999.2500  -999.2500  -999.2500  -999.2500  -999.2500  -999.2500    27.3170
 4590.0000      .6620  -999.2500  -999.2500  -999.2500  -999.2500  -999.2500  -999.2500  -999.2500  -999.2500  -999.2500    27.8273
 4590.5000      .6480  -999.2500  -999.2500  -999.2500  -999.2500  -999.2500  -999.2500  -999.2500  -999.2500  -999.2500    27.2080
 4591.0000      .6093  -999.2500  -999.2500  -999.2500  -999.2500  -999.2500  -999.2500  -999.2500  -999.2500  -999.2500    26.7153
 4591.5000      .5938  -999.2500  -999.2500  -999.2500  -999.2500  -999.2500  -999.2500  -999.2500  -999.2500  -999.2500    27.2190
 4592.0000      .5889  -999.2500  -999.2500  -999.2500  -999.2500  -999.2500  -999.2500  -999.2500  -999.2500  -999.2500    29.4211
 4592.5000      .5931  -999.2500  -999.2500  -999.2500  -999.2500  -999.2500  -999.2500  -999.2500  -999.2500  -999.2500    32.3156
 4593.0000      .5957  -999.2500  -999.2500  -999.2500  -999.2500  -999.2500  -999.2500  -999.2500  -999.2500  -999.2500    35.0850
 4593.5000      .5865  -999.2500  -999.2500  -999.2500  -999.2500  -999.2500  -999.2500  -999.2500  -999.2500  -999.2500    36.0712
 4594.0000      .5746   189.4827  -999.2500   748.5771   386.8101     1.2142   -82.6262    18.8305      .5012     -.1042    36.4266
 4594.5000      .5623   170.3437  -999.2500    23.5937    12.8733      .9028   -80.3683    19.3433      .4696     -.0771    36.7725
 4595.0000      .5547   146.6453  -999.2500     1.0350     1.0869      .8252   -79.0502    19.2937      .4074     -.0528    39.2833
 4595.5000      .5468   124.6224  -999.2500      .6205      .7028      .8882   -78.0183    18.3742      .3538     -.0355    44.6851
 4596.0000      .5285   123.5786  -999.2500      .6373      .7248      .9706   -77.1793    17.9382      .3318     -.0178    47.5820
 4596.5000      .5178   123.8893  -999.2500      .7530      .7927     1.0435   -76.4637    17.8585      .3207     -.0110    49.4802
 4597.0000      .5170   123.2399  -999.2500      .8662      .8710     1.0574   -75.9358    17.7252      .3168     -.0096    49.7078
 4597.5000      .5170   120.8550  -999.2500      .9019      .9436     1.0457   -75.7885    16.7772      .3114     -.0092    48.6750
 4598.0000      .5119   116.8090  -999.2500      .9162      .9931     1.0347   -76.0000    16.0841      .3012     -.0093    45.3639
 4598.5000      .4856   112.2008  -999.2500      .9240     1.0418     1.0553   -76.6953    15.1060      .2822     -.0066    42.0602
 4599.0000      .4594   105.9135  -999.2500      .9301     1.0992     1.0850   -77.7235    14.6783      .2627      .0035    40.0634
 4599.5000      .4477   101.2485  -999.2500      .9350     1.1697     1.1449   -78.8561    14.3970      .2405      .0094    39.7910
 4600.0000      .4388   101.2930  -999.2500      .9414     1.2034     1.2644   -79.8929    14.2228      .2319      .0118    39.4855
 4600.5000      .4362   104.5204  -999.2500      .9557     1.1345     1.3673   -80.5907    14.0432      .2333      .0121    39.3802
 4601.0000      .4351   106.8085  -999.2500      .9775     1.0710     1.3065   -81.1385    13.8684      .2381      .0115    39.4592
 4601.5000      .4348   107.6545  -999.2500      .9965     1.0501     1.1846   -81.6339    13.7248      .2427      .0094    39.7288
 4602.0000      .4344   106.8356  -999.2500     1.0048     1.0508     1.1080   -81.7522    13.7872      .2439      .0057    40.4316
 4602.5000      .4324   105.5326  -999.2500     1.0040     1.0655     1.0842   -80.0575    13.9781      .2425      .0026    41.4113
 4603.0000      .4296   104.2208  -999.2500     1.0026     1.0918     1.1039   -78.2039    14.4631      .2380      .0028    42.2685
 4603.5000      .4284   103.0145  -999.2500     1.0034     1.1005     1.1269   -76.6548    14.9116      .2287      .0036    43.1716
 4604.0000      .4243   102.7083  -999.2500     1.0011     1.1010     1.1559   -75.7684    15.4768      .2192      .0027    43.9945
 4604.5000      .4054   106.0984  -999.2500      .9975     1.0839     1.2021   -75.4756    15.8280      .2096      .0015    45.0478
 4605.0000      .3907   111.9000  -999.2500      .9905     1.0528     1.2541   -75.5116    16.1048      .2041      .0002    46.2597
 4605.5000      .3840   117.8372  -999.2500      .9810     1.0171     1.2040   -75.1165    16.1096      .2159      .0001    47.1886
 4606.0000      .3886   121.8092  -999.2500      .9696      .9923     1.0408   -74.5603    15.8765      .2357      .0051    48.2474
 4606.5000      .4184   124.5905  -999.2500      .9536      .9759      .9327   -73.7809    15.6295      .2582      .0045    49.1113
 4607.0000      .4377   123.6288  -999.2500      .9417      .9599      .9062   -73.2554    15.1150      .2573      .0040    49.6381
 4607.5000      .4699   120.0586  -999.2500      .9338      .9463      .9126   -72.7922    14.4974      .2547      .0022    49.7580
 4608.0000      .4721   116.4120  -999.2500      .9259      .9424      .9218   -72.5677    14.1217      .2548     -.0001    49.7649
 4608.5000      .4699   114.1461  -999.2500      .9199      .9437      .9373   -72.3469    13.8914      .2558     -.0030    49.6053
 4609.0000      .4676   113.1056  -999.2500      .9270      .9522      .9563   -72.1915    13.8174      .2534     -.0039    49.1358
 4609.5000      .4658   113.8619  -999.2500      .9342      .9643      .9780   -72.0391    13.8517      .2491     -.0029    48.2694
 4610.0000      .4649   115.0017  -999.2500      .9466      .9751      .9947   -71.8275    13.9436      .2430     -.0009    47.5623
 4610.5000      .4732   115.8418  -999.2500      .9599      .9854      .9679   -71.6019    13.9490      .2390      .0028    47.5455
 4611.0000      .4831   115.6267  -999.2500      .9670      .9935      .9648   -71.3896    13.9168      .2379      .0058    48.1395
 4611.5000      .4921   114.6528  -999.2500      .9719      .9986      .9681   -71.1818    13.9708      .2391      .0034    48.8209
 4612.0000      .4841   113.5433  -999.2500      .9729     1.0008      .9720   -70.9949    14.1133      .2445     -.0009    48.9246
 4612.5000      .4648   112.8307  -999.2500      .9696      .9993      .9845   -70.8143    13.9928      .2539     -.0038    48.7069
 4613.0000      .4564   113.0400  -999.2500      .9668     1.0046      .9986   -70.6689    13.7374      .2543     -.0012    47.8834
