~VERSION INFORMATION
VERS.                             2.0:   CWLS Log ASCII Standard-VERSION 2.0
WRAP.                              NO:   One line per depth step
~Well Information Block
STRT.F                      5785.0000:   Top Depth
STOP.F                     10595.0000:   Bottom Depth
STEP.F                         .50000:   Depth Increment
NULL.                        -999.250:   Null Value
FLD .                    MU BLK A 153:   Field Name
WELL.       OCSG14788   001 ST00 BP00:   NAME
API .                    427124011300:   WELL API
R1  .                           45310:   COMMENT  1
R2  .                           45310:   COMMENT  2
EDF .F                        95.0000:   ELEV DRILL FLOOR
COMP.         WALTER OIL AND GAS CORP:   OPERATOR
BN  .                           A 153:   BLOCK
CTRY.                             USA:   COUNTRY NAME
CNTY.                        M I E AD:   COUNTY NAME
TDD .F                      10613.000:   FINAL TD DRILLER
STAT.                           TEXAS:   STATE NAME
UWI .                    427124011300:   WELL API
DICO.               IHS : Digitizing Company
~PARAMETER INFORMATION (zones)
#MNEM.UNIT                       Value     Description
#=========                       =====     ===========
#ZONATION                          CNL:   ZONATION NAME
#ZONE                            RUN_2:   ZONE NAME
TOP .                       9494.0000:   TOP DEPTH
BOT .                      10469.5000:   BOTTOM DEPTH
RUN .                               2:   RUN NUMBER
LCCD.                             340:   LOGGING CONTRACTOR
SRVC.                   PAN GEO ATLAS:   LOGGING CONT NAME
DICO.          QC Data Collectors Ltd:   DIG COMPANY NAME
LDAT.                      07/01/1996:   DATE LOGGED
TDD .F                     10500.0000:   TOTAL DEPTH DRILLER
TDL .F                     10504.0000:   TOTAL DEPTH LOGGER
BOTL.F                     10500.0000:   BOTTOM DEPTH LOGGED
TOPL.F                      9350.0000:   TOP DEPTH LOGGED
CS1 .IN                        9.6250:   CASING SIZE 1
BS1 .IN                        8.5000:   BIT SIZE 1
DDB1.F                     10500.0000:   DEPTH DRILLED BIT 1
BHF .                              60:   FLUID CODE
DPT .                        Oil Base:   DRILLING FLUID TYPE
MUDD.                         16.5000:   FLUID DENSITY
MUDV.                         57.0000:   FLUID VISCOSITY
FL  .                          5.4000:   FLUID LOSS
TMAX.DEGF                    238.0000:   MAX REC TEMP
TIMC.                          6.0000:   TIME SINCE CIRCLN
~PARAMETER INFORMATION (zones)
#MNEM.UNIT                       Value     Description
#=========                       =====     ===========
#ZONATION                          DIL:   ZONATION NAME
#ZONE                            RUN_2:   ZONE NAME
TOP .                       9494.0000:   TOP DEPTH
BOT .                      10469.5000:   BOTTOM DEPTH
RUN .                               2:   RUN NUMBER
LCCD.                             340:   LOGGING CONTRACTOR
SRVC.                   PAN GEO ATLAS:   LOGGING CONT NAME
DICO.          QC Data Collectors Ltd:   DIG COMPANY NAME
LDAT.                      07/01/1996:   DATE LOGGED
TDD .F                     10500.0000:   TOTAL DEPTH DRILLER
TDL .F                     10504.0000:   TOTAL DEPTH LOGGER
BOTL.F                     10500.0000:   BOTTOM DEPTH LOGGED
TOPL.F                      9350.0000:   TOP DEPTH LOGGED
CS1 .IN                        9.6250:   CASING SIZE 1
BS1 .IN                        8.5000:   BIT SIZE 1
DDB1.F                     10500.0000:   DEPTH DRILLED BIT 1
BHF .                              60:   FLUID CODE
DPT .                        Oil Base:   DRILLING FLUID TYPE
MUDD.                         16.5000:   FLUID DENSITY
MUDV.                         57.0000:   FLUID VISCOSITY
FL  .                          5.4000:   FLUID LOSS
TMAX.DEGF                    238.0000:   MAX REC TEMP
TIMC.                          6.0000:   TIME SINCE CIRCLN
~PARAMETER INFORMATION (zones)
#MNEM.UNIT                       Value     Description
#=========                       =====     ===========
#ZONATION                          DIL:   ZONATION NAME
#ZONE                            RUN_1:   ZONE NAME
TOP .                       5785.0000:   TOP DEPTH
BOT .                       9493.5000:   BOTTOM DEPTH
RUN .                               1:   RUN NUMBER
LCCD.                             340:   LOGGING CONTRACTOR
SRVC.                   PAN GEO ATLAS:   LOGGING CONT NAME
DICO.          QC Data Collectors Ltd:   DIG COMPANY NAME
LDAT.                      06/23/1996:   DATE LOGGED
TDD .F                      9520.0000:   TOTAL DEPTH DRILLER
TDL .F                      9517.0000:   TOTAL DEPTH LOGGER
BOTL.F                      9515.0000:   BOTTOM DEPTH LOGGED
TOPL.F                      5800.0000:   TOP DEPTH LOGGED
CS1 .IN                       13.3750:   CASING SIZE 1
BS1 .IN                       12.2500:   BIT SIZE 1
DDB1.F                      9520.0000:   DEPTH DRILLED BIT 1
BHF .                              60:   FLUID CODE
DPT .                        Oil Base:   DRILLING FLUID TYPE
MUDD.                         14.8000:   FLUID DENSITY
MUDV.                         56.0000:   FLUID VISCOSITY
FL  .                          6.8000:   FLUID LOSS
TMAX.DEGF                    171.0000:   MAX REC TEMP
TIMC.                          6.0000:   TIME SINCE CIRCLN
~PARAMETER INFORMATION (zones)
#MNEM.UNIT                       Value     Description
#=========                       =====     ===========
#ZONATION                          DIL:   ZONATION NAME
#ZONE                            RUN_3:   ZONE NAME
TOP .                      10469.0000:   TOP DEPTH
BOT .                      10595.5000:   BOTTOM DEPTH
RUN .                               3:   RUN NUMBER
LCCD.                             340:   LOGGING CONTRACTOR
SRVC.                   PAN GEO ATLAS:   LOGGING CONT NAME
DICO.          QC Data Collectors Ltd:   DIG COMPANY NAME
LDAT.                      07/04/1996:   DATE LOGGED
TDD .F                     10613.0000:   TOTAL DEPTH DRILLER
TDL .F                     10596.0000:   TOTAL DEPTH LOGGER
BOTL.F                     10596.0000:   BOTTOM DEPTH LOGGED
TOPL.F                     10000.0000:   TOP DEPTH LOGGED
CS1 .IN                        9.6250:   CASING SIZE 1
BS1 .IN                        8.5000:   BIT SIZE 1
DDB1.F                     10613.0000:   DEPTH DRILLED BIT 1
BHF .                              60:   FLUID CODE
DPT .                        Oil Base:   DRILLING FLUID TYPE
MUDD.                         16.9000:   FLUID DENSITY
MUDV.                         55.0000:   FLUID VISCOSITY
FL  .                          5.0000:   FLUID LOSS
TMAX.DEGF                    240.0000:   MAX REC TEMP
TIMC.                         10.0000:   TIME SINCE CIRCLN
~PARAMETER INFORMATION (zones)
#MNEM.UNIT                       Value     Description
#=========                       =====     ===========
#ZONATION                          FDC:   ZONATION NAME
#ZONE                            RUN_2:   ZONE NAME
TOP .                       9494.0000:   TOP DEPTH
BOT .                      10469.5000:   BOTTOM DEPTH
RUN .                               2:   RUN NUMBER
LCCD.                             340:   LOGGING CONTRACTOR
SRVC.                   PAN GEO ATLAS:   LOGGING CONT NAME
DICO.          QC Data Collectors Ltd:   DIG COMPANY NAME
LDAT.                      07/01/1996:   DATE LOGGED
TDD .F                     10500.0000:   TOTAL DEPTH DRILLER
TDL .F                     10504.0000:   TOTAL DEPTH LOGGER
BOTL.F                     10500.0000:   BOTTOM DEPTH LOGGED
TOPL.F                      9350.0000:   TOP DEPTH LOGGED
CS1 .IN                        9.6250:   CASING SIZE 1
BS1 .IN                        8.5000:   BIT SIZE 1
DDB1.F                     10500.0000:   DEPTH DRILLED BIT 1
BHF .                              60:   FLUID CODE
DPT .                        Oil Base:   DRILLING FLUID TYPE
MUDD.                         16.5000:   FLUID DENSITY
MUDV.                         57.0000:   FLUID VISCOSITY
FL  .                          5.4000:   FLUID LOSS
TMAX.DEGF                    238.0000:   MAX REC TEMP
TIMC.                          6.0000:   TIME SINCE CIRCLN
~Curve Information Block
#MNEM.UNIT                    API CODE    No Description
#=========                    ========    == ===========
DEPT.F                   00 001 00 00:     1  DEPTH
CNCF.%                               :     2  Neutron Porosity
CAL.IN                               :     3  Caliper
CILD.MMHO                            :     4  Deep Induction Conductivity
GR.GAPI                              :     5  Gamma Ray
RILD.OHMM                            :     6  Deep Resistivity
RILM.OHMM                            :     7  Medium Resistivity
RWA.OHMM                             :     8  Apparent Water Resistivity
TEN.LB                               :     9  Cable Tension
PORZ.%                               :    10  Porosity
ZCOR.G/C3                            :    11  Density Correction
ZDEN.G/C3                            :    12  Bulk Density
~ASCII
# ...
10177.0000    36.2970     9.9396  1758.8457    75.7195      .6012      .7039      .0130   -44.4424    13.4643      .0014     2.4300
10177.5000    36.2376     9.9158  1803.7129    76.8992      .5861      .6937      .0130   -63.2109    13.3663      .0006     2.4280
10178.0000    36.7128     9.9099  1837.0957    79.4753      .5704      .6829      .0125   -65.3467    13.3874      .0000     2.4260
10178.5000    37.3663     9.9243  1864.5059    81.5438      .5562      .6653      .0125   -61.4595    13.5060      .0000     2.4270
10179.0000    37.8416     9.9179  1894.3379    80.7738      .5437      .6433      .0124   -51.5781    13.5238     -.0004     2.4300
10179.5000    37.7822     9.9384  1928.5781    78.7813      .5335      .6230      .0120   -45.5444    13.4432     -.0020     2.4330
10180.0000    37.4851     9.9499  1958.8887    77.9215      .5269      .6062      .0114   -59.3281    13.2262     -.0024     2.4350
10180.5000    37.5446     9.9305  1976.1563    78.1399      .5203      .5988      .0110   -65.3467    13.0476      .0017     2.4310
10181.0000    37.6633     9.9200  1982.2676    79.6991      .5136      .5922      .0110   -69.2485    13.1717      .0085     2.4260
10181.5000    37.6039     9.9500  1988.3984    81.6345      .5071      .5881      .0120   -65.3467    13.3874      .0131     2.4280
10182.0000    37.1287     9.9262  2005.5723    82.7130      .5005      .5844      .0115   -61.4595    13.4257      .0149     2.4320
10182.5000    36.2376     9.9260  2035.6934    80.8916      .4970      .5811      .0115   -65.3467    13.3239      .0178     2.4300
10183.0000    35.7623     9.9200  2066.1953    78.5601      .4944      .5757      .0105   -65.3467    13.2688      .0247     2.4190
10183.5000    35.2871     9.9200  2083.8047    79.4579      .4919      .5689      .0115   -65.3467    13.6470      .0248     2.4090
10184.0000    35.0495     9.9500  2089.5273    82.1572      .4883      .5622      .0120   -65.3467    14.2543      .0174     2.4060
10184.5000    35.2189     9.9455  2090.5039    83.8806      .4840      .5556      .0130   -72.7241    14.7035      .0133     2.4060
10185.0000    35.6852     9.9500  2090.5469    84.7922      .4816      .5490      .0130   -74.3101    14.8218      .0151     2.4020
10185.5000    36.1428     9.9500  2091.3594    83.5663      .4791      .5425      .0135   -47.3447    14.9230      .0139     2.3950
10186.0000    36.4998     9.9500  2091.9727    80.8125      .4765      .5376      .0135   -35.6436    15.2245      .0084     2.3880
10186.5000    36.2968     9.9500  2089.2070    80.0000      .4746      .5368      .0150   -41.3516    15.6376     -.0002     2.3840
10187.0000    36.0831     9.9500  2082.5781    80.1980      .4734      .5361      .0160   -56.2803    16.0435     -.0010     2.3830
10187.5000    35.9406     9.9500  2076.7695    79.4808      .4727      .5353      .0160   -68.2583    16.1584      .0002     2.3860
10188.0000    35.9878     9.9500  2075.9453    78.1202      .4724      .5346      .0160   -59.5708    16.0952      .0010     2.3920
10188.5000    36.1633     9.9500  2078.0937    77.5000      .4727      .5339      .0154   -45.2622    15.8559      .0010     2.4010
10189.0000    36.2197     9.9500  2079.4297    77.5398      .4742      .5331      .0147   -28.3589    15.3889      .0010     2.4060
10189.5000    36.4545     9.9500  2079.5234    78.2397      .4757      .5324      .0141   -18.7212    14.9821      .0012     2.4060
10190.0000    36.7256     9.9500  2078.7031    78.7402      .4756      .5316      .0130   -27.5796    14.7975      .0020     2.4020
10190.5000    36.9268     9.9500  2075.0820    77.8511      .4745      .5310      .0130   -37.5000    14.9530      .0021     2.4000
10191.0000    36.7839     9.9500  2067.7070    75.7305      .4735      .5322      .0135   -40.5942    15.0831      .0029     2.4000
10191.5000    36.4158     9.9500  2058.9258    75.3247      .4756      .5334      .0135   -40.5942    15.1485      .0019     2.3990
10192.0000    36.5825     9.9500  2050.4336    76.6000      .4839      .5346      .0139   -42.4580    15.1485      .0000     2.3980
10192.5000    36.9746     9.9500  2039.7285    77.7999      .4874      .5358      .0140   -54.2612    15.2608     -.0010     2.3960
10193.0000    37.5807     9.9500  2024.8398    77.8999      .4889      .5370      .0144   -74.1406    15.3794      .0030     2.3940
10193.5000    38.2463     9.9500  2008.6563    77.6000      .4925      .5382      .0141   -80.1982    15.4980      .0039     2.3930
10194.0000    38.7327     9.9500  1994.8945    78.0000      .4974      .5394      .0149   -67.5967    15.5049      .0000     2.3950
10194.5000    38.5067     9.9500  1984.9902    78.6000      .5021      .5406      .0150   -22.7837    15.5149     -.0010     2.4020
10195.0000    38.1502     9.9500  1978.0938    77.2000      .5067      .5418      .0146    15.1226    15.2923      .0020     2.4070
10195.5000    37.6749     9.9500  1972.2715    74.6000      .5112      .5429      .0136    17.8105    14.8952      .0060     2.4060
10196.0000    37.4136     9.9500  1966.6934    74.7999      .5139      .5436      .0135     7.3579    14.7921      .0139     2.4020
10196.5000    37.2117     9.9500  1961.8301    76.6000      .5166      .5439      .0135   -21.6270    14.8757      .0119     2.4020
10197.0000    37.3069     9.9500  1958.8945    78.3999      .5185      .5445      .0144   -32.4014    15.0118      .0079     2.4080
10197.5000    37.3306     9.9500  1959.9922    79.6000      .5190      .5456      .0140   -50.4951    14.8447      .0050     2.4150
10198.0000    37.2122     9.9500  1965.4258    79.8999      .5194      .5464      .0132   -56.3506    14.5294      .0100     2.4180
10198.5000    37.0960     9.9200  1971.9336    79.6000      .5198      .5470      .0125   -60.8379    14.1749      .0168     2.4180
10199.0000    36.8911     9.9500  1977.7051    78.8999      .5201      .5475      .0125   -65.3467    14.0397      .0148     2.4180
10199.5000    36.3414     9.9500  1984.1309    77.2999      .5203      .5484      .0125   -65.8618    14.0574      .0069     2.4150
10200.0000    36.1318     9.9499  1992.3340    76.7000      .5197      .5499      .0121   -61.3301    14.1647     -.0010     2.4090
10200.5000    36.0506     9.9713  2003.1055    76.6000      .5185      .5514      .0124   -65.3467    14.6131     -.0040     2.4030
10201.0000    36.1364     9.9686  2017.8945    77.3999      .5164      .5529      .0138   -60.9307    14.7688     -.0129     2.4000
10201.5000    36.3768     9.9466  2035.1465    79.0000      .5121      .5518      .0145   -55.7612    15.0770     -.0129     2.4020
10202.0000    36.6990     9.9457  2048.7578    80.7920      .5078      .5501      .0145   -50.4937    15.1171     -.0040     2.4050
10202.5000    36.8674     9.9455  2054.7969    80.9900      .5054      .5484      .0137   -40.5630    14.9405      .0089     2.4030
10203.0000    36.8080     9.9634  2055.5898    79.2999      .5030      .5442      .0135   -35.4590    14.9407      .0129     2.4000
10203.5000    36.6061     9.9455  2055.7695    78.5000      .5010      .5396      .0139   -40.0322    15.1186      .0079     2.4030
10204.0000    36.3685     9.9752  2056.4414    79.2999      .4997      .5364      .0136   -54.8936    15.0595      .0059     2.4120
10204.5000    36.1545     9.9574  2056.7656    80.3960      .4984      .5341      .0130   -58.7739    14.7308      .0040     2.4180
10205.0000    35.9521     9.9455  2056.9570    80.4950      .4985      .5320      .0122   -57.7109    14.2544      .0030     2.4160
10205.5000    35.7599     9.9574  2057.5430    78.8999      .4993      .5318      .0117   -51.6128    14.1699      .0000     2.4160
10206.0000    35.7599     9.9455  2058.3672    78.2000      .5001      .5316      .0116   -45.5571    14.1980      .0020     2.4190
10206.5000    35.9039     9.9455  2058.8164    77.3999      .5011      .5311      .0115   -55.3491    14.1351      .0069     2.4220
10207.0000    36.0831     9.9455  2056.8125    77.0000      .5016      .5304      .0110   -55.5420    13.9881      .0119     2.4240
