~VERSION INFORMATION
VERS.                             2.0:   CWLS Log ASCII Standard-VERSION 2.0
WRAP.                              NO:   One line per depth step
~Well Information Block
STRT.F                      5785.0000:   Top Depth
STOP.F                     10595.0000:   Bottom Depth
STEP.F                         .50000:   Depth Increment
NULL.                        -999.250:   Null Value
FLD .                    MU BLK A 153:   Field Name
WELL.       OCSG14788   001 ST00 BP00:   NAME
API .                    427124011300:   WELL API
R1  .                           45310:   COMMENT  1
R2  .                           45310:   COMMENT  2
EDF .F                        95.0000:   ELEV DRILL FLOOR
COMP.         WALTER OIL AND GAS CORP:   OPERATOR
BN  .                           A 153:   BLOCK
CTRY.                             USA:   COUNTRY NAME
CNTY.                        M I E AD:   COUNTY NAME
TDD .F                      10613.000:   FINAL TD DRILLER
STAT.                           TEXAS:   STATE NAME
UWI .                    427124011300:   WELL API
DICO.               IHS : Digitizing Company
~PARAMETER INFORMATION (zones)
#MNEM.UNIT                       Value     Description
#=========                       =====     ===========
#ZONATION                          CNL:   ZONATION NAME
#ZONE                            RUN_2:   ZONE NAME
TOP .                       9494.0000:   TOP DEPTH
BOT .                      10469.5000:   BOTTOM DEPTH
RUN .                               2:   RUN NUMBER
LCCD.                             340:   LOGGING CONTRACTOR
SRVC.                   PAN GEO ATLAS:   LOGGING CONT NAME
DICO.          QC Data Collectors Ltd:   DIG COMPANY NAME
LDAT.                      07/01/1996:   DATE LOGGED
TDD .F                     10500.0000:   TOTAL DEPTH DRILLER
TDL .F                     10504.0000:   TOTAL DEPTH LOGGER
BOTL.F                     10500.0000:   BOTTOM DEPTH LOGGED
TOPL.F                      9350.0000:   TOP DEPTH LOGGED
CS1 .IN                        9.6250:   CASING SIZE 1
BS1 .IN                        8.5000:   BIT SIZE 1
DDB1.F                     10500.0000:   DEPTH DRILLED BIT 1
BHF .                              60:   FLUID CODE
DPT .                        Oil Base:   DRILLING FLUID TYPE
MUDD.                         16.5000:   FLUID DENSITY
MUDV.                         57.0000:   FLUID VISCOSITY
FL  .                          5.4000:   FLUID LOSS
TMAX.DEGF                    238.0000:   MAX REC TEMP
TIMC.                          6.0000:   TIME SINCE CIRCLN
~PARAMETER INFORMATION (zones)
#MNEM.UNIT                       Value     Description
#=========                       =====     ===========
#ZONATION                          DIL:   ZONATION NAME
#ZONE                            RUN_2:   ZONE NAME
TOP .                       9494.0000:   TOP DEPTH
BOT .                      10469.5000:   BOTTOM DEPTH
RUN .                               2:   RUN NUMBER
LCCD.                             340:   LOGGING CONTRACTOR
SRVC.                   PAN GEO ATLAS:   LOGGING CONT NAME
DICO.          QC Data Collectors Ltd:   DIG COMPANY NAME
LDAT.                      07/01/1996:   DATE LOGGED
TDD .F                     10500.0000:   TOTAL DEPTH DRILLER
TDL .F                     10504.0000:   TOTAL DEPTH LOGGER
BOTL.F                     10500.0000:   BOTTOM DEPTH LOGGED
TOPL.F                      9350.0000:   TOP DEPTH LOGGED
CS1 .IN                        9.6250:   CASING SIZE 1
BS1 .IN                        8.5000:   BIT SIZE 1
DDB1.F                     10500.0000:   DEPTH DRILLED BIT 1
BHF .                              60:   FLUID CODE
DPT .                        Oil Base:   DRILLING FLUID TYPE
MUDD.                         16.5000:   FLUID DENSITY
MUDV.                         57.0000:   FLUID VISCOSITY
FL  .                          5.4000:   FLUID LOSS
TMAX.DEGF                    238.0000:   MAX REC TEMP
TIMC.                          6.0000:   TIME SINCE CIRCLN
~PARAMETER INFORMATION (zones)
#MNEM.UNIT                       Value     Description
#=========                       =====     ===========
#ZONATION                          DIL:   ZONATION NAME
#ZONE                            RUN_1:   ZONE NAME
TOP .                       5785.0000:   TOP DEPTH
BOT .                       9493.5000:   BOTTOM DEPTH
RUN .                               1:   RUN NUMBER
LCCD.                             340:   LOGGING CONTRACTOR
SRVC.                   PAN GEO ATLAS:   LOGGING CONT NAME
DICO.          QC Data Collectors Ltd:   DIG COMPANY NAME
LDAT.                      06/23/1996:   DATE LOGGED
TDD .F                      9520.0000:   TOTAL DEPTH DRILLER
TDL .F                      9517.0000:   TOTAL DEPTH LOGGER
BOTL.F                      9515.0000:   BOTTOM DEPTH LOGGED
TOPL.F                      5800.0000:   TOP DEPTH LOGGED
CS1 .IN                       13.3750:   CASING SIZE 1
BS1 .IN                       12.2500:   BIT SIZE 1
DDB1.F                      9520.0000:   DEPTH DRILLED BIT 1
BHF .                              60:   FLUID CODE
DPT .                        Oil Base:   DRILLING FLUID TYPE
MUDD.                         14.8000:   FLUID DENSITY
MUDV.                         56.0000:   FLUID VISCOSITY
FL  .                          6.8000:   FLUID LOSS
TMAX.DEGF                    171.0000:   MAX REC TEMP
TIMC.                          6.0000:   TIME SINCE CIRCLN
~PARAMETER INFORMATION (zones)
#MNEM.UNIT                       Value     Description
#=========                       =====     ===========
#ZONATION                          DIL:   ZONATION NAME
#ZONE                            RUN_3:   ZONE NAME
TOP .                      10469.0000:   TOP DEPTH
BOT .                      10595.5000:   BOTTOM DEPTH
RUN .                               3:   RUN NUMBER
LCCD.                             340:   LOGGING CONTRACTOR
SRVC.                   PAN GEO ATLAS:   LOGGING CONT NAME
DICO.          QC Data Collectors Ltd:   DIG COMPANY NAME
LDAT.                      07/04/1996:   DATE LOGGED
TDD .F                     10613.0000:   TOTAL DEPTH DRILLER
TDL .F                     10596.0000:   TOTAL DEPTH LOGGER
BOTL.F                     10596.0000:   BOTTOM DEPTH LOGGED
TOPL.F                     10000.0000:   TOP DEPTH LOGGED
CS1 .IN                        9.6250:   CASING SIZE 1
BS1 .IN                        8.5000:   BIT SIZE 1
DDB1.F                     10613.0000:   DEPTH DRILLED BIT 1
BHF .                              60:   FLUID CODE
DPT .                        Oil Base:   DRILLING FLUID TYPE
MUDD.                         16.9000:   FLUID DENSITY
MUDV.                         55.0000:   FLUID VISCOSITY
FL  .                          5.0000:   FLUID LOSS
TMAX.DEGF                    240.0000:   MAX REC TEMP
TIMC.                         10.0000:   TIME SINCE CIRCLN
~PARAMETER INFORMATION (zones)
#MNEM.UNIT                       Value     Description
#=========                       =====     ===========
#ZONATION                          FDC:   ZONATION NAME
#ZONE                            RUN_2:   ZONE NAME
TOP .                       9494.0000:   TOP DEPTH
BOT .                      10469.5000:   BOTTOM DEPTH
RUN .                               2:   RUN NUMBER
LCCD.                             340:   LOGGING CONTRACTOR
SRVC.                   PAN GEO ATLAS:   LOGGING CONT NAME
DICO.          QC Data Collectors Ltd:   DIG COMPANY NAME
LDAT.                      07/01/1996:   DATE LOGGED
TDD .F                     10500.0000:   TOTAL DEPTH DRILLER
TDL .F                     10504.0000:   TOTAL DEPTH LOGGER
BOTL.F                     10500.0000:   BOTTOM DEPTH LOGGED
TOPL.F                      9350.0000:   TOP DEPTH LOGGED
CS1 .IN                        9.6250:   CASING SIZE 1
BS1 .IN                        8.5000:   BIT SIZE 1
DDB1.F                     10500.0000:   DEPTH DRILLED BIT 1
BHF .                              60:   FLUID CODE
DPT .                        Oil Base:   DRILLING FLUID TYPE
MUDD.                         16.5000:   FLUID DENSITY
MUDV.                         57.0000:   FLUID VISCOSITY
FL  .                          5.4000:   FLUID LOSS
TMAX.DEGF                    238.0000:   MAX REC TEMP
TIMC.                          6.0000:   TIME SINCE CIRCLN
~Curve Information Block
#MNEM.UNIT                    API CODE    No Description
#=========                    ========    == ===========
DEPT.F                   00 001 00 00:     1  DEPTH
CNCF.%                               :     2  Neutron Porosity
CAL.IN                               :     3  Caliper
CILD.MMHO                            :     4  Deep Induction Conductivity
GR.GAPI                              :     5  Gamma Ray
RILD.OHMM                            :     6  Deep Resistivity
RILM.OHMM                            :     7  Medium Resistivity
RWA.OHMM                             :     8  Apparent Water Resistivity
TEN.LB                               :     9  Cable Tension
PORZ.%                               :    10  Porosity
ZCOR.G/C3                            :    11  Density Correction
ZDEN.G/C3                            :    12  Bulk Density
~ASCII
# ...
 9597.5000    35.6849    10.1600  1404.5234    77.2545      .6750      .7272      .0215   -53.0937    15.9881      .0029     2.3880
 9598.0000    35.2908    10.1300  1395.9922    78.1000      .6978      .7436      .0220   -51.9028    15.8772      .0020     2.4030
 9598.5000    34.9344    10.1375  1398.1719    75.2999      .7147      .7523      .0210   -55.0000    15.2737     -.0079     2.4240
 9599.0000    34.3517    10.0850  1402.5957    68.9109      .7247      .7581      .0180   -60.0000    14.2319     -.0168     2.4290
 9599.5000    33.5817    10.0925  1407.5332    64.5544      .7227      .7511      .0160   -60.4834    13.4731     -.0149     2.4170
 9600.0000    33.0516    10.0700  1421.8047    64.6534      .7167      .7393      .0165   -65.0000    13.7215     -.0040     2.4100
 9600.5000    32.9630    10.0400  1456.6992    68.5148      .7050      .7233      .0175   -66.2500    14.2854      .0039     2.4150
 9601.0000    33.1805    10.0400  1489.6191    73.2999      .6934      .7099      .0175   -72.5000    14.3914      .0108     2.4220
 9601.5000    33.5265    10.0400  1485.8223    75.6000      .6863      .6985      .0165   -73.7500    14.0540      .0196     2.4250
 9602.0000    34.0958    10.0400  1454.1465    78.7000      .6816      .6938      .0155   -80.0000    13.7121      .0320     2.4210
 9602.5000    34.8005    10.0400  1427.6309    79.8999      .6872      .6938      .0155   -80.0000    13.6938      .0385     2.4110
 9603.0000    35.3060    10.0400  1410.6543    80.4950      .6975      .6966      .0165   -80.0000    14.0358      .0245     2.4040
 9603.5000    34.7991    10.0400  1391.9238    78.5000      .7113      .7113      .0195   -75.0000    14.6140      .0100     2.4150
 9604.0000    33.0450    10.0400  1367.6836    74.5000      .7294      .7324      .0190   -70.0000    14.4583      .0010     2.4460
 9604.5000    31.0809    10.0400  1334.7891    69.8019      .7417      .7603      .0170   -60.0000    13.1893      .0030     2.4740
 9605.0000    29.8791    10.1000  1290.9219    64.2573      .7560      .7878      .0110   -55.0000    11.5012      .0117     2.4750
 9605.5000    30.0937    10.0400  1242.4902    63.0693      .7841      .8099      .0100   -60.0000    10.5622      .0070     2.4590
 9606.0000    30.5533    10.0400  1203.8574    68.2178      .8132      .8300      .0110   -70.0000    11.0736     -.0040     2.4490
 9606.5000    30.8824    10.0400  1180.6504    73.7000      .8376      .8472      .0145   -75.0000    11.8102     -.0139     2.4510
 9607.0000    30.8470    10.0400  1166.4883    76.7000      .8514      .8614      .0150   -75.0000    12.0600     -.0139     2.4530
 9607.5000    30.5055    10.0400  1157.1230    73.3999      .8630      .8739      .0150   -80.0000    11.9524     -.0129     2.4490
 9608.0000    29.9241    10.0400  1152.5234    68.0198      .8736      .8826      .0150   -85.0000    11.9763     -.0079     2.4430
 9608.5000    29.2167    10.0400  1148.1758    65.6436      .8719      .8901      .0155   -85.0000    12.2741     -.0010     2.4410
 9609.0000    29.0461    10.0400  1146.3730    65.6436      .8701      .8939      .0165   -80.0000    12.5710     -.0050     2.4400
 9609.5000    29.2233    10.0400  1173.2520    66.1385      .8618      .8978      .0170   -75.0000    12.6419     -.0099     2.4410
 9610.0000    29.7245    10.0400  1249.1406    66.6337      .8487      .8939      .0170   -80.0000    12.6072     -.0129     2.4440
 9610.5000    30.2233    10.0400  1345.7129    67.4890      .8296      .8894      .0161   -85.2764    12.5476     -.0091     2.4470
 9611.0000    30.9254    10.0400  1412.8574    68.7368      .7980      .8622      .0145   -95.0249    12.3348     -.0051     2.4450
 9611.5000    31.5654    10.0400  1440.0840    71.2660      .7652      .8272      .0135   -95.0371    12.2253     -.0023     2.4380
 9612.0000    32.4755    10.0400  1451.7266    73.9977      .7324      .7905      .0134   -92.1113    12.4819     -.0002     2.4340
 9612.5000    33.7073    10.0400  1462.6777    76.2988      .7048      .7717      .0140   -46.3184    12.8970      .0049     2.4350
 9613.0000    34.4517    10.0400  1474.1309    77.8896      .6800      .7664      .0145     9.2910    12.9851      .0046     2.4380
 9613.5000    34.5961    10.0400  1489.5664    76.9946      .6730      .7627      .0137    26.6768    12.8802     -.0048     2.4410
 9614.0000    34.1787    10.0400  1510.5273    74.7491      .6675      .7493      .0132    12.7026    12.6747     -.0170     2.4430
 9614.5000    33.6420    10.0400  1533.4297    72.8195      .6677      .7341      .0130   -15.1108    12.4960     -.0170     2.4420
 9615.0000    34.1281    10.0400  1554.1543    74.0812      .6678      .7065      .0127   -38.5688    12.4800     -.0069     2.4340
 9615.5000    34.4249    10.0519  1568.0527    76.2015      .6648      .6775      .0128   -61.8804    12.7500     -.0036     2.4240
 9616.0000    34.4293    10.0400  1572.9824    77.7946      .6604      .6553      .0143   -80.1270    13.2254     -.0065     2.4170
 9616.5000    35.1717    10.0400  1572.8633    79.1298      .6560      .6472      .0153   -85.1118    13.8197     -.0079     2.4120
 9617.0000    35.8078    10.0550  1573.0898    78.8999      .6505      .6411      .0157   -70.3232    14.2138     -.0079     2.4080
 9617.5000    36.4156    10.0400  1577.9824    77.9747      .6449      .6441      .0165   -55.1123    14.4576     -.0021     2.4070
 9618.0000    36.7363    10.0400  1587.7715    78.0996      .6417      .6471      .0165   -50.0986    14.6139      .0018     2.4160
 9618.5000    36.5258    10.0400  1599.5410    78.5164      .6397      .6533      .0161   -45.3613    14.2951      .0032     2.4310
 9619.0000    36.3981    10.0700  1614.7676    75.1937      .6372      .6596      .0151   -58.2759    13.5631     -.0008     2.4360
 9619.5000    36.1040    10.0400  1635.7305    70.8483      .6343      .6629      .0136   -95.0000    13.0199     -.0014     2.4290
 9620.0000    35.7025    10.0400  1656.4277    69.6068      .6302      .6631      .0138   -96.9155    13.1552      .0058     2.4180
 9620.5000    35.7029    10.0580  1673.5762    71.9171      .6237      .6553      .0140  -100.0000    13.7016      .0157     2.4070
 9621.0000    35.9465    10.0519  1686.0391    75.5570      .6163      .6287      .0154   -95.0000    14.3346      .0159     2.4000
 9621.5000    36.4600    10.0580  1690.6680    78.7390      .6070      .6084      .0162   -42.8457    14.9213      .0040     2.3970
 9622.0000    36.9026    10.0580  1683.7754    79.6398      .6003      .6079      .0167    37.7954    15.1793     -.0045     2.3990
 9622.5000    37.5206    10.0400  1661.3203    79.2804      .5996      .6298      .0170    74.2998    15.2105     -.0119     2.4010
 9623.0000    37.6515    10.0400  1621.3145    78.3812      .6062      .6446      .0172    65.3320    15.1200     -.0107     2.3990
 9623.5000    37.5446    10.0400  1568.7168    78.1593      .6179      .6625      .0174    41.3833    15.1200     -.0061     2.3960
 9624.0000    37.2596    10.0700  1503.8145    78.7999      .6370      .6783      .0187     5.6470    15.2095     -.0020     2.3990
 9624.5000    36.7370    10.0535  1421.1055    78.0210      .6572      .6905      .0190   -34.4487    15.2706     -.0020     2.4030
 9625.0000    35.7983    10.0400  1323.9043    74.6016      .6836      .7091      .0192   -69.8232    15.0301      .0026     2.4030
 9625.5000    35.0258    10.0535  1230.4121    72.7007      .7233      .7655      .0202   -75.0000    14.9400      .0109     2.3970
 9626.0000    35.0019    10.0400  1177.6582    71.8210      .7801      .8034      .0221   -75.0000    15.0893      .0147     2.3980
 9626.5000    35.1683    10.0580  1197.2676    69.8875      .8222      .8274      .0237   -74.8823    15.2400      .0145     2.4060
 9627.0000    34.6580    10.0400  1275.3438    63.6888      .8538      .8275      .0236   -75.0000    15.0300      .0125     2.4100
 9627.5000    32.7094    10.0700  1371.9492    55.3125      .8305      .7943      .0213   -89.9805    14.6092      .0089     2.4050
