~VERSION INFORMATION
VERS.                             2.0:   CWLS Log ASCII Standard-VERSION 2.0
WRAP.                              NO:   One line per depth step
~Well Information Block
STRT.F                      5785.0000:   Top Depth
STOP.F                     10595.0000:   Bottom Depth
STEP.F                         .50000:   Depth Increment
NULL.                        -999.250:   Null Value
FLD .                    MU BLK A 153:   Field Name
WELL.       OCSG14788   001 ST00 BP00:   NAME
API .                    427124011300:   WELL API
R1  .                           45310:   COMMENT  1
R2  .                           45310:   COMMENT  2
EDF .F                        95.0000:   ELEV DRILL FLOOR
COMP.         WALTER OIL AND GAS CORP:   OPERATOR
BN  .                           A 153:   BLOCK
CTRY.                             USA:   COUNTRY NAME
CNTY.                        M I E AD:   COUNTY NAME
TDD .F                      10613.000:   FINAL TD DRILLER
STAT.                           TEXAS:   STATE NAME
UWI .                    427124011300:   WELL API
DICO.               IHS : Digitizing Company
~PARAMETER INFORMATION (zones)
#MNEM.UNIT                       Value     Description
#=========                       =====     ===========
#ZONATION                          CNL:   ZONATION NAME
#ZONE                            RUN_2:   ZONE NAME
TOP .                       9494.0000:   TOP DEPTH
BOT .                      10469.5000:   BOTTOM DEPTH
RUN .                               2:   RUN NUMBER
LCCD.                             340:   LOGGING CONTRACTOR
SRVC.                   PAN GEO ATLAS:   LOGGING CONT NAME
DICO.          QC Data Collectors Ltd:   DIG COMPANY NAME
LDAT.                      07/01/1996:   DATE LOGGED
TDD .F                     10500.0000:   TOTAL DEPTH DRILLER
TDL .F                     10504.0000:   TOTAL DEPTH LOGGER
BOTL.F                     10500.0000:   BOTTOM DEPTH LOGGED
TOPL.F                      9350.0000:   TOP DEPTH LOGGED
CS1 .IN                        9.6250:   CASING SIZE 1
BS1 .IN                        8.5000:   BIT SIZE 1
DDB1.F                     10500.0000:   DEPTH DRILLED BIT 1
BHF .                              60:   FLUID CODE
DPT .                        Oil Base:   DRILLING FLUID TYPE
MUDD.                         16.5000:   FLUID DENSITY
MUDV.                         57.0000:   FLUID VISCOSITY
FL  .                          5.4000:   FLUID LOSS
TMAX.DEGF                    238.0000:   MAX REC TEMP
TIMC.                          6.0000:   TIME SINCE CIRCLN
~PARAMETER INFORMATION (zones)
#MNEM.UNIT                       Value     Description
#=========                       =====     ===========
#ZONATION                          DIL:   ZONATION NAME
#ZONE                            RUN_2:   ZONE NAME
TOP .                       9494.0000:   TOP DEPTH
BOT .                      10469.5000:   BOTTOM DEPTH
RUN .                               2:   RUN NUMBER
LCCD.                             340:   LOGGING CONTRACTOR
SRVC.                   PAN GEO ATLAS:   LOGGING CONT NAME
DICO.          QC Data Collectors Ltd:   DIG COMPANY NAME
LDAT.                      07/01/1996:   DATE LOGGED
TDD .F                     10500.0000:   TOTAL DEPTH DRILLER
TDL .F                     10504.0000:   TOTAL DEPTH LOGGER
BOTL.F                     10500.0000:   BOTTOM DEPTH LOGGED
TOPL.F                      9350.0000:   TOP DEPTH LOGGED
CS1 .IN                        9.6250:   CASING SIZE 1
BS1 .IN                        8.5000:   BIT SIZE 1
DDB1.F                     10500.0000:   DEPTH DRILLED BIT 1
BHF .                              60:   FLUID CODE
DPT .                        Oil Base:   DRILLING FLUID TYPE
MUDD.                         16.5000:   FLUID DENSITY
MUDV.                         57.0000:   FLUID VISCOSITY
FL  .                          5.4000:   FLUID LOSS
TMAX.DEGF                    238.0000:   MAX REC TEMP
TIMC.                          6.0000:   TIME SINCE CIRCLN
~PARAMETER INFORMATION (zones)
#MNEM.UNIT                       Value     Description
#=========                       =====     ===========
#ZONATION                          DIL:   ZONATION NAME
#ZONE                            RUN_1:   ZONE NAME
TOP .                       5785.0000:   TOP DEPTH
BOT .                       9493.5000:   BOTTOM DEPTH
RUN .                               1:   RUN NUMBER
LCCD.                             340:   LOGGING CONTRACTOR
SRVC.                   PAN GEO ATLAS:   LOGGING CONT NAME
DICO.          QC Data Collectors Ltd:   DIG COMPANY NAME
LDAT.                      06/23/1996:   DATE LOGGED
TDD .F                      9520.0000:   TOTAL DEPTH DRILLER
TDL .F                      9517.0000:   TOTAL DEPTH LOGGER
BOTL.F                      9515.0000:   BOTTOM DEPTH LOGGED
TOPL.F                      5800.0000:   TOP DEPTH LOGGED
CS1 .IN                       13.3750:   CASING SIZE 1
BS1 .IN                       12.2500:   BIT SIZE 1
DDB1.F                      9520.0000:   DEPTH DRILLED BIT 1
BHF .                              60:   FLUID CODE
DPT .                        Oil Base:   DRILLING FLUID TYPE
MUDD.                         14.8000:   FLUID DENSITY
MUDV.                         56.0000:   FLUID VISCOSITY
FL  .                          6.8000:   FLUID LOSS
TMAX.DEGF                    171.0000:   MAX REC TEMP
TIMC.                          6.0000:   TIME SINCE CIRCLN
~PARAMETER INFORMATION (zones)
#MNEM.UNIT                       Value     Description
#=========                       =====     ===========
#ZONATION                          DIL:   ZONATION NAME
#ZONE                            RUN_3:   ZONE NAME
TOP .                      10469.0000:   TOP DEPTH
BOT .                      10595.5000:   BOTTOM DEPTH
RUN .                               3:   RUN NUMBER
LCCD.                             340:   LOGGING CONTRACTOR
SRVC.                   PAN GEO ATLAS:   LOGGING CONT NAME
DICO.          QC Data Collectors Ltd:   DIG COMPANY NAME
LDAT.                      07/04/1996:   DATE LOGGED
TDD .F                     10613.0000:   TOTAL DEPTH DRILLER
TDL .F                     10596.0000:   TOTAL DEPTH LOGGER
BOTL.F                     10596.0000:   BOTTOM DEPTH LOGGED
TOPL.F                     10000.0000:   TOP DEPTH LOGGED
CS1 .IN                        9.6250:   CASING SIZE 1
BS1 .IN                        8.5000:   BIT SIZE 1
DDB1.F                     10613.0000:   DEPTH DRILLED BIT 1
BHF .                              60:   FLUID CODE
DPT .                        Oil Base:   DRILLING FLUID TYPE
MUDD.                         16.9000:   FLUID DENSITY
MUDV.                         55.0000:   FLUID VISCOSITY
FL  .                          5.0000:   FLUID LOSS
TMAX.DEGF                    240.0000:   MAX REC TEMP
TIMC.                         10.0000:   TIME SINCE CIRCLN
~PARAMETER INFORMATION (zones)
#MNEM.UNIT                       Value     Description
#=========                       =====     ===========
#ZONATION                          FDC:   ZONATION NAME
#ZONE                            RUN_2:   ZONE NAME
TOP .                       9494.0000:   TOP DEPTH
BOT .                      10469.5000:   BOTTOM DEPTH
RUN .                               2:   RUN NUMBER
LCCD.                             340:   LOGGING CONTRACTOR
SRVC.                   PAN GEO ATLAS:   LOGGING CONT NAME
DICO.          QC Data Collectors Ltd:   DIG COMPANY NAME
LDAT.                      07/01/1996:   DATE LOGGED
TDD .F                     10500.0000:   TOTAL DEPTH DRILLER
TDL .F                     10504.0000:   TOTAL DEPTH LOGGER
BOTL.F                     10500.0000:   BOTTOM DEPTH LOGGED
TOPL.F                      9350.0000:   TOP DEPTH LOGGED
CS1 .IN                        9.6250:   CASING SIZE 1
BS1 .IN                        8.5000:   BIT SIZE 1
DDB1.F                     10500.0000:   DEPTH DRILLED BIT 1
BHF .                              60:   FLUID CODE
DPT .                        Oil Base:   DRILLING FLUID TYPE
MUDD.                         16.5000:   FLUID DENSITY
MUDV.                         57.0000:   FLUID VISCOSITY
FL  .                          5.4000:   FLUID LOSS
TMAX.DEGF                    238.0000:   MAX REC TEMP
TIMC.                          6.0000:   TIME SINCE CIRCLN
~Curve Information Block
#MNEM.UNIT                    API CODE    No Description
#=========                    ========    == ===========
DEPT.F                   00 001 00 00:     1  DEPTH
CNCF.%                               :     2  Neutron Porosity
CAL.IN                               :     3  Caliper
CILD.MMHO                            :     4  Deep Induction Conductivity
GR.GAPI                              :     5  Gamma Ray
RILD.OHMM                            :     6  Deep Resistivity
RILM.OHMM                            :     7  Medium Resistivity
RWA.OHMM                             :     8  Apparent Water Resistivity
TEN.LB                               :     9  Cable Tension
PORZ.%                               :    10  Porosity
ZCOR.G/C3                            :    11  Density Correction
ZDEN.G/C3                            :    12  Bulk Density
~ASCII
# ...
 9658.5000    34.9518    10.0325  1770.3750    77.9679      .6624      .6257      .0223   -74.0469    16.8600     -.0036     2.3840
 9659.0000    35.6936    10.0250  1806.9121    80.8275      .6233      .5986      .0186   -59.0820    16.3595     -.0060     2.3910
 9659.5000    35.4169     9.9875  1808.9004    82.7549      .5929      .5917      .0177   -40.0000    15.9400     -.0031     2.3990
 9660.0000    35.1765     9.9866  1782.8770    82.4723      .5806      .5957      .0166   -34.1396    15.4597      .0076     2.4010
 9660.5000    35.2480     9.9800  1756.2246    81.2067      .5728      .6052      .0157   -31.1045    15.1790      .0187     2.3990
 9661.0000    35.6142     9.9860  1753.6289    78.8578      .5673      .6129      .0165   -36.3657    15.1364      .0188     2.3990
 9661.5000    35.4525    10.0040  1770.1270    75.6772      .5707      .6166      .0165   -41.6265    15.2079      .0122     2.4010
 9662.0000    34.6825    10.0100  1781.1191    72.6382      .5751      .6145      .0163   -46.8945    15.1485     -.0003     2.4000
 9662.5000    33.7421     9.9800  1766.6719    71.6602      .5740      .6066      .0157   -53.8042    15.0891     -.0105     2.3940
 9663.0000    33.2789     9.9800  1720.7559    72.8820      .5717      .5952      .0169   -68.8823    15.3138     -.0154     2.3850
 9663.5000    33.3387     9.9800  1645.8184    75.8022      .5740      .5883      .0177   -80.0000    15.7725     -.0152     2.3770
 9664.0000    33.9371     9.9800  1554.4375    79.6007      .5800      .5926      .0198   -78.0400    16.2440     -.0111     2.3690
 9664.5000    35.1003     9.9800  1470.6816    82.2981      .5990      .6161      .0231   -75.0000    16.7333     -.0043     2.3620
 9665.0000    35.7327     9.9800  1416.2637    81.5229      .6189      .6421      .0251   -70.0000    17.2692      .0046     2.3550
 9665.5000    35.6731     9.9800  1390.8223    78.5977      .6444      .6718      .0271   -75.0000    17.6982      .0044     2.3470
 9666.0000    34.6718    10.0100  1376.2051    72.8953      .6710      .7001      .0296   -77.9609    18.0587     -.0002     2.3420
 9666.5000    33.2907     9.9800  1358.8223    67.0645      .6933      .7262      .0311   -82.9687    18.4725     -.0020     2.3430
 9667.0000    32.4472     9.9800  1343.5762    62.4156      .7141      .7343      .0320   -87.9805    18.7129      .0002     2.3500
 9667.5000    33.3035     9.9800  1353.5000    64.2791      .7292      .7220      .0313   -90.0000    18.3005      .0024     2.3610
 9668.0000    35.0145     9.9800  1416.0977    69.3849      .7334      .6967      .0299   -90.0000    17.8199     -.0010     2.3730
 9668.5000    36.3354     9.9875  1529.8477    73.5409      .7327      .6720      .0272   -82.0312    17.1601     -.0010     2.3820
 9669.0000    37.3376     9.9950  1651.7344    74.6100      .7119      .6478      .0225   -80.0000    16.5658     -.0017     2.3830
 9669.5000    37.3577    10.0025  1733.0605    75.6256      .6725      .6268      .0207   -80.0000    16.2178     -.0020     2.3800
 9670.0000    36.9973    10.0094  1758.5000    77.4764      .6239      .6087      .0202   -80.0000    16.3399     -.0028     2.3750
 9670.5000    36.6952    10.0100  1742.2266    78.7601      .5891      .5956      .0195   -80.0000    16.5798      .0004     2.3720
 9671.0000    36.9980    10.0100  1709.7246    78.7198      .5771      .5851      .0200   -80.0000    16.7550      .0109     2.3710
 9671.5000    37.4737     9.9860  1686.7539    78.8601      .5745      .5848      .0200   -80.0000    16.8713      .0194     2.3740
 9672.0000    37.9009    10.0100  1684.2637    79.1801      .5803      .5869      .0210   -75.0000    16.8095      .0182     2.3760
 9672.5000    38.0792     9.9740  1692.5547    79.2999      .5854      .5939      .0205   -75.0000    16.6905      .0079     2.3750
 9673.0000    37.9604     9.9800  1697.7520    77.4594      .5867      .6009      .0202   -72.0508    16.5770      .0008     2.3760
 9673.5000    37.5446     9.9800  1694.6230    75.1589      .5880      .6037      .0205   -70.0000    16.6309     -.0002     2.3800
 9674.0000    37.3663    10.0100  1685.7813    74.2804      .5873      .6064      .0197   -70.0000    16.4494      .0042     2.3850
 9674.5000    37.2475    10.0100  1679.5039    75.3203      .5865      .6043      .0192   -70.0000    16.2108      .0121     2.3860
 9675.0000    37.3663    10.0100  1682.9453    75.9601      .5852      .6008      .0190   -70.0000    15.9802      .0149     2.3820
 9675.5000    37.9604    10.0100  1696.0234    75.0195      .5835      .5963      .0195   -70.0000    16.1064      .0115     2.3790
 9676.0000    38.3168    10.0100  1715.2559    74.4800      .5810      .5914      .0195   -70.0000    16.3431      .0002     2.3800
 9676.5000    38.1980    10.0100  1737.6172    75.3804      .5773      .5866      .0195   -70.0000    16.3993     -.0059     2.3820
 9677.0000    37.6039    10.0100  1758.7227    77.0206      .5733      .5818      .0192   -70.0000    16.3334     -.0036     2.3800
 9677.5000    37.4257    10.0100  1777.5195    77.6801      .5689      .5770      .0188   -70.0000    16.2807     -.0006     2.3770
 9678.0000    37.5446    10.0100  1799.6660    76.2386      .5629      .5726      .0193   -70.0000    16.4615     -.0004     2.3730
 9678.5000    37.4851    10.0100  1829.7188    73.2589      .5550      .5694      .0193   -70.0000    16.6436     -.0061     2.3680
 9679.0000    37.0099    10.0100  1868.4590    71.9597      .5459      .5642      .0200   -70.0000    16.9448     -.0143     2.3610
 9679.5000    37.1881     9.9800  1910.8750    72.9808      .5369      .5572      .0205   -70.0000    17.3835     -.0125     2.3560
 9680.0000    38.1386     9.9800  1945.0586    75.8011      .5307      .5502      .0208   -70.0000    17.7148     -.0020     2.3550
 9680.5000    39.2673     9.9800  1962.5645    79.2612      .5252      .5416      .0210   -70.0000    17.8693      .0036     2.3540
 9681.0000    40.2772     9.9800  1966.2754    80.7366      .5197      .5336      .0210   -70.0000    17.9406      .0064     2.3540
 9681.5000    40.8118    10.0100  1962.6855    77.7183      .5155      .5270      .0210   -70.0000    17.9406      .0067     2.3580
 9682.0000    40.0396     9.9800  1952.0293    74.1390      .5129      .5227      .0202   -70.0000    17.8569     -.0023     2.3630
 9682.5000    39.0891    10.0100  1936.9824    74.3207      .5113      .5197      .0195   -70.0000    17.6057     -.0144     2.3670
 9683.0000    38.6138    10.0100  1926.4043    76.4808      .5103      .5180      .0192   -70.0000    17.2606     -.0224     2.3700
 9683.5000    38.6732    10.0100  1924.4434    76.9796      .5097      .5173      .0190   -70.0000    17.0814     -.0264     2.3690
 9684.0000    38.6732    10.0100  1916.6953    75.5593      .5119      .5168      .0190   -73.9453    17.0040     -.0174     2.3630
 9684.5000    38.6732    10.0100  1884.5664    74.4597      .5168      .5219      .0190   -75.0000    17.1766     -.0090     2.3560
 9685.0000    39.0891    10.0100  1831.2852    75.0203      .5242      .5271      .0201   -75.0000    17.6221     -.0136     2.3490
 9685.5000    39.0891    10.0100  1778.9277    76.8402      .5347      .5344      .0225   -75.0000    17.9767     -.0236     2.3450
 9686.0000    38.9703    10.0100  1740.7148    77.3402      .5456      .5422      .0231   -80.0000    18.3325     -.0204     2.3440
 9686.5000    38.9109    10.0100  1715.3262    77.0996      .5580      .5498      .0243   -83.9648    18.4871     -.0154     2.3510
 9687.0000    38.8514    10.0100  1699.6094    74.8585      .5707      .5575      .0247   -85.0000    18.4040     -.0130     2.3610
 9687.5000    38.5544    10.0100  1688.5449    71.0789      .5820      .5641      .0232   -85.0000    17.8325     -.0122     2.3590
 9688.0000    37.9604    10.0100  1676.3809    70.2411      .5929      .5701      .0233   -85.0000    17.5969     -.0102     2.3520
 9688.5000    37.7822    10.0100  1668.4414    73.0621      .6004      .5758      .0240   -90.0000    17.7649     -.0097     2.3530
