#------------------------------------------------------------------------------
# Created by    : vladimir.rabinovich
# Created on    : 09/19/2023 17:20:43
#------------------------------------------------------------------------------
~Version Information Section
VERS.           2.0     :   CWLS log ASCII Standard - VERSION 2.0
WRAP.           NO      :   One line per depth step
~Well Information Section
#MNEM       .UNIT                                         VALUE :DESCRIPTION
#------------------------------------------------------------------------------
STRT        .FT                                             142 :START DEPTH
STOP        .FT                                           12994 :STOP DEPTH
STEP        .FT                                             0.5 :STEP      
NULL        .                                           -999.25 :NULL      
COMP        .                                        TEXACO OIL :COMPANY   
WELL        .                           MIAMI CORP - CAMERON FS :WELL      
FLD         .                                           WILDCAT :FIELD     
LOC         .                                                   :LOCATION  
CNTY        .                                           CAMERON :LOCATION  
STAT        .                                         LOUISIANA :STATE     
CTRY        .                                     UNITED STATES :COUNTRY   
SRVC        .                                                   :SERVICE COMPANY
DATE        .                             9/13/2023 11:18:18 AM :LOG DATE  
API         .                                    17023023700000 :API NUMBER
UWI         .                                    17023023700000 :UNIQUE WELL ID
XCOORD      .                                  1451308.99719268 :SURFACE X 
YCOORD      .                                  10869234.1720379 :SURFACE Y 
LAT         .                                           29.9476 :LATITUDE  
LON         .                                          -93.5973 :LONGITUDE 
ELEV        .FT                                               2 :ELEVATION VALUE
ELEV_TYPE   .                                                GL :ELEVATION REFERENCE TYPE
~Curve Information Section
#MNEM       .UNIT                                      API CODE :CURVE DESCRIPTION
#------------------------------------------------------------------------------
DEPT        .FT                                                 :DEPTH     
ASN         .OHMM                                               :          
ILD         .OHMM                                               :          
SP          .MV                                                 :          
SP_NORM     .MV                                                 :SP Normalized
VSH_SP      .V/V                                                :Volume of Shale from SP
~A        DEPTH            ASN            ILD             SP        SP_NORM         VSH_SP
# ...
     11230.0000         1.0836         0.8111       -49.7399      -1.068424      0.9991854
     11230.5000         1.0858         0.8058       -49.7476      -1.087601      0.9989572
     11231.0000         1.0878         0.8005       -49.7554      -1.106876      0.9987277
     11231.5000         1.0898         0.7942       -49.7631      -1.126049      0.9984994
     11232.0000         1.0823         0.7863       -49.7708      -1.145226      0.9982711
     11232.5000         1.0705         0.7784       -49.7785      -1.164398      0.9980429
     11233.0000         1.0588         0.7706       -49.7863       -1.18367      0.9978135
     11233.5000          1.047         0.7627       -49.7939      -1.202744      0.9975864
     11234.0000         1.0345         0.7627       -49.8017      -1.222019      0.9973569
     11234.5000         1.0195         0.7696       -49.8094      -1.241192      0.9971287
     11235.0000         1.0045         0.7764       -49.7938      -1.237068      0.9971778
     11235.5000         0.9896         0.7832       -49.7738      -1.228542      0.9972793
     11236.0000         1.0222         0.7901       -49.7538      -1.220016      0.9973807
     11236.5000         1.0979         0.7984       -49.7338      -1.211491      0.9974822
     11237.0000         1.1164          0.825       -49.7138      -1.202961      0.9975838
     11237.5000         1.1349         0.8517       -49.6938      -1.194439      0.9976853
     11238.0000         1.1534         0.8782       -49.6738      -1.185913      0.9977868
     11238.5000         1.1682         0.9043       -49.6538      -1.177387      0.9978883
     11239.0000         1.1684         0.9297       -49.6337      -1.168762      0.9979909
     11239.5000         1.1687         0.9454       -49.6105      -1.157036      0.9981305
     11240.0000         1.1689         0.9296       -49.5873      -1.145309      0.9982702
     11240.5000         1.1692         0.9138       -49.5642      -1.133686      0.9984085
     11241.0000          1.162         0.8979        -49.541      -1.121956      0.9985482
     11241.5000         1.1491         0.8955       -49.5179      -1.110329      0.9986866
     11242.0000         1.1362         0.8967       -49.4948      -1.098705       0.998825
     11242.5000         1.1233         0.8978       -49.4716      -1.086979      0.9989645
     11243.0000          1.125          0.899       -49.4484      -1.075253      0.9991041
     11243.5000         1.1399          0.903       -49.4252       -1.06353      0.9992437
     11244.0000         1.1548         0.9127       -49.4021      -1.051903      0.9993821
     11244.5000         1.1698         0.9223        -49.379      -1.040279      0.9995205
     11245.0000         1.1859          0.932       -49.3558      -1.028549      0.9996601
     11245.5000          1.202         0.9391       -49.3326      -1.016823      0.9997997
     11246.0000         1.2062         0.9199       -49.3095      -1.005199      0.9999381
     11246.5000         1.1898         0.9006       -49.2864     -0.9935722              1
     11247.0000         1.1733         0.8785       -49.2638     -0.9824486              1
     11247.5000         1.1568         0.8549       -49.2429     -0.9730225              1
     11248.0000         1.1403         0.8312        -49.222     -0.9635963              1
     11248.5000         1.1238         0.8076        -49.201     -0.9540672              1
     11249.0000         1.1076         0.7855       -49.1801     -0.9446411              1
     11249.5000         1.0916         0.7709       -49.1592      -0.935215              1
     11250.0000         1.0756         0.7562       -49.1383     -0.9257927              1
     11250.5000         1.0596         0.7416       -49.1174     -0.9163666              1
     11251.0000         1.0435          0.727       -49.0964     -0.9068413              1
     11251.5000         1.0275         0.7064       -49.0756     -0.8975143              1
     11252.0000         1.0102         0.6852       -49.0546      -0.887989              1
     11252.5000         0.9928         0.6869       -49.0338     -0.8786583              1
     11253.0000         0.9754         0.6919       -49.0128      -0.869133              1
     11253.5000          0.958         0.6969       -48.9919     -0.8597107              1
     11254.0000         0.9688         0.7018       -48.9742     -0.8534851              1
     11254.5000         0.9866         0.7184       -49.0133     -0.9040604              1
     11255.0000         1.0043         0.7419       -49.0524     -0.9546318              1
     11255.5000         1.0221         0.7654       -49.0916      -1.005306      0.9999368
     11256.0000         1.0399         0.7911       -49.1307      -1.055882      0.9993348
     11256.5000         1.0538         0.8249       -49.1698      -1.106453      0.9987327
     11257.0000         1.0659         0.8555       -49.2089      -1.157028      0.9981306
     11257.5000         1.0779         0.8722       -49.2481      -1.207703      0.9975274
     11258.0000           1.09         0.8628       -49.2872      -1.258278      0.9969252
     11258.5000         1.1018         0.8528       -49.3264      -1.308952       0.996322
     11259.0000         1.0984         0.8428       -49.3655      -1.359528      0.9957199
     11259.5000          1.095         0.8329       -49.4046      -1.410099      0.9951178
     11260.0000         1.0916         0.8106       -49.4437       -1.46067      0.9945158
     11260.5000         1.0733         0.7836        -49.478      -1.506447      0.9939709
     11261.0000         1.0529         0.7565       -49.4743      -1.514221      0.9938783
     11261.5000         1.0324         0.7295       -49.4705      -1.521896      0.9937869
     11262.0000         1.0119          0.705       -49.4668      -1.529671      0.9936944
     11262.5000         0.9914         0.6819        -49.463      -1.537346      0.9936031
     11263.0000         0.9773         0.6587       -49.4593       -1.54512      0.9935105
     11263.5000         0.9632          0.659       -49.4556      -1.552895      0.9934179
     11264.0000          0.957         0.6749       -49.4518      -1.560566      0.9933266
     11264.5000         0.9728         0.6907       -49.4481       -1.56834       0.993234
     11265.0000         0.9885         0.7066       -49.4443      -1.576015      0.9931427
     11265.5000         1.0042         0.7225       -49.4406       -1.58379      0.9930501
     11266.0000         1.0199         0.7168       -49.4368      -1.591461      0.9929588
     11266.5000         1.0284          0.704       -49.4331      -1.599239      0.9928662
     11267.0000         1.0124          0.686       -49.4293      -1.606911      0.9927748
     11267.5000         0.9964         0.6677       -49.4256      -1.614685      0.9926823
     11268.0000         0.9823         0.6492       -49.4172      -1.617756      0.9926457
     11268.5000         0.9771         0.6308       -49.4084      -1.620434      0.9926139
     11269.0000         0.9719         0.6177       -49.3996      -1.623108       0.992582
     11269.5000         0.9668         0.6202       -49.3908      -1.625782      0.9925502
     11270.0000         0.9616         0.6227       -49.3821      -1.628555      0.9925172
     11270.5000         0.9656         0.6252       -49.3733      -1.631229      0.9924853
     11271.0000         0.9883         0.6478       -49.3645      -1.633904      0.9924535
     11271.5000          1.011          0.683       -49.3557      -1.636581      0.9924216
     11272.0000         1.0336         0.7183       -49.3469      -1.639252      0.9923899
     11272.5000         1.0562         0.7506       -49.3382      -1.642025      0.9923568
     11273.0000          1.079         0.7696       -49.3294      -1.644699       0.992325
     11273.5000          1.102         0.7676       -49.3206      -1.647373      0.9922932
