#------------------------------------------------------------------------------
# Created by    : vladimir.rabinovich
# Created on    : 09/19/2023 17:20:43
#------------------------------------------------------------------------------
~Version Information Section
VERS.           2.0     :   CWLS log ASCII Standard - VERSION 2.0
WRAP.           NO      :   One line per depth step
~Well Information Section
#MNEM       .UNIT                                         VALUE :DESCRIPTION
#------------------------------------------------------------------------------
STRT        .FT                                             142 :START DEPTH
STOP        .FT                                           12994 :STOP DEPTH
STEP        .FT                                             0.5 :STEP      
NULL        .                                           -999.25 :NULL      
COMP        .                                        TEXACO OIL :COMPANY   
WELL        .                           MIAMI CORP - CAMERON FS :WELL      
FLD         .                                           WILDCAT :FIELD     
LOC         .                                                   :LOCATION  
CNTY        .                                           CAMERON :LOCATION  
STAT        .                                         LOUISIANA :STATE     
CTRY        .                                     UNITED STATES :COUNTRY   
SRVC        .                                                   :SERVICE COMPANY
DATE        .                             9/13/2023 11:18:18 AM :LOG DATE  
API         .                                    17023023700000 :API NUMBER
UWI         .                                    17023023700000 :UNIQUE WELL ID
XCOORD      .                                  1451308.99719268 :SURFACE X 
YCOORD      .                                  10869234.1720379 :SURFACE Y 
LAT         .                                           29.9476 :LATITUDE  
LON         .                                          -93.5973 :LONGITUDE 
ELEV        .FT                                               2 :ELEVATION VALUE
ELEV_TYPE   .                                                GL :ELEVATION REFERENCE TYPE
~Curve Information Section
#MNEM       .UNIT                                      API CODE :CURVE DESCRIPTION
#------------------------------------------------------------------------------
DEPT        .FT                                                 :DEPTH     
ASN         .OHMM                                               :          
ILD         .OHMM                                               :          
SP          .MV                                                 :          
SP_NORM     .MV                                                 :SP Normalized
VSH_SP      .V/V                                                :Volume of Shale from SP
~A        DEPTH            ASN            ILD             SP        SP_NORM         VSH_SP
# ...
      4410.0000         0.5824         0.1772      -143.9849      -97.27831              0
      4410.5000         0.5661         0.1874      -144.1904      -97.48381              0
      4411.0000         0.5507         0.1963      -143.2917      -96.58511              0
      4411.5000         0.5362         0.2052      -142.2002      -95.49361              0
      4412.0000         0.5138         0.2141      -140.7466      -94.04001     0.01021267
      4412.5000         0.4896          0.223      -138.1147      -91.40811     0.03821158
      4413.0000         0.4773         0.2137      -131.0791      -84.37251      0.1130584
      4413.5000         0.4649         0.2029      -126.1975      -79.49091      0.1649903
      4414.0000          0.456         0.1927      -120.8987      -74.19211      0.2213605
      4414.5000         0.4491         0.1866      -119.0298      -72.32321      0.2412424
      4415.0000         0.4446         0.1804      -117.5555      -70.84891      0.2569265
      4415.5000         0.4566          0.179      -116.1504      -69.44381      0.2718744
      4416.0000         0.4685          0.206      -114.2023      -67.49571      0.2925988
      4416.5000         0.4804          0.233      -111.3693      -64.66271      0.3227371
      4417.0000          0.494         0.2601      -107.8527      -61.14611      0.3601478
      4417.5000         0.5121         0.2871       -99.1353      -52.42871       0.452886
      4418.0000         0.5301         0.3874       -91.2523      -44.54571      0.5367478
      4418.5000         0.5829         0.6069       -78.3873      -31.68071      0.6736095
      4419.0000         0.6887         0.7198       -54.4622      -7.755611      0.9281318
      4419.5000         0.7558         0.7924       -51.0611      -4.354511      0.9643137
      4420.0000         0.7927         0.8117       -46.6421     0.06448746              1
      4420.5000         0.8236         0.8309       -48.0698      -1.363213       0.996136
      4421.0000         0.8396         0.8501       -49.4988       -2.79221       0.980934
      4421.5000         0.8556         0.8523       -50.6303       -3.92371      0.9688967
      4422.0000         0.8697         0.8498       -51.1805      -4.473911      0.9630435
      4422.5000         0.8728         0.8472       -51.7307      -5.024113      0.9571903
      4423.0000         0.8759         0.8447       -52.2809       -5.57431      0.9513371
      4423.5000          0.879         0.8402       -52.8311      -6.124512      0.9454839
      4424.0000         0.8821         0.8086        -53.867      -7.160412      0.9344637
      4424.5000         0.8852         0.7771       -54.9209       -8.21431       0.923252
      4425.0000         0.8883         0.7455       -56.0005      -9.293911      0.9117669
      4425.5000         0.8914          0.714       -58.5167      -11.81011      0.8849988
      4426.0000         0.8811         0.6734       -64.5269      -17.82031      0.8210605
      4426.5000         0.8695         0.6204       -71.9976      -25.29101       0.741585
      4427.0000          0.858         0.5675       -84.2493      -37.54271      0.6112478
      4427.5000         0.8411         0.5145         -92.66      -45.95341      0.5217722
      4428.0000         0.8191          0.464       -100.015      -53.30841      0.4435275
      4428.5000         0.7637         0.4163      -110.7233      -64.01671      0.3296095
      4429.0000         0.7391         0.3686      -113.5229      -66.81631      0.2998264
      4429.5000         0.7134         0.3245      -114.5981      -67.89151      0.2883882
      4430.0000         0.6824         0.2978       -115.674      -68.96741      0.2769424
      4430.5000         0.6377         0.2711      -116.9233      -70.21671       0.263652
      4431.0000         0.5403         0.2445      -118.3862      -71.67961      0.2480892
      4431.5000         0.5242         0.2181      -119.8492      -73.14261      0.2325254
      4432.0000         0.5085         0.2052      -122.3516      -75.64501      0.2059041
      4432.5000          0.495         0.1923      -124.8634      -78.15681      0.1791828
      4433.0000         0.4815         0.1803      -125.8751      -79.16851      0.1684201
      4433.5000         0.4682         0.1818      -126.8383      -80.13171      0.1581733
      4434.0000         0.4557         0.1832       -126.751      -80.04441       0.159102
      4434.5000         0.4432         0.1847      -126.6636      -79.95701      0.1600318
      4435.0000         0.4307         0.1861      -125.2209      -78.51431      0.1753796
      4435.5000         0.4217         0.1875      -123.2251      -76.51851      0.1966116
      4436.0000         0.4159          0.189      -118.2393      -71.53271       0.249652
      4436.5000           0.41         0.1904      -112.2592      -65.55261      0.3132701
      4437.0000         0.4287         0.1919      -110.0396      -63.33301      0.3368829
      4437.5000         0.4527         0.1936      -107.6868      -60.98021      0.3619127
      4438.0000         0.4767         0.1955      -105.0424      -58.33581      0.3900446
      4438.5000         0.4993         0.1974      -104.7131      -58.00651      0.3935478
      4439.0000         0.5151         0.1993      -109.2754      -62.56881      0.3450127
      4439.5000         0.5309         0.2012      -114.8898      -68.18321       0.285285
      4440.0000         0.5466         0.2031      -114.7351      -68.02851      0.2869307
      4440.5000         0.5848         0.2777      -102.2925      -55.58591      0.4192988
      4441.0000         0.6375         0.3702       -87.2255      -40.51891       0.579586
      4441.5000         0.6883         0.5047       -80.6044      -33.89781      0.6500233
      4442.0000         0.7457         0.6331       -55.5405      -8.833912      0.9166605
      4442.5000         0.8824         0.7275       -52.5115      -5.804913      0.9488839
      4443.0000          0.993         0.7736       -52.6381      -5.931511      0.9475371
      4443.5000         1.0948          0.805        -53.057       -6.35041      0.9430807
      4444.0000         1.0913         0.8363       -53.4755      -6.768909      0.9386286
      4444.5000         1.0758         0.8455        -53.894      -7.187412      0.9341764
      4445.0000         1.0602         0.8533       -54.1461       -7.43951      0.9314946
      4445.5000         1.0447         0.8611       -53.1204      -6.413811      0.9424063
      4446.0000         1.0355         0.8643       -52.0942      -5.387611      0.9533233
      4446.5000          1.028         0.8558       -51.0681      -4.361511      0.9642392
      4447.0000         1.0205         0.8472        -50.307       -3.60041      0.9723361
      4447.5000          1.013         0.8387       -49.5856      -2.879013      0.9800105
      4448.0000         1.0078         0.8302       -48.8635       -2.15691      0.9876925
      4448.5000         1.0027         0.8186       -48.1421      -1.435513      0.9953669
      4449.0000         0.9977         0.8051       -47.4106       -0.70401              1
      4449.5000         0.9926         0.7916       -46.5333      0.1732903              1
      4450.0000         0.9868         0.7782       -45.6567       1.049889              1
      4450.5000         0.9561         0.7647       -45.1238        1.58279              1
      4451.0000         0.9071         0.7512       -47.9995      -1.292912      0.9968839
      4451.5000         0.8984         0.7358       -50.5936      -3.887012      0.9692871
      4452.0000         0.8898         0.7166         -53.16      -6.453411       0.941985
      4452.5000         0.8811         0.6973       -52.8973      -6.190712      0.9447796
      4453.0000         0.8721         0.6781       -51.2899      -4.583313      0.9618797
      4453.5000         0.8608         0.6589       -49.6824      -2.975811      0.9789807
