#------------------------------------------------------------------------------
# Created by    : vladimir.rabinovich
# Created on    : 09/19/2023 17:20:43
#------------------------------------------------------------------------------
~Version Information Section
VERS.           2.0     :   CWLS log ASCII Standard - VERSION 2.0
WRAP.           NO      :   One line per depth step
~Well Information Section
#MNEM       .UNIT                                         VALUE :DESCRIPTION
#------------------------------------------------------------------------------
STRT        .FT                                             142 :START DEPTH
STOP        .FT                                           12994 :STOP DEPTH
STEP        .FT                                             0.5 :STEP      
NULL        .                                           -999.25 :NULL      
COMP        .                                        TEXACO OIL :COMPANY   
WELL        .                           MIAMI CORP - CAMERON FS :WELL      
FLD         .                                           WILDCAT :FIELD     
LOC         .                                                   :LOCATION  
CNTY        .                                           CAMERON :LOCATION  
STAT        .                                         LOUISIANA :STATE     
CTRY        .                                     UNITED STATES :COUNTRY   
SRVC        .                                                   :SERVICE COMPANY
DATE        .                             9/13/2023 11:18:18 AM :LOG DATE  
API         .                                    17023023700000 :API NUMBER
UWI         .                                    17023023700000 :UNIQUE WELL ID
XCOORD      .                                  1451308.99719268 :SURFACE X 
YCOORD      .                                  10869234.1720379 :SURFACE Y 
LAT         .                                           29.9476 :LATITUDE  
LON         .                                          -93.5973 :LONGITUDE 
ELEV        .FT                                               2 :ELEVATION VALUE
ELEV_TYPE   .                                                GL :ELEVATION REFERENCE TYPE
~Curve Information Section
#MNEM       .UNIT                                      API CODE :CURVE DESCRIPTION
#------------------------------------------------------------------------------
DEPT        .FT                                                 :DEPTH     
ASN         .OHMM                                               :          
ILD         .OHMM                                               :          
SP          .MV                                                 :          
SP_NORM     .MV                                                 :SP Normalized
VSH_SP      .V/V                                                :Volume of Shale from SP
~A        DEPTH            ASN            ILD             SP        SP_NORM         VSH_SP
# ...
      5246.0000         0.7843         0.5436       -58.0793      -4.292427      0.9649742
      5246.5000         0.7672         0.5457        -56.825      -3.042515      0.9782711
      5247.0000         0.7506         0.5478       -56.2266      -2.448502      0.9845904
      5247.5000         0.7468         0.5499       -56.0505      -2.276787      0.9864172
      5248.0000          0.743          0.552       -55.8743      -2.104973       0.988245
      5248.5000         0.7392         0.5541       -55.6982      -1.933262      0.9900717
      5249.0000         0.7354         0.5562       -55.5221      -1.761547      0.9918984
      5249.5000         0.7317         0.5584       -55.2803      -1.524136      0.9944241
      5250.0000         0.7279         0.5605       -54.6387     -0.8869247              1
      5250.5000         0.7241         0.5626       -53.9971     -0.2497139              1
      5251.0000         0.7203          0.562       -54.1146     -0.3716011              1
      5251.5000         0.7204         0.5599       -54.8134      -1.074787      0.9992044
      5252.0000         0.7239         0.5578       -55.5116      -1.777374        0.99173
      5252.5000         0.7275         0.5557       -56.2104       -2.48056      0.9842494
      5253.0000          0.731         0.5536       -56.9092      -3.183746      0.9767687
      5253.5000         0.7346         0.5515       -58.3847      -4.663635      0.9610252
      5254.0000           0.73         0.5493       -60.3404      -6.623726      0.9401731
      5254.5000         0.7205         0.5472       -62.2973      -8.585011      0.9193084
      5255.0000          0.711         0.5451       -64.3534       -10.6455      0.8973883
      5255.5000         0.7016          0.543       -66.4524      -12.74889      0.8750119
      5256.0000         0.6921         0.5409       -68.4784      -14.77927       0.853412
      5256.5000         0.6829         0.5388       -63.9362      -10.24146      0.9016866
      5257.0000         0.6739         0.5337       -60.2813      -6.590946      0.9405218
      5257.5000         0.6649         0.5253       -58.3168      -4.630833      0.9613741
      5258.0000          0.656         0.5169       -56.9658      -3.284225      0.9756997
      5258.5000          0.647         0.5086       -55.6146      -1.937412      0.9900275
      5259.0000         0.6871         0.5002       -58.8058      -5.132999      0.9560319
      5259.5000         0.7736         0.4919       -62.7874      -9.118984      0.9136278
      5260.0000         0.8896         0.4835       -66.7942      -13.13017      0.8709556
      5260.5000         1.0604         0.4741       -89.6637      -36.00406      0.6276165
      5261.0000         1.0983         0.4577       -117.093      -63.43775      0.3357686
      5261.5000         1.1361         0.4413      -125.0211      -71.37024      0.2513804
      5262.0000         1.1246         0.4248       -127.839      -74.19252      0.2213562
      5262.5000         1.0707         0.4084      -135.6941      -82.05202      0.1377445
      5263.0000         1.0111          0.392      -149.0015      -95.36379              0
      5263.5000         0.9799         0.3881      -152.3096      -98.67628              0
      5264.0000          0.997         0.3873      -151.7515      -98.12257              0
      5264.5000          1.014         0.3843      -146.9731      -93.34856     0.01756855
      5265.0000         1.0307          0.381      -143.0466      -89.42645     0.05929314
      5265.5000           1.01         0.3777      -140.3948      -86.77904     0.08745705
      5266.0000         0.9894         0.3743      -138.6917      -85.08032      0.1055285
      5266.5000         0.9787          0.371      -139.8279       -86.2209     0.09339467
      5267.0000         0.9956         0.3676      -142.6345      -89.03191     0.06349036
      5267.5000         1.0126         0.3496      -145.9727      -92.37448     0.02793105
      5268.0000         1.0276         0.3212       -149.175      -95.58118              0
      5268.5000         1.0415         0.2928      -151.9678      -98.37836              0
      5269.0000         1.0554         0.2804      -154.1497      -100.5647              0
      5269.5000         1.0692         0.2895      -155.0024      -101.4217              0
      5270.0000         1.0831          0.289      -153.2673      -99.69102              0
      5270.5000         1.0444         0.2865      -151.1458      -97.57391              0
      5271.0000         0.9825          0.284      -149.0266      -95.45909              0
      5271.5000         0.9342         0.2815      -146.9077      -93.34458     0.01761083
      5272.0000         0.8858          0.279      -144.1702      -90.61147     0.04668654
      5272.5000         0.8161         0.2765      -136.8606      -83.30625      0.1244016
      5273.0000         0.9224          0.274      -131.8333      -78.28334      0.1778368
      5273.5000         0.9768         0.2704      -132.5835      -79.03793      0.1698092
      5274.0000         1.0237         0.2664      -133.5916      -80.05042      0.1590381
      5274.5000         1.0707         0.2624      -134.6184       -81.0816       0.148068
      5275.0000         1.0892         0.2584      -135.7959      -82.26349      0.1354948
      5275.5000         1.0999         0.2545      -136.9736      -83.44559      0.1229193
      5276.0000         1.1107         0.2505      -138.1499      -84.62627      0.1103589
      5276.5000         1.1214         0.2574      -139.3276      -85.80836     0.09778335
      5277.0000         1.1361         0.2739      -140.5054      -86.99054     0.08520702
      5277.5000         1.1797         0.2904      -141.3381      -87.82764     0.07630174
      5278.0000         1.0853          0.307      -141.5618      -88.05572     0.07387535
      5278.5000         0.9832         0.3235      -141.7854      -88.28371     0.07144993
      5279.0000         0.8352           0.34       -140.675       -87.1777       0.083216
      5279.5000         0.7456         0.3394      -138.8601      -85.36719      0.1024767
      5280.0000         0.7663          0.335      -137.0439      -83.55537      0.1217514
      5280.5000         0.8016         0.3306      -137.3401      -83.85596      0.1185536
      5281.0000          0.837         0.3151       -137.915      -84.43523      0.1123911
      5281.5000         0.8134         0.2888        -138.49      -85.01463      0.1062273
      5282.0000         0.7975         0.2625      -139.0645      -85.59352      0.1000689
      5282.5000         0.7815         0.2362      -139.4666            -86     0.09574468
      5283.0000         0.7655         0.2651      -139.6323      -86.17009     0.09393521
      5283.5000         0.7495         0.3098      -138.9167      -85.45888      0.1015013
      5284.0000         0.7336          0.354      -135.9531      -82.49966      0.1329823
      5284.5000         0.7176         0.3957      -132.9868      -79.53775       0.164492
      5285.0000         0.7103         0.4373      -128.0928      -74.64815      0.2165091
      5285.5000         0.7161         0.4789      -121.7886      -68.34833      0.2835284
      5286.0000         0.7394         0.5199      -111.6232      -58.18732      0.3916243
      5286.5000         0.7627         0.5607      -103.0968      -49.66531       0.482284
      5287.0000         0.9573         0.6015       -88.7185      -35.29139       0.635198
      5287.5000         1.0005         0.6423       -86.6548      -33.23208      0.6571056
      5288.0000         1.0329         0.6249       -87.3285      -33.91016      0.6498919
      5288.5000         1.0487         0.5718       -90.0483      -36.63435      0.6209111
      5289.0000         1.0645         0.5188       -92.7681      -39.35854      0.5919304
      5289.5000         1.0803         0.4658      -112.9153      -59.51013      0.3775518
