#------------------------------------------------------------------------------
# Created by    : vladimir.rabinovich
# Created on    : 09/19/2023 17:20:43
#------------------------------------------------------------------------------
~Version Information Section
VERS.           2.0     :   CWLS log ASCII Standard - VERSION 2.0
WRAP.           NO      :   One line per depth step
~Well Information Section
#MNEM       .UNIT                                         VALUE :DESCRIPTION
#------------------------------------------------------------------------------
STRT        .FT                                             142 :START DEPTH
STOP        .FT                                           12994 :STOP DEPTH
STEP        .FT                                             0.5 :STEP      
NULL        .                                           -999.25 :NULL      
COMP        .                                        TEXACO OIL :COMPANY   
WELL        .                           MIAMI CORP - CAMERON FS :WELL      
FLD         .                                           WILDCAT :FIELD     
LOC         .                                                   :LOCATION  
CNTY        .                                           CAMERON :LOCATION  
STAT        .                                         LOUISIANA :STATE     
CTRY        .                                     UNITED STATES :COUNTRY   
SRVC        .                                                   :SERVICE COMPANY
DATE        .                             9/13/2023 11:18:18 AM :LOG DATE  
API         .                                    17023023700000 :API NUMBER
UWI         .                                    17023023700000 :UNIQUE WELL ID
XCOORD      .                                  1451308.99719268 :SURFACE X 
YCOORD      .                                  10869234.1720379 :SURFACE Y 
LAT         .                                           29.9476 :LATITUDE  
LON         .                                          -93.5973 :LONGITUDE 
ELEV        .FT                                               2 :ELEVATION VALUE
ELEV_TYPE   .                                                GL :ELEVATION REFERENCE TYPE
~Curve Information Section
#MNEM       .UNIT                                      API CODE :CURVE DESCRIPTION
#------------------------------------------------------------------------------
DEPT        .FT                                                 :DEPTH     
ASN         .OHMM                                               :          
ILD         .OHMM                                               :          
SP          .MV                                                 :          
SP_NORM     .MV                                                 :SP Normalized
VSH_SP      .V/V                                                :Volume of Shale from SP
~A        DEPTH            ASN            ILD             SP        SP_NORM         VSH_SP
# ...
      1858.0000         0.5876         0.3715       -56.9731      -5.476093      0.8852284
      1858.5000         0.5801         0.3636       -56.4952      -4.998196      0.8974822
      1859.0000         0.5951         0.3558        -57.254      -5.756996      0.8780257
      1859.5000          0.612          0.348       -58.5066      -7.009594      0.8459079
      1860.0000         0.6325         0.3442       -63.1305       -11.6335      0.7273463
      1860.5000         0.6548         0.3405       -68.8905       -17.3935      0.5796539
      1861.0000         0.6772         0.3367       -73.8075       -22.3105       0.453577
      1861.5000         0.6917          0.333       -77.7162       -26.2192      0.3533539
      1862.0000         0.7017         0.3327       -80.6644      -29.16739      0.2777592
      1862.5000         0.7116         0.3652       -83.2695       -31.7725      0.2109617
      1863.0000         0.7215         0.3977       -85.6194      -34.12239      0.1507078
      1863.5000         0.7097         0.4302       -87.7614      -36.26439      0.0957848
      1864.0000         0.6853         0.4627       -88.8298       -37.3328      0.0683898
      1864.5000         0.6608         0.4952       -86.4597       -34.9627      0.1291616
      1865.0000         0.6364         0.5276       -79.9833      -28.48629      0.2952232
      1865.5000          0.612         0.5442       -73.6217      -22.12469      0.4583413
      1866.0000         0.5972         0.5428       -69.4313      -17.93429      0.5657874
      1866.5000         0.5863         0.5414       -65.7451       -14.2481      0.6603052
      1867.0000         0.5753           0.54       -61.4763      -9.979294      0.7697617
      1867.5000         0.5763         0.5386       -56.1953      -4.698296      0.9051719
      1868.0000          0.594         0.5372       -54.9179      -3.420895      0.9379258
      1868.5000         0.6118         0.5358       -54.6116      -3.114594      0.9457797
      1869.0000         0.6295         0.5344       -54.3051      -2.808094      0.9536386
      1869.5000         0.6352          0.533       -53.9987      -2.501694       0.961495
      1870.0000         0.6322         0.5353       -53.6922      -2.195194       0.969354
      1870.5000         0.6292         0.5428       -54.1672      -2.670193      0.9571745
      1871.0000         0.6263         0.5504        -54.685      -3.187996      0.9438975
      1871.5000         0.6302          0.558       -55.2286      -3.731594      0.9299591
      1872.0000          0.637         0.5655       -56.0724      -4.575394      0.9083232
      1872.5000         0.6438         0.5731       -56.9159      -5.418896       0.886695
      1873.0000         0.6561         0.5807       -57.9922      -6.495193      0.8590976
      1873.5000          0.672         0.5861       -59.3422      -7.845196      0.8244821
      1874.0000          0.688         0.5916        -60.708      -9.210995      0.7894617
      1874.5000          0.704         0.5971       -62.0927       -10.5957      0.7539565
      1875.0000         0.7199         0.6026       -63.4774       -11.9804      0.7184514
      1875.5000         0.7339          0.608       -65.3003       -13.8033      0.6717104
      1876.0000         0.7421         0.6135       -67.1542      -15.65719      0.6241745
      1876.5000         0.7503          0.619        -69.106        -17.609      0.5741283
      1877.0000         0.7585         0.6235       -71.0571      -19.56009      0.5241002
      1877.5000         0.7667         0.6112       -72.9337       -21.4367      0.4759822
      1878.0000         0.7749          0.599       -71.8993      -20.40229      0.5025053
      1878.5000         0.7732         0.5867        -68.208      -16.71099       0.597154
      1879.0000         0.7648         0.5744       -64.1023       -12.6053      0.7024283
      1879.5000         0.7563         0.5621        -59.951      -8.453995      0.8088719
      1880.0000         0.7478         0.5499       -56.3128      -4.815796      0.9021591
      1880.5000         0.7377         0.5376       -53.6805      -2.183495       0.969654
      1881.0000         0.7235         0.5253       -52.7005      -1.203495      0.9947821
      1881.5000         0.7094          0.513       -51.8969     -0.3998947              1
      1882.0000         0.6953         0.5008       -51.6263     -0.1292953              1
      1882.5000         0.6811         0.4975       -51.3559      0.1411057              1
      1883.0000          0.667          0.501       -51.0854      0.4116058              1
      1883.5000         0.6474         0.5045        -50.743      0.7540054              1
      1884.0000         0.6274         0.5052       -50.1317       1.365307              1
      1884.5000         0.6072          0.504       -49.5206       1.976406              1
      1885.0000         0.5867         0.5028       -48.9092       2.587807              1
      1885.5000         0.5662         0.5015       -51.6832     -0.1861954              1
      1886.0000         0.5522         0.5003       -53.9939      -2.496895      0.9616181
      1886.5000         0.5435         0.4991       -56.3046      -4.807594      0.9023694
      1887.0000         0.5728         0.4893       -57.2584      -5.761395      0.8779129
      1887.5000         0.6021         0.4783       -58.0134      -6.516396      0.8585539
      1888.0000         0.6209         0.4672       -58.8225      -7.325493      0.8378079
      1888.5000         0.6379         0.4562       -60.6751      -9.178093      0.7903053
      1889.0000          0.655         0.4452       -62.5283       -11.0313      0.7427873
      1889.5000         0.6721         0.4341       -64.5585       -13.0615      0.6907309
      1890.0000         0.6892         0.4247       -66.5994       -15.1024      0.6384001
      1890.5000         0.7063         0.4366       -69.3176      -17.82059      0.5687028
      1891.0000         0.7134         0.4484       -72.3492      -20.85219      0.4909694
      1891.5000          0.713         0.4603       -75.1028      -23.60579      0.4203643
      1892.0000         0.7126         0.4721       -76.9781       -25.4811      0.3722795
      1892.5000         0.7044         0.4811       -74.9285      -23.43149      0.4248335
      1893.0000         0.6912         0.4811       -71.4545      -19.95749      0.5139104
      1893.5000         0.6781         0.4812       -67.9856       -16.4886      0.6028565
      1894.0000         0.6649         0.4813       -67.3451      -15.84809      0.6192796
      1894.5000         0.6517         0.4814       -66.7279      -15.23089      0.6351053
      1895.0000         0.6457         0.4814       -66.2595      -14.76249      0.6471156
      1895.5000         0.6512         0.4815       -65.7913      -14.29429      0.6591207
      1896.0000         0.6568          0.474       -65.3229      -13.82589       0.671131
      1896.5000         0.6497         0.4598       -64.6289      -13.13189      0.6889258
      1897.0000         0.6375         0.4455       -63.2455      -11.74849      0.7243976
      1897.5000         0.6252         0.4313       -61.8618       -10.3648       0.759877
      1898.0000         0.6189         0.4171        -60.478      -8.980995      0.7953591
      1898.5000         0.6202         0.4029       -59.0942      -7.597195      0.8308412
      1899.0000         0.6186         0.3887        -60.876      -9.378994       0.785154
      1899.5000         0.6074          0.396       -68.9031      -17.40609      0.5793309
      1900.0000         0.5963           0.42       -74.3434      -22.84639      0.4398361
      1900.5000         0.5851         0.3269       -78.9053      -27.40829      0.3228643
      1901.0000         0.5725         0.3608       -82.2719      -30.77489      0.2365413
      1901.5000         0.5572         0.3948       -83.7529      -32.25589      0.1985668
