#------------------------------------------------------------------------------
# Created by    : vladimir.rabinovich
# Created on    : 09/19/2023 17:20:43
#------------------------------------------------------------------------------
~Version Information Section
VERS.           2.0     :   CWLS log ASCII Standard - VERSION 2.0
WRAP.           NO      :   One line per depth step
~Well Information Section
#MNEM       .UNIT                                         VALUE :DESCRIPTION
#------------------------------------------------------------------------------
STRT        .FT                                             142 :START DEPTH
STOP        .FT                                           12994 :STOP DEPTH
STEP        .FT                                             0.5 :STEP      
NULL        .                                           -999.25 :NULL      
COMP        .                                        TEXACO OIL :COMPANY   
WELL        .                           MIAMI CORP - CAMERON FS :WELL      
FLD         .                                           WILDCAT :FIELD     
LOC         .                                                   :LOCATION  
CNTY        .                                           CAMERON :LOCATION  
STAT        .                                         LOUISIANA :STATE     
CTRY        .                                     UNITED STATES :COUNTRY   
SRVC        .                                                   :SERVICE COMPANY
DATE        .                             9/13/2023 11:18:18 AM :LOG DATE  
API         .                                    17023023700000 :API NUMBER
UWI         .                                    17023023700000 :UNIQUE WELL ID
XCOORD      .                                  1451308.99719268 :SURFACE X 
YCOORD      .                                  10869234.1720379 :SURFACE Y 
LAT         .                                           29.9476 :LATITUDE  
LON         .                                          -93.5973 :LONGITUDE 
ELEV        .FT                                               2 :ELEVATION VALUE
ELEV_TYPE   .                                                GL :ELEVATION REFERENCE TYPE
~Curve Information Section
#MNEM       .UNIT                                      API CODE :CURVE DESCRIPTION
#------------------------------------------------------------------------------
DEPT        .FT                                                 :DEPTH     
ASN         .OHMM                                               :          
ILD         .OHMM                                               :          
SP          .MV                                                 :          
SP_NORM     .MV                                                 :SP Normalized
VSH_SP      .V/V                                                :Volume of Shale from SP
~A        DEPTH            ASN            ILD             SP        SP_NORM         VSH_SP
# ...
     12110.0000          2.069         1.4836       -49.9816      -3.106838      0.9749186
     12110.5000         2.0441         1.4221       -49.6146      -2.742512      0.9792558
     12111.0000         2.0191         1.3606       -49.2477      -2.378284      0.9835919
     12111.5000         1.9941          1.299       -48.9433      -2.076557      0.9871839
     12112.0000         1.9083         1.2665       -48.8243      -1.960232      0.9885687
     12112.5000         1.8257         1.2418       -48.7053      -1.843906      0.9899535
     12113.0000         1.7859         1.2172       -48.5862      -1.727482      0.9913395
     12113.5000         1.7231         1.1926       -48.4672      -1.611156      0.9927243
     12114.0000         1.6711         1.1679       -48.3481      -1.494728      0.9941104
     12114.5000         1.6425         1.1433       -48.2291      -1.378403      0.9954952
     12115.0000         1.6137          1.122       -48.1101      -1.262077      0.9968801
     12115.5000         1.5976          1.143        -47.991      -1.145653       0.998266
     12116.0000         1.5829         1.1641        -47.872      -1.029327      0.9996508
     12116.5000         1.5952         1.1852       -47.7959     -0.9558983              1
     12117.0000          1.618         1.2298        -47.748      -0.910675              1
     12117.5000         1.6344         1.2832       -47.7002     -0.8655472              1
     12118.0000         1.6504         1.3366       -47.6523     -0.8203239              1
     12118.5000          1.668         1.3901       -47.6045     -0.7751961              1
     12119.0000         1.6864         1.4435       -47.5568     -0.7301712              1
     12119.5000         1.7034         1.4907       -47.5089     -0.6849442              1
     12120.0000         1.7156         1.5285       -47.4616     -0.6403198              1
     12120.5000         1.7226         1.5663       -47.4161     -0.5974922              1
     12121.0000         1.7358         1.5343       -47.3706     -0.5546684              1
     12121.5000         1.7495         1.4831        -47.325     -0.5117416              1
     12122.0000         1.7849          1.432       -47.2795      -0.468914              1
     12122.5000         1.8704         1.3809        -47.234     -0.4260902              1
     12123.0000         1.8424         1.3297       -47.1885     -0.3832626              1
     12123.5000         1.8145         1.3367        -47.143      -0.340435              1
     12124.0000         1.7816         1.3944       -47.0975     -0.2976074              1
     12124.5000         1.7576         1.4457        -47.052     -0.2547798              1
     12125.0000         1.7314         1.4795       -47.0064     -0.2118568              1
     12125.5000         1.7348         1.5134       -47.0262     -0.2343292              1
     12126.0000          1.816         1.5473       -47.1199     -0.3307037              1
     12126.5000         1.8549         1.5812       -47.2136     -0.4270782              1
     12127.0000         1.9086         1.5978       -47.3072     -0.5233536              1
     12127.5000         1.9304         1.5672       -47.4008     -0.6196251              1
     12128.0000         1.9483         1.5366       -47.4944     -0.7159004              1
     12128.5000          1.964          1.506       -47.5881     -0.8122749              1
     12129.0000         1.9408         1.4726          -47.3     -0.5268478              1
     12129.5000         1.9093         1.4287       -46.9598     -0.1893234              1
     12130.0000         1.7747         1.3847       -46.6195       0.148304              1
     12130.5000         1.7253         1.3407       -46.6003      0.1648293              1
     12131.0000         1.6828         1.2968        -46.642      0.1204567              1
     12131.5000         1.6669         1.2608       -46.6838     0.07598114              1
     12132.0000         1.6583         1.2466       -46.7256     0.03150558              1
     12132.5000         1.6343         1.2324       -46.7674    -0.01296616              1
     12133.0000         1.6054         1.2182       -46.8093    -0.05754089              1
     12133.5000         1.5993          1.204        -46.851     -0.1019173              1
     12134.0000         1.5891         1.1898       -46.8928      -0.146389              1
     12134.5000         1.5758         1.1756       -46.9346     -0.1908646              1
     12135.0000          1.559          1.168       -46.8738     -0.1327362              1
     12135.5000         1.5452         1.1637       -46.6668     0.07158661              1
     12136.0000         1.5561         1.1594       -46.4598      0.2759132              1
     12136.5000         1.5706         1.1551       -46.2526      0.4804382              1
     12137.0000         1.5727         1.1508       -46.0456      0.6847649              1
     12137.5000          1.567         1.1466       -45.8383      0.8893929              1
     12138.0000         1.5581         1.1423       -45.6314       1.093616              1
     12138.5000         1.5595         1.1516       -45.6204       1.101944              1
     12139.0000         1.5609         1.1703       -45.6157        1.10397              1
     12139.5000         1.5642          1.189       -45.6111       1.105896              1
     12140.0000         1.5721         1.2076       -45.6064       1.107922              1
     12140.5000         1.5842         1.2263       -45.6018       1.109848              1
     12141.0000         1.5976          1.245       -45.5971       1.111874              1
     12141.5000         1.6143          1.255       -45.6431       1.063049              1
     12142.0000         1.6336          1.246       -45.9288      0.7732925              1
     12142.5000         1.6537         1.2369       -46.2145       0.483532              1
     12143.0000         1.6627         1.2278       -46.5002      0.1937752              1
     12143.5000         1.6672         1.2187       -46.7864    -0.09648514              1
     12144.0000         1.6693         1.2097       -47.0721     -0.3862457              1
     12144.5000          1.668         1.2006       -46.8881     -0.2063065              1
     12145.0000         1.6648         1.1915       -46.6633     0.01443481              1
     12145.5000         1.6579         1.1824       -46.4392      0.2344742              1
     12146.0000         1.6508         1.1723       -46.2145      0.4551163              1
     12146.5000         1.6476         1.1579       -45.9904      0.6751595              1
     12147.0000         1.6471         1.1435       -45.7663       0.895195              1
     12147.5000         1.6513         1.1291       -45.5416       1.115837              1
     12148.0000         1.6556         1.2939       -45.8824       0.770977              1
     12148.5000         1.6598         1.4193       -46.2818      0.3675194              1
     12149.0000         1.6657         1.5203       -46.6817     -0.0364418              1
     12149.5000         1.6835         1.5876        -47.081     -0.4398003              1
     12150.0000         1.7403         1.6001        -47.481     -0.8438606              1
     12150.5000         1.8789         1.6126       -47.8669      -1.233822      0.9972164
     12151.0000         2.1259         1.6251       -48.1406      -1.511578      0.9939098
     12151.5000         2.1318         1.6376       -48.4142      -1.789238      0.9906043
     12152.0000         2.1176         1.6501       -48.6884      -2.067497      0.9872917
     12152.5000         2.0775         1.6626        -48.962      -2.345158      0.9839862
     12153.0000         2.0425         1.6214        -49.129       -2.51622      0.9819497
     12153.5000         2.0173         1.5225        -48.929      -2.320278      0.9842824
