#------------------------------------------------------------------------------
# Created by    : vladimir.rabinovich
# Created on    : 09/19/2023 17:20:43
#------------------------------------------------------------------------------
~Version Information Section
VERS.           2.0     :   CWLS log ASCII Standard - VERSION 2.0
WRAP.           NO      :   One line per depth step
~Well Information Section
#MNEM       .UNIT                                         VALUE :DESCRIPTION
#------------------------------------------------------------------------------
STRT        .FT                                             142 :START DEPTH
STOP        .FT                                           12994 :STOP DEPTH
STEP        .FT                                             0.5 :STEP      
NULL        .                                           -999.25 :NULL      
COMP        .                                        TEXACO OIL :COMPANY   
WELL        .                           MIAMI CORP - CAMERON FS :WELL      
FLD         .                                           WILDCAT :FIELD     
LOC         .                                                   :LOCATION  
CNTY        .                                           CAMERON :LOCATION  
STAT        .                                         LOUISIANA :STATE     
CTRY        .                                     UNITED STATES :COUNTRY   
SRVC        .                                                   :SERVICE COMPANY
DATE        .                             9/13/2023 11:18:18 AM :LOG DATE  
API         .                                    17023023700000 :API NUMBER
UWI         .                                    17023023700000 :UNIQUE WELL ID
XCOORD      .                                  1451308.99719268 :SURFACE X 
YCOORD      .                                  10869234.1720379 :SURFACE Y 
LAT         .                                           29.9476 :LATITUDE  
LON         .                                          -93.5973 :LONGITUDE 
ELEV        .FT                                               2 :ELEVATION VALUE
ELEV_TYPE   .                                                GL :ELEVATION REFERENCE TYPE
~Curve Information Section
#MNEM       .UNIT                                      API CODE :CURVE DESCRIPTION
#------------------------------------------------------------------------------
DEPT        .FT                                                 :DEPTH     
ASN         .OHMM                                               :          
ILD         .OHMM                                               :          
SP          .MV                                                 :          
SP_NORM     .MV                                                 :SP Normalized
VSH_SP      .V/V                                                :Volume of Shale from SP
~A        DEPTH            ASN            ILD             SP        SP_NORM         VSH_SP
# ...
       978.0000         2.5641         3.0189       -53.7877      -2.290695      0.7848842
       978.5000         2.5934         3.0496       -54.0189      -2.521896      0.7463506
       979.0000         2.6227         3.0802       -54.2501      -2.753094      0.7078177
       979.5000          2.652         3.1108       -54.4813      -2.984295      0.6692842
       980.0000         2.6813         3.1304       -54.7126      -3.215595      0.6307341
       980.5000         2.7106           3.13       -54.6945      -3.197495      0.6337509
       981.0000         2.7136          3.079       -54.5704      -3.073395      0.6544342
       981.5000         2.7059         3.0279       -54.4463      -2.949295      0.6751175
       982.0000         2.6982         2.9769       -54.3221      -2.825096      0.6958173
       982.5000         2.6905         2.9259       -54.1979      -2.700893      0.7165177
       983.0000         2.6828         2.8749       -54.0738      -2.576794       0.737201
       983.5000         2.6752         2.8427       -53.9497      -2.452694      0.7578843
       984.0000         2.6675         2.8187       -53.8255      -2.328495      0.7785842
       984.5000         2.6514         2.7948       -53.6916      -2.194595      0.8009008
       985.0000         2.6239         2.7709       -53.5406      -2.043594      0.8260676
       985.5000         2.5964          2.747       -53.3896      -1.892593      0.8512344
       986.0000          2.569         2.7231       -53.2386      -1.741596      0.8764006
       986.5000         2.5415         2.6992       -53.0876      -1.590595      0.9015675
       987.0000          2.514         2.6759       -52.9366      -1.439594      0.9267343
       987.5000         2.5036         2.6883       -52.7856      -1.288593      0.9519011
       988.0000         2.5099         2.7008       -52.6346      -1.137596      0.9770673
       988.5000         2.5162         2.7132       -52.6119      -1.114895      0.9808509
       989.0000         2.5225         2.7256        -52.775      -1.277996      0.9536673
       989.5000         2.5288         2.7386        -52.938      -1.440994       0.926501
       990.0000         2.5351         2.7519       -53.1011      -1.604095      0.8993174
       990.5000         2.5414         2.7651       -53.2641      -1.767094      0.8721511
       991.0000         2.5476         2.7783       -53.4271      -1.930096      0.8449841
       991.5000         2.5539         2.7916       -53.5901      -2.093094      0.8178177
       992.0000         2.5528         2.8048       -53.7532      -2.256195      0.7906342
       992.5000         2.5503         2.8115       -53.9162      -2.419193      0.7634678
       993.0000         2.5478         2.8091       -53.8755      -2.378494       0.770251
       993.5000         2.5453         2.8067       -53.7996      -2.302593      0.7829011
       994.0000         2.5428         2.8043       -53.7161      -2.219093      0.7968178
       994.5000         2.5402         2.8019       -53.5481      -2.051094      0.8248177
       995.0000         2.5377         2.7995       -53.3801      -1.883095      0.8528175
       995.5000         2.5352          2.797       -53.2121      -1.715096      0.8808174
       996.0000         2.5327         2.7698       -53.0441      -1.547096      0.9088173
       996.5000         2.5302         2.7384       -52.8761      -1.379093      0.9368178
       997.0000         2.5277         2.7071       -52.7081      -1.211094      0.9648177
       997.5000         2.5252         2.6757       -52.5401      -1.043095      0.9928176
       998.0000         2.5226         2.6444       -52.3721     -0.8750954              1
       998.5000         2.5201         2.6102       -52.2041     -0.7070961              1
       999.0000          2.507          2.562       -52.0361      -0.539093              1
       999.5000         2.4731         2.5137       -51.9668     -0.4697952              1
      1000.0000         2.4393         2.4655       -51.9343      -0.437294              1
      1000.5000         2.4054         2.4173       -51.9017     -0.4046936              1
      1001.0000         2.3715         2.3691       -51.8691     -0.3720932              1
      1001.5000         2.3376         2.3315       -51.8366     -0.3395958              1
      1002.0000         2.3037         2.3157       -51.8041     -0.3070946              1
      1002.5000         2.2688         2.2999       -51.7715     -0.2744942              1
      1003.0000         2.2324         2.3382        -51.739      -0.241993              1
      1003.5000         2.2381         2.3765       -51.7065     -0.2094955              1
      1004.0000         2.2793         2.4147       -51.6739     -0.1768951              1
      1004.5000         2.3205          2.453       -51.6414     -0.1443939              1
      1005.0000         2.3616         2.4913       -51.6808     -0.1837959              1
      1005.5000         2.3957         2.5295       -51.7404     -0.2433929              1
      1006.0000          2.427         2.5678          -51.8     -0.3029938              1
      1006.5000         2.4583         2.5895       -51.8596     -0.3625946              1
      1007.0000         2.4895         2.6005       -51.9192     -0.4221954              1
      1007.5000         2.4966         2.6114       -51.9788     -0.4817963              1
      1008.0000         2.4553         2.6224       -52.0384     -0.5413933              1
      1008.5000         2.4103         2.5765       -52.1414     -0.6443939              1
      1009.0000         2.3305         2.5131       -52.2563     -0.7592964              1
      1009.5000         2.2506         2.4497       -52.3713     -0.8742943              1
      1010.0000         2.1708         2.3863       -52.4863      -0.989296              1
      1010.5000         2.1371         2.3229       -52.6013      -1.104294      0.9950336
      1011.0000         2.1195         2.3155       -52.7162      -1.219196      0.9895621
      1011.5000         2.1019         2.2677       -52.8761      -1.379093       0.981948
      1012.0000         2.0843           2.22       -53.0997      -1.602695      0.9713002
      1012.5000         2.0668         2.1722       -53.3234      -1.826393      0.9606479
      1013.0000         2.0492         2.1244       -53.5471      -2.050095      0.9499955
      1013.5000         2.0316         2.0767       -53.7707      -2.273693      0.9393479
      1014.0000         2.0254         2.0289       -53.9943      -2.497295      0.9287002
      1014.5000         2.0224         2.0153        -54.218      -2.720993       0.918048
      1015.0000         2.0194         2.0102       -54.4416      -2.944595      0.9074003
      1015.5000         2.0164          2.014       -54.5507      -3.053696       0.902205
      1016.0000         2.0133          2.046       -54.6146      -3.117596      0.8991621
      1016.5000         2.0103         2.0781       -54.6785      -3.181496      0.8961192
      1017.0000         2.0073         2.1101       -54.5774      -3.080395      0.9009336
      1017.5000         2.0047         2.1421       -54.3233      -2.826294      0.9130336
      1018.0000         2.0078         2.1709       -54.0692      -2.572193      0.9251336
      1018.5000         2.0109         2.1879       -53.8151      -2.318096      0.9372335
      1019.0000          2.014         2.2049        -53.561      -2.063995      0.9493335
      1019.5000         2.0171         2.2219       -53.3069      -1.809895      0.9614336
      1020.0000         2.0202         2.2374       -53.0529      -1.555893      0.9735289
      1020.5000         2.0233         2.2503       -52.7988      -1.301796      0.9856288
      1021.0000         2.0264         2.2632       -52.5447      -1.047695      0.9977288
      1021.5000         2.0295         2.2761       -52.2906     -0.7935944              1
