#------------------------------------------------------------------------------
# Created by    : vladimir.rabinovich
# Created on    : 09/19/2023 17:20:43
#------------------------------------------------------------------------------
~Version Information Section
VERS.           2.0     :   CWLS log ASCII Standard - VERSION 2.0
WRAP.           NO      :   One line per depth step
~Well Information Section
#MNEM       .UNIT                                         VALUE :DESCRIPTION
#------------------------------------------------------------------------------
STRT        .FT                                             142 :START DEPTH
STOP        .FT                                           12994 :STOP DEPTH
STEP        .FT                                             0.5 :STEP      
NULL        .                                           -999.25 :NULL      
COMP        .                                        TEXACO OIL :COMPANY   
WELL        .                           MIAMI CORP - CAMERON FS :WELL      
FLD         .                                           WILDCAT :FIELD     
LOC         .                                                   :LOCATION  
CNTY        .                                           CAMERON :LOCATION  
STAT        .                                         LOUISIANA :STATE     
CTRY        .                                     UNITED STATES :COUNTRY   
SRVC        .                                                   :SERVICE COMPANY
DATE        .                             9/13/2023 11:18:18 AM :LOG DATE  
API         .                                    17023023700000 :API NUMBER
UWI         .                                    17023023700000 :UNIQUE WELL ID
XCOORD      .                                  1451308.99719268 :SURFACE X 
YCOORD      .                                  10869234.1720379 :SURFACE Y 
LAT         .                                           29.9476 :LATITUDE  
LON         .                                          -93.5973 :LONGITUDE 
ELEV        .FT                                               2 :ELEVATION VALUE
ELEV_TYPE   .                                                GL :ELEVATION REFERENCE TYPE
~Curve Information Section
#MNEM       .UNIT                                      API CODE :CURVE DESCRIPTION
#------------------------------------------------------------------------------
DEPT        .FT                                                 :DEPTH     
ASN         .OHMM                                               :          
ILD         .OHMM                                               :          
SP          .MV                                                 :          
SP_NORM     .MV                                                 :SP Normalized
VSH_SP      .V/V                                                :Volume of Shale from SP
~A        DEPTH            ASN            ILD             SP        SP_NORM         VSH_SP
# ...
      6126.0000         1.0516         0.7447       -58.9641      -19.44314      0.8137056
      6126.5000         1.0357         0.7396       -57.5225      -18.00154      0.8282673
      6127.0000         1.0198         0.7269       -57.5703      -18.04934      0.8277844
      6127.5000         1.0185         0.7139       -58.0718      -18.55084      0.8227187
      6128.0000         1.0187         0.7009       -58.5726      -19.05164      0.8176602
      6128.5000         1.0137         0.6879       -59.0735      -19.55254      0.8126006
      6129.0000         1.0011         0.6749       -59.5743      -20.05334       0.807542
      6129.5000         0.9754         0.6619       -60.0758      -20.55484      0.8024763
      6130.0000         0.9388         0.6503       -60.5767      -21.05574      0.7974167
      6130.5000         0.9023         0.6389       -61.0775      -21.55654      0.7923582
      6131.0000         0.8544         0.6466       -61.5784      -22.05744      0.7872986
      6131.5000         0.7892         0.6695       -56.4882      -16.96724      0.8387147
      6132.0000         0.7329         0.6924       -52.7227      -13.20174      0.8767501
      6132.5000         0.8297         0.7153       -49.3417      -9.820744      0.9109016
      6133.0000         0.8757         0.7382       -46.5541      -7.033142      0.9390592
      6133.5000         0.9022         0.7611        -47.542      -8.021042      0.9290804
      6134.0000         0.9195         0.7635       -48.6995      -9.178543      0.9173884
      6134.5000         0.9368         0.7571       -49.8571      -10.33614      0.9056955
      6135.0000         0.9541         0.7506       -51.0146      -11.49364      0.8940036
      6135.5000         0.9748         0.7442       -52.1722      -12.65124      0.8823107
      6136.0000         1.0109         0.7378       -49.9501      -10.42914      0.9047561
      6136.5000         1.0469         0.7314       -48.3096      -8.788643      0.9213268
      6137.0000         1.0242         0.7249       -48.0852      -8.564243      0.9235935
      6137.5000         0.9999         0.7204       -47.8609      -8.339943      0.9258592
      6138.0000         0.9754         0.7166       -47.6365      -8.115543      0.9281258
      6138.5000          0.955         0.7129       -47.4122      -7.891243      0.9303915
      6139.0000         0.9369         0.7091       -47.1882      -7.667244      0.9326541
      6139.5000         0.9188         0.7054       -46.9638      -7.442841      0.9349208
      6140.0000         0.9006         0.7016       -46.9663      -7.445343      0.9348955
      6140.5000         0.8824         0.6979       -47.1028      -7.581841      0.9335167
      6141.0000         0.8643         0.6942       -47.2394      -7.718441       0.932137
      6141.5000         0.8461         0.7001        -47.376      -7.855042      0.9307572
      6142.0000         0.8313         0.7101       -47.5126      -7.991642      0.9293774
      6142.5000         0.8435         0.7201       -47.6491      -8.128143      0.9279985
      6143.0000         0.8558         0.7302       -46.7514      -7.230442      0.9370663
      6143.5000          0.868         0.7402       -45.3073      -5.786343      0.9516531
      6144.0000         0.8747         0.7502       -43.8644      -4.343441      0.9662279
      6144.5000         0.8798         0.7603       -42.4216      -2.900642      0.9808016
      6145.0000         0.8849         0.7703       -42.3991      -2.878143      0.9810289
      6145.5000           0.89         0.7802       -42.5314      -3.010441      0.9796925
      6146.0000         0.8951         0.7897       -42.6637      -3.142742      0.9783561
      6146.5000         0.9002         0.7993        -42.791      -3.270042      0.9770703
      6147.0000         0.9053         0.8088       -42.9121      -3.391144       0.975847
      6147.5000         0.9104         0.8183       -43.0331      -3.512142      0.9746248
      6148.0000         0.9156         0.8279       -43.1542      -3.633244      0.9734016
      6148.5000         0.9207         0.8374       -43.2751      -3.754143      0.9721804
      6149.0000         0.9258          0.847       -43.3961      -3.875141      0.9709582
      6149.5000         0.9306         0.8565       -43.5173      -3.996342      0.9697339
      6150.0000         0.9342          0.866       -43.6382      -4.117241      0.9685127
      6150.5000         0.9378         0.8687       -44.0005      -4.479542      0.9648531
      6151.0000         0.9414          0.868       -44.4055      -4.884541      0.9607622
      6151.5000          0.945         0.8672       -44.8105      -5.289543      0.9566713
      6152.0000         0.9487         0.8664       -45.2156      -5.694641      0.9525794
      6152.5000         0.9523         0.8656       -45.6205      -6.099541      0.9484895
      6153.0000         0.9559         0.8649       -46.0253      -6.504341      0.9444006
      6153.5000         0.9595         0.8641       -46.4303      -6.909344      0.9403096
      6154.0000         0.9631         0.8633       -46.8353      -7.314342      0.9362187
      6154.5000         0.9667         0.8598       -47.2403      -7.719341      0.9321279
      6155.0000         0.9703         0.8472       -47.6453      -8.124344      0.9280369
      6155.5000         0.9766         0.8347       -51.6418      -12.12084      0.8876683
      6156.0000         0.9924         0.8221        -55.548      -16.02704      0.8482117
      6156.5000         1.0083         0.8096       -65.7234      -26.20244      0.7454299
      6157.0000         1.0241          0.797       -73.2544      -33.73344      0.6693591
      6157.5000           1.04         0.7845       -77.3617      -37.84074      0.6278713
      6158.0000         1.1149         0.7659       -84.9933      -45.47234      0.5507844
      6158.5000         1.1544         0.7417       -87.0055      -47.48454      0.5304592
      6159.0000         1.1942         0.7174       -88.6469      -49.12594      0.5138794
      6159.5000         1.2499         0.6932       -91.7651      -52.24414      0.4823824
      6160.0000         1.3048         0.6689       -95.0883      -55.56734      0.4488147
      6160.5000         1.3644         0.6421      -100.3116      -60.79064      0.3960541
      6161.0000          1.456         0.6151       -96.9735      -57.45255      0.4297723
      6161.5000         1.3767         0.5933       -93.6328      -54.11184      0.4635168
      6162.0000         1.2376         0.5884       -90.9607      -51.43974      0.4905076
      6162.5000         1.1514         0.5834       -88.3138      -48.79284       0.517244
      6163.0000         1.0932         0.5785       -92.3483      -52.82734      0.4764915
      6163.5000         1.0794         0.5735       -94.6785      -55.15754      0.4529541
      6164.0000         1.0684         0.5686       -96.6693      -57.14834      0.4328451
      6164.5000         1.0575         0.5399      -103.2275      -63.70654      0.3666006
      6165.0000         1.0435         0.4911      -109.2955      -69.77454      0.3053076
      6165.5000         1.0235         0.4445      -126.0416      -86.52065      0.1361551
      6166.0000         1.0035         0.3983      -139.0525      -99.53155    0.004731843
      6166.5000         0.9666         0.3521      -141.8125      -102.2915              0
      6167.0000         0.8982         0.3113       -143.342       -103.821              0
      6167.5000         0.8293         0.2824      -144.8716      -105.3506              0
      6168.0000         0.7597         0.2534      -146.2969      -106.7759              0
      6168.5000         0.7183         0.2479      -147.2874      -107.7664              0
      6169.0000         0.6871         0.2485      -148.2764      -108.7554              0
      6169.5000         0.6608         0.2491      -149.2668      -109.7458              0
