#------------------------------------------------------------------------------
# Created by    : vladimir.rabinovich
# Created on    : 09/19/2023 17:20:43
#------------------------------------------------------------------------------
~Version Information Section
VERS.           2.0     :   CWLS log ASCII Standard - VERSION 2.0
WRAP.           NO      :   One line per depth step
~Well Information Section
#MNEM       .UNIT                                         VALUE :DESCRIPTION
#------------------------------------------------------------------------------
STRT        .FT                                             142 :START DEPTH
STOP        .FT                                           12994 :STOP DEPTH
STEP        .FT                                             0.5 :STEP      
NULL        .                                           -999.25 :NULL      
COMP        .                                        TEXACO OIL :COMPANY   
WELL        .                           MIAMI CORP - CAMERON FS :WELL      
FLD         .                                           WILDCAT :FIELD     
LOC         .                                                   :LOCATION  
CNTY        .                                           CAMERON :LOCATION  
STAT        .                                         LOUISIANA :STATE     
CTRY        .                                     UNITED STATES :COUNTRY   
SRVC        .                                                   :SERVICE COMPANY
DATE        .                             9/13/2023 11:18:18 AM :LOG DATE  
API         .                                    17023023700000 :API NUMBER
UWI         .                                    17023023700000 :UNIQUE WELL ID
XCOORD      .                                  1451308.99719268 :SURFACE X 
YCOORD      .                                  10869234.1720379 :SURFACE Y 
LAT         .                                           29.9476 :LATITUDE  
LON         .                                          -93.5973 :LONGITUDE 
ELEV        .FT                                               2 :ELEVATION VALUE
ELEV_TYPE   .                                                GL :ELEVATION REFERENCE TYPE
~Curve Information Section
#MNEM       .UNIT                                      API CODE :CURVE DESCRIPTION
#------------------------------------------------------------------------------
DEPT        .FT                                                 :DEPTH     
ASN         .OHMM                                               :          
ILD         .OHMM                                               :          
SP          .MV                                                 :          
SP_NORM     .MV                                                 :SP Normalized
VSH_SP      .V/V                                                :Volume of Shale from SP
~A        DEPTH            ASN            ILD             SP        SP_NORM         VSH_SP
# ...
     12946.0000         1.0004         0.7164       -47.5349     -0.8571396              1
     12946.5000         0.9855         0.6857       -47.2676     -0.5875168              1
     12947.0000         0.9806         0.6549       -46.9998     -0.3173981              1
     12947.5000         1.0039         0.6511       -46.7325    -0.04777145              1
     12948.0000         1.0081         0.6774       -46.5141      0.1729507              1
     12948.5000         1.0059         0.7037       -46.7636    -0.07422638              1
     12949.0000         1.0037           0.73       -47.0131     -0.3214073              1
     12949.5000         1.0015         0.7563        -47.262     -0.5679855              1
     12950.0000         1.0469         0.7826       -47.5114     -0.8150597              1
     12950.5000         1.1006          0.809       -47.7603      -1.061642      0.9992661
     12951.0000          1.114         0.8353       -48.0098      -1.308819      0.9963236
     12951.5000         1.1117         0.8616       -48.2593      -1.555996       0.993381
     12952.0000         1.0992         0.8534       -48.5081      -1.802471      0.9904467
     12952.5000          1.089         0.8434       -48.7576      -1.630169       0.992498
     12953.0000         1.0803         0.8335       -49.0065      -1.160072      0.9980944
     12953.5000         1.0749         0.8235       -49.3226     -0.7571754              1
     12954.0000         1.0693         0.8136       -49.6801     -0.3956757              1
     12954.5000         1.0639         0.8037       -50.0374    -0.03397751              1
     12955.0000         1.0584         0.7937       -50.3955      0.3269196              1
     12955.5000         1.0529         0.7838       -50.7529      0.6885185              1
     12956.0000         1.0473         0.7738        -51.111       1.049416              1
     12956.5000         1.0383         0.7639       -51.4683       1.411118              1
     12957.0000         1.0217          0.754       -51.8264       1.772015              1
     12957.5000         1.0261         0.7497        -52.446       1.871414              1
     12958.0000         1.0351          0.747        -53.223       1.813412              1
     12958.5000         1.0489         0.7443       -54.0001        1.75531              1
     12959.0000         1.0645         0.7416       -54.7758       1.698608              1
     12959.5000         1.0753         0.7388       -55.5668       1.626606              1
     12960.0000         1.0593         0.7361       -57.1336      0.7788048              1
     12960.5000         1.0433         0.7334       -58.7004    -0.06900024              1
     12961.0000         1.0521         0.7307       -60.5845      -1.234097      0.9972131
     12961.5000         1.0789         0.7368       -62.5093      -2.439899      0.9828584
     12962.0000         1.1059         0.7528       -63.8577      -3.069302      0.9753655
     12962.5000         1.1027         0.7688       -64.8328      -3.325405      0.9723166
     12963.0000          1.092         0.7848       -65.8079      -3.581505      0.9692678
     12963.5000         1.1024         0.8008        -66.783      -3.837605       0.966219
     12964.0000         1.1157         0.8168       -67.8215      -4.157112      0.9624153
     12964.5000         1.1381         0.8305       -68.9465       -4.56311       0.957582
     12965.0000         1.1866         0.8285       -70.0283      -4.925911       0.953263
     12965.5000         1.1817         0.8265       -70.9755      -5.154114      0.9505463
     12966.0000         1.1555         0.8245       -71.9226      -5.382217      0.9478307
     12966.5000         1.1344         0.8225       -72.8698      -5.610413      0.9451141
     12967.0000         1.1749         0.8205       -73.6062      -5.627823      0.9449069
     12967.5000         1.2154         0.8185       -74.0543      -5.356918      0.9481319
     12968.0000         1.2374         0.8178       -73.5059      -4.089516      0.9632201
     12968.5000         1.2431         0.8415       -72.9561      -2.820724      0.9783247
     12969.0000         1.2469         0.8652       -72.4076      -1.553223       0.993414
     12969.5000         1.2506         0.8889       -71.8578     -0.2844315              1
     12970.0000         1.2632         0.9126         -71.77       0.522377              1
     12970.5000         1.2812         0.9362       -71.8104       1.200966              1
     12971.0000          1.297         0.9599       -71.8508        1.87957              1
     12971.5000         1.2867         0.9823       -71.8912       2.558167              1
     12972.0000         1.2759         0.9897       -73.0171       2.151268              1
     12972.5000         1.2621         0.9519       -74.7844       1.102966              1
     12973.0000         1.2376         0.9141       -76.7397     -0.1333389              1
     12973.5000         1.1906         0.8762       -79.0555      -1.730133      0.9913079
     12974.0000          1.158         0.8384       -80.5182      -2.473846      0.9824542
     12974.5000         1.1254         0.8006       -81.5111      -2.747742      0.9791936
     12975.0000         1.0928         0.7628        -82.504      -3.021645      0.9759328
     12975.5000         1.0602         0.7661       -83.4943      -3.292946       0.972703
     12976.0000         1.1443         0.7853        -83.792      -2.871651      0.9777185
     12976.5000         1.2105         0.8044       -83.9905      -2.351151      0.9839149
     12977.0000         1.2143         0.8235       -84.1888      -1.830444      0.9901137
     12977.5000         1.2201         0.8427       -84.3872      -1.309853      0.9963113
     12978.0000         1.2302         0.8618       -84.5671      -0.770752              1
     12978.5000         1.2438         0.8994       -84.7115     -0.1961594              1
     12979.0000         1.2732         0.9502       -84.8557      0.3786469              1
     12979.5000         1.3066         1.0008       -84.9999      0.9534378              1
     12980.0000           1.34         1.0046       -85.1443       1.528038              1
     12980.5000         1.3236         0.9687       -91.7115      -4.320168      0.9604742
     12981.0000         1.2578         0.9328       -95.2235      -7.113167      0.9272242
     12981.5000         1.1961         0.8959       -96.3204      -7.491058      0.9227255
     12982.0000         1.1871         0.8573         -97.42      -7.871666      0.9181945
     12982.5000         1.1832         0.8185       -97.8669      -7.599564      0.9214337
     12983.0000         1.1785         0.7799       -98.1754      -7.189072      0.9263206
     12983.5000         1.1658          0.768        -98.484      -6.778671      0.9312063
     12984.0000         1.1338         0.8345       -98.7925      -6.368179      0.9360931
     12984.5000         1.1446         0.9009       -99.1011      -5.957771      0.9409789
     12985.0000         1.1542         0.9857       -99.4095       -5.54718      0.9458669
     12985.5000         1.1649         0.9623        -99.718      -5.136681      0.9507538
     12986.0000         1.1837         0.9297      -100.0266      -4.726288      0.9556394
     12986.5000         1.2266          0.897      -100.3351      -4.315781      0.9605264
     12987.0000         1.2385         0.8643      -100.6443      -3.905983       0.965405
     12987.5000          1.225         0.8475      -101.3127      -3.855385      0.9660074
     12988.0000         1.2021          0.833      -102.0861      -3.909782      0.9653597
     12988.5000         1.1581         0.8186      -102.8593      -3.963989      0.9647144
     12989.0000         1.1234         0.8041      -103.6324      -4.018089      0.9640704
     12989.5000         1.1019         0.7896       -104.426      -4.092697      0.9631822
