#------------------------------------------------------------------------------
# Created by    : vladimir.rabinovich
# Created on    : 09/19/2023 17:20:43
#------------------------------------------------------------------------------
~Version Information Section
VERS.           2.0     :   CWLS log ASCII Standard - VERSION 2.0
WRAP.           NO      :   One line per depth step
~Well Information Section
#MNEM       .UNIT                                         VALUE :DESCRIPTION
#------------------------------------------------------------------------------
STRT        .FT                                             142 :START DEPTH
STOP        .FT                                           12994 :STOP DEPTH
STEP        .FT                                             0.5 :STEP      
NULL        .                                           -999.25 :NULL      
COMP        .                                        TEXACO OIL :COMPANY   
WELL        .                           MIAMI CORP - CAMERON FS :WELL      
FLD         .                                           WILDCAT :FIELD     
LOC         .                                                   :LOCATION  
CNTY        .                                           CAMERON :LOCATION  
STAT        .                                         LOUISIANA :STATE     
CTRY        .                                     UNITED STATES :COUNTRY   
SRVC        .                                                   :SERVICE COMPANY
DATE        .                             9/13/2023 11:18:18 AM :LOG DATE  
API         .                                    17023023700000 :API NUMBER
UWI         .                                    17023023700000 :UNIQUE WELL ID
XCOORD      .                                  1451308.99719268 :SURFACE X 
YCOORD      .                                  10869234.1720379 :SURFACE Y 
LAT         .                                           29.9476 :LATITUDE  
LON         .                                          -93.5973 :LONGITUDE 
ELEV        .FT                                               2 :ELEVATION VALUE
ELEV_TYPE   .                                                GL :ELEVATION REFERENCE TYPE
~Curve Information Section
#MNEM       .UNIT                                      API CODE :CURVE DESCRIPTION
#------------------------------------------------------------------------------
DEPT        .FT                                                 :DEPTH     
ASN         .OHMM                                               :          
ILD         .OHMM                                               :          
SP          .MV                                                 :          
SP_NORM     .MV                                                 :SP Normalized
VSH_SP      .V/V                                                :Volume of Shale from SP
~A        DEPTH            ASN            ILD             SP        SP_NORM         VSH_SP
# ...
      6962.0000         0.6069         0.1906      -141.0964      -99.01471     0.00995243
      6962.5000         0.6086         0.1882      -140.8579      -98.77396      0.0123842
      6963.0000         0.6102         0.1859      -140.6194      -98.53323      0.0148159
      6963.5000         0.6118         0.1836      -140.3809       -98.2925     0.01724752
      6964.0000          0.608         0.1914      -140.1423      -98.05165     0.01968029
      6964.5000           0.56         0.2002      -139.9036       -97.8107     0.02211415
      6965.0000         0.5424          0.209      -139.6494      -97.55426     0.02470444
      6965.5000         0.5274         0.2178      -139.2727      -97.17532     0.02853209
      6966.0000         0.5125         0.2265      -138.8962      -96.79657     0.03235788
      6966.5000         0.4975         0.2353      -138.5198      -96.41795     0.03618237
      6967.0000         0.4884         0.2441      -138.1433      -96.03919     0.04000816
      6967.5000         0.5113         0.2505       -137.313      -95.20667     0.04841752
      6968.0000         0.5309          0.252      -135.6716      -93.56302     0.06502001
      6968.5000         0.5467         0.2534      -134.0327      -91.92188     0.08159722
      6969.0000         0.5626         0.2549      -132.4546      -90.34154     0.09756023
      6969.5000         0.5784         0.2563      -132.1467      -90.03139      0.1006931
      6970.0000         0.5942         0.2578      -131.8389      -89.72134      0.1038248
      6970.5000           0.61         0.2592      -132.2537       -90.1339     0.09965754
      6971.0000         0.6259         0.2607      -132.8638      -90.74177      0.0935175
      6971.5000         0.6417         0.2583      -132.1699      -90.04564      0.1005491
      6972.0000         0.6477         0.2538      -131.3342      -89.20769      0.1090133
      6972.5000           0.64         0.2494      -130.4971      -88.36835      0.1174914
      6973.0000         0.6323          0.245      -130.7366      -88.60561      0.1150949
      6973.5000         0.6246         0.2405      -131.1418      -89.00856      0.1110246
      6974.0000         0.6169         0.2338      -131.5471      -89.41163      0.1069532
      6974.5000         0.6091         0.2246      -131.0596      -88.92188      0.1119002
      6975.0000         0.6014         0.2153      -130.3389      -88.19894      0.1192026
      6975.5000         0.5937         0.2431      -129.6187       -87.4765         0.1265
      6976.0000         0.5859         0.2285      -128.8984      -86.75397      0.1337983
      6976.5000         0.5759         0.2139       -128.855      -86.70831      0.1342595
      6977.0000          0.566         0.2051      -129.4622      -87.31328      0.1281487
      6977.5000         0.5561         0.2018      -130.0698      -87.91862      0.1220341
      6978.0000         0.5461         0.1984      -130.6775       -88.5241      0.1159182
      6978.5000         0.5428         0.1951      -131.2852      -89.12955      0.1098025
      6979.0000         0.5423         0.1917      -131.8923      -89.73442      0.1036927
      6979.5000         0.5358         0.1884      -132.3459      -90.18578     0.09913358
      6980.0000         0.5287         0.1932      -132.4165      -90.25414     0.09844308
      6980.5000         0.5217         0.2012      -132.4868      -90.32219     0.09775566
      6981.0000         0.5146         0.2092      -131.7351      -89.56825      0.1053712
      6981.5000         0.5076         0.2179      -130.1992      -88.03011       0.120908
      6982.0000         0.5005         0.2435      -128.6609      -86.48957       0.136469
      6982.5000         0.5137         0.2692      -126.7732      -84.59962      0.1555593
      6983.0000          0.534         0.2948      -123.7769      -81.60109      0.1858476
      6983.5000         0.5543          0.345      -120.7479      -78.56984      0.2164663
      6984.0000         0.5822         0.4286       -117.636       -75.4557      0.2479222
      6984.5000         0.6592         0.5136      -113.0812      -70.89866      0.2939529
      6985.0000         0.6851         0.6036       -82.6254      -40.44062      0.6016099
      6985.5000         0.7074         0.6767       -48.4117      -6.224678      0.9472255
      6986.0000         0.7296         0.7302       -46.5817      -4.392437      0.9657329
      6986.5000         0.7518         0.7701       -44.7518      -2.560295      0.9842395
      6987.0000         0.7879         0.7908       -42.9243     -0.7305565              1
      6987.5000         0.8244         0.8115       -41.0944       1.101589              1
      6988.0000         0.8523         0.8247       -40.4361       1.762127              1
      6988.5000         0.8567         0.8164       -40.4615       1.738972              1
      6989.0000         0.8447          0.808       -41.1717        1.03101              1
      6989.5000         0.8328         0.7997       -41.8812      0.3237534              1
      6990.0000         0.8208         0.7914       -42.5912     -0.3840103              1
      6990.5000         0.8088         0.7793       -43.5792      -1.369766       0.996265
      6991.0000         0.7968         0.7407       -44.9617      -2.750027       0.982323
      6991.5000         0.7848          0.702       -46.3442      -4.130283       0.968381
      6992.0000         0.7728         0.6634       -48.1377      -5.921543      0.9502875
      6992.5000         0.7774         0.6247       -51.2296        -9.0112      0.9190788
      6993.0000         0.7884         0.5833       -55.2213      -13.00066      0.8787812
      6993.5000         0.7995         0.5414       -61.0178      -18.79492      0.8202534
      6994.0000         0.8105         0.4995       -75.8687      -33.64358      0.6702669
      6994.5000         0.8206         0.4575       -91.1417      -48.91434      0.5160168
      6995.0000         0.8289         0.4165      -100.0402       -57.8106      0.4261556
      6995.5000         0.8279         0.3893      -105.6111      -63.37925      0.3699065
      6996.0000         0.8269          0.362       -106.166      -63.93192      0.3643241
      6996.5000         0.8259         0.3347      -106.7216      -64.48528      0.3587346
      6997.0000         0.8225         0.3154      -107.2764      -65.03783      0.3531533
      6997.5000         0.8162         0.3006      -108.9185      -66.67769       0.336589
      6998.0000           0.81         0.2857      -111.2662      -69.02315      0.3128975
      6998.5000         0.8038         0.2709      -113.9156      -71.67032      0.2861584
      6999.0000         0.7777         0.2617      -118.1185      -75.87097      0.2437276
      6999.5000         0.7441         0.2544       -122.432      -80.18223      0.2001795
      7000.0000         0.7196         0.2604      -126.8662      -84.61419      0.1554122
      7000.5000         0.6952         0.2892      -122.3264      -80.07214      0.2012915
      7001.0000         0.7025         0.3236      -117.0276       -74.7711      0.2548373
      7001.5000          0.759         0.3614      -112.5784      -70.31966      0.2998014
      7002.0000         0.8334         0.3992      -108.4811      -66.22012      0.3412109
      7002.5000         0.8773         0.4398       -106.078      -63.81479      0.3655072
      7003.0000         0.9183         0.4821      -103.7001      -61.43464      0.3895491
      7003.5000         1.0046         0.4993       -102.574       -60.3063      0.4009465
      7004.0000         1.1113         0.5065      -101.5911      -59.32116      0.4108974
      7004.5000         1.1603         0.5112      -102.1353      -59.86312       0.405423
      7005.0000         1.1275         0.4896      -103.2992      -61.02478      0.3936891
      7005.5000         1.0939         0.4681      -104.4642      -62.18754      0.3819441
