#------------------------------------------------------------------------------
# Created by    : vladimir.rabinovich
# Created on    : 09/19/2023 17:20:43
#------------------------------------------------------------------------------
~Version Information Section
VERS.           2.0     :   CWLS log ASCII Standard - VERSION 2.0
WRAP.           NO      :   One line per depth step
~Well Information Section
#MNEM       .UNIT                                         VALUE :DESCRIPTION
#------------------------------------------------------------------------------
STRT        .FT                                             142 :START DEPTH
STOP        .FT                                           12994 :STOP DEPTH
STEP        .FT                                             0.5 :STEP      
NULL        .                                           -999.25 :NULL      
COMP        .                                        TEXACO OIL :COMPANY   
WELL        .                           MIAMI CORP - CAMERON FS :WELL      
FLD         .                                           WILDCAT :FIELD     
LOC         .                                                   :LOCATION  
CNTY        .                                           CAMERON :LOCATION  
STAT        .                                         LOUISIANA :STATE     
CTRY        .                                     UNITED STATES :COUNTRY   
SRVC        .                                                   :SERVICE COMPANY
DATE        .                             9/13/2023 11:18:18 AM :LOG DATE  
API         .                                    17023023700000 :API NUMBER
UWI         .                                    17023023700000 :UNIQUE WELL ID
XCOORD      .                                  1451308.99719268 :SURFACE X 
YCOORD      .                                  10869234.1720379 :SURFACE Y 
LAT         .                                           29.9476 :LATITUDE  
LON         .                                          -93.5973 :LONGITUDE 
ELEV        .FT                                               2 :ELEVATION VALUE
ELEV_TYPE   .                                                GL :ELEVATION REFERENCE TYPE
~Curve Information Section
#MNEM       .UNIT                                      API CODE :CURVE DESCRIPTION
#------------------------------------------------------------------------------
DEPT        .FT                                                 :DEPTH     
ASN         .OHMM                                               :          
ILD         .OHMM                                               :          
SP          .MV                                                 :          
SP_NORM     .MV                                                 :SP Normalized
VSH_SP      .V/V                                                :Volume of Shale from SP
~A        DEPTH            ASN            ILD             SP        SP_NORM         VSH_SP
# ...
      2694.0000         0.6143         0.4677       -54.6381      -3.141094      0.9451001
      2694.5000         0.6124         0.4568       -54.2236      -2.726593      0.9557284
      2695.0000         0.6105         0.4459       -53.8091      -2.312096      0.9663565
      2695.5000         0.6087         0.4351       -52.7289      -1.231895       0.994054
      2696.0000         0.6068         0.4242       -51.2927      0.2043037              1
      2696.5000         0.6038         0.4133       -50.4865       1.010506              1
      2697.0000         0.5965         0.4024       -51.6466     -0.1495934              1
      2697.5000         0.5891         0.3916       -52.8066      -1.309593      0.9920617
      2698.0000         0.5818         0.3807       -53.9667      -2.469696      0.9623155
      2698.5000         0.5744         0.3698       -58.1566      -6.659595      0.8548822
      2699.0000         0.5671          0.359       -63.1305       -11.6335      0.7273463
      2699.5000         0.5598         0.3481       -66.2391      -14.74209      0.6476387
      2700.0000         0.5524         0.3372       -69.4895       -17.9925      0.5642949
      2700.5000         0.5451         0.3267        -75.892      -24.39499      0.4001284
      2701.0000         0.5366         0.3164       -76.9169       -25.4199      0.3738489
      2701.5000         0.5278          0.306       -75.1901       -23.6931      0.4181257
      2702.0000         0.5191         0.2957       -72.7043      -21.20729      0.4818642
      2702.5000         0.5103         0.2854       -70.1896      -18.69259      0.5463438
      2703.0000         0.5016          0.275       -67.6002      -16.10319      0.6127387
      2703.5000         0.4929         0.2647       -65.3514       -13.8544      0.6704001
      2704.0000          0.501         0.2544       -64.2406       -12.7436      0.6988822
      2704.5000           0.51          0.244       -63.1299       -11.6329      0.7273616
      2705.0000         0.5191         0.2367        -70.187      -18.68999      0.5464105
      2705.5000         0.5282         0.2509       -75.8307       -24.3337         0.4017
      2706.0000         0.5369         0.2652       -79.3186       -27.8216      0.3122667
      2706.5000         0.5456         0.2794       -82.3564      -30.85939      0.2343745
      2707.0000         0.5446         0.2936       -91.8804       -40.3834              0
      2707.5000         0.5407         0.3079       -90.3077       -38.8107     0.03049498
      2708.0000         0.5368         0.3228       -84.6615      -33.16449      0.1752694
      2708.5000         0.5417         0.3426       -77.8501      -26.35309      0.3499207
      2709.0000         0.5479         0.3624       -72.9823      -21.48529       0.474736
      2709.5000         0.5575         0.3822       -68.8525       -17.3555      0.5806283
      2710.0000         0.5778          0.402        -65.213      -13.71599      0.6739489
      2710.5000         0.5982         0.3471       -66.8849       -15.3879      0.6310796
      2711.0000         0.6185         0.3718       -68.5569      -17.05989      0.5882078
      2711.5000         0.6275         0.3964       -70.2288      -18.73179      0.5453386
      2712.0000          0.636          0.421       -71.9006      -20.40359       0.502472
      2712.5000         0.6446         0.4457       -73.5302      -22.03319      0.4606874
      2713.0000         0.6502         0.4697       -75.0737      -23.57669      0.4211104
      2713.5000         0.6476         0.4934       -76.6174       -25.1204      0.3815283
      2714.0000          0.645         0.5171       -73.8896       -22.3926      0.4514719
      2714.5000         0.6424         0.5409       -62.3925       -10.8955      0.7462693
      2715.0000         0.6398         0.5646       -59.3053      -7.808296      0.8254283
      2715.5000         0.6373         0.5816        -56.218      -4.720993        0.90459
      2716.0000         0.6347         0.5826       -55.6873      -4.190296      0.9181975
      2716.5000         0.6321         0.5835       -56.4186      -4.921593      0.8994464
      2717.0000         0.6295         0.5845         -57.15      -5.652996      0.8806924
      2717.5000         0.6269         0.5855       -57.8814      -6.384396      0.8619386
      2718.0000         0.6244         0.5865       -58.6131      -7.116093      0.8431771
      2718.5000         0.6205          0.574       -59.1867      -7.689693      0.8284694
      2719.0000         0.6105         0.5397       -59.4003      -7.903294      0.8229924
      2719.5000         0.6004         0.5055       -59.6138      -8.116795      0.8175181
      2720.0000         0.5903         0.4712       -58.6462      -7.149193      0.8423284
      2720.5000         0.5802         0.4369       -57.6119      -6.114895      0.8688489
      2721.0000         0.5702         0.4042       -58.7158      -7.218796      0.8405437
      2721.5000         0.5618         0.3767       -60.1956      -8.698593      0.8026002
      2722.0000         0.5533         0.3493       -64.2577      -12.76069      0.6984438
      2722.5000         0.5449         0.3219       -68.4457       -16.9487      0.5910591
      2723.0000         0.5363         0.2945         -71.84      -20.34299      0.5040259
      2723.5000         0.5276         0.2689        -74.054        -22.557      0.4472565
      2724.0000         0.5188         0.2491       -77.5013      -26.00429      0.3588643
      2724.5000         0.5085         0.2293       -80.3147      -28.81769      0.2867258
      2725.0000         0.4937         0.2096       -81.2059       -29.7089      0.2638744
      2725.5000         0.4787         0.1988       -82.0972      -30.60019      0.2410207
      2726.0000         0.4608         0.1911       -82.5356      -31.03859      0.2297797
      2726.5000         0.4429         0.1833       -82.9592      -31.46219      0.2189181
      2727.0000         0.4378         0.1756       -84.3177       -32.8207      0.1840847
      2727.5000         0.4449         0.1678       -86.2126       -34.7156      0.1354976
      2728.0000         0.4527         0.1601       -88.0311      -36.53409     0.08886944
      2728.5000         0.4704         0.1545       -89.6544       -38.1574      0.0472462
      2729.0000         0.4881         0.1542       -91.2776       -39.7806      0.0056257
      2729.5000         0.5058         0.1538       -92.9003      -41.40329              0
      2730.0000         0.5235         0.1534       -94.0356      -42.53859              0
      2730.5000         0.5432         0.1531       -95.1566       -43.6596              0
      2731.0000         0.5645         0.1527       -96.2781      -44.78109              0
      2731.5000         0.5858         0.1524       -96.0914      -44.59439              0
      2732.0000          0.607          0.152       -95.5278       -44.0308              0
      2732.5000         0.6239         0.1865       -95.4988       -44.0018              0
      2733.0000         0.6398         0.1827       -95.5065      -44.00949              0
      2733.5000         0.6556         0.1789       -95.5142      -44.01719              0
      2734.0000         0.6715         0.1752       -95.5219      -44.02489              0
      2734.5000          0.636         0.1714       -95.5295       -44.0325              0
      2735.0000            0.6         0.1676       -92.7581       -41.2611              0
      2735.5000          0.564         0.1638        -91.088      -39.59099     0.01048739
      2736.0000         0.5558         0.1627       -90.2739       -38.7769     0.03136161
      2736.5000         0.5488         0.1678       -88.8981       -37.4011     0.06663855
      2737.0000         0.5433         0.1728       -88.5961      -37.09909     0.07438219
      2737.5000         0.5524         0.1778       -90.1106       -38.6136     0.03554877
