#------------------------------------------------------------------------------
# Created by    : vladimir.rabinovich
# Created on    : 09/19/2023 17:20:43
#------------------------------------------------------------------------------
~Version Information Section
VERS.           2.0     :   CWLS log ASCII Standard - VERSION 2.0
WRAP.           NO      :   One line per depth step
~Well Information Section
#MNEM       .UNIT                                         VALUE :DESCRIPTION
#------------------------------------------------------------------------------
STRT        .FT                                             142 :START DEPTH
STOP        .FT                                           12994 :STOP DEPTH
STEP        .FT                                             0.5 :STEP      
NULL        .                                           -999.25 :NULL      
COMP        .                                        TEXACO OIL :COMPANY   
WELL        .                           MIAMI CORP - CAMERON FS :WELL      
FLD         .                                           WILDCAT :FIELD     
LOC         .                                                   :LOCATION  
CNTY        .                                           CAMERON :LOCATION  
STAT        .                                         LOUISIANA :STATE     
CTRY        .                                     UNITED STATES :COUNTRY   
SRVC        .                                                   :SERVICE COMPANY
DATE        .                             9/13/2023 11:18:18 AM :LOG DATE  
API         .                                    17023023700000 :API NUMBER
UWI         .                                    17023023700000 :UNIQUE WELL ID
XCOORD      .                                  1451308.99719268 :SURFACE X 
YCOORD      .                                  10869234.1720379 :SURFACE Y 
LAT         .                                           29.9476 :LATITUDE  
LON         .                                          -93.5973 :LONGITUDE 
ELEV        .FT                                               2 :ELEVATION VALUE
ELEV_TYPE   .                                                GL :ELEVATION REFERENCE TYPE
~Curve Information Section
#MNEM       .UNIT                                      API CODE :CURVE DESCRIPTION
#------------------------------------------------------------------------------
DEPT        .FT                                                 :DEPTH     
ASN         .OHMM                                               :          
ILD         .OHMM                                               :          
SP          .MV                                                 :          
SP_NORM     .MV                                                 :SP Normalized
VSH_SP      .V/V                                                :Volume of Shale from SP
~A        DEPTH            ASN            ILD             SP        SP_NORM         VSH_SP
# ...
      9514.0000         0.9255         0.6206       -42.5248     -0.3749237              1
      9514.5000          0.921         0.6158       -43.0962     -0.9448624              1
      9515.0000         0.9166          0.611       -43.6675      -1.514702      0.9945244
      9515.5000         0.9122         0.6063       -44.2389      -2.084641      0.9884613
      9516.0000         0.9078         0.6015         -44.96      -2.804279      0.9808055
      9516.5000         0.9033         0.5967       -45.9009      -3.743721      0.9708115
      9517.0000         0.8989         0.5919       -46.7249      -4.566257      0.9620611
      9517.5000         0.8928         0.5918       -45.3029      -3.142799      0.9772043
      9518.0000         0.8848         0.6038       -43.8834       -1.72184      0.9923208
      9518.5000         0.8768         0.6159       -42.4614      -0.298378              1
      9519.0000         0.8706         0.6279       -41.0393       1.125183              1
      9519.5000         0.8757           0.64       -40.4329       1.733044              1
      9520.0000         0.8808         0.6434       -40.3381       1.829304              1
      9520.5000         0.8859         0.6455       -40.2434       1.925465              1
      9521.0000          0.891         0.6477       -40.1488       2.021526              1
      9521.5000         0.8961         0.6498       -40.0541       2.117683              1
      9522.0000         0.9011         0.6519       -39.9594       2.213844              1
      9522.5000         0.9062          0.654       -39.8647       2.310005              1
      9523.0000         0.9113         0.6562         -39.77       2.406166              1
      9523.5000         0.9164         0.6583       -39.6752       2.502426              1
      9524.0000         0.9215         0.6604       -39.5806       2.598488              1
      9524.5000         0.9237         0.6625       -39.5878       2.592751              1
      9525.0000         0.9189         0.6618        -39.763        2.41901              1
      9525.5000         0.9141         0.6594       -39.9382        2.24527              1
      9526.0000         0.9094          0.657       -40.1134       2.071529              1
      9526.5000         0.9046         0.6545       -40.2886       1.897789              1
      9527.0000         0.8998         0.6521       -40.4639       1.723949              1
      9527.5000          0.895         0.6496        -40.639       1.550312              1
      9528.0000         0.8933         0.6472       -40.7854       1.405373              1
      9528.5000          0.895         0.6447       -40.4788       1.713432              1
      9529.0000         0.8967         0.6423       -40.1715       2.022194              1
      9529.5000         0.8984         0.6398       -39.8649       2.330257              1
      9530.0000         0.9001         0.6374       -39.5583       2.638317              1
      9530.5000         0.8988         0.6378       -39.2516       2.946476              1
      9531.0000         0.8961         0.6388       -38.9444       3.255135              1
      9531.5000         0.8935         0.6398       -38.6378       3.563198              1
      9532.0000         0.8908         0.6408       -38.7247       3.477757              1
      9532.5000         0.8881         0.6418        -38.886       3.317917              1
      9533.0000         0.8855         0.6428       -39.0472        3.15818              1
      9533.5000         0.8828         0.6438       -39.2085       2.998341              1
      9534.0000         0.8808         0.6441       -39.3698       2.838501              1
      9534.5000         0.8818         0.6431       -39.5309        2.67886              1
      9535.0000         0.8828         0.6421       -39.6922        2.51902              1
      9535.5000         0.8837         0.6411       -39.8535        2.35918              1
      9536.0000         0.8847           0.64       -40.0147        2.19944              1
      9536.5000         0.8857          0.639        -40.176       2.039604              1
      9537.0000         0.8867          0.638       -40.3372       1.879864              1
      9537.5000         0.8875          0.637       -40.1956       2.022926              1
      9538.0000         0.8881          0.636       -39.8998       2.320187              1
      9538.5000         0.8888         0.6349        -39.604       2.617447              1
      9539.0000         0.8895         0.6257       -39.3082       2.914703              1
      9539.5000         0.8902          0.616       -39.0123       3.212067              1
      9540.0000         0.8909         0.6062       -38.7165       3.509327              1
      9540.5000         0.8916         0.5965       -38.4207       3.806587              1
      9541.0000         0.8923         0.5868       -38.3734       3.855347              1
      9541.5000          0.893         0.5921       -38.6285       3.601707              1
      9542.0000         0.8884         0.6034       -38.8841       3.347569              1
      9542.5000         0.8821         0.6148       -39.1393        3.09383              1
      9543.0000         0.8758         0.6261       -39.3945       2.840092              1
      9543.5000         0.8696         0.6289         -39.65       2.586048              1
      9544.0000         0.8793         0.6283       -40.3093       1.928211              1
      9544.5000         0.8889         0.6277       -41.3402      0.8987732              1
      9545.0000         0.8985         0.6272       -42.3699      -0.129467              1
      9545.5000         0.9081         0.6266       -43.4009      -1.159008      0.9983084
      9546.0000         0.9177          0.626       -44.0204      -1.777046      0.9917336
      9546.5000         0.9274         0.6254       -43.9828      -1.737984      0.9921491
      9547.0000         0.9282         0.6248        -43.644      -1.397724      0.9957689
      9547.5000         0.9237         0.6242       -43.1216      -0.873867              1
      9548.0000         0.9193         0.6192       -42.5997     -0.3505058              1
      9548.5000         0.9149         0.6096       -42.0773      0.1733551              1
      9549.0000         0.9105            0.6       -41.5554      0.6967163              1
      9549.5000         0.9061         0.5974        -41.033       1.220577              1
      9550.0000         0.9017         0.6057       -40.5112       1.743839              1
      9550.5000         0.8989         0.6141       -39.9887       2.267799              1
      9551.0000          0.902         0.6224       -39.4669       2.791061              1
      9551.5000         0.9052         0.6307       -38.9444       3.315022              1
      9552.0000         0.9083         0.6391       -38.8619       3.398979              1
      9552.5000         0.9114         0.6474       -38.8775       3.384842              1
      9553.0000         0.9146         0.6558       -38.8931       3.370701              1
      9553.5000         0.9177         0.6545       -38.9087       3.356564              1
      9554.0000          0.925         0.6512       -38.9243       3.342422              1
      9554.5000         0.9395         0.6478       -38.9399       3.328285              1
      9555.0000         0.9539         0.6444       -38.9554       3.314247              1
      9555.5000         0.9683         0.6411       -38.9711       3.300007              1
      9556.0000         0.9781         0.6377       -38.9867       3.285866              1
      9556.5000         0.9632         0.6343       -39.0023       3.271725              1
      9557.0000         0.9482         0.6309       -39.0179       3.257587              1
      9557.5000         0.9332         0.6371        -39.371       2.905949              1
