#------------------------------------------------------------------------------
# Created by    : vladimir.rabinovich
# Created on    : 09/19/2023 17:20:43
#------------------------------------------------------------------------------
~Version Information Section
VERS.           2.0     :   CWLS log ASCII Standard - VERSION 2.0
WRAP.           NO      :   One line per depth step
~Well Information Section
#MNEM       .UNIT                                         VALUE :DESCRIPTION
#------------------------------------------------------------------------------
STRT        .FT                                             142 :START DEPTH
STOP        .FT                                           12994 :STOP DEPTH
STEP        .FT                                             0.5 :STEP      
NULL        .                                           -999.25 :NULL      
COMP        .                                        TEXACO OIL :COMPANY   
WELL        .                           MIAMI CORP - CAMERON FS :WELL      
FLD         .                                           WILDCAT :FIELD     
LOC         .                                                   :LOCATION  
CNTY        .                                           CAMERON :LOCATION  
STAT        .                                         LOUISIANA :STATE     
CTRY        .                                     UNITED STATES :COUNTRY   
SRVC        .                                                   :SERVICE COMPANY
DATE        .                             9/13/2023 11:18:18 AM :LOG DATE  
API         .                                    17023023700000 :API NUMBER
UWI         .                                    17023023700000 :UNIQUE WELL ID
XCOORD      .                                  1451308.99719268 :SURFACE X 
YCOORD      .                                  10869234.1720379 :SURFACE Y 
LAT         .                                           29.9476 :LATITUDE  
LON         .                                          -93.5973 :LONGITUDE 
ELEV        .FT                                               2 :ELEVATION VALUE
ELEV_TYPE   .                                                GL :ELEVATION REFERENCE TYPE
~Curve Information Section
#MNEM       .UNIT                                      API CODE :CURVE DESCRIPTION
#------------------------------------------------------------------------------
DEPT        .FT                                                 :DEPTH     
ASN         .OHMM                                               :          
ILD         .OHMM                                               :          
SP          .MV                                                 :          
SP_NORM     .MV                                                 :SP Normalized
VSH_SP      .V/V                                                :Volume of Shale from SP
~A        DEPTH            ASN            ILD             SP        SP_NORM         VSH_SP
# ...
     10394.0000         1.0202         0.6929       -60.0056      -1.466515      0.9944463
     10394.5000         1.0117         0.6918       -59.8141      -1.278828      0.9966806
     10395.0000         1.0033         0.6875       -59.6224      -1.090946      0.9989173
     10395.5000         1.0077         0.6832       -59.4307     -0.9030647              1
     10396.0000         1.0146         0.6789       -59.2428     -0.7189865              1
     10396.5000         1.0215         0.6747       -59.0756      -0.555603              1
     10397.0000         1.0284         0.6704       -58.9086     -0.3924217              1
     10397.5000         1.0353         0.6661       -58.7413     -0.2289391              1
     10398.0000         1.0422         0.6618        -58.574    -0.06546021              1
     10398.5000         1.0491         0.6575        -58.407      0.0977211              1
     10399.0000          1.056         0.6553       -58.2398      0.2611046              1
     10399.5000         1.0629         0.6609       -58.0728      0.4242859              1
     10400.0000         1.0673         0.6664       -57.9055      0.5877686              1
     10400.5000         1.0597          0.672        -57.787      0.7024498              1
     10401.0000         1.0521         0.6776       -57.7206      0.7650299              1
     10401.5000         1.0445          0.682       -57.6542        0.82761              1
     10402.0000         1.0369         0.6856       -57.5878      0.8901939              1
     10402.5000         1.0293         0.6892       -57.5213      0.9528732              1
     10403.0000         1.0312         0.6928        -57.455       1.015354              1
     10403.5000         1.0406         0.6964       -57.3885       1.078037              1
     10404.0000         1.0499            0.7       -57.3221       1.140621              1
     10404.5000         1.0593         0.7036       -57.2556       1.203304              1
     10405.0000         1.0686         0.7049       -57.1893       1.265785              1
     10405.5000         1.0639          0.702       -57.1228       1.328468              1
     10406.0000         1.0578         0.6992       -57.0563       1.391148              1
     10406.5000         1.0517         0.6963       -56.9899       1.453732              1
     10407.0000         1.0456         0.6935       -56.9333       1.506512              1
     10407.5000         1.0395         0.6906       -56.9566       1.479393              1
     10408.0000         1.0334         0.6878       -56.9798       1.452374              1
     10408.5000         1.0273         0.6849        -57.003       1.425358              1
     10409.0000         1.0212         0.6798       -57.0262       1.398338              1
     10409.5000         1.0244         0.6732       -57.0494       1.371319              1
     10410.0000         1.0378         0.6667       -57.0726       1.344299              1
     10410.5000         1.0511         0.6601       -57.0958       1.317284              1
     10411.0000         1.0644         0.6536       -57.1191       1.290165              1
     10411.5000         1.0777         0.6471       -57.1423       1.263145              1
     10412.0000         1.0826         0.6562        -57.305       1.096626              1
     10412.5000         1.0785         0.6671       -57.6948      0.7030067              1
     10413.0000         1.0743          0.678       -58.0845       0.309494              1
     10413.5000         1.0702         0.6889       -58.4744     -0.0842247              1
     10414.0000          1.066         0.6998       -58.8647      -0.478344              1
     10414.5000         1.0544         0.7107       -59.2546     -0.8720627              1
     10415.0000         1.0196         0.7233       -59.6443      -1.265579      0.9968383
     10415.5000         0.9849         0.7361       -60.1516      -1.776699      0.9907536
     10416.0000         0.9849         0.7489       -60.8436      -2.472519        0.98247
     10416.5000         1.0256         0.7618       -61.5355      -3.168236      0.9741877
     10417.0000         1.0728         0.7746       -62.2288      -3.865356      0.9658886
     10417.5000         1.1199         0.7758       -62.3535      -3.993874      0.9643586
     10418.0000         1.1704         0.7581       -62.4479      -4.092091      0.9631894
     10418.5000         1.1468         0.7405       -62.5849       -4.23291       0.961513
     10419.0000         1.0716         0.7228       -62.9182       -4.57003      0.9574996
     10419.5000         1.0174         0.7062       -63.2515      -4.907146      0.9534863
     10420.0000         1.0025         0.6906       -63.5847      -5.244167      0.9494742
     10420.5000         0.9877          0.675        -63.918      -5.581284      0.9454609
     10421.0000         0.9729         0.6594       -64.2513        -5.9184      0.9414476
     10421.5000          0.958         0.6439       -64.5846      -6.255524      0.9374343
     10422.0000         0.9438         0.6283       -64.9178      -6.592541      0.9334221
     10422.5000         0.9384         0.6127       -64.2133      -5.891857      0.9417636
     10423.0000          0.933         0.5972       -63.4705      -5.152874       0.950561
     10423.5000         0.9276         0.5816       -62.7632       -4.44939      0.9589359
     10424.0000         0.9222         0.5923       -62.0955      -3.785511      0.9668391
     10424.5000         0.9169          0.606       -61.4276      -3.121429      0.9747449
     10425.0000         0.9131         0.6197       -60.7598      -2.457447      0.9826494
     10425.5000         0.9245         0.6333       -60.0919      -1.793365      0.9905552
     10426.0000         0.9358          0.647       -59.4241      -1.129383      0.9984597
     10426.5000         0.9471         0.6607       -58.7562     -0.4653015              1
     10427.0000         0.9639         0.6774       -58.0884      0.1986771              1
     10427.5000         0.9813         0.6958       -57.7251      0.5581589              1
     10428.0000         0.9988         0.7143       -57.8322      0.4472427              1
     10428.5000         1.0162         0.7328       -57.9393      0.3363228              1
     10429.0000         1.0336         0.7513       -58.0463      0.2255058              1
     10429.5000          1.048           0.75       -58.1534      0.1145859              1
     10430.0000         1.0622         0.7311       -58.2604    0.003768921              1
     10430.5000         1.0609         0.7122       -58.3676     -0.1072502              1
     10431.0000         1.0306         0.6933       -58.4747     -0.2181702              1
     10431.5000         0.9995         0.6744       -58.5817     -0.3289833              1
     10432.0000         0.9677         0.6555       -58.4451     -0.1962013              1
     10432.5000         0.9359         0.6385       -58.0668      0.1782799              1
     10433.0000         0.9042         0.6364       -57.6878      0.5534592              1
     10433.5000         0.8885         0.6343       -57.3094      0.9280434              1
     10434.0000         0.8893         0.6322       -56.9311       1.302525              1
     10434.5000         0.9059         0.6301       -56.5584       1.671406              1
     10435.0000         0.9226          0.628        -56.636       1.589985              1
     10435.5000         0.9393         0.6259       -56.7136       1.508568              1
     10436.0000         0.9559         0.6296       -56.7911        1.42725              1
     10436.5000         0.9726         0.6379       -56.8687       1.345833              1
     10437.0000         0.9892         0.6462       -56.9463       1.264412              1
     10437.5000         1.0059         0.6544       -57.0239       1.182995              1
