#------------------------------------------------------------------------------
# Created by    : vladimir.rabinovich
# Created on    : 09/19/2023 17:20:43
#------------------------------------------------------------------------------
~Version Information Section
VERS.           2.0     :   CWLS log ASCII Standard - VERSION 2.0
WRAP.           NO      :   One line per depth step
~Well Information Section
#MNEM       .UNIT                                         VALUE :DESCRIPTION
#------------------------------------------------------------------------------
STRT        .FT                                             142 :START DEPTH
STOP        .FT                                           12994 :STOP DEPTH
STEP        .FT                                             0.5 :STEP      
NULL        .                                           -999.25 :NULL      
COMP        .                                        TEXACO OIL :COMPANY   
WELL        .                           MIAMI CORP - CAMERON FS :WELL      
FLD         .                                           WILDCAT :FIELD     
LOC         .                                                   :LOCATION  
CNTY        .                                           CAMERON :LOCATION  
STAT        .                                         LOUISIANA :STATE     
CTRY        .                                     UNITED STATES :COUNTRY   
SRVC        .                                                   :SERVICE COMPANY
DATE        .                             9/13/2023 11:18:18 AM :LOG DATE  
API         .                                    17023023700000 :API NUMBER
UWI         .                                    17023023700000 :UNIQUE WELL ID
XCOORD      .                                  1451308.99719268 :SURFACE X 
YCOORD      .                                  10869234.1720379 :SURFACE Y 
LAT         .                                           29.9476 :LATITUDE  
LON         .                                          -93.5973 :LONGITUDE 
ELEV        .FT                                               2 :ELEVATION VALUE
ELEV_TYPE   .                                                GL :ELEVATION REFERENCE TYPE
~Curve Information Section
#MNEM       .UNIT                                      API CODE :CURVE DESCRIPTION
#------------------------------------------------------------------------------
DEPT        .FT                                                 :DEPTH     
ASN         .OHMM                                               :          
ILD         .OHMM                                               :          
SP          .MV                                                 :          
SP_NORM     .MV                                                 :SP Normalized
VSH_SP      .V/V                                                :Volume of Shale from SP
~A        DEPTH            ASN            ILD             SP        SP_NORM         VSH_SP
# ...
      3574.0000         0.9501         0.5042        -99.965      -52.09432      0.2595026
      3574.5000         0.9569         0.4555      -102.2788      -54.39822      0.2261128
      3575.0000         0.9758         0.4069      -105.1057       -57.2152       0.185287
      3575.5000         0.9812         0.3583      -109.5034      -61.60299      0.1216958
      3576.0000         0.9777         0.3353      -112.7562      -64.84588     0.07469741
      3576.5000         0.9743          0.318      -115.8573      -67.93706     0.02989772
      3577.0000         0.9708         0.3007      -118.4631      -70.53294              0
      3577.5000         0.9674         0.2834      -120.8983      -72.95824              0
      3578.0000         0.9619         0.2661      -122.5979      -74.64792              0
      3578.5000         0.9499         0.2488       -123.674      -75.71411              0
      3579.0000         0.9379         0.2315        -124.75       -76.7802              0
      3579.5000         0.9349         0.2142      -125.7815      -77.80179              0
      3580.0000         0.9327         0.1969      -126.1951      -78.20547              0
      3580.5000         0.9306         0.1871      -126.6083      -78.60875              0
      3581.0000         0.9285         0.1975      -127.0219      -79.01244              0
      3581.5000         0.9149          0.208      -127.4351      -79.41573              0
      3582.0000         0.8967         0.2184      -126.6021      -78.57281              0
      3582.5000         0.8786         0.2288      -125.2372        -77.198              0
      3583.0000         0.8576         0.2393      -123.1768      -75.12769              0
      3583.5000         0.8296         0.2497      -121.1093      -73.05028              0
      3584.0000         0.8023         0.2601      -118.5137      -70.44476              0
      3584.5000          0.776         0.2706      -114.8793      -66.80045     0.04637035
      3585.0000         0.7496          0.281      -107.0266      -58.93784      0.1603212
      3585.5000         0.7234         0.3238       -98.4813      -50.38262      0.2843098
      3586.0000         0.7196         0.3678       -92.9893      -44.88071      0.3640477
      3586.5000         0.7573         0.4118       -87.3177       -39.1992      0.4463884
      3587.0000         0.7903         0.4558       -82.3717      -34.24328      0.5182133
      3587.5000         0.8131         0.4541       -86.6304      -38.49207      0.4566367
      3588.0000         0.8358          0.443        -90.889      -42.74075      0.3950616
      3588.5000         0.8586          0.432      -101.6887      -53.53054      0.2386878
      3589.0000         0.8813         0.4209      -106.6777      -58.50962      0.1665272
      3589.5000          0.928         0.4099      -109.4149      -61.23692      0.1270012
      3590.0000         0.9858         0.3988      -111.9449        -63.757      0.0904782
      3590.5000         1.0382         0.3878      -113.4651      -65.26729     0.06859002
      3591.0000         1.0163         0.3746      -114.1431      -65.93537     0.05890766
      3591.5000         0.9945         0.3611       -114.821      -66.60336     0.04922662
      3592.0000         0.9726         0.3476       -115.499      -67.27145     0.03954415
      3592.5000         0.9493         0.3341      -116.1748      -67.93733     0.02989374
      3593.0000         0.9253         0.3205      -116.8503      -68.60292     0.02024753
      3593.5000         0.8724          0.307      -117.5258      -69.26851     0.01060132
      3594.0000         0.8376         0.2935      -118.2009      -69.93369    0.000960972
      3594.5000         0.8052         0.2799      -118.9086      -70.63148              0
      3595.0000         0.7797         0.2664      -119.8879      -71.60087              0
      3595.5000         0.7543         0.2529      -120.8673      -72.57036              0
      3596.0000         0.7289         0.2554      -121.8467      -73.53984              0
      3596.5000         0.7112         0.2656      -122.8003      -74.48353              0
      3597.0000          0.704         0.2758      -123.0277      -74.70102              0
      3597.5000         0.6969          0.286      -123.2552      -74.91861              0
      3598.0000         0.6898         0.2962      -123.4829      -75.13639              0
      3598.5000         0.6827         0.3064      -123.7103      -75.35387              0
      3599.0000         0.6756         0.3166      -123.9377      -75.57137              0
      3599.5000         0.6684         0.3268      -124.1654      -75.78915              0
      3600.0000         0.6613          0.337      -123.5458      -75.15964              0
      3600.5000         0.6559         0.3446      -122.7596      -74.36353              0
      3601.0000         0.6525         0.3384       -121.973      -73.56701              0
      3601.5000         0.6492         0.3321      -121.1864      -72.77049              0
      3602.0000         0.6458         0.3259      -120.4004      -71.97458              0
      3602.5000         0.6425         0.3196      -119.6136      -71.17787              0
      3603.0000         0.6392         0.3134       -118.827      -70.38136              0
      3603.5000         0.6358         0.3071      -118.0404      -69.58484    0.006016828
      3604.0000         0.6492         0.3008      -115.8712      -67.40573      0.0375981
      3604.5000         0.6635         0.2946      -113.2339      -64.75851     0.07596356
      3605.0000         0.6779         0.2883      -111.7781       -63.2928     0.09720578
      3605.5000         0.6923         0.2821      -113.4885      -64.99329     0.07256107
      3606.0000         0.7019         0.2758      -114.6177      -66.11258     0.05633943
      3606.5000         0.6505         0.2696      -115.7468      -67.23177     0.04011934
      3607.0000         0.5974         0.2665      -116.1985      -67.67355     0.03371662
      3607.5000          0.573         0.2652      -114.8602      -66.32533     0.05325605
      3608.0000         0.5486         0.2639      -113.5214      -64.97662     0.07280256
      3608.5000         0.5242         0.2626      -112.1831      -63.62841     0.09234194
      3609.0000         0.5065         0.2613      -110.8448       -62.2802      0.1118812
      3609.5000         0.4905           0.26      -109.3682      -60.79369      0.1334248
      3610.0000         0.4746         0.2587      -107.8606      -59.27617      0.1554178
      3610.5000         0.4902         0.2596      -106.3517      -57.75735      0.1774296
      3611.0000         0.5488         0.2664      -109.5565      -60.95225      0.1311269
      3611.5000         0.5611         0.2731      -112.8068      -64.19263     0.08416483
      3612.0000         0.5735         0.2798      -115.7841      -67.16002     0.04115915
      3612.5000         0.5858         0.2865      -118.7639       -70.1299              0
      3613.0000         0.5922         0.2933      -111.2587      -62.61479      0.1070321
      3613.5000         0.5967            0.3      -109.2961      -60.64227      0.1356192
      3614.0000         0.6013         0.3067      -107.3324      -58.66866      0.1642223
      3614.5000         0.6058          0.309      -105.3699      -56.69625      0.1928079
      3615.0000         0.6104         0.2988      -104.1428      -55.45924      0.2107357
      3615.5000         0.6149         0.2885      -103.8458      -55.15232      0.2151837
      3616.0000         0.6195         0.2782      -106.0081      -57.30471      0.1839897
      3616.5000          0.624          0.268        -108.04       -59.3267      0.1546855
      3617.0000         0.6286         0.2577      -109.6753      -60.95208      0.1311292
      3617.5000         0.6301         0.2475      -111.3105      -62.57737      0.1075744
