#------------------------------------------------------------------------------
# Created by    : vladimir.rabinovich
# Created on    : 09/19/2023 17:20:43
#------------------------------------------------------------------------------
~Version Information Section
VERS.           2.0     :   CWLS log ASCII Standard - VERSION 2.0
WRAP.           NO      :   One line per depth step
~Well Information Section
#MNEM       .UNIT                                         VALUE :DESCRIPTION
#------------------------------------------------------------------------------
STRT        .FT                                             142 :START DEPTH
STOP        .FT                                           12994 :STOP DEPTH
STEP        .FT                                             0.5 :STEP      
NULL        .                                           -999.25 :NULL      
COMP        .                                        TEXACO OIL :COMPANY   
WELL        .                           MIAMI CORP - CAMERON FS :WELL      
FLD         .                                           WILDCAT :FIELD     
LOC         .                                                   :LOCATION  
CNTY        .                                           CAMERON :LOCATION  
STAT        .                                         LOUISIANA :STATE     
CTRY        .                                     UNITED STATES :COUNTRY   
SRVC        .                                                   :SERVICE COMPANY
DATE        .                             9/13/2023 11:18:18 AM :LOG DATE  
API         .                                    17023023700000 :API NUMBER
UWI         .                                    17023023700000 :UNIQUE WELL ID
XCOORD      .                                  1451308.99719268 :SURFACE X 
YCOORD      .                                  10869234.1720379 :SURFACE Y 
LAT         .                                           29.9476 :LATITUDE  
LON         .                                          -93.5973 :LONGITUDE 
ELEV        .FT                                               2 :ELEVATION VALUE
ELEV_TYPE   .                                                GL :ELEVATION REFERENCE TYPE
~Curve Information Section
#MNEM       .UNIT                                      API CODE :CURVE DESCRIPTION
#------------------------------------------------------------------------------
DEPT        .FT                                                 :DEPTH     
ASN         .OHMM                                               :          
ILD         .OHMM                                               :          
SP          .MV                                                 :          
SP_NORM     .MV                                                 :SP Normalized
VSH_SP      .V/V                                                :Volume of Shale from SP
~A        DEPTH            ASN            ILD             SP        SP_NORM         VSH_SP
       142.0000         0.8906         0.1154        -61.811      -7.918785              1
       142.5000         0.9203         0.1287       -58.6963      -4.804085              1
       143.0000          0.967         0.1471        -56.265      -2.372784              1
       143.5000         1.0456         0.1655       -54.6794     -0.7871857              1
       144.0000         1.1242          0.184       -52.9929      0.8993149      0.9550343
       144.5000         1.2028         0.2024       -51.1868       2.705418      0.8647291
       145.0000         1.2961         0.2417       -47.1052       6.787014      0.6606493
       145.5000         1.4851         0.3658       -51.8247       2.067516      0.8966242
       146.0000         1.6742         0.5972       -54.3512     -0.4589844              1
       146.5000         2.0687          0.788       -60.4453      -4.628296              1
       147.0000         2.9411         2.3676       -65.2424      -1.759769              1
       147.5000         3.3216         5.4948       -70.0398       1.108459       0.944577
       148.0000         3.5532         7.0885        -74.837       3.976898      0.8011551
       148.5000         3.8435         7.3328       -79.6343       6.845222      0.6577389
       149.0000         4.1458         7.4218       -84.4316       3.542122      0.8228939
       149.5000         4.3379         6.9808       -88.1047      0.4947891      0.9752606
       150.0000         4.5163         5.5191        -90.139     -0.9137421              1
       150.5000         4.6677         5.5687       -90.6409     -0.7898788              1
       151.0000         4.8191         6.3425       -91.1427     -0.6659164              1
       151.5000         4.9524         6.6155       -91.6445      -0.541954              1
       152.0000         5.0701         6.8878       -92.1464     -0.4180832              1
       152.5000         5.1878         7.1378       -92.2927    -0.07472992              1
       153.0000         5.3568         7.4067       -92.4137     -0.1848831              1
       153.5000          5.514         7.3782       -92.5348     -0.2951431              1
       154.0000         5.6361         7.3105       -92.6558      -0.405304              1
       154.5000         5.7582         7.0626       -92.7767     -0.5153656              1
       155.0000          5.885         7.1289       -92.8978      -0.625618              1
       155.5000         6.0177         7.6212       -93.0188     -0.7357788              1
       156.0000         6.1462          7.983       -92.9744     -0.6805344              1
       156.5000         6.2607           8.13       -92.8735     -0.5687866              1
       157.0000         6.3683         8.2042       -92.7726     -0.4570465              1
       157.5000         6.4706         8.1713       -92.6718     -0.3454056              1
       158.0000         6.5066         8.0709       -92.5708     -0.2335663              1
       158.5000         6.4734         7.9705         -92.47     -0.1219254              1
       159.0000           6.44         7.8701       -92.1788      0.1801147      0.9909943
       159.5000         6.4068         7.7534       -91.7014      0.6683655      0.9665817
       160.0000         6.3463         7.6213       -91.2241       1.156509      0.9421746
       160.5000         6.2673         7.4882       -90.7468       1.644646      0.9177677
       161.0000         6.1882         7.3519       -90.2695        2.13279      0.8933605
       161.5000         6.1091         7.2607       -89.3448       3.068329      0.8465835
       162.0000         6.0301         7.1958       -89.0715        3.35247      0.8323765
       162.5000         5.9684         7.1309       -90.1107       2.324112      0.8837944
       163.0000         5.9134         7.0107       -90.8688       1.576866      0.9211567
       163.5000         5.8583          6.889       -91.6268      0.8297043      0.9585148
       164.0000         5.8032         6.7526       -92.3848     0.08254242      0.9958729
       164.5000         5.7488         6.6162       -93.1428     -0.6646118              1
       165.0000         5.7076         6.4777       -93.7797      -1.290672              1
       165.5000         5.6664         6.3393       -94.2451      -1.745232              1
       166.0000         5.6252         6.2018       -94.7104      -2.199692              1
       166.5000          5.584         6.0646       -95.1759      -2.654343              1
       167.0000         5.5428         5.9258       -95.6412      -3.108795              1
       167.5000         5.4974         5.7686        -96.014      -3.470757              1
       168.0000         5.4447         5.5987       -96.1152      -3.561111              1
       168.5000         5.3921         5.4057       -96.2163      -3.651375              1
       169.0000         5.3394         5.2748       -96.3175       -3.74173              1
       169.5000         5.2867         5.1702       -96.2002      -3.613594              1
       170.0000          5.234         5.0657       -95.9054      -3.307945              1
       170.5000         5.1813         4.9578       -95.6106      -3.002304              1
       171.0000         5.1135         4.8482       -95.3206      -2.701462              1
       171.5000         5.0434          4.739       -95.2933      -2.663315              1
       172.0000         4.9733         4.6305        -95.266      -2.625175              1
       172.5000         4.9033          4.522       -95.2386      -2.586937              1
       173.0000         4.8342         4.4283       -95.2114      -2.548889              1
       173.5000         4.7725         4.3377       -95.1841      -2.510742              1
       174.0000         4.7109         4.2586       -95.1155      -2.431305              1
       174.5000         4.6492         4.2872       -95.0244      -2.329361              1
       175.0000         4.5876         4.3158       -94.9333      -2.227417              1
       175.5000         4.5259         4.3444       -94.8422      -2.125481              1
       176.0000         4.4916         4.4223       -94.7511      -2.023537              1
       176.5000         4.4652         4.5669         -94.66      -1.921593              1
       177.0000         4.5888         4.7115       -94.4167       -1.66745              1
       177.5000         5.5402         5.0649       -94.0796      -1.319504              1
       178.0000         6.2254         7.8659       -93.7423     -0.9713669              1
       178.5000         6.6207         8.6415        -93.405     -0.6232224              1
       179.0000          7.017         9.3173       -93.0679     -0.2752838              1
       179.5000         7.2281         9.3748       -93.0905     -0.2870407              1
       180.0000         7.3197         9.3215       -93.6449     -0.8305893              1
       180.5000         7.2381         9.2139       -94.1908      -1.365654              1
       181.0000         7.1564         9.1063       -94.7366      -1.900612              1
       181.5000         7.0867         9.1516       -95.2825      -2.435669              1
       182.0000         7.0217         9.2595       -95.8284      -2.970726              1
       182.5000         6.9566         9.3674       -95.7948      -2.926285              1
       183.0000         6.8916         9.2958       -95.7147      -2.835342              1
       183.5000         6.8266         8.7979       -95.6345      -2.744293              1
       184.0000         6.7539         8.2498       -95.2146      -2.313553              1
       184.5000         6.6548         7.1411       -94.4749      -1.563011              1
       185.0000         6.5557         6.6901       -93.7351     -0.8123703              1
       185.5000         6.4566         7.1542       -92.9954    -0.06182861              1
