#------------------------------------------------------------------------------
# Created by    : vladimir.rabinovich
# Created on    : 09/19/2023 17:20:43
#------------------------------------------------------------------------------
~Version Information Section
VERS.           2.0     :   CWLS log ASCII Standard - VERSION 2.0
WRAP.           NO      :   One line per depth step
~Well Information Section
#MNEM       .UNIT                                         VALUE :DESCRIPTION
#------------------------------------------------------------------------------
STRT        .FT                                             142 :START DEPTH
STOP        .FT                                           12994 :STOP DEPTH
STEP        .FT                                             0.5 :STEP      
NULL        .                                           -999.25 :NULL      
COMP        .                                        TEXACO OIL :COMPANY   
WELL        .                           MIAMI CORP - CAMERON FS :WELL      
FLD         .                                           WILDCAT :FIELD     
LOC         .                                                   :LOCATION  
CNTY        .                                           CAMERON :LOCATION  
STAT        .                                         LOUISIANA :STATE     
CTRY        .                                     UNITED STATES :COUNTRY   
SRVC        .                                                   :SERVICE COMPANY
DATE        .                             9/13/2023 11:18:18 AM :LOG DATE  
API         .                                    17023023700000 :API NUMBER
UWI         .                                    17023023700000 :UNIQUE WELL ID
XCOORD      .                                  1451308.99719268 :SURFACE X 
YCOORD      .                                  10869234.1720379 :SURFACE Y 
LAT         .                                           29.9476 :LATITUDE  
LON         .                                          -93.5973 :LONGITUDE 
ELEV        .FT                                               2 :ELEVATION VALUE
ELEV_TYPE   .                                                GL :ELEVATION REFERENCE TYPE
~Curve Information Section
#MNEM       .UNIT                                      API CODE :CURVE DESCRIPTION
#------------------------------------------------------------------------------
DEPT        .FT                                                 :DEPTH     
ASN         .OHMM                                               :          
ILD         .OHMM                                               :          
SP          .MV                                                 :          
SP_NORM     .MV                                                 :SP Normalized
VSH_SP      .V/V                                                :Volume of Shale from SP
~A        DEPTH            ASN            ILD             SP        SP_NORM         VSH_SP
# ...
      7842.0000         0.8357         0.2941      -110.6406      -63.51284      0.3349697
      7842.5000         0.8396         0.2881      -112.0883      -64.96823      0.3194869
      7843.0000         0.8426          0.282      -114.3732      -67.26082      0.2950977
      7843.5000         0.8455         0.2759      -118.0281       -70.9234       0.256134
      7844.0000         0.8485         0.2699      -121.9042      -74.80719      0.2148171
      7844.5000         0.8441         0.2638      -124.6868      -77.59747      0.1851333
      7845.0000          0.832         0.2578      -126.8938      -79.81216      0.1615727
      7845.5000           0.82         0.2517      -128.4246      -81.35066      0.1452057
      7846.0000          0.808         0.2462      -129.2793      -82.21304      0.1360314
      7846.5000          0.796         0.2407      -129.6594      -82.60082      0.1319061
      7847.0000          0.784         0.2352      -130.0403      -82.98941      0.1277722
      7847.5000         0.7719         0.2296      -130.4204       -83.3772      0.1236468
      7848.0000         0.7599         0.2241      -133.0295      -85.99399     0.09580864
      7848.5000         0.7479         0.2186      -137.8057      -90.77788     0.04491619
      7849.0000         0.7565         0.2131      -141.2141      -94.19396    0.008574871
      7849.5000         0.7651         0.2152      -144.0295      -97.01704              0
      7850.0000         0.7737         0.2244      -146.3875      -99.38274              0
      7850.5000         0.7823         0.2337      -148.1897      -101.1926              0
      7851.0000         0.7727         0.2429      -149.4805      -102.4911              0
      7851.5000         0.7624         0.2521      -150.7498      -103.7681              0
      7852.0000         0.7493         0.2533      -151.6487      -104.6747              0
      7852.5000          0.729         0.2543       -151.908      -104.9417              0
      7853.0000         0.7086         0.2554      -149.3635      -102.4049              0
      7853.5000         0.6882         0.2564      -145.2361      -98.28515              0
      7854.0000         0.6678         0.2574      -142.1243      -95.18103              0
      7854.5000         0.6475         0.2584      -139.4521      -92.51653     0.02641994
      7855.0000         0.6518         0.2594      -137.4412      -90.51331     0.04773079
      7855.5000         0.6585         0.2604       -135.855       -88.9348     0.06452341
      7856.0000         0.6652         0.2603      -134.4675      -87.55499     0.07920229
      7856.5000         0.6537         0.2538      -133.0798      -86.17497     0.09388327
      7857.0000         0.6411         0.2473      -131.6948      -84.79765      0.1085356
      7857.5000         0.6286         0.2408      -130.3074      -83.41795      0.1232133
      7858.0000          0.616         0.2344      -131.3127      -84.43094      0.1124368
      7858.5000         0.6034         0.2279      -133.4395      -86.56542     0.08972955
      7859.0000         0.5953         0.2214      -135.6362      -88.76981     0.06627866
      7859.5000         0.5902         0.2192      -137.8333      -90.97459     0.04282347
      7860.0000         0.5851         0.2262      -139.9397      -93.08868     0.02033315
      7860.5000           0.58         0.2333      -141.9995      -95.15617              0
      7861.0000         0.5749         0.2403      -142.1113      -95.27566              0
      7861.5000         0.5698         0.2474      -142.2231      -95.39514              0
      7862.0000         0.5739         0.2544       -142.335      -95.51474              0
      7862.5000         0.5922         0.2615      -142.6169      -95.80432              0
      7863.0000         0.6104         0.2677      -143.3796       -96.5747              0
      7863.5000         0.6287         0.2692      -144.1426      -97.34538              0
      7864.0000         0.6469         0.2707      -144.9043      -98.11478              0
      7864.5000         0.6652         0.2722      -145.6672      -98.88538              0
      7865.0000         0.6922         0.2737      -145.8809      -99.10677              0
      7865.5000          0.708         0.2752      -144.9998      -98.23335              0
      7866.0000         0.6757         0.2767      -144.1187      -97.35992              0
      7866.5000         0.6434         0.2782      -143.7539      -97.00282              0
      7867.0000         0.6169         0.2714      -143.6489       -96.9055              0
      7867.5000          0.594         0.2636      -143.5439       -96.8082              0
      7868.0000          0.599         0.2559      -143.4392      -96.71117              0
      7868.5000         0.6309         0.2481      -143.3342      -96.61386              0
      7869.0000         0.6583         0.2404      -142.5991      -95.88646              0
      7869.5000         0.6197         0.2326      -141.6277      -94.92274   0.0008218643
      7870.0000         0.4728         0.2249      -140.6562      -93.95894     0.01107512
      7870.5000          0.445         0.2171      -139.6846      -92.99502     0.02132959
      7871.0000          0.425         0.2122      -139.4905      -92.80859     0.02331283
      7871.5000         0.4169         0.2124      -139.5376      -92.86339     0.02272991
      7872.0000         0.4088         0.2126      -139.5845      -92.91798     0.02214911
      7872.5000         0.4008         0.2128      -139.6316      -92.97277     0.02156627
      7873.0000         0.3927          0.213      -137.3406      -90.68946      0.0458568
      7873.5000         0.3847         0.2132        -135.27      -88.62654     0.06780276
      7874.0000         0.3914         0.2135      -135.4902      -88.85443     0.06537839
      7874.5000         0.3981         0.2137      -135.7104      -89.08232     0.06295403
      7875.0000         0.4056         0.2151      -135.9307       -89.3103     0.06052877
      7875.5000         0.4131         0.2229      -136.1514      -89.53868     0.05809914
      7876.0000         0.4206         0.2308      -136.3716      -89.76657     0.05567478
      7876.5000         0.4218         0.2387      -136.0159      -89.41856     0.05937698
      7877.0000         0.4159         0.2465      -134.3896      -87.79996      0.0765962
      7877.5000           0.41         0.2544      -132.7632      -86.18124     0.09381664
      7878.0000         0.4041         0.2622       -131.137      -84.56271       0.111035
      7878.5000         0.3982         0.2701      -129.8674      -83.30081      0.1244595
      7879.0000          0.479         0.2699      -128.6924       -82.1335      0.1368777
      7879.5000         0.5238          0.267      -127.5172      -80.96599       0.149298
      7880.0000         0.5649         0.2642      -126.3408      -79.79727      0.1617312
      7880.5000          0.593         0.2613      -126.2692      -79.73337       0.162411
      7881.0000         0.6037         0.2585      -126.8335      -80.30535      0.1563261
      7881.5000         0.5979         0.2556      -127.3578      -80.83734      0.1506666
      7882.0000         0.5845         0.2528      -127.4652      -80.95242      0.1494423
      7882.5000         0.5711         0.2499      -127.5725      -81.06741       0.148219
      7883.0000         0.5577         0.2471      -127.6799       -81.1825      0.1469947
      7883.5000         0.5443         0.2442      -127.4443      -80.95458      0.1494193
      7884.0000          0.531         0.2382      -125.0211      -78.53908      0.1751162
      7884.5000         0.5176         0.2317      -122.5979      -76.12356      0.2008132
      7885.0000         0.5042         0.2251       -119.124      -72.65735      0.2376878
      7885.5000         0.4923         0.2186      -114.5994      -68.14044        0.28574
