#------------------------------------------------------------------------------
# Created by    : vladimir.rabinovich
# Created on    : 09/19/2023 17:20:43
#------------------------------------------------------------------------------
~Version Information Section
VERS.           2.0     :   CWLS log ASCII Standard - VERSION 2.0
WRAP.           NO      :   One line per depth step
~Well Information Section
#MNEM       .UNIT                                         VALUE :DESCRIPTION
#------------------------------------------------------------------------------
STRT        .FT                                             142 :START DEPTH
STOP        .FT                                           12994 :STOP DEPTH
STEP        .FT                                             0.5 :STEP      
NULL        .                                           -999.25 :NULL      
COMP        .                                        TEXACO OIL :COMPANY   
WELL        .                           MIAMI CORP - CAMERON FS :WELL      
FLD         .                                           WILDCAT :FIELD     
LOC         .                                                   :LOCATION  
CNTY        .                                           CAMERON :LOCATION  
STAT        .                                         LOUISIANA :STATE     
CTRY        .                                     UNITED STATES :COUNTRY   
SRVC        .                                                   :SERVICE COMPANY
DATE        .                             9/13/2023 11:18:18 AM :LOG DATE  
API         .                                    17023023700000 :API NUMBER
UWI         .                                    17023023700000 :UNIQUE WELL ID
XCOORD      .                                  1451308.99719268 :SURFACE X 
YCOORD      .                                  10869234.1720379 :SURFACE Y 
LAT         .                                           29.9476 :LATITUDE  
LON         .                                          -93.5973 :LONGITUDE 
ELEV        .FT                                               2 :ELEVATION VALUE
ELEV_TYPE   .                                                GL :ELEVATION REFERENCE TYPE
~Curve Information Section
#MNEM       .UNIT                                      API CODE :CURVE DESCRIPTION
#------------------------------------------------------------------------------
DEPT        .FT                                                 :DEPTH     
ASN         .OHMM                                               :          
ILD         .OHMM                                               :          
SP          .MV                                                 :          
SP_NORM     .MV                                                 :SP Normalized
VSH_SP      .V/V                                                :Volume of Shale from SP
~A        DEPTH            ASN            ILD             SP        SP_NORM         VSH_SP
# ...
      8678.0000         1.1332           0.23      -146.0283      -101.7169     0.03156801
      8678.5000          1.169         0.2439      -146.4746      -102.1632     0.02727677
      8679.0000         1.2048         0.2578      -145.8804       -101.569     0.03299016
      8679.5000         0.9802         0.2718      -140.7712      -96.45982     0.08211716
      8680.0000         0.7763          0.282      -126.5918      -82.28042      0.2184575
      8680.5000         0.6318         0.2709      -118.9535      -74.64212      0.2919027
      8681.0000         0.6914         0.2598      -115.5813      -71.26992      0.3243277
      8681.5000         0.7477         0.2486      -120.7817      -76.47032      0.2743238
      8682.0000           0.79         0.2408      -127.5974      -83.28602      0.2087883
      8682.5000         0.8323          0.239      -132.4626      -88.15122      0.1620075
      8683.0000         0.8012         0.2372      -136.6272      -92.31582      0.1219633
      8683.5000         0.7622         0.2353      -139.5093      -95.19791     0.09425083
      8684.0000         0.7332         0.2335      -140.6011      -96.28973     0.08375263
      8684.5000         0.7041         0.2316      -138.5544      -94.24302      0.1034325
      8685.0000         0.6751         0.2298      -136.2742      -91.96282      0.1253575
      8685.5000           0.68         0.2523      -133.8567      -89.54533      0.1486026
      8686.0000         0.7537           0.28      -131.4368      -87.12542       0.171871
      8686.5000          0.863         0.3078      -129.5933      -85.28193      0.1895968
      8687.0000         1.0011         0.3355      -127.9478      -83.63642       0.205419
      8687.5000         1.1609         0.3593      -126.6394      -82.32802      0.2179998
      8688.0000         1.3207         0.3659      -126.1461      -81.83472       0.222743
      8688.5000         1.4803         0.3725      -126.9828      -82.67142      0.2146978
      8689.0000         1.6401         0.3791      -128.4377      -84.12632      0.2007085
      8689.5000         1.7999         0.3591      -134.0674      -89.75602      0.1465767
      8690.0000         1.7798         0.3354      -139.3899      -95.07851      0.0953989
      8690.5000         1.4964         0.3117      -143.5596      -99.24822     0.05530556
      8691.0000         1.2134          0.288       -145.958      -101.6466     0.03224409
      8691.5000         0.9424          0.265      -146.4543      -102.1429     0.02747191
      8692.0000          0.831         0.2563      -146.9507      -102.6393     0.02269884
      8692.5000         0.8104         0.2475      -147.4573      -103.1459     0.01782762
      8693.0000         0.8086         0.2388      -148.0396      -103.7282     0.01222867
      8693.5000         0.8068         0.2342      -148.6216      -104.3102    0.006632512
      8694.0000         0.8036         0.2321      -149.2039      -104.8925    0.001033416
      8694.5000         0.7465         0.2301      -149.7859      -105.4745              0
      8695.0000         0.7091         0.2281      -150.3682      -106.0568              0
      8695.5000         0.6992          0.226      -151.0378      -106.7264              0
      8696.0000         0.6893          0.224      -151.7769      -107.4655              0
      8696.5000         0.6606          0.222      -151.4517      -107.1403              0
      8697.0000         0.6255           0.22      -150.2571      -105.9457              0
      8697.5000         0.5947         0.2178       -149.061      -104.7496    0.002407441
      8698.0000         0.5639         0.2152      -147.8662      -103.5548     0.01389599
      8698.5000         0.5378         0.2126      -147.3176      -103.0062     0.01917098
      8699.0000         0.5184         0.2099       -146.832      -102.5206     0.02384017
      8699.5000          0.499         0.2073       -146.811      -102.4996     0.02404206
      8700.0000         0.4784         0.2046      -147.9094       -103.598     0.01348063
      8700.5000         0.4567         0.2061      -149.0088      -104.6974    0.002909367
      8701.0000         0.4356         0.2191      -150.1072      -105.7958              0
      8701.5000         0.4482         0.2321      -151.3044       -106.993              0
      8702.0000         0.4609         0.2452      -151.4834       -107.172              0
      8702.5000         0.4735         0.2582      -151.4736      -107.1622              0
      8703.0000         0.4861         0.2713      -151.4639      -107.1525              0
      8703.5000         0.5089         0.2673      -151.4543      -107.1429              0
      8704.0000         0.5322         0.2552      -151.3147      -107.0033              0
      8704.5000         0.5555         0.2431      -151.1111      -106.7997              0
      8705.0000         0.5788          0.231      -150.9077      -106.5963              0
      8705.5000         0.5531         0.2189      -150.6252      -106.3138              0
      8706.0000         0.5241         0.2112      -150.0901      -105.7787              0
      8706.5000         0.5162         0.2076      -149.5542      -105.2428              0
      8707.0000         0.5087          0.204       -149.019      -104.7076    0.002811359
      8707.5000         0.5012         0.2004      -148.4839      -104.1725    0.007956505
      8708.0000         0.4937         0.1968       -147.948      -103.6366     0.01310943
      8708.5000         0.4862         0.1932      -147.4128      -103.1014      0.0182556
      8709.0000         0.4787         0.1896      -146.8772      -102.5658     0.02340559
      8709.5000         0.4712          0.186       -146.342      -102.0306     0.02855176
      8710.0000         0.4728         0.1824      -146.3884       -102.077     0.02810559
      8710.5000         0.4817         0.1799      -146.6416      -102.3302     0.02567093
      8711.0000         0.4907         0.1787      -146.6187      -102.3073     0.02589116
      8711.5000         0.4996         0.1775      -146.1802      -101.8688     0.03010743
      8712.0000         0.5086         0.1763      -145.7419      -101.4305     0.03432193
      8712.5000         0.5175         0.1751      -145.3901      -101.0787     0.03770454
      8713.0000         0.5265         0.1739      -145.2268      -100.9154     0.03927473
      8713.5000         0.5528         0.1727      -145.0635      -100.7521     0.04084492
      8714.0000         0.6124         0.1715      -145.4958      -101.1844     0.03668822
      8714.5000         0.6516         0.1703      -146.5293      -102.2179     0.02675078
      8715.0000         0.6838          0.169      -147.5627      -103.2513     0.01681423
      8715.5000         0.7085         0.1678      -148.5874       -104.276    0.006961309
      8716.0000         0.7316         0.1666      -147.4155      -103.1041     0.01822963
      8716.5000         0.7528         0.1674      -146.2437      -101.9323     0.02949693
      8717.0000         0.7472         0.1683      -145.0718      -100.7604     0.04076525
      8717.5000         0.7416         0.1691      -143.9392      -99.62782     0.05165562
      8718.0000         0.7251           0.17      -142.9031      -98.59173       0.061618
      8718.5000          0.653         0.1709      -142.2839      -97.97253     0.06757186
      8719.0000         0.6034         0.1717      -142.4529      -98.14152     0.06594694
      8719.5000          0.575         0.1726      -142.6226      -98.31123     0.06431513
      8720.0000         0.5466         0.1734      -144.8699      -100.5585     0.04270649
      8720.5000         0.5636         0.1743      -147.9666      -103.6552     0.01293058
      8721.0000         0.5857         0.1752      -148.3411      -104.0297    0.009329649
      8721.5000         0.6078          0.176      -148.7163      -104.4049    0.005721972
