#------------------------------------------------------------------------------
# Created by    : vladimir.rabinovich
# Created on    : 09/19/2023 17:19:27
#------------------------------------------------------------------------------
~Version Information Section
VERS.           2.0     :   CWLS log ASCII Standard - VERSION 2.0
WRAP.           NO      :   One line per depth step
~Well Information Section
#MNEM       .UNIT                                         VALUE :DESCRIPTION
#------------------------------------------------------------------------------
STRT        .FT                                          4322.5 :START DEPTH
STOP        .FT                                            9954 :STOP DEPTH
STEP        .FT                                             0.5 :STEP      
NULL        .                                           -999.25 :NULL      
COMP        .                                ATP OIL & GAS CORP :COMPANY   
WELL        .                               OCS G13829 ST00BP00 :WELL      
FLD         .                           WEST CAMERON BLOCK 0092 :FIELD     
LOC         .                                                   :LOCATION  
CNTY        .                                      WEST CAMERON :LOCATION  
STAT        .                                         LOUISIANA :STATE     
CTRY        .                                     UNITED STATES :COUNTRY   
SRVC        .                                                   :SERVICE COMPANY
DATE        .                             9/13/2023 11:19:21 AM :LOG DATE  
API         .                                    17700409910000 :API NUMBER
UWI         .                                    17700409910000 :UNIQUE WELL ID
XCOORD      .                                  1447604.75856055 :SURFACE X 
YCOORD      .                                  10719416.1500606 :SURFACE Y 
LAT         .                                        29.5354331 :LATITUDE  
LON         .                                       -93.6065144 :LONGITUDE 
ELEV        .FT                                              97 :ELEVATION VALUE
ELEV_TYPE   .                                                KB :ELEVATION REFERENCE TYPE
~Curve Information Section
#MNEM       .UNIT                                      API CODE :CURVE DESCRIPTION
#------------------------------------------------------------------------------
DEPT        .FT                                                 :DEPTH     
AFCO        .MMHO                                               :          
AT10        .OHMM                                               :          
AT20        .OHMM                                               :          
AT30        .OHMM                                               :          
AT60        .OHMM                                               :          
AT90        .OHMM                                               :          
CSAX        .MMHO                                               :          
DCAL        .IN                                                 :          
DPHZ        .%                                                  :          
GR          .GAPI                                               :          
GR_NORM     .GAPI                                               :GammaRay Normalized
GRAX        .GAPI                                               :          
HDRA        .G/C3                                               :          
NPOR        .%                                                  :          
ROPS        .FT/HR                                              :          
RSAX        .OHMM                                               :          
RWA         .OHMM                                               :          
SP          .MV                                                 :          
SP_NORM     .MV                                                 :SP Normalized
TENS        .LBF                                                :          
VSH_SP      .V/V                                                :Volume of Shale from SP
~A        DEPTH           AFCO           AT10           AT20           AT30           AT60           AT90           CSAX           DCAL           DPHZ             GR        GR_NORM           GRAX           HDRA           NPOR           ROPS           RSAX            RWA             SP        SP_NORM           TENS         VSH_SP
# ...
      5572.5000       1523.486         0.6263         0.6409          0.638         0.7055         0.6897        -999.25         0.6476          20.73       100.4963        73.3005        -999.25         0.0309        37.7999        -999.25        -999.25         0.0354         -48.25        -3.4991           2240      0.9829648
      5573.0000        1577.91         0.6066         0.6213         0.6126         0.6779         0.6633        -999.25          0.684          20.33        99.7791        72.7664        -999.25         0.0325          37.34        -999.25        -999.25         0.0328       -47.1875        -2.4526           2226      0.9948568
      5573.5000       1632.896         0.5812         0.5941         0.5825         0.6468         0.6332        -999.25         0.5991          20.91        107.234        78.3614        -999.25         0.0328          40.77        -999.25        -999.25         0.0337       -46.5625        -1.8435           2256              1
      5574.0000       1680.068          0.558         0.5673         0.5538         0.6081         0.5964        -999.25         0.6234             22       111.9375        81.8928        -999.25         0.0366          48.58        -999.25        -999.25         0.0365       -46.3125        -1.6094           2263              1
      5574.5000       1735.666         0.5598         0.5627          0.546         0.5931         0.5821        -999.25         0.5991          23.63        115.799        84.7927        -999.25         0.0324        45.7199        -999.25        -999.25         0.0412        -47.375        -2.6878           2248      0.9921841
      5575.0000       1805.773         0.5685         0.5674         0.5433         0.5802         0.5711        -999.25         0.5749          23.89       110.8755        81.1038        -999.25         0.0361          43.95        -999.25        -999.25         0.0406         -47.25        -2.5788           2247      0.9934227
      5575.5000       1856.973         0.5588         0.5528         0.5281         0.5559         0.5487        -999.25         0.5263          23.97       112.9037        82.6287        -999.25          0.037        41.2299        -999.25        -999.25           0.04            -48        -3.3447           2232      0.9847193
      5576.0000       1870.367         0.5916          0.568         0.5323         0.5508          0.545        -999.25         0.4657          23.53        99.0494        72.2418        -999.25         0.0466        43.4999        -999.25        -999.25         0.0382        -53.125        -8.4856           2229         0.9263
      5576.5000       1879.799         0.7042         0.6207         0.5626         0.5565         0.5521        -999.25         0.3808          24.39        99.7399        72.7634        -999.25         0.0437        40.4299        -999.25        -999.25         0.0411       -60.1875        -15.564           2250      0.8458636
      5577.0000       1888.125         0.7519         0.6317         0.5647         0.5671         0.5633        -999.25         0.5021          25.09        82.8436         60.095        -999.25         0.0409        35.3799        -999.25        -999.25         0.0436       -60.4375         -15.83           2288      0.8428409
      5577.5000       1884.139         0.6653         0.5853         0.5335           0.53         0.5272        -999.25         0.4293          25.09        91.7939        66.8115        -999.25         0.0354           35.9        -999.25        -999.25         0.0438         -55.25       -10.6584           2300      0.9016091
      5578.0000       1880.893         0.7276         0.5689         0.5283         0.5149         0.5126        -999.25         0.4051          24.03         87.368        63.4958        -999.25         0.0369        40.5699        -999.25        -999.25           0.04        -58.375       -13.7993           2279       0.865917
      5578.5000       1922.707         0.9637         0.6198         0.5457         0.5105         0.5081        -999.25         0.4293          23.15        95.0398        69.2535        -999.25         0.0348           33.9        -999.25        -999.25         0.0361        -61.375       -16.8152           2243      0.8316454
      5579.0000        1999.84          1.003         0.7021         0.5555         0.4946         0.4928        -999.25         0.5263           22.7        88.7988        64.5765        -999.25         0.0333          34.55        -999.25        -999.25         0.0333       -55.6875       -11.1436           2251      0.8960955
      5579.5000       2117.637         0.8119         0.6186         0.5204         0.4486         0.4465        -999.25         0.4778          22.25        96.3114        70.2147        -999.25         0.0335          39.35        -999.25        -999.25         0.0302        -54.125        -9.5971           2251      0.9136693
      5580.0000       2296.156         0.6698         0.4978         0.4803         0.4107         0.4083        -999.25         0.4536          21.88        93.4308         68.058        -999.25         0.0372        43.0699        -999.25        -999.25         0.0268            -58        -13.488           2219      0.8694546
      5580.5000       2499.438         0.6615         0.4757         0.4524         0.3807         0.3785        -999.25         0.4293          22.04        94.2703        68.6914        -999.25         0.0403          44.71        -999.25        -999.25          0.025          -73.5       -29.0039           2230      0.6931375
      5581.0000       2669.406         0.6523         0.4814         0.4285         0.3599         0.3576        -999.25         0.4293          24.79        79.1714         57.371        -999.25         0.0304        44.1199        -999.25        -999.25         0.0302       -92.5625       -48.0823           2221      0.4763375
      5581.5000       2797.652         0.5663         0.4238         0.3783         0.3175         0.3155        -999.25         0.3566          28.67        72.6786        52.5052        -999.25          0.017          37.33        -999.25        -999.25         0.0393       -100.875       -56.4108           2239      0.3816954
      5582.0000       2866.828         0.4717         0.3504         0.3328         0.2964         0.2946        -999.25         0.2838          32.93        60.7495        43.5622        -999.25         0.0041        38.2799        -999.25        -999.25         0.0517        -98.875       -54.4267           2249       0.404242
      5582.5000        2841.09         0.4513         0.3329         0.3216         0.2859         0.2842        -999.25         0.3323        34.9999        70.4028        50.8059        -999.25        -0.0022        33.4799        -999.25        -999.25         0.0594        -85.125       -40.6926           2251      0.5603114
      5583.0000        2682.73         0.5149          0.376         0.3678         0.3405         0.3376        -999.25         0.3929        33.5599        72.8925         52.677        -999.25         0.0038          34.23        -999.25        -999.25         0.0575          -67.5       -23.0835           2261      0.7604148
      5583.5000       2415.594         0.6385         0.4585         0.4471          0.403         0.3994        -999.25         0.5021          29.21        89.8199        65.3763        -999.25          0.025          37.66        -999.25        -999.25         0.0473        -55.625       -11.2245           2265      0.8951761
      5584.0000       2181.836         0.7547           0.54         0.5253         0.4912         0.4861        -999.25         0.5506          24.39        95.2554        69.4567        -999.25         0.0452        38.3099        -999.25        -999.25         0.0356         -51.75        -7.3654           2197      0.9390296
      5584.5000       1974.143         0.7949         0.5926         0.5818         0.5572         0.5508        -999.25         0.5991          21.31        99.8424        72.9007        -999.25         0.0565        37.1699        -999.25        -999.25         0.0294       -50.5625        -6.1938           2190      0.9523432
