#------------------------------------------------------------------------------
# Created by    : vladimir.rabinovich
# Created on    : 09/19/2023 17:22:04
#------------------------------------------------------------------------------
~Version Information Section
VERS.           2.0     :   CWLS log ASCII Standard - VERSION 2.0
WRAP.           NO      :   One line per depth step
~Well Information Section
#MNEM       .UNIT                                         VALUE :DESCRIPTION
#------------------------------------------------------------------------------
STRT        .FT                                           911.5 :START DEPTH
STOP        .FT                                           12432 :STOP DEPTH
STEP        .FT                                             0.5 :STEP      
NULL        .                                           -999.25 :NULL      
COMP        .                                    EXXON CO U S A :COMPANY   
WELL        .                               OCS G03260 ST00BP00 :WELL      
FLD         .                                           WILDCAT :FIELD     
LOC         .                                                   :LOCATION  
CNTY        .                                      WEST CAMERON :LOCATION  
STAT        .                                         LOUISIANA :STATE     
CTRY        .                                     UNITED STATES :COUNTRY   
SRVC        .                                                   :SERVICE COMPANY
DATE        .                             9/13/2023 11:18:18 AM :LOG DATE  
API         .                                    17700402650000 :API NUMBER
UWI         .                                    17700402650000 :UNIQUE WELL ID
XCOORD      .                                  1465533.33943019 :SURFACE X 
YCOORD      .                                  10722576.3450242 :SURFACE Y 
LAT         .                                        29.5443718 :LATITUDE  
LON         .                                       -93.5501671 :LONGITUDE 
ELEV        .FT                                              99 :ELEVATION VALUE
ELEV_TYPE   .                                                KB :ELEVATION REFERENCE TYPE
~Curve Information Section
#MNEM       .UNIT                                      API CODE :CURVE DESCRIPTION
#------------------------------------------------------------------------------
DEPT        .FT                                                 :DEPTH     
CALI        .IN                                                 :          
DRHO        .G/CC                                               :          
GR          .GAPI                                               :          
GR_NORM     .GAPI                                               :GammaRay Normalized
ILD         .OHMM                                               :          
RHOB        .G/CC                                               :          
VSH_GR      .V/V                                                :Volume of Shale from GR
~A        DEPTH           CALI           DRHO             GR        GR_NORM            ILD           RHOB         VSH_GR
# ...
      7042.0000         12.433         0.0605        57.5433       91.39465         0.5581         2.2773              1
      7042.5000        12.4409         0.0694        57.7188       91.69236         0.5656          2.278              1
      7043.0000        12.4255         0.0844        56.9459       90.37847         0.5738         2.2825              1
      7043.5000        12.4084         0.0876        56.2952       89.27205         0.5821         2.3013              1
      7044.0000        12.3877         0.0722        56.6384       89.85474         0.5903         2.2854              1
      7044.5000        12.3849         0.0794         57.767       91.77188         0.5989         2.2926              1
      7045.0000         12.385         0.0879        58.7763       93.48645         0.6111         2.3093              1
      7045.5000         12.322         0.0921        59.6089       94.90078         0.6233         2.3103              1
      7046.0000        12.2723         0.0885        59.7105       95.07276         0.6354         2.3016              1
      7046.5000        12.2682         0.0865        58.8571       93.62208         0.6476         2.3013              1
      7047.0000         12.279         0.0846        57.0339       90.52325         0.6598         2.3047              1
      7047.5000        12.2887         0.1008        55.2878       87.55559         0.6696         2.3299              1
      7048.0000        12.2916          0.093         53.801        85.0284         0.6792         2.3466              1
      7048.5000        12.2924         0.0834        52.6735       83.11195         0.6887         2.3545              1
      7049.0000        12.3252         0.0768        51.0131       80.28993         0.6982         2.3531              1
      7049.5000        12.4363         0.0859        50.8122       79.94786         0.7078         2.3603      0.9988906
      7050.0000        12.5733         0.0985        50.9854       80.24168         0.7167          2.374              1
      7050.5000        12.6113         0.1151        51.5051        81.1241         0.7165         2.3823              1
      7051.0000        12.6425         0.1232        51.9731       81.91888         0.7164         2.3717              1
      7051.5000        12.6487         0.1161        51.8575       81.72193         0.7162         2.3609              1
      7052.0000        12.4298         0.1154        51.6528       81.37341          0.716         2.3625              1
      7052.5000        12.2858          0.104        51.6278       81.33043         0.7151         2.3526              1
      7053.0000        12.2622         0.0837        51.7996       81.62167         0.7135         2.3434              1
      7053.5000        12.2957         0.0755        52.3166       82.49969         0.7119         2.3415              1
      7054.0000        12.2603         0.0906        52.8044       83.32794         0.7104          2.355              1
      7054.5000        12.1975          0.092         53.187       83.97758         0.7088         2.3642              1
      7055.0000        12.1851          0.098        53.4229       84.37791         0.7072          2.386              1
      7055.5000         12.191         0.0916        53.4691       84.45574         0.7056         2.3963              1
      7056.0000        12.1994         0.0698          53.06       83.76006          0.704         2.3994              1
      7056.5000        12.1962         0.0399        52.1575       82.22577         0.7025         2.3985              1
      7057.0000        12.1773         0.0244        51.2495        80.6823         0.7037         2.3951              1
      7057.5000        12.1503         0.0239        50.7056       79.75755         0.7059         2.4146      0.9948416
      7058.0000        12.1447         0.0458         50.251       78.98438         0.7082         2.4212      0.9783909
      7058.5000        12.1479         0.0687        49.1284       77.07623         0.7104         2.3942      0.9377922
      7059.0000         12.155         0.0844        48.4684       75.95404         0.7126         2.3794      0.9139158
      7059.5000        12.1621         0.0402        48.6826       76.31751         0.7148         2.3582      0.9216492
      7060.0000        12.1571         0.0235        48.2071       75.50897         0.7171         2.3335      0.9044462
      7060.5000        12.1472         0.0261         47.893       74.97456         0.7193         2.3619      0.8930758
      7061.0000        12.1326         0.0536        49.2948        77.3561         0.7202         2.3817      0.9437469
      7061.5000        12.1184         0.0758        50.9516       80.17081         0.7189          2.387              1
      7062.0000        12.1114         0.0847        52.2575       82.38943         0.7175         2.3757              1
      7062.5000        12.1085         0.0895         52.773       83.26472         0.7162         2.3591              1
      7063.0000        12.1087         0.0859        52.8955       83.47239         0.7149         2.3439              1
      7063.5000        12.1185         0.0818        53.0688       83.76635         0.7136         2.3402              1
      7064.0000        12.1255         0.0899        53.4917        84.4843         0.7122          2.349              1
      7064.5000        12.1232         0.0998        54.1706       85.63744         0.7099         2.3618              1
      7065.0000        12.1247         0.1007        54.5908        86.3508          0.704         2.3723              1
      7065.5000        12.1375         0.0923        55.2709       87.50597         0.6981         2.3613              1
      7066.0000        12.1384         0.0966        55.9866       88.72165         0.6922         2.3414              1
      7066.5000        12.1311         0.1089        56.4141       89.44743         0.6862         2.3534              1
      7067.0000        12.1155         0.1007        57.3763       91.08198         0.6813         2.3433              1
      7067.5000        12.1048         0.0844        57.6163       91.48911         0.6788         2.3239              1
      7068.0000        12.1058         0.0738        56.7493       90.01531         0.6764          2.311              1
      7068.5000        12.1153         0.0742         55.775       88.35903         0.6739         2.3198              1
      7069.0000        12.1313         0.0743        55.1226       87.24988         0.6715         2.3139              1
      7069.5000        12.1403         0.0937        54.5851       86.33602          0.669         2.3371              1
      7070.0000         12.162         0.0916        54.5586       86.29031         0.6719         2.3335              1
      7070.5000         12.206         0.0825        54.8052       86.70885         0.6753         2.3199              1
      7071.0000        12.2504         0.0811        54.8193       86.73212         0.6787         2.3196              1
      7071.5000         12.288         0.0779        53.8287       85.04829         0.6822         2.3104              1
      7072.0000        12.3293         0.0817        53.1722       83.93222         0.6859         2.2938              1
      7072.5000        12.3873         0.0833        53.7847       84.97234         0.6895         2.2822              1
      7073.0000        12.4901          0.071        53.6286       84.70656         0.6932         2.2583              1
      7073.5000         12.557         0.0414        53.1733       83.93222          0.689         2.2438              1
      7074.0000        12.4842         0.0241        52.5783       82.92062         0.6692         2.2514              1
      7074.5000        12.4321         0.0342        51.8017       81.60045         0.6493         2.2768              1
      7075.0000        12.4457         0.0586        51.0698       80.35604         0.6294         2.3087              1
