#------------------------------------------------------------------------------
# Created by    : vladimir.rabinovich
# Created on    : 09/19/2023 17:20:13
#------------------------------------------------------------------------------
~Version Information Section
VERS.           2.0     :   CWLS log ASCII Standard - VERSION 2.0
WRAP.           NO      :   One line per depth step
~Well Information Section
#MNEM       .UNIT                                         VALUE :DESCRIPTION
#------------------------------------------------------------------------------
STRT        .FT                                             608 :START DEPTH
STOP        .FT                                            9135 :STOP DEPTH
STEP        .FT                                             0.5 :STEP      
NULL        .                                           -999.25 :NULL      
COMP        .                             PHILLIPS PETROLEUM CO :COMPANY   
WELL        .                                OCS 00757 ST00BP00 :WELL      
FLD         .                           WEST CAMERON BLOCK 0118 :FIELD     
LOC         .                                                   :LOCATION  
CNTY        .                                      WEST CAMERON :LOCATION  
STAT        .                                         LOUISIANA :STATE     
CTRY        .                                     UNITED STATES :COUNTRY   
SRVC        .                                                   :SERVICE COMPANY
DATE        .                             9/13/2023 11:18:18 AM :LOG DATE  
API         .                                    17700400630000 :API NUMBER
UWI         .                                    17700400630000 :UNIQUE WELL ID
XCOORD      .                                  1437747.16229911 :SURFACE X 
YCOORD      .                                  10702102.5427903 :SURFACE Y 
LAT         .                                         29.487661 :LATITUDE  
LON         .                                       -93.6372228 :LONGITUDE 
ELEV        .FT                                              84 :ELEVATION VALUE
ELEV_TYPE   .                                                KB :ELEVATION REFERENCE TYPE
~Curve Information Section
#MNEM       .UNIT                                      API CODE :CURVE DESCRIPTION
#------------------------------------------------------------------------------
DEPT        .FT                                                 :DEPTH     
ASFL        .OHMM                                               :          
ASN         .OHMM                                               :          
CALI        .IN                                                 :          
DRHO        .G/CC                                               :          
GR          .GAPI                                               :          
GR_NORM     .GAPI                                               :GammaRay Normalized
ILD         .OHMM                                               :          
RHOB        .G/CC                                               :          
SP          .MV                                                 :          
SP_NORM     .MV                                                 :SP Normalized
VSH_GR      .V/V                                                :Volume of Shale from GR
VSH_SP      .V/V                                                :Volume of Shale from SP
~A        DEPTH           ASFL            ASN           CALI           DRHO             GR        GR_NORM            ILD           RHOB             SP        SP_NORM         VSH_GR         VSH_SP
# ...
      6204.5000        -999.25         1.3024        12.5292        -0.0179        91.6666       40.23903         0.4262         2.1552      -150.2812        -56.003      0.1540219      0.3076539
      6205.0000        -999.25         1.3291         12.318        -0.0163        95.5466       42.34678         0.4547         2.1822      -146.8525        -52.579      0.1988677      0.3515513
      6205.5000        -999.25         1.3525        11.9087        -0.0146        99.4297       44.45627         0.4886         2.2066      -143.0186       -48.7497      0.2437504      0.4006449
      6206.0000        -999.25          1.362         11.488        -0.0128        103.618       46.73162         0.5225         2.2234      -138.8538       -44.5896      0.2921621      0.4539795
      6206.5000        -999.25          1.364         11.405        -0.0108       109.7311       50.05302         0.5564         2.2242      -135.5437       -41.2841      0.3628302      0.4963577
      6207.0000        -999.25         1.3454        11.4533        -0.0088       115.4122       53.13954         0.5902         2.2243       -132.792       -38.5371      0.4285008      0.5315756
      6207.5000        -999.25         1.2882        11.5524        -0.0062       120.5259       55.91781          0.624         2.2294      -128.8396       -34.5894       0.487613      0.5821872
      6208.0000        -999.25         1.2348        11.7584        -0.0033       127.4839       59.69833         0.6559          2.258      -122.0613       -27.8157      0.5680495      0.6690295
      6208.5000        -999.25         1.1837        11.9955        -0.0003       133.7078       63.07994         0.6684          2.277      -116.1573       -21.9164      0.6399988      0.7446615
      6209.0000        -999.25         1.1225        11.8001         0.0037       137.5725       65.17943         0.6627         2.2878      -111.8098       -17.5736      0.6846687      0.8003384
      6209.5000        -999.25         1.0686        11.0352         0.0077       140.5889       66.81785         0.6386         2.2959      -108.2081       -13.9765      0.7195287      0.8464552
      6210.0000        -999.25         1.0334        10.8841          0.011       142.9082       68.07748         0.6116         2.3016      -106.1776       -11.9507      0.7463294      0.8724269
      6210.5000        -999.25         0.9974        10.9946         0.0143       143.3857       68.33617         0.5899         2.2936      -104.1768        -9.9545      0.7518333      0.8980193
      6211.0000        -999.25         0.9661         11.055          0.015       143.5955       68.44931         0.5686         2.2825      -101.9856         -7.768      0.7542406      0.9260513
      6211.5000        -999.25         0.9393         11.123         0.0157       144.0293        68.6842         0.5507         2.2717       -99.6563        -5.4434      0.7592382      0.9558538
      6212.0000        -999.25         0.9166        11.2669          0.017       145.1582       69.29689         0.5327         2.2593        -98.379        -4.1707      0.7722743      0.9721705
      6212.5000        -999.25         0.9012        11.4961         0.0189       146.7002       70.13403         0.5186         2.2569       -97.5305        -3.3269      0.7900858      0.9829885
      6213.0000        -999.25         0.8876         11.651         0.0188       147.7532       70.70543         0.5057          2.266       -97.1243        -2.9253      0.8022432      0.9881372
      6213.5000        -999.25         0.8895        11.6808         0.0158       148.0867       70.88585         0.4941         2.2677       -96.8167        -2.6224      0.8060819      0.9920205
      6214.0000        -999.25         0.8935        11.6904         0.0106       147.7791       70.71782         0.4879         2.2618       -96.6642        -2.4746      0.8025068      0.9939154
      6214.5000        -999.25         0.8974        11.6813         0.0054       147.3098       70.46196         0.4816         2.2565       -97.1267        -2.9417       0.797063      0.9879269
      6215.0000        -999.25         0.8971         11.668        -0.0001       146.0417       69.77198         0.4753         2.2629       -98.2383         -4.058      0.7823825      0.9736154
      6215.5000        -999.25         0.8952        11.6482        -0.0055       144.6306        69.0043         0.4804         2.2769       -99.4067         -5.231      0.7660488      0.9585769
      6216.0000        -999.25         0.8908         11.623         0.0018       143.5806       68.43279          0.486         2.2889       -99.8535        -5.6825      0.7538892      0.9527885
      6216.5000        -999.25         0.8865        11.5692         0.0098       143.3389       68.30063         0.4956          2.289       -99.9506        -5.7843      0.7510772      0.9514833
      6217.0000        -999.25         0.8885        11.5154         0.0118       143.2373       68.24454         0.5118         2.2736      -100.7382        -6.5765      0.7498838      0.9413269
      6217.5000        -999.25         0.8958        11.3525         0.0087       142.4895       67.83727         0.5281         2.2598       -103.984         -9.827      0.7412186      0.8996539
      6218.0000        -999.25          0.924        11.0717         0.0029       141.3538       67.21925         0.5448         2.2686      -108.0452       -13.8929      0.7280691      0.8475269
      6218.5000        -999.25         0.9779         10.798        -0.0032       140.0151       66.49091         0.5614          2.273      -111.9679       -17.8202      0.7125725      0.7971769
      6219.0000        -999.25         1.0637         10.735        -0.0098       137.6033       65.17932         0.5553         2.2667       -115.073         -20.93      0.6846664      0.7573077
      6219.5000        -999.25         1.1363        10.7113        -0.0158        134.991       63.75883         0.5411         2.2528      -119.6107       -25.4723      0.6544432      0.6990731
      6220.0000        -999.25         1.1722        10.6918        -0.0195       130.2598       61.18675         0.5039         2.2341      -128.4343       -34.3006       0.599718      0.5858898
      6220.5000        -999.25         1.2014        10.6865        -0.0233       123.8693       57.71296         0.4543         2.2098      -139.0564       -44.9274      0.5258077      0.4496487
      6221.0000        -999.25         1.1949         10.684        -0.0205       117.6823       54.34972         0.4175         2.1785      -145.8989       -51.7745      0.4542493      0.3618654
      6221.5000        -999.25         1.1645        10.7353        -0.0154       113.1915       51.90828         0.3827         2.1402      -150.5332       -56.4135      0.4023039       0.302391
      6222.0000        -999.25          1.143        10.8517        -0.0101       109.9678       50.15552         0.3522          2.125      -153.7197       -59.6046       0.365011      0.2614795
      6222.5000        -999.25          1.133        10.9188        -0.0152       109.1227       49.69543         0.3329         2.1174      -155.6958       -61.5854      0.3552218      0.2360846
      6223.0000        -999.25         1.1305        10.8348        -0.0184       111.2546        50.8531         0.3272         2.1386      -156.4927        -62.387      0.3798532      0.2258077
      6223.5000        -999.25         1.1294        10.6563        -0.0158       115.4862       53.15204         0.3221         2.1609      -155.3328       -61.2317      0.4287668      0.2406192
      6224.0000        -999.25         1.1287        10.4557         -0.014       119.4341       55.29663         0.3246         2.1573      -154.0198       -59.9234      0.4743965      0.2573923
      6224.5000        -999.25         1.1286        10.3862        -0.0193       122.1096       56.74985         0.3271         2.1479      -153.0657        -58.974      0.5053159      0.2695641
