#------------------------------------------------------------------------------
# Created by    : vladimir.rabinovich
# Created on    : 09/19/2023 17:20:59
#------------------------------------------------------------------------------
~Version Information Section
VERS.           2.0     :   CWLS log ASCII Standard - VERSION 2.0
WRAP.           NO      :   One line per depth step
~Well Information Section
#MNEM       .UNIT                                         VALUE :DESCRIPTION
#------------------------------------------------------------------------------
STRT        .FT                                            4010 :START DEPTH
STOP        .FT                                           10351 :STOP DEPTH
STEP        .FT                                             0.5 :STEP      
NULL        .                                           -999.25 :NULL      
COMP        .                         TALOS ENERGY VENTURES LLC :COMPANY   
WELL        .                               OCS G13557 ST00BP00 :WELL      
FLD         .                           WEST CAMERON BLOCK 0118 :FIELD     
LOC         .                                                   :LOCATION  
CNTY        .                                      WEST CAMERON :LOCATION  
STAT        .                                         LOUISIANA :STATE     
CTRY        .                                     UNITED STATES :COUNTRY   
SRVC        .                                                   :SERVICE COMPANY
DATE        .                             9/13/2023 11:19:21 AM :LOG DATE  
API         .                                    17700409470000 :API NUMBER
UWI         .                                    17700409470000 :UNIQUE WELL ID
XCOORD      .                                  1434760.35260149 :SURFACE X 
YCOORD      .                                  10716448.9068769 :SURFACE Y 
LAT         .                                        29.5270802 :LATITUDE  
LON         .                                       -93.6468641 :LONGITUDE 
ELEV        .FT                                             100 :ELEVATION VALUE
ELEV_TYPE   .                                                KB :ELEVATION REFERENCE TYPE
~Curve Information Section
#MNEM       .UNIT                                      API CODE :CURVE DESCRIPTION
#------------------------------------------------------------------------------
DEPT        .FT                                                 :DEPTH     
AT10        .OHMM                                               :          
AT20        .OHMM                                               :          
AT30        .OHMM                                               :          
AT60        .OHMM                                               :          
AT90        .OHMM                                               :          
CALI        .IN                                                 :          
DPHI        .%                                                  :          
DRHO        .G/C3                                               :          
DTLF        .US/F                                               :          
DTLN        .US/F                                               :          
GR          .GAPI                                               :          
GR_NORM     .GAPI                                               :GammaRay Normalized
NPOR        .%                                                  :          
RHOB        .G/C3                                               :          
SP          .MV                                                 :          
SP_NORM     .MV                                                 :SP Normalized
TENS        .LBF                                                :          
VSH_GR      .V/V                                                :Volume of Shale from GR
VSH_SP      .V/V                                                :Volume of Shale from SP
~A        DEPTH           AT10           AT20           AT30           AT60           AT90           CALI           DPHI           DRHO           DTLF           DTLN             GR        GR_NORM           NPOR           RHOB             SP        SP_NORM           TENS         VSH_GR         VSH_SP
# ...
      9491.0000         1.3244         1.1178         1.0803         0.9816         0.9906        10.3301        20.3555         0.0072             88           86.7         82.625        77.2673        37.4579         2.3141        -999.25        -999.25           3515      0.9418575        -999.25
      9491.5000         1.0188         0.8843         0.8806         0.8224         0.8308        10.3386        21.5523         0.0087        91.2999        92.8999        73.5398        68.1812        37.1923         2.2944        -999.25        -999.25           3470      0.7485361        -999.25
      9492.0000           0.85         0.7364         0.7337         0.7095         0.7175        10.3212        22.6388         0.0038           94.7        96.3999        61.1403        55.7807        34.3318         2.2765        -999.25        -999.25           3470      0.4846958        -999.25
      9492.5000          0.779         0.6527         0.6351         0.6279         0.6356         9.8496        22.4841        -0.0052             96           94.2        52.4146        47.0541        29.6945          2.279        -999.25        -999.25           3470      0.2990234        -999.25
      9493.0000         0.7532         0.6065         0.5731         0.5667          0.574         9.7826        20.3181        -0.0057           90.5           92.2        46.7447        41.3833        25.2547         2.3147        -999.25        -999.25           3470      0.1783681        -999.25
      9493.5000         0.7786         0.6045         0.5591         0.5433         0.5501          9.808        18.2899        -0.0101           83.2        85.2999         45.163        39.8007        22.1062         2.3482        -999.25        -999.25           3515      0.1446958        -999.25
      9494.0000         0.9273         0.6942         0.6178         0.5816         0.5879         9.8091        16.0114        -0.0064        79.8999        81.2999         49.037        43.6738         19.863         2.3858        -999.25        -999.25           3515      0.2271022        -999.25
      9494.5000         1.2997         0.9212         0.7753         0.6974         0.7024         9.8075        13.9199         0.0073        73.3999           74.2        50.9572         45.593        19.9249         2.4203        -999.25        -999.25           3515      0.2679361        -999.25
      9495.0000          1.861         1.2161         1.0146         0.8667         0.8686         9.8433        15.3264         0.0121           70.5        71.3999        56.1249        50.7598        22.9862         2.3971        -999.25        -999.25           3515      0.3778681        -999.25
      9495.5000          2.104         1.3467         1.1856         0.9831         0.9824         9.8884        18.7828         0.0127        75.2999           74.2        70.5881        65.2221        28.0303         2.3401        -999.25        -999.25           3515      0.6855766        -999.25
      9496.0000          1.761         1.2642          1.142         0.9681         0.9686         9.9229        20.6669         0.0191        78.8999             79        84.2675        78.9006        32.8232          2.309        -999.25        -999.25           3515      0.9766085        -999.25
      9496.5000         1.3487         1.0925         1.0044         0.8907         0.8937         9.9559        23.1084         0.0273        82.7999        84.3999        89.4613        84.0935        37.4081         2.2687        -999.25        -999.25           3515              1        -999.25
      9497.0000         1.1174         0.9749         0.9112         0.8271         0.8319         9.9238        23.3785         0.0412        91.3999           91.6        87.9116        82.5428        41.0287         2.2643        -999.25        -999.25           3515              1        -999.25
      9497.5000         1.0097         0.9463         0.8721         0.7912         0.7968        10.0734        22.0284         0.0506        97.7999             97        80.9948        75.6251        42.5926         2.2865        -999.25        -999.25           3530       0.906917        -999.25
      9498.0000         0.9295          0.924         0.8502         0.7709         0.7767        10.2636        21.3624         0.0413       101.8999          100.5        83.0325        77.6619        43.0297         2.2975        -999.25        -999.25           3530      0.9502532        -999.25
      9498.5000         0.8444         0.8671           0.82         0.7544         0.7602        10.3891        21.9388         0.0293       104.2999       104.8999        83.8073        78.4358        43.4164          2.288        -999.25        -999.25           3530      0.9667191        -999.25
      9499.0000         0.7705         0.8053         0.7803         0.7344         0.7405         10.394        20.7176         0.0276          107.5       108.2999        87.6486        82.2761        43.4636         2.3082        -999.25        -999.25           3530              1        -999.25
      9499.5000         0.7102         0.7462         0.7355         0.7064         0.7131        10.4027        19.4149         0.0295          109.1          106.6        90.4225        85.0491         42.363         2.3296        -999.25        -999.25           3530              1        -999.25
      9500.0000         0.6589         0.6997         0.6915          0.673         0.6803         10.454        19.1591         0.0216          110.6       109.3999        88.3848        83.0105        41.0369         2.3339        -999.25        -999.25           3530              1        -999.25
      9500.5000         0.6237         0.6701         0.6581         0.6448         0.6527        10.4498         19.797         0.0105       110.8999          110.1        92.4241        87.0489        39.7818         2.3233        -999.25        -999.25           3530              1        -999.25
      9501.0000         0.6075         0.6525           0.64         0.6304         0.6389        10.4622        19.9585         0.0097          112.7          112.7        91.7491         86.373        39.3371         2.3207        -999.25        -999.25           3530              1        -999.25
      9501.5000         0.6049         0.6489         0.6353         0.6293         0.6384        10.4495        20.6911         0.0068       107.7999          110.7        96.8516        91.4745        39.1969         2.3086        -999.25        -999.25           3505              1        -999.25
      9502.0000         0.6137         0.6512         0.6421         0.6354         0.6452        10.4279        20.9423         0.0041       110.2999       109.2999        96.3351        90.9571         39.537         2.3045        -999.25        -999.25           3505              1        -999.25
      9502.5000         0.6293         0.6675         0.6549         0.6407         0.6514        10.4495        21.4538         0.0012          109.1            110        95.8744        90.4955        39.6366          2.296        -999.25        -999.25           3505              1        -999.25
      9503.0000         0.6392         0.6831         0.6615          0.641         0.6527         10.374        20.9313         -0.001          108.7          109.6        90.7437        85.3639        40.1609         2.3046        -999.25        -999.25           3505              1        -999.25
      9503.5000         0.6372         0.6774         0.6567         0.6379         0.6507        10.2951        19.9361         0.0007          110.1          111.7        88.5826        83.2019          39.91          2.321        -999.25        -999.25           3550              1        -999.25
      9504.0000         0.6336         0.6604         0.6486         0.6358         0.6497        10.2681         18.816         0.0039          109.2          111.6        89.4873        84.1056        39.8196         2.3395        -999.25        -999.25           3550              1        -999.25
