#------------------------------------------------------------------------------
# Created by    : vladimir.rabinovich
# Created on    : 09/19/2023 17:20:59
#------------------------------------------------------------------------------
~Version Information Section
VERS.           2.0     :   CWLS log ASCII Standard - VERSION 2.0
WRAP.           NO      :   One line per depth step
~Well Information Section
#MNEM       .UNIT                                         VALUE :DESCRIPTION
#------------------------------------------------------------------------------
STRT        .FT                                            4010 :START DEPTH
STOP        .FT                                           10351 :STOP DEPTH
STEP        .FT                                             0.5 :STEP      
NULL        .                                           -999.25 :NULL      
COMP        .                         TALOS ENERGY VENTURES LLC :COMPANY   
WELL        .                               OCS G13557 ST00BP00 :WELL      
FLD         .                           WEST CAMERON BLOCK 0118 :FIELD     
LOC         .                                                   :LOCATION  
CNTY        .                                      WEST CAMERON :LOCATION  
STAT        .                                         LOUISIANA :STATE     
CTRY        .                                     UNITED STATES :COUNTRY   
SRVC        .                                                   :SERVICE COMPANY
DATE        .                             9/13/2023 11:19:21 AM :LOG DATE  
API         .                                    17700409470000 :API NUMBER
UWI         .                                    17700409470000 :UNIQUE WELL ID
XCOORD      .                                  1434760.35260149 :SURFACE X 
YCOORD      .                                  10716448.9068769 :SURFACE Y 
LAT         .                                        29.5270802 :LATITUDE  
LON         .                                       -93.6468641 :LONGITUDE 
ELEV        .FT                                             100 :ELEVATION VALUE
ELEV_TYPE   .                                                KB :ELEVATION REFERENCE TYPE
~Curve Information Section
#MNEM       .UNIT                                      API CODE :CURVE DESCRIPTION
#------------------------------------------------------------------------------
DEPT        .FT                                                 :DEPTH     
AT10        .OHMM                                               :          
AT20        .OHMM                                               :          
AT30        .OHMM                                               :          
AT60        .OHMM                                               :          
AT90        .OHMM                                               :          
CALI        .IN                                                 :          
DPHI        .%                                                  :          
DRHO        .G/C3                                               :          
DTLF        .US/F                                               :          
DTLN        .US/F                                               :          
GR          .GAPI                                               :          
GR_NORM     .GAPI                                               :GammaRay Normalized
NPOR        .%                                                  :          
RHOB        .G/C3                                               :          
SP          .MV                                                 :          
SP_NORM     .MV                                                 :SP Normalized
TENS        .LBF                                                :          
VSH_GR      .V/V                                                :Volume of Shale from GR
VSH_SP      .V/V                                                :Volume of Shale from SP
~A        DEPTH           AT10           AT20           AT30           AT60           AT90           CALI           DPHI           DRHO           DTLF           DTLN             GR        GR_NORM           NPOR           RHOB             SP        SP_NORM           TENS         VSH_GR         VSH_SP
# ...
      4860.5000          0.448         0.2937         0.2656         0.2546         0.2568        12.0448        30.9813         0.0115       115.2999       115.7999        49.2411       46.77946        39.6695         2.1388        -999.25        -999.25           1985        0.29318        -999.25
      4861.0000         0.4774         0.3057         0.2737         0.2586         0.2612        12.2934        30.6897         0.0076       117.3999          117.2        50.9599       50.28772        39.4276         2.1436        -999.25        -999.25           1900      0.3678237        -999.25
      4861.5000         0.4968         0.3125         0.2796         0.2613         0.2646        13.5923        30.8089         0.0035          115.5          117.2        50.0535       49.48311        39.3255         2.1416        -999.25        -999.25           1900      0.3507044        -999.25
      4862.0000         0.5129         0.3182         0.2845         0.2634         0.2673        14.2468        32.4925        -0.0038          115.7          114.2        50.3214       49.71611        40.6227         2.1139        -999.25        -999.25           1900      0.3556619        -999.25
      4862.5000         0.5288         0.3248          0.289         0.2656           0.27        15.4563        34.6703        -0.0043          121.7          117.7        48.0889       47.73977        40.2083         2.0779        -999.25        -999.25           1900       0.313612        -999.25
      4863.0000         0.5443         0.3319         0.2932         0.2676         0.2723        15.1043        35.9727        -0.0059          126.5          130.5        50.3548        49.7382        41.1001         2.0564        -999.25        -999.25           1855      0.3561319        -999.25
      4863.5000         0.5541         0.3366         0.2965         0.2687         0.2734        14.2316        36.0488        -0.0076            129       128.7998        49.5775       49.04758        41.3002         2.0552        -999.25        -999.25           1855      0.3414379        -999.25
      4864.0000         0.5579         0.3383         0.2982         0.2691         0.2737        15.4474        35.1177        -0.0073          126.5       128.3999        51.6169       50.84588        40.2062         2.0706        -999.25        -999.25           1855      0.3796996        -999.25
      4864.5000          0.552         0.3354         0.2963         0.2685         0.2728        13.4502        33.3395        -0.0095       123.3999          122.5        49.1243       48.63971         36.494         2.0999        -999.25        -999.25           1855      0.3327598        -999.25
      4865.0000         0.5227         0.3225         0.2882          0.264         0.2684        12.7051        30.2063        -0.0076          114.2          111.7        48.2743       47.88494        34.0638         2.1516        -999.25        -999.25           1855      0.3167008        -999.25
      4865.5000         0.4749         0.3019         0.2744         0.2549         0.2594        11.1974        28.0292        -0.0072       113.8999       114.3999        45.5551       45.47855        32.2909         2.1875        -999.25        -999.25           1855      0.2655011        -999.25
      4866.0000         0.4292         0.2814         0.2585         0.2444         0.2491        11.4894        27.2312        -0.0111       112.7999          113.1        46.0385       45.90197        31.7266         2.2007        -999.25        -999.25           1855      0.2745099        -999.25
      4866.5000         0.3956         0.2648         0.2444         0.2356         0.2404        11.4004        27.6033        -0.0126            111            112        45.5853       45.49781        32.1904         2.1946        -999.25        -999.25           1855      0.2659108        -999.25
      4867.0000         0.3768         0.2544         0.2352         0.2293          0.234        11.3598         27.728        -0.0064          110.2       111.8999        47.1714       46.89557        33.8279         2.1925        -999.25        -999.25           1880      0.2956505        -999.25
      4867.5000         0.3782         0.2546         0.2339         0.2268         0.2314        11.2853        28.9753        -0.0007       111.8999       110.2999        45.1019       45.06325         36.738         2.1719        -999.25        -999.25           1880      0.2566649        -999.25
      4868.0000         0.4074         0.2693         0.2426         0.2307         0.2348        11.5475        31.3257         0.0044          110.5       114.8999        45.7817       45.66021        40.9964         2.1331        -999.25        -999.25           1880      0.2693662        -999.25
      4868.5000         0.4632          0.296         0.2601         0.2412         0.2445        11.2686        33.6916         0.0004          118.2       118.7999        46.3821       46.18693        44.6542         2.0941        -999.25        -999.25           1880      0.2805729        -999.25
      4869.0000         0.5225         0.3225         0.2804         0.2543         0.2568        11.6693        35.0681        -0.0056            122       119.7999        49.1013        48.5859        46.9619         2.0714        -999.25        -999.25           1880      0.3316149        -999.25
      4869.5000         0.5534         0.3361         0.2945         0.2639         0.2658        12.6342        35.0838        -0.0072       123.3999       126.7999        48.8182       48.33204        47.7519         2.0711        -999.25        -999.25           1845      0.3262137        -999.25
      4870.0000         0.5461         0.3343         0.2967         0.2659         0.2679        14.0033        34.2945        -0.0092            113       128.2998        46.8298       46.57138        46.7679         2.0841        -999.25        -999.25           1845      0.2887529        -999.25
      4870.5000         0.5107         0.3201          0.289         0.2609         0.2635        13.6603        31.9841        -0.0126       113.2999       115.8999        40.9383       41.36194        43.5658         2.1223        -999.25        -999.25           1845      0.1779136        -999.25
      4871.0000         0.4816         0.3071         0.2813         0.2562         0.2594        10.9658        29.8221        -0.0152          117.6          115.2         42.581       42.80972         40.227         2.1579        -999.25        -999.25           1845      0.2087174        -999.25
      4871.5000         0.4872         0.3091         0.2811         0.2589         0.2619        10.7617        28.6763        -0.0206            115       113.8999        41.0488       41.45216        37.9493         2.1768        -999.25        -999.25           1890      0.1798331        -999.25
      4872.0000          0.511         0.3177         0.2855         0.2662         0.2686        10.9658        28.0381        -0.0192       114.3999          114.7        40.8221       41.24813        36.1404         2.1874        -999.25        -999.25           1890      0.1754921        -999.25
      4872.5000         0.5121         0.3157         0.2858         0.2683         0.2704        10.8194         27.582        -0.0199       110.8999          114.1        35.6105       36.63936        35.2145         2.1949        -999.25        -999.25           1890     0.07743324        -999.25
      4873.0000         0.4928         0.3066         0.2806         0.2637          0.266        10.7528        27.1011        -0.0167       112.7999       112.2999        32.6393        34.0103        33.6247         2.2028        -999.25        -999.25           1890     0.02149574        -999.25
      4873.5000         0.4838         0.3035         0.2773         0.2612         0.2636        10.8549        26.7969        -0.0172          109.7          109.6        31.7329       33.20569        32.6888         2.2078        -999.25        -999.25           1900    0.004376432        -999.25
