#------------------------------------------------------------------------------
# Created by    : vladimir.rabinovich
# Created on    : 09/19/2023 17:19:27
#------------------------------------------------------------------------------
~Version Information Section
VERS.           2.0     :   CWLS log ASCII Standard - VERSION 2.0
WRAP.           NO      :   One line per depth step
~Well Information Section
#MNEM       .UNIT                                         VALUE :DESCRIPTION
#------------------------------------------------------------------------------
STRT        .FT                                          4322.5 :START DEPTH
STOP        .FT                                            9954 :STOP DEPTH
STEP        .FT                                             0.5 :STEP      
NULL        .                                           -999.25 :NULL      
COMP        .                                ATP OIL & GAS CORP :COMPANY   
WELL        .                               OCS G13829 ST00BP00 :WELL      
FLD         .                           WEST CAMERON BLOCK 0092 :FIELD     
LOC         .                                                   :LOCATION  
CNTY        .                                      WEST CAMERON :LOCATION  
STAT        .                                         LOUISIANA :STATE     
CTRY        .                                     UNITED STATES :COUNTRY   
SRVC        .                                                   :SERVICE COMPANY
DATE        .                             9/13/2023 11:19:21 AM :LOG DATE  
API         .                                    17700409910000 :API NUMBER
UWI         .                                    17700409910000 :UNIQUE WELL ID
XCOORD      .                                  1447604.75856055 :SURFACE X 
YCOORD      .                                  10719416.1500606 :SURFACE Y 
LAT         .                                        29.5354331 :LATITUDE  
LON         .                                       -93.6065144 :LONGITUDE 
ELEV        .FT                                              97 :ELEVATION VALUE
ELEV_TYPE   .                                                KB :ELEVATION REFERENCE TYPE
~Curve Information Section
#MNEM       .UNIT                                      API CODE :CURVE DESCRIPTION
#------------------------------------------------------------------------------
DEPT        .FT                                                 :DEPTH     
AFCO        .MMHO                                               :          
AT10        .OHMM                                               :          
AT20        .OHMM                                               :          
AT30        .OHMM                                               :          
AT60        .OHMM                                               :          
AT90        .OHMM                                               :          
CSAX        .MMHO                                               :          
DCAL        .IN                                                 :          
DPHZ        .%                                                  :          
GR          .GAPI                                               :          
GR_NORM     .GAPI                                               :GammaRay Normalized
GRAX        .GAPI                                               :          
HDRA        .G/C3                                               :          
NPOR        .%                                                  :          
ROPS        .FT/HR                                              :          
RSAX        .OHMM                                               :          
RWA         .OHMM                                               :          
SP          .MV                                                 :          
SP_NORM     .MV                                                 :SP Normalized
TENS        .LBF                                                :          
VSH_SP      .V/V                                                :Volume of Shale from SP
~A        DEPTH           AFCO           AT10           AT20           AT30           AT60           AT90           CSAX           DCAL           DPHZ             GR        GR_NORM           GRAX           HDRA           NPOR           ROPS           RSAX            RWA             SP        SP_NORM           TENS         VSH_SP
# ...
      7397.5000       1544.768         0.5164         0.5798          0.609         0.6485         0.6247        -999.25         1.0842          24.94       107.0869        85.2236        -999.25         0.0125        41.5099        -999.25        -999.25         0.0512         -30.75        -3.0893           2829      0.9882871
      7398.0000       1548.953         0.5187         0.5807          0.611         0.6513         0.6272        -999.25         1.1085           25.2       111.7212        88.7004        -999.25         0.0094        42.1299        -999.25        -999.25         0.0522            -31        -3.3442           2831      0.9855462
      7398.5000       1543.598         0.5254         0.5895         0.6169         0.6523         0.6282        -999.25           1.06          25.35       112.6628        89.4076        -999.25         0.0063        45.1899        -999.25        -999.25          0.053        -30.625         -2.974           2851      0.9895269
      7399.0000       1528.037         0.5304         0.5959         0.6241         0.6551         0.6307        -999.25         1.0842          24.43       113.3285        89.9079        -999.25         0.0136        43.3299        -999.25        -999.25         0.0494       -30.0625        -2.4164           2846      0.9955226
      7399.5000       1509.002         0.5392         0.6065         0.6344         0.6642         0.6392        -999.25         1.0842          23.72       102.7108        81.9457        -999.25         0.0182          44.48        -999.25        -999.25          0.047       -30.4375        -2.7962           2887      0.9914387
      7400.0000       1489.656         0.5547         0.6231         0.6503         0.6768         0.6508        -999.25         1.0842          23.15       104.0482        82.9498        -999.25         0.0212          42.59        -999.25        -999.25         0.0452        -31.625        -3.9885           2881      0.9786183
      7400.5000       1478.799         0.5651          0.636         0.6643         0.6897         0.6627        -999.25         1.0842          22.99       106.8993        85.0891        -999.25         0.0203        42.7599        -999.25        -999.25         0.0448          -31.5        -3.8684           2860      0.9799097
      7401.0000       1478.834         0.5671         0.6363         0.6635         0.6877         0.6608        -999.25         1.0842          22.78       109.4308        86.9888        -999.25         0.0236          37.59        -999.25        -999.25         0.0439       -31.4375        -3.8107           2892      0.9805301
      7401.5000       1488.523         0.5609         0.6291         0.6531          0.675          0.649        -999.25         1.0842          22.73       103.6664        82.6665        -999.25         0.0274          41.98        -999.25        -999.25         0.0435       -30.9375        -3.3156           2882      0.9858538
      7402.0000       1505.031         0.5464         0.6144         0.6398         0.6602         0.6354        -999.25         1.0842          22.93       102.1283         81.514        -999.25         0.0266        42.1899        -999.25        -999.25         0.0438       -30.9375        -3.3204           2860      0.9858022
      7402.5000       1518.328         0.5349         0.5977         0.6246         0.6418         0.6183        -999.25         1.1327          23.69        103.214        82.3293        -999.25         0.0178        44.0699        -999.25        -999.25         0.0466       -30.3125        -2.7003           2871      0.9924699
      7403.0000       1527.031         0.5345         0.5937         0.6215         0.6387         0.6154        -999.25         1.1085          23.91       104.7202          83.46        -999.25         0.0124          42.83        -999.25        -999.25         0.0473        -30.125        -2.5176           2872      0.9944344
      7403.5000        1528.23         0.5424         0.6055         0.6321          0.653         0.6287        -999.25         1.1327          23.46       105.5081        84.0519        -999.25         0.0165        44.9099        -999.25        -999.25         0.0453         -29.75        -2.1475           2885       0.998414
      7404.0000       1529.607         0.5545         0.6195         0.6454         0.6696         0.6439        -999.25          1.157          22.82       107.5753        85.6033        -999.25         0.0265        40.4299        -999.25        -999.25         0.0427       -30.6875        -3.0898           2904      0.9882817
      7404.5000       1532.766         0.5567         0.6209         0.6471          0.673         0.6473        -999.25          1.157          22.61       111.7389        88.7271        -999.25         0.0362          40.48        -999.25        -999.25         0.0417        -30.125        -2.5322           2893      0.9942774
      7405.0000       1540.109         0.5416         0.6058         0.6297         0.6578         0.6334        -999.25          1.157          22.96       110.7422        87.9806        -999.25         0.0441        45.5699        -999.25        -999.25         0.0429       -29.8125        -2.2245           2922       0.997586
      7405.5000       1549.158         0.5231         0.5849         0.6111         0.6376         0.6148        -999.25         1.1812          23.47       109.1108        86.7581        -999.25         0.0455        46.4199        -999.25        -999.25         0.0448         -29.25        -1.6669           2896              1
      7406.0000       1551.695         0.5179         0.5764         0.6051         0.6297         0.6076        -999.25         1.2055          24.39       108.0977        85.9993        -999.25         0.0362        38.6899        -999.25        -999.25         0.0486       -29.4375        -1.8592           2864              1
      7406.5000       1546.688         0.5314         0.5889         0.6189         0.6499         0.6266        -999.25         1.2176          25.48       109.6145        87.1379        -999.25         0.0181        36.1299        -999.25        -999.25         0.0536       -29.5625        -1.9891           2886              1
      7407.0000        1543.52         0.5517         0.6151         0.6379         0.6699         0.6456        -999.25         1.2298        26.0599       113.2906         89.896        -999.25         0.0052        34.4399        -999.25        -999.25         0.0563         -29.75        -2.1814           2839      0.9980494
      7407.5000       1542.467         0.5572         0.6229         0.6455         0.6801         0.6554        -999.25         1.2298           25.8       105.0294        83.7011        -999.25         0.0001          34.33        -999.25        -999.25         0.0552         -29.25        -1.6862           2827              1
      7408.0000       1551.063         0.5419         0.6069         0.6288         0.6582         0.6353        -999.25         1.2298          25.14       103.6487        82.6666        -999.25         0.0003        38.7499        -999.25        -999.25          0.052            -29        -1.4411           2865              1
      7408.5000       1564.291         0.5181         0.5802         0.6038         0.6279         0.6074        -999.25         1.2783          24.92       100.5221        80.3227        -999.25         0.0017        45.9399        -999.25        -999.25         0.0506        -28.875        -1.3209           2850              1
      7409.0000       1571.865         0.5103         0.5675         0.5934         0.6137         0.5945        -999.25         1.2783          25.11       105.6987        84.2062        -999.25          0.003        40.1699        -999.25        -999.25         0.0512       -29.0625        -1.5133           2861              1
      7409.5000       1568.615         0.5294         0.5846         0.6104         0.6311         0.6111        -999.25         1.2783        25.5999       100.6357          80.41        -999.25         0.0023          40.23        -999.25        -999.25         0.0535       -29.0625        -1.5181           2899              1
