#------------------------------------------------------------------------------
# Created by    : vladimir.rabinovich
# Created on    : 09/19/2023 17:20:59
#------------------------------------------------------------------------------
~Version Information Section
VERS.           2.0     :   CWLS log ASCII Standard - VERSION 2.0
WRAP.           NO      :   One line per depth step
~Well Information Section
#MNEM       .UNIT                                         VALUE :DESCRIPTION
#------------------------------------------------------------------------------
STRT        .FT                                            4010 :START DEPTH
STOP        .FT                                           10351 :STOP DEPTH
STEP        .FT                                             0.5 :STEP      
NULL        .                                           -999.25 :NULL      
COMP        .                         TALOS ENERGY VENTURES LLC :COMPANY   
WELL        .                               OCS G13557 ST00BP00 :WELL      
FLD         .                           WEST CAMERON BLOCK 0118 :FIELD     
LOC         .                                                   :LOCATION  
CNTY        .                                      WEST CAMERON :LOCATION  
STAT        .                                         LOUISIANA :STATE     
CTRY        .                                     UNITED STATES :COUNTRY   
SRVC        .                                                   :SERVICE COMPANY
DATE        .                             9/13/2023 11:19:21 AM :LOG DATE  
API         .                                    17700409470000 :API NUMBER
UWI         .                                    17700409470000 :UNIQUE WELL ID
XCOORD      .                                  1434760.35260149 :SURFACE X 
YCOORD      .                                  10716448.9068769 :SURFACE Y 
LAT         .                                        29.5270802 :LATITUDE  
LON         .                                       -93.6468641 :LONGITUDE 
ELEV        .FT                                             100 :ELEVATION VALUE
ELEV_TYPE   .                                                KB :ELEVATION REFERENCE TYPE
~Curve Information Section
#MNEM       .UNIT                                      API CODE :CURVE DESCRIPTION
#------------------------------------------------------------------------------
DEPT        .FT                                                 :DEPTH     
AT10        .OHMM                                               :          
AT20        .OHMM                                               :          
AT30        .OHMM                                               :          
AT60        .OHMM                                               :          
AT90        .OHMM                                               :          
CALI        .IN                                                 :          
DPHI        .%                                                  :          
DRHO        .G/C3                                               :          
DTLF        .US/F                                               :          
DTLN        .US/F                                               :          
GR          .GAPI                                               :          
GR_NORM     .GAPI                                               :GammaRay Normalized
NPOR        .%                                                  :          
RHOB        .G/C3                                               :          
SP          .MV                                                 :          
SP_NORM     .MV                                                 :SP Normalized
TENS        .LBF                                                :          
VSH_GR      .V/V                                                :Volume of Shale from GR
VSH_SP      .V/V                                                :Volume of Shale from SP
~A        DEPTH           AT10           AT20           AT30           AT60           AT90           CALI           DPHI           DRHO           DTLF           DTLN             GR        GR_NORM           NPOR           RHOB             SP        SP_NORM           TENS         VSH_GR         VSH_SP
# ...
      7803.5000          0.471         0.4957         0.4993         0.4999         0.5012        10.5686        25.6281        -0.0092            124       125.8999         88.198        82.4989        44.1838         2.2271        -999.25        -999.25           2970              1        -999.25
      7804.0000          0.469         0.4929          0.495         0.5003         0.5022        10.3907        25.6637        -0.0095          125.2          126.1        90.1031        84.4048        44.7701         2.2266        -999.25        -999.25           2970              1        -999.25
      7804.5000         0.4668         0.4954         0.4848         0.4878         0.4913        10.4116        25.3519        -0.0076       124.7999       125.3999        88.4585        82.7609        44.8041         2.2317        -999.25        -999.25           2945              1        -999.25
      7805.0000         0.4703         0.4938         0.4759         0.4666         0.4717        10.3857        24.8877        -0.0072          126.1          125.7         89.324        83.6271        43.2358         2.2394        -999.25        -999.25           2945              1        -999.25
      7805.5000         0.4785         0.4738         0.4728         0.4522         0.4581        10.1305        23.8692        -0.0066       124.8999          127.2        84.3163        78.6201        39.0016         2.2562        -999.25        -999.25           2945      0.9706405        -999.25
      7806.0000         0.4873         0.4717         0.4737         0.4597         0.4645        10.0042         22.574         -0.008          122.2       118.7999        84.6064         78.911        35.2471         2.2775        -999.25        -999.25           2945      0.9768298        -999.25
      7806.5000         0.5134         0.5056         0.4802         0.4848         0.4863         9.9762        21.7949        -0.0088       112.2999       113.2999        77.7107         72.016        30.7521         2.2904        -999.25        -999.25           2860      0.8301277        -999.25
      7807.0000         0.5763         0.5429         0.4902           0.49         0.4883         9.9494        22.2503        -0.0091            105          101.6        69.2704        63.5764        27.9477         2.2829        -999.25        -999.25           2860      0.6505617        -999.25
      7807.5000         0.6108         0.5249         0.4713         0.4361         0.4354         9.9762        23.3885          -0.01          104.5       103.3999        57.1514        51.4581        26.7808         2.2641        -999.25        -999.25           2860      0.3927255        -999.25
      7808.0000         0.4988         0.4281         0.3949         0.3448         0.3479         9.9406        24.9908         -0.011          105.5          104.1        56.9996         51.307        28.1339         2.2376        -999.25        -999.25           2860      0.3895106        -999.25
      7808.5000          0.353         0.3249         0.3044         0.2678         0.2732         9.9929        27.1012        -0.0155          111.1          108.6        54.8394        49.1476        30.1769         2.2028        -999.25        -999.25           3005      0.3435659        -999.25
      7809.0000         0.2714         0.2556          0.245         0.2269          0.233         10.003        27.7024        -0.0152          113.6       114.2999         57.477        51.7859         32.021         2.1929        -999.25        -999.25           3005         0.3997        -999.25
      7809.5000         0.2431         0.2253         0.2217         0.2198         0.2257         9.9966        26.6987        -0.0123            115          115.5        59.4765        53.7861        32.9939         2.2095        -999.25        -999.25           3005      0.4422574        -999.25
      7810.0000         0.2574         0.2342         0.2291         0.2384         0.2432        10.0116        24.9484        -0.0111       115.3999       113.3999        67.0188        61.3291        33.8857         2.2383        -999.25        -999.25           3005      0.6027468        -999.25
      7810.5000          0.316         0.2796         0.2626          0.271         0.2736         9.9847        23.6647        -0.0102            115       114.2999         69.035        63.3461        34.4964         2.2595        -999.25        -999.25           2915      0.6456617        -999.25
      7811.0000         0.4071         0.3433         0.3099         0.3043          0.304        10.0116        24.0085        -0.0114          114.5          113.7        76.5709        70.8827        34.4933         2.2539        -999.25        -999.25           2915      0.8060148        -999.25
      7811.5000         0.4894         0.3837         0.3486         0.3307         0.3281         9.9966        24.2686        -0.0141          116.1       113.3999        78.7391        73.0516        33.7967         2.2496        -999.25        -999.25           2915      0.8521616        -999.25
      7812.0000         0.5327         0.3984         0.3668         0.3458          0.343        10.0065        23.9229        -0.0142            115          114.5        86.2042        80.5174        33.8901         2.2553        -999.25        -999.25           2915              1        -999.25
      7812.5000         0.5517         0.4079         0.3751         0.3523         0.3512        10.0011         23.953        -0.0134       116.3999            116        79.2312        73.5451          33.81         2.2548        -999.25        -999.25           3025      0.8626617        -999.25
      7813.0000         0.5706         0.4221         0.3893         0.3634         0.3638         9.9777        23.5486        -0.0096       115.8999       116.7999        81.8585        76.1732        33.8724         2.2615        -999.25        -999.25           3025      0.9185788        -999.25
      7813.5000         0.5969         0.4448         0.4144         0.3865          0.387         9.9524        21.2377        -0.0006       114.3999            116        82.0844        76.3998        35.2765         2.2996        -999.25        -999.25           3025         0.9234        -999.25
      7814.0000         0.6248         0.4682         0.4444         0.4161         0.4153         9.9661        20.3286         0.0001            116       116.8999        84.5652        78.8813        37.0218         2.3146        -999.25        -999.25           3025      0.9761979        -999.25
      7814.5000         0.6444         0.4919         0.4657         0.4381         0.4361         9.9569        20.4076        -0.0019       116.8999          117.2        84.5652         78.882        36.8978         2.3133        -999.25        -999.25           2850      0.9762129        -999.25
      7815.0000         0.6556         0.4977         0.4684         0.4422         0.4404         9.9661        20.0845         0.0005       114.2999          117.2        78.4258        72.7433        36.4838         2.3186        -999.25        -999.25           2850      0.8456022        -999.25
      7815.5000         0.6603         0.4826         0.4553         0.4305         0.4305         9.9732        20.2542         0.0024            114          113.7        82.1865        76.5048        36.4266         2.3158        -999.25        -999.25           2850       0.925634        -999.25
      7816.0000         0.6521         0.4627         0.4324         0.4088         0.4114         9.9626        21.5787         -0.002          115.7          116.1        74.7611        69.0801        35.1226          2.294        -999.25        -999.25           2850      0.7676618        -999.25
      7816.5000         0.6291         0.4395         0.4049         0.3825         0.3873         9.9613        23.4319        -0.0049       114.7999       112.2999        75.2103          69.53        33.7262         2.2634        -999.25        -999.25           2930       0.777234        -999.25
