#------------------------------------------------------------------------------
# Created by    : vladimir.rabinovich
# Created on    : 09/19/2023 17:20:59
#------------------------------------------------------------------------------
~Version Information Section
VERS.           2.0     :   CWLS log ASCII Standard - VERSION 2.0
WRAP.           NO      :   One line per depth step
~Well Information Section
#MNEM       .UNIT                                         VALUE :DESCRIPTION
#------------------------------------------------------------------------------
STRT        .FT                                            4010 :START DEPTH
STOP        .FT                                           10351 :STOP DEPTH
STEP        .FT                                             0.5 :STEP      
NULL        .                                           -999.25 :NULL      
COMP        .                         TALOS ENERGY VENTURES LLC :COMPANY   
WELL        .                               OCS G13557 ST00BP00 :WELL      
FLD         .                           WEST CAMERON BLOCK 0118 :FIELD     
LOC         .                                                   :LOCATION  
CNTY        .                                      WEST CAMERON :LOCATION  
STAT        .                                         LOUISIANA :STATE     
CTRY        .                                     UNITED STATES :COUNTRY   
SRVC        .                                                   :SERVICE COMPANY
DATE        .                             9/13/2023 11:19:21 AM :LOG DATE  
API         .                                    17700409470000 :API NUMBER
UWI         .                                    17700409470000 :UNIQUE WELL ID
XCOORD      .                                  1434760.35260149 :SURFACE X 
YCOORD      .                                  10716448.9068769 :SURFACE Y 
LAT         .                                        29.5270802 :LATITUDE  
LON         .                                       -93.6468641 :LONGITUDE 
ELEV        .FT                                             100 :ELEVATION VALUE
ELEV_TYPE   .                                                KB :ELEVATION REFERENCE TYPE
~Curve Information Section
#MNEM       .UNIT                                      API CODE :CURVE DESCRIPTION
#------------------------------------------------------------------------------
DEPT        .FT                                                 :DEPTH     
AT10        .OHMM                                               :          
AT20        .OHMM                                               :          
AT30        .OHMM                                               :          
AT60        .OHMM                                               :          
AT90        .OHMM                                               :          
CALI        .IN                                                 :          
DPHI        .%                                                  :          
DRHO        .G/C3                                               :          
DTLF        .US/F                                               :          
DTLN        .US/F                                               :          
GR          .GAPI                                               :          
GR_NORM     .GAPI                                               :GammaRay Normalized
NPOR        .%                                                  :          
RHOB        .G/C3                                               :          
SP          .MV                                                 :          
SP_NORM     .MV                                                 :SP Normalized
TENS        .LBF                                                :          
VSH_GR      .V/V                                                :Volume of Shale from GR
VSH_SP      .V/V                                                :Volume of Shale from SP
~A        DEPTH           AT10           AT20           AT30           AT60           AT90           CALI           DPHI           DRHO           DTLF           DTLN             GR        GR_NORM           NPOR           RHOB             SP        SP_NORM           TENS         VSH_GR         VSH_SP
# ...
     10341.5000         0.6111         0.6903         0.4551         0.4003         0.3692         5.7243        33.4781         -0.127        -999.25        -999.25        -999.25       51.31774         37.865          2.098         -60.75       -62.6548           4075      0.3897391        0.03608
     10342.0000         0.6258         0.6779         0.4528         0.4113          0.373         5.7243        33.4781         -0.127        -999.25        -999.25        -999.25       49.55448         37.865          2.098       -62.1875       -64.0923           4075       0.352223     0.01396461
     10342.5000         0.6452         0.6753         0.4604         0.4234         0.3772         5.7243        33.4781         -0.127        -999.25        -999.25        -999.25       49.55448        -999.25          2.098        -62.375       -64.2798           4115       0.352223     0.01107999
     10343.0000         0.6615         0.6787         0.4704         0.4324         0.3795         5.7243        33.4781         -0.127        -999.25        -999.25        -999.25       49.55448        -999.25          2.098       -62.1875       -64.0923           4115       0.352223     0.01396461
     10343.5000         0.6718         0.6824          0.479         0.4378         0.3799         5.7243        33.4781         -0.127        -999.25        -999.25        -999.25       49.55448        -999.25          2.098        -62.375       -64.2798           4140       0.352223     0.01107999
     10344.0000         0.6768         0.6844         0.4847         0.4403         0.3794         5.7243        33.4781         -0.127        -999.25        -999.25        -999.25       49.55448        -999.25          2.098        -62.125       -64.0298           4140       0.352223     0.01492615
     10344.5000         0.6786         0.6855         0.4877          0.441         0.3786         5.7243        33.4781         -0.127        -999.25        -999.25        -999.25       49.55448        -999.25          2.098         -61.25       -63.1548           4140       0.352223     0.02838769
     10345.0000         0.6788         0.6858         0.4889         0.4409         0.3779         5.7243        33.4781         -0.127        -999.25        -999.25        -999.25        49.9953        -999.25          2.098       -58.5625       -60.4673           4045       0.361602     0.06973384
     10345.5000         0.6786         0.6856         0.4893         0.4407         0.3775         5.7243        33.4781         -0.127        -999.25        -999.25        -999.25       50.43611        -999.25          2.098       -54.3125       -56.2173           4045       0.370981      0.1351185
     10346.0000         0.6783         0.6852         0.4895         0.4406         0.3773         5.7243        33.4781         -0.127        -999.25        -999.25        -999.25       53.08099        -999.25          2.098       -52.8125       -54.7173           4035      0.4272551      0.1581954
     10346.5000        -999.25        -999.25        -999.25        -999.25        -999.25         5.7243        33.4781         -0.127        -999.25        -999.25        -999.25        -999.25        -999.25          2.098          -55.5       -57.4048           4035        -999.25      0.1168492
     10347.0000        -999.25        -999.25        -999.25        -999.25        -999.25         5.7243        33.4781         -0.127        -999.25        -999.25        -999.25        -999.25        -999.25          2.098        -58.625       -60.5298           4035        -999.25      0.0687723
     10347.5000        -999.25        -999.25        -999.25        -999.25        -999.25         5.7243        33.4781         -0.127        -999.25        -999.25        -999.25        -999.25        -999.25          2.098       -60.6875       -62.5923           4090        -999.25     0.03704153
     10348.0000        -999.25        -999.25        -999.25        -999.25        -999.25         5.7243        33.4781         -0.127        -999.25        -999.25        -999.25        -999.25        -999.25          2.098         -61.75       -63.6548           4090        -999.25     0.02069538
     10348.5000        -999.25        -999.25        -999.25        -999.25        -999.25         5.7243        33.4781         -0.127        -999.25        -999.25        -999.25        -999.25        -999.25          2.098       -61.3125       -63.2173           4050        -999.25     0.02742615
     10349.0000        -999.25        -999.25        -999.25        -999.25        -999.25         5.7243        33.4781         -0.127        -999.25        -999.25        -999.25        -999.25        -999.25          2.098       -59.0625       -60.9673           4050        -999.25     0.06204153
     10349.5000        -999.25        -999.25        -999.25        -999.25        -999.25         5.7243        33.4781         -0.127        -999.25        -999.25        -999.25        -999.25        -999.25          2.098       -57.4375       -59.3423           4050        -999.25     0.08704153
     10350.0000        -999.25        -999.25        -999.25        -999.25        -999.25         5.7243        33.4781         -0.127        -999.25        -999.25        -999.25        -999.25        -999.25          2.098       -57.6875       -59.5923           4085        -999.25     0.08319538
     10350.5000        -999.25        -999.25        -999.25        -999.25        -999.25         5.7243        33.4781         -0.127        -999.25        -999.25        -999.25        -999.25        -999.25          2.098       -56.9375       -58.8423           4085        -999.25     0.09473384
     10351.0000        -999.25        -999.25        -999.25        -999.25        -999.25         5.7243        33.4781         -0.127        -999.25        -999.25        -999.25        -999.25        -999.25          2.098        -55.375       -57.2798           4195        -999.25      0.1187723
