#------------------------------------------------------------------------------
# Created by    : vladimir.rabinovich
# Created on    : 09/19/2023 17:20:42
#------------------------------------------------------------------------------
~Version Information Section
VERS.           2.0     :   CWLS log ASCII Standard - VERSION 2.0
WRAP.           NO      :   One line per depth step
~Well Information Section
#MNEM       .UNIT                                         VALUE :DESCRIPTION
#------------------------------------------------------------------------------
STRT        .FT                                             202 :START DEPTH
STOP        .FT                                            9625 :STOP DEPTH
STEP        .FT                                             0.5 :STEP      
NULL        .                                           -999.25 :NULL      
COMP        .                           GENERAL AMERICAN OIL CO :COMPANY   
WELL        .                               OCS G01862 ST00BP00 :WELL      
FLD         .                           WEST CAMERON BLOCK 0045 :FIELD     
LOC         .                                                   :LOCATION  
CNTY        .                                      WEST CAMERON :LOCATION  
STAT        .                                         LOUISIANA :STATE     
CTRY        .                                     UNITED STATES :COUNTRY   
SRVC        .                                                   :SERVICE COMPANY
DATE        .                             9/13/2023 11:18:18 AM :LOG DATE  
API         .                                    17700004050000 :API NUMBER
UWI         .                                    17700004050000 :UNIQUE WELL ID
XCOORD      .                                  1441793.49938464 :SURFACE X 
YCOORD      .                                  10754125.7201806 :SURFACE Y 
LAT         .                                        29.6308281 :LATITUDE  
LON         .                                       -93.6253819 :LONGITUDE 
ELEV        .FT                                              70 :ELEVATION VALUE
ELEV_TYPE   .                                                KB :ELEVATION REFERENCE TYPE
~Curve Information Section
#MNEM       .UNIT                                      API CODE :CURVE DESCRIPTION
#------------------------------------------------------------------------------
DEPT        .FT                                                 :DEPTH     
ASN         .OHMM                                               :          
CALI        .IN                                                 :          
CALI_1      .IN                                                 :          
DRHO        .G/C3                                               :          
DT          .US/F                                               :          
GR          .GAPI                                               :          
GR_NORM     .GAPI                                               :GammaRay Normalized
ILD         .OHMM                                               :          
RHOB        .G/C3                                               :          
SP          .MV                                                 :          
SP_NORM     .MV                                                 :SP Normalized
VSH_GR      .V/V                                                :Volume of Shale from GR
VSH_SP      .V/V                                                :Volume of Shale from SP
~A        DEPTH            ASN           CALI         CALI_1           DRHO             DT             GR        GR_NORM            ILD           RHOB             SP        SP_NORM         VSH_GR         VSH_SP
# ...
      9303.0000         1.0723        11.0054        11.3148         0.0734        85.0334        86.2479       78.05904         1.0112         2.3857       -47.6355        -4.6953       0.958703      0.9500635
      9303.5000         1.0971        10.9373        11.3739         0.0762        96.6211        87.2151       79.25437         1.0394         2.3932       -47.9081        -4.9718      0.9841356       0.946327
      9304.0000         1.1393        11.0056        11.4395         0.0882       103.3368        88.5408       80.89404         1.0841         2.4149       -48.0558        -5.1234              1      0.9442784
      9304.5000         1.2241        11.0921        11.5234         0.0956       105.4854        83.7332       74.93191         1.1369         2.4236       -48.2057        -5.2772      0.8921682         0.9422
      9305.0000         1.3338        11.1888        11.5814         0.1003       104.2909        75.9877       65.32827         1.1978         2.4267        -48.824        -5.8994      0.6878355      0.9337919
      9305.5000         1.4415        11.2742        11.7088         0.1067        104.063         72.649       61.18676         1.2871         2.4241       -49.4367         -6.516      0.5997183      0.9254594
      9306.0000         1.5038        11.3391        12.0736          0.104       103.6057        71.0244       59.16968         1.3665         2.4167       -50.0244        -7.1076      0.5568017      0.9174649
      9306.5000         1.5482        11.4093        12.3674          0.094       102.7098        70.7201       58.78918         1.3886          2.409       -50.4102        -7.4973      0.5487059      0.9121987
      9307.0000         1.5751        11.5049        12.4797         0.0848       100.7496        70.7367       58.80627         1.3835         2.4058       -50.7176        -7.8086      0.5490695      0.9079919
      9307.5000         1.5951        11.6783        12.4992         0.0998        95.1045        70.9537       59.07177         1.3829         2.4126       -50.8044        -7.8993      0.5547185      0.9067662
      9308.0000         1.6165        12.4038        12.4439         0.1197        89.9401        70.1903       58.12222          1.399         2.4258       -50.8913        -7.9901      0.5345154      0.9055392
      9308.5000         1.6331        12.6003        12.3979         0.1029        86.2303        68.2382       55.69921         1.4297         2.4238       -50.9704        -8.0731       0.482962      0.9044176
      9309.0000         1.6391        12.6806        12.3637         0.0797        85.2354        66.7201       53.81414          1.475         2.4121        -51.046        -8.1526       0.442854      0.9033433
      9309.5000         1.6463        12.6389        12.3222         0.0618        85.6548        68.1478       55.58035         1.5233         2.4052       -51.2023        -8.3128      0.4804329      0.9011784
      9310.0000         1.6767        12.6164        12.2049         0.0637        85.2567        70.4652        58.4492         1.5786         2.3916       -52.0165        -9.1309      0.5414723       0.890123
      9310.5000         1.7527        12.5844        12.0688         0.0843        85.8016        73.0968       61.70758         1.6091         2.3841       -53.0849       -10.2032      0.6107996      0.8756324
      9311.0000         1.8132        12.5027        12.1857         0.0956        86.4608        74.3041        63.2005         1.4974         2.4059       -53.7346       -10.8568      0.6425639         0.8668
      9311.5000         1.8786        12.3436        12.3831         0.0698        86.3307        73.5701       62.28739          1.447         2.4082       -53.9579        -11.084       0.623136      0.8637297
      9312.0000         1.9271        12.1395        12.2228          0.049        86.2031        71.1094       59.23401         1.3798         2.4132       -54.5441       -11.6741      0.5581704      0.8557554
      9312.5000          1.956        11.9733        11.9862         0.0315         89.385        66.8988       54.01171         1.3094         2.4128        -55.587       -12.7209      0.4470576      0.8416095
      9313.0000         1.9606        11.8929        11.9057         0.0168        89.9753        62.8729       49.01845         1.2421         2.4081       -57.4937       -14.6315       0.340818      0.8157905
      9313.5000         1.9331        12.1378         11.857         0.0132        91.1371        60.9346       46.61255         1.1605         2.4049       -60.4633        -17.605      0.2896288      0.7756081
      9314.0000         1.8514        12.0492        11.8065         0.0226        90.6637        59.7886       45.18879         1.1004         2.3802        -64.032       -21.1776      0.2593359      0.7273297
      9314.5000         1.7321        11.9049        11.7199         0.0342        84.7559        59.6703        45.0387         1.0553         2.3227        -68.649       -25.7985      0.2561425      0.6648852
      9315.0000           1.59        11.7767        11.5817         0.0237        79.7699        60.1863       45.67478         1.0259         2.2951       -73.8578       -31.0112      0.2696761      0.5944433
      9315.5000         1.4764        11.6633         11.513         0.0118         76.251        61.3666       47.13436         0.9996          2.258       -76.7836       -33.9409       0.300731      0.5548527
      9316.0000         1.4317        11.5333        11.3992         0.0238         72.608        62.5547       48.60348         0.9852         2.2513       -78.2721       -35.4333      0.3319889      0.5346851
      9316.5000          1.431        11.3846        11.3274         0.0465         73.297        62.4988       48.53085         0.9944           2.27       -78.8524       -36.0176      0.3304435      0.5267892
      9317.0000          1.446        11.2214        11.3073         0.0765        82.3867        61.7476        47.5963         1.0194         2.3025       -79.1204       -36.2895      0.3105596      0.5231149
      9317.5000         1.4648        11.0865        11.2965          0.077        89.3156        60.6694       46.25645           1.06         2.3057       -79.2815       -36.4545      0.2820522      0.5208852
      9318.0000         1.5113        11.0087        11.2918         0.0629        95.3027        59.7756       45.14529         1.1088         2.2991       -79.3994       -36.5763      0.2584104      0.5192392
      9318.5000         1.5801        10.9612        11.2906         0.0533         97.196        59.9708       45.38375         1.1774         2.3116       -77.3059       -34.4867      0.2634842      0.5474771
      9319.0000          1.675        10.9168        11.2961         0.0461        97.4609        60.2649       45.74493          1.236         2.3408       -72.6232       -29.8079      0.2711688      0.6107041
      9319.5000          1.745         10.871        11.3016         0.0542        97.8143         61.241       46.95129         1.2899         2.4108       -66.9176       -24.1062       0.296836       0.687754
      9320.0000         1.7369        10.8292        11.3586         0.0674        98.1687        63.1321       49.29175          1.329         2.4508       -61.8769       -19.0694      0.3466329      0.7558189
      9320.5000         1.6651        10.8213        11.4195         0.0723        97.5653        66.4432       53.39235         1.3403          2.448        -58.805       -16.0014      0.4338798      0.7972784
      9321.0000         1.5748        10.8457        11.4618         0.0679        94.4008        70.7009       58.66609         1.3322         2.4333       -56.2189       -13.4192      0.5460871       0.832173
      9321.5000         1.5027        10.9344        11.4865         0.0673        91.0156        75.4535       64.55336         1.3086         2.4205       -53.7021       -10.9063      0.6713481      0.8661311
