#------------------------------------------------------------------------------
# Created by    : vladimir.rabinovich
# Created on    : 09/19/2023 17:22:04
#------------------------------------------------------------------------------
~Version Information Section
VERS.           2.0     :   CWLS log ASCII Standard - VERSION 2.0
WRAP.           NO      :   One line per depth step
~Well Information Section
#MNEM       .UNIT                                         VALUE :DESCRIPTION
#------------------------------------------------------------------------------
STRT        .FT                                           911.5 :START DEPTH
STOP        .FT                                           12432 :STOP DEPTH
STEP        .FT                                             0.5 :STEP      
NULL        .                                           -999.25 :NULL      
COMP        .                                    EXXON CO U S A :COMPANY   
WELL        .                               OCS G03260 ST00BP00 :WELL      
FLD         .                                           WILDCAT :FIELD     
LOC         .                                                   :LOCATION  
CNTY        .                                      WEST CAMERON :LOCATION  
STAT        .                                         LOUISIANA :STATE     
CTRY        .                                     UNITED STATES :COUNTRY   
SRVC        .                                                   :SERVICE COMPANY
DATE        .                             9/13/2023 11:18:18 AM :LOG DATE  
API         .                                    17700402650000 :API NUMBER
UWI         .                                    17700402650000 :UNIQUE WELL ID
XCOORD      .                                  1465533.33943019 :SURFACE X 
YCOORD      .                                  10722576.3450242 :SURFACE Y 
LAT         .                                        29.5443718 :LATITUDE  
LON         .                                       -93.5501671 :LONGITUDE 
ELEV        .FT                                              99 :ELEVATION VALUE
ELEV_TYPE   .                                                KB :ELEVATION REFERENCE TYPE
~Curve Information Section
#MNEM       .UNIT                                      API CODE :CURVE DESCRIPTION
#------------------------------------------------------------------------------
DEPT        .FT                                                 :DEPTH     
CALI        .IN                                                 :          
DRHO        .G/CC                                               :          
GR          .GAPI                                               :          
GR_NORM     .GAPI                                               :GammaRay Normalized
ILD         .OHMM                                               :          
RHOB        .G/CC                                               :          
VSH_GR      .V/V                                                :Volume of Shale from GR
~A        DEPTH           CALI           DRHO             GR        GR_NORM            ILD           RHOB         VSH_GR
# ...
     10995.0000        11.6625        -0.0333         55.746       62.32954         0.4861          2.307      0.6240327
     10995.5000        11.6564        -0.0206         55.781       62.36652         0.4862         2.3114      0.6248195
     10996.0000        11.6599         -0.022        55.7168       62.28643         0.4863         2.3032      0.6231155
     10996.5000        11.6438        -0.0268        56.5182       63.22882         0.4864         2.2941      0.6431664
     10997.0000        11.6473        -0.0287        57.5123       64.39898         0.4865         2.2971      0.6680634
     10997.5000        11.6313        -0.0354        57.9274       64.88512         0.4866         2.3001      0.6784069
     10998.0000        11.6348        -0.0373        58.4426        65.4894         0.4867         2.3035      0.6912639
     10998.5000        11.6287        -0.0392        59.6263       66.88356         0.4868          2.308      0.7209268
     10999.0000        11.6319        -0.0392        60.3297       67.71017         0.4869         2.3182      0.7385144
     10999.5000        11.6354        -0.0381        60.0769       67.40726          0.487         2.3173      0.7320694
     11000.0000        11.6481        -0.0386        60.1118       67.44424         0.4869         2.3174      0.7328563
     11000.5000        11.6516        -0.0395        60.2393        67.5905         0.4868         2.3073      0.7359681
     11001.0000        11.6455        -0.0346        59.9865       67.28759         0.4867         2.3078      0.7295232
     11001.5000        11.6582        -0.0321        59.1552       66.30114         0.4866         2.3055      0.7085349
     11002.0000        11.6346        -0.0332        57.8776       64.78754         0.4865         2.2999      0.6763306
     11002.5000        11.6318        -0.0365        57.2729       64.06879         0.4877         2.3143       0.661038
     11003.0000        11.6288         -0.035        56.5753       63.24039         0.4916         2.3366      0.6434126
     11003.5000        11.6357         -0.037        56.5432       63.19822         0.4954         2.3428      0.6425154
     11004.0000        11.6422        -0.0345        57.3761       64.17783         0.4993         2.3452      0.6633582
     11004.5000        11.6395        -0.0277        58.3074        65.2738         0.5032         2.3413      0.6866767
     11005.0000        11.6461        -0.0272        59.6217       66.82213          0.507         2.3355      0.7196198
     11005.5000        11.6529        -0.0378        60.8395       68.25658         0.5109         2.3273        0.75014
     11006.0000        11.6499        -0.0393        62.3442       70.02995         0.5148         2.3176      0.7878712
     11006.5000        11.6568        -0.0373        63.5598       71.46168         0.5184         2.3209      0.8183336
     11007.0000        11.6633        -0.0218        63.9157       71.87789         0.5204         2.3335      0.8271892
     11007.5000        11.6702        -0.0164         63.597         71.497         0.5225         2.3455      0.8190851
     11008.0000        11.6863         -0.015        62.7068       70.44108         0.5246         2.3547      0.7966187
     11008.5000        11.7219        -0.0193        61.3371       68.81867         0.5266          2.344      0.7620994
     11009.0000        11.7285        -0.0285        59.2946       66.40132         0.5287           2.33      0.7106664
     11009.5000        11.7255        -0.0405        58.3084       65.23197         0.5307         2.3237      0.6857866
     11010.0000        11.7324        -0.0541        58.6614       65.64464         0.5328         2.3188      0.6945668
     11010.5000        11.7198        -0.0681        59.4016       66.51485         0.5349         2.3048      0.7130818
     11011.0000         11.717        -0.0588        60.5218       67.83387         0.5369         2.3231      0.7411461
     11011.5000         11.714        -0.0492        60.5903       67.91054          0.539         2.3255      0.7427774
     11012.0000        11.7259         -0.053        59.9343       67.13129          0.541         2.3268      0.7261978
     11012.5000         11.736        -0.0631         58.501       65.43364         0.5397         2.3215      0.6900774
     11013.0000        11.7557        -0.0578        58.1222       64.98188         0.5374         2.3225      0.6804655
     11013.5000        11.7754         -0.051        59.3726       66.45472          0.535         2.3312      0.7118025
     11014.0000        11.7567        -0.0548        58.9935       66.00261         0.5327         2.3352      0.7021832
     11014.5000        11.7475        -0.0611        57.9442       64.75872         0.5304         2.3309      0.6757175
     11015.0000        11.7384        -0.0664        57.7581       64.53448          0.528         2.3251      0.6709463
     11015.5000        11.7293        -0.0707        57.5694        64.3073         0.5257         2.3213      0.6661128
     11016.0000        11.9979        -0.0678        58.0535       64.87483         0.5233         2.3093      0.6781879
     11016.5000         12.689        -0.0615        58.6348       65.55733          0.521          2.288      0.6927093
     11017.0000        12.4207        -0.0469        59.2136       66.23687         0.5187         2.2852      0.7071674
     11017.5000        12.0283        -0.0508        59.8925       67.03455         0.5163         2.2842      0.7241393
     11018.0000        12.0771        -0.0609        60.3748       67.60007          0.514         2.2741      0.7361718
     11018.5000        12.1732        -0.0672        60.7633       68.05468         0.5113          2.279      0.7458442
     11019.0000        12.1354        -0.0478        60.9595        68.2822         0.5082         2.3013      0.7506852
     11019.5000        12.0784        -0.0391        60.8679       68.16973          0.505         2.3202      0.7482921
     11020.0000        12.0117        -0.0381        60.2988       67.49303         0.5019         2.3193      0.7338943
     11020.5000        11.9546        -0.0366        59.8234       66.92716         0.4988         2.3218      0.7218545
     11021.0000        11.9072        -0.0347        59.8281       66.92834         0.4956          2.332      0.7218795
     11021.5000        11.9076        -0.0346        60.1223       67.27165         0.4925         2.3374      0.7291841
     11022.0000        11.7001        -0.0326        61.2983       68.65659         0.4893          2.336      0.7586509
     11022.5000         11.694        -0.0262        62.1022       69.60205         0.4862         2.3196       0.778767
     11023.0000        11.8125        -0.0165        61.5593       68.95642          0.483         2.3186      0.7650302
     11023.5000        11.8639        -0.0184        61.5918       68.99046         0.4796         2.3071      0.7657544
     11024.0000        11.9342         -0.028        62.6816       70.27367         0.4763          2.295      0.7930569
     11024.5000        12.0336        -0.0357         63.768       71.55276         0.4729         2.2893      0.8202716
     11025.0000        12.1136        -0.0391        65.0524       73.06589         0.4695         2.2854      0.8524657
     11025.5000        12.2708        -0.0458         66.042       74.23074         0.4662         2.2869      0.8772497
     11026.0000        12.0438        -0.0419         66.078        74.2689         0.4628         2.2981      0.8780617
     11026.5000        11.7305        -0.0389        65.6309       73.73644         0.4595         2.3064      0.8667328
     11027.0000        11.6574        -0.0335        65.0914       73.09471         0.4561         2.3205       0.853079
     11027.5000        11.5456        -0.0301        64.7405       72.67591         0.4527         2.3302      0.8441683
     11028.0000        11.4912        -0.0339        64.5811       72.48322         0.4494         2.3206      0.8400686
