#------------------------------------------------------------------------------
# Created by    : vladimir.rabinovich
# Created on    : 09/19/2023 17:20:59
#------------------------------------------------------------------------------
~Version Information Section
VERS.           2.0     :   CWLS log ASCII Standard - VERSION 2.0
WRAP.           NO      :   One line per depth step
~Well Information Section
#MNEM       .UNIT                                         VALUE :DESCRIPTION
#------------------------------------------------------------------------------
STRT        .FT                                            4010 :START DEPTH
STOP        .FT                                           10351 :STOP DEPTH
STEP        .FT                                             0.5 :STEP      
NULL        .                                           -999.25 :NULL      
COMP        .                         TALOS ENERGY VENTURES LLC :COMPANY   
WELL        .                               OCS G13557 ST00BP00 :WELL      
FLD         .                           WEST CAMERON BLOCK 0118 :FIELD     
LOC         .                                                   :LOCATION  
CNTY        .                                      WEST CAMERON :LOCATION  
STAT        .                                         LOUISIANA :STATE     
CTRY        .                                     UNITED STATES :COUNTRY   
SRVC        .                                                   :SERVICE COMPANY
DATE        .                             9/13/2023 11:19:21 AM :LOG DATE  
API         .                                    17700409470000 :API NUMBER
UWI         .                                    17700409470000 :UNIQUE WELL ID
XCOORD      .                                  1434760.35260149 :SURFACE X 
YCOORD      .                                  10716448.9068769 :SURFACE Y 
LAT         .                                        29.5270802 :LATITUDE  
LON         .                                       -93.6468641 :LONGITUDE 
ELEV        .FT                                             100 :ELEVATION VALUE
ELEV_TYPE   .                                                KB :ELEVATION REFERENCE TYPE
~Curve Information Section
#MNEM       .UNIT                                      API CODE :CURVE DESCRIPTION
#------------------------------------------------------------------------------
DEPT        .FT                                                 :DEPTH     
AT10        .OHMM                                               :          
AT20        .OHMM                                               :          
AT30        .OHMM                                               :          
AT60        .OHMM                                               :          
AT90        .OHMM                                               :          
CALI        .IN                                                 :          
DPHI        .%                                                  :          
DRHO        .G/C3                                               :          
DTLF        .US/F                                               :          
DTLN        .US/F                                               :          
GR          .GAPI                                               :          
GR_NORM     .GAPI                                               :GammaRay Normalized
NPOR        .%                                                  :          
RHOB        .G/C3                                               :          
SP          .MV                                                 :          
SP_NORM     .MV                                                 :SP Normalized
TENS        .LBF                                                :          
VSH_GR      .V/V                                                :Volume of Shale from GR
VSH_SP      .V/V                                                :Volume of Shale from SP
~A        DEPTH           AT10           AT20           AT30           AT60           AT90           CALI           DPHI           DRHO           DTLF           DTLN             GR        GR_NORM           NPOR           RHOB             SP        SP_NORM           TENS         VSH_GR         VSH_SP
# ...
      6966.5000         0.6451         0.5821         0.5814         0.5724         0.5765        10.9285        19.3704        -0.0081          113.5       112.8999         81.792        74.8847        42.2853         2.3304        -999.25        -999.25           2570      0.8911638        -999.25
      6967.0000         0.6536         0.5843         0.5794          0.575         0.5795        11.1735        18.7992        -0.0065          113.7       114.3999        90.3782        83.4716        41.4828         2.3398        -999.25        -999.25           2570              1        -999.25
      6967.5000         0.6722         0.5932         0.5816         0.5775         0.5823        11.1246        18.2957        -0.0054            112          113.7        95.7355        88.8296        40.4713         2.3481        -999.25        -999.25           2570              1        -999.25
      6968.0000         0.7004         0.6067           0.59         0.5736         0.5788        10.7255        18.0615        -0.0022       109.2999          108.1        93.5284        86.6233        40.1121          2.352        -999.25        -999.25           2575              1        -999.25
      6968.5000         0.7273         0.6208         0.5986         0.5692         0.5748        10.4926        17.9831        -0.0012          110.1       110.2999        93.0114         86.107        39.9007         2.3533        -999.25        -999.25           2575              1        -999.25
      6969.0000         0.7299         0.6176         0.5949         0.5698         0.5755        10.6193         18.103              0          111.1          111.5        90.1733        83.2696        39.8921         2.3513        -999.25        -999.25           2575              1        -999.25
      6969.5000         0.7108         0.5977         0.5796         0.5676         0.5735        10.6749          19.12        -0.0033            112            111        87.5879        80.6849        38.8098         2.3345        -999.25        -999.25           2575              1        -999.25
      6970.0000         0.6916          0.577         0.5621         0.5507         0.5572        11.2419        19.2944        -0.0019          111.2          113.2        88.3635        81.4613        38.3562         2.3316        -999.25        -999.25           2640              1        -999.25
      6970.5000         0.6922           0.57         0.5517         0.5276         0.5346        10.3415        19.0272        -0.0011       111.2999          111.1        87.2678        80.3663        37.1902         2.3361        -999.25        -999.25           2640              1        -999.25
      6971.0000         0.7151         0.5831         0.5524          0.517         0.5239        10.3762        18.9007         0.0035       110.8999            110        93.7316        86.8308        36.5082         2.3381        -999.25        -999.25           2640              1        -999.25
      6971.5000         0.7395         0.6023         0.5606         0.5223         0.5288        11.2458        19.5243         0.0019       109.3999          107.2        86.6929        79.7928        36.1822         2.3279        -999.25        -999.25           2640      0.9955915        -999.25
      6972.0000         0.7462          0.613         0.5712         0.5348          0.541        10.9027        19.1811         0.0043          109.2       109.3999        86.0448        79.1454        37.1722         2.3335        -999.25        -999.25           2630      0.9818171        -999.25
      6972.5000         0.7282         0.6094         0.5771         0.5449         0.5509         10.604        19.5618         0.0036          111.6            112        83.6594        76.7608        38.4427         2.3272        -999.25        -999.25           2630      0.9310809        -999.25
      6973.0000         0.6972         0.5957         0.5752         0.5499         0.5557        10.3805        19.9578         0.0019       113.3999          114.2        83.1434        76.2455        39.5278         2.3207        -999.25        -999.25           2630       0.920117        -999.25
      6973.5000         0.6708         0.5839         0.5711         0.5521         0.5576        10.7255        19.8284         0.0028       115.3999       116.3999        86.4352         79.538        39.5997         2.3228        -999.25        -999.25           2630      0.9901702        -999.25
      6974.0000         0.6571         0.5802         0.5697         0.5536         0.5587        10.8012         19.823         0.0008          117.2          116.7        87.0106        80.1141        40.2671         2.3229        -999.25        -999.25           2600              1        -999.25
      6974.5000         0.6567         0.5858         0.5723         0.5574         0.5621        11.2723        20.1357        -0.0023       117.3999          116.1        90.4286        83.5328        40.5649         2.3178        -999.25        -999.25           2600              1        -999.25
      6975.0000         0.6588         0.5966         0.5777         0.5659           0.57        11.2115        20.1085        -0.0021       117.3999          116.7        89.3966        82.5016        40.0289         2.3182        -999.25        -999.25           2600              1        -999.25
      6975.5000         0.6482         0.6007         0.5796          0.573         0.5767        10.7406         19.943        -0.0039       116.3999          116.5        90.8755        83.9812         40.085         2.3209        -999.25        -999.25           2600              1        -999.25
      6976.0000         0.6187         0.5809         0.5727         0.5689         0.5727        10.7204        20.6069        -0.0065          116.6       117.8999        94.9812        88.0876        41.4694           2.31        -999.25        -999.25           2570              1        -999.25
      6976.5000         0.5809          0.553         0.5617         0.5531         0.5573        11.5692        20.6279        -0.0033          117.2       117.7999        98.0037        91.1108         42.339         2.3096        -999.25        -999.25           2570              1        -999.25
      6977.0000         0.5532         0.5511         0.5533          0.537         0.5419        11.5407        20.6421        -0.0026          116.2          117.5       100.2122        93.3201        42.6871         2.3094        -999.25        -999.25           2570              1        -999.25
      6977.5000         0.5401         0.5584         0.5487         0.5301         0.5354        11.4039         20.928        -0.0022          117.1            117         99.726        92.8346        43.0417         2.3047        -999.25        -999.25           2570              1        -999.25
      6978.0000         0.5332         0.5583         0.5484         0.5333         0.5388        10.7457        21.6309        -0.0028          117.2          117.7        94.3492        87.4585        43.8714         2.2931        -999.25        -999.25           2570              1        -999.25
      6978.5000          0.528         0.5581         0.5492           0.54         0.5455         10.928        22.1953         -0.008            119       119.2999        95.0574        88.1674        43.9561         2.2838        -999.25        -999.25           2600              1        -999.25
      6979.0000         0.5183          0.548         0.5426         0.5384         0.5441        10.7712        22.5374        -0.0079       119.3999          119.6        93.1797        86.2905        42.8643         2.2781        -999.25        -999.25           2600              1        -999.25
      6979.5000         0.5036         0.5346         0.5289         0.5244         0.5302        10.9128        22.7475        -0.0052       119.7999       120.7999       100.4359        93.5474        42.7406         2.2747        -999.25        -999.25           2600              1        -999.25
