#------------------------------------------------------------------------------
# Created by    : vladimir.rabinovich
# Created on    : 09/19/2023 17:22:20
#------------------------------------------------------------------------------
~Version Information Section
VERS.           2.0     :   CWLS log ASCII Standard - VERSION 2.0
WRAP.           NO      :   One line per depth step
~Well Information Section
#MNEM       .UNIT                                         VALUE :DESCRIPTION
#------------------------------------------------------------------------------
STRT        .FT                                            3394 :START DEPTH
STOP        .FT                                            9102 :STOP DEPTH
STEP        .FT                                             0.5 :STEP      
NULL        .                                           -999.25 :NULL      
COMP        .                               TALOS PETROLEUM LLC :COMPANY   
WELL        .                                OCS 00299 ST00BP02 :WELL      
FLD         .                           WEST CAMERON BLOCK 0045 :FIELD     
LOC         .                                                   :LOCATION  
CNTY        .                                      WEST CAMERON :LOCATION  
STAT        .                                         LOUISIANA :STATE     
CTRY        .                                     UNITED STATES :COUNTRY   
SRVC        .                                                   :SERVICE COMPANY
DATE        .                             9/13/2023 11:19:21 AM :LOG DATE  
API         .                                    17700408910000 :API NUMBER
UWI         .                                    17700408910000 :UNIQUE WELL ID
XCOORD      .                                  1447531.51187247 :SURFACE X 
YCOORD      .                                  10768708.3799417 :SURFACE Y 
LAT         .                                         29.671026 :LATITUDE  
LON         .                                        -93.607557 :LONGITUDE 
ELEV        .FT                                              95 :ELEVATION VALUE
ELEV_TYPE   .                                                KB :ELEVATION REFERENCE TYPE
~Curve Information Section
#MNEM       .UNIT                                      API CODE :CURVE DESCRIPTION
#------------------------------------------------------------------------------
DEPT        .FT                                                 :DEPTH     
CALI        .IN                                                 :          
DPHI        .V/V                                                :          
DRHO        .G/C3                                               :          
GR          .GAPI                                               :          
GR_NORM     .GAPI                                               :GammaRay Normalized
IDPH        .OHMM                                               :          
IMPH        .OHMM                                               :          
NPOR        .V/V                                                :          
SFLU        .OHMM                                               :          
SP          .MV                                                 :          
SP_NORM     .MV                                                 :SP Normalized
TENS        .LBS                                                :          
VSH_GR      .V/V                                                :Volume of Shale from GR
VSH_SP      .V/V                                                :Volume of Shale from SP
~A        DEPTH           CALI           DPHI           DRHO             GR        GR_NORM           IDPH           IMPH           NPOR           SFLU             SP        SP_NORM           TENS         VSH_GR         VSH_SP
# ...
      5716.0000          12.64         0.3372         -0.015           38.4       38.81625         0.2541         0.3113         0.3192         0.2787          -65.4       -57.5663           3560        0.12375      0.3305265
      5716.5000          12.64         0.3336         -0.015           37.8       37.85311         0.2495         0.2972         0.3576         0.1963          -64.2       -56.3694           3580      0.1032577       0.344947
      5717.0000          12.64           0.33         -0.015           36.4       35.57756         0.2405         0.2839          0.366         0.1982            -63       -55.1725           3600     0.05484171      0.3593675
      5717.5000          12.68         0.3264         -0.015           34.2       31.98961         0.2318         0.2711         0.3624         0.2019          -61.5       -53.6755           3600              0      0.3774036
      5718.0000          12.68         0.3264         -0.015           31.8       28.07355         0.2234         0.2589           0.36         0.2153          -60.6       -52.7786           3600              0      0.3882096
      5718.5000          12.68         0.3288         -0.015           31.8       28.09472         0.2153         0.2449         0.3636         0.2296          -61.2       -53.3817           3600              0      0.3809434
      5719.0000          12.68         0.3312         -0.017           33.6       31.06878         0.2193         0.2318         0.3684         0.2339          -62.1       -54.2848           3600              0      0.3700626
      5719.5000          12.68          0.336         -0.019           35.4       34.04284         0.2255         0.2193         0.3732         0.2255          -62.4       -54.5879           3580     0.02218807      0.3664109
      5720.0000          12.68         0.3336         -0.018           37.4       37.34501         0.2318         0.2296         0.3792         0.2518          -61.2        -53.391           3580     0.09244692      0.3808313
      5720.5000          12.72         0.3251         -0.013           38.8       39.66286         0.2472         0.2565         0.3874         0.3113          -57.3       -49.4941           3580      0.1417631      0.4277819
      5721.0000          12.72          0.319        -0.0079        43.4694       47.34418         0.2761         0.2891         0.3979         0.3513          -49.8       -41.9972           3580      0.3051953       0.518106
      5721.5000          12.72          0.313         -0.003           53.4       63.65654            0.3         0.3172         0.4216         0.3748          -42.3       -34.5003           3580      0.6522668      0.6084301
      5722.0000          12.76         0.3071          0.002           59.8       74.17691         0.3353         0.3578         0.4596            0.4          -32.4       -24.6034           3560      0.8761045      0.7276699
      5722.5000          12.76         0.3071          0.006           61.6       77.15096         0.3783         0.3963         0.5088         0.4309          -24.3       -16.5065           3560      0.9393822      0.8252229
      5723.0000           12.8         0.3059           0.01           61.2       76.51594         0.4152         0.4472         0.5004         0.4599          -20.1       -12.3096           3580       0.925871       0.875788
      5723.5000          12.76         0.3035          0.014           61.8       77.52138         0.4431            0.5         0.4848         0.4817          -20.1       -12.3127           3580      0.9472634      0.8757506
      5724.0000          12.68         0.3012          0.016           62.8       79.18306         0.4685         0.5186         0.4668         0.5046          -20.7       -12.9158           3580      0.9826183      0.8684843
      5724.5000          12.64         0.2964          0.018           62.4       78.54801         0.4908         0.5329          0.456         0.5281          -23.1       -15.3189           3560      0.9691066      0.8395313
      5725.0000           12.6          0.294          0.017           61.6       77.25675         0.4685         0.5527         0.4488         0.5477          -26.7        -18.922           3540       0.941633      0.7961205
      5725.5000          12.56         0.2952          0.011             60       74.65311         0.4556         0.5378          0.444         0.5428          -30.6       -22.8251           3560      0.8862363      0.7490952
      5726.0000          12.52            0.3          0.003           57.6       70.73705         0.4431         0.5139         0.4356         0.5281          -36.3       -28.5281           3580      0.8029159      0.6803843
      5726.5000          12.52         0.3035        -0.0039             54        64.8524         0.4269         0.4862           0.42         0.5092          -44.7       -36.9312           3600      0.6777107      0.5791422
      5727.0000          12.52         0.3094        -0.0098           51.6       60.93636         0.4152         0.4642         0.4044         0.4908          -51.9       -44.1343           3620      0.5943907      0.4923578
      5727.5000          12.52         0.3141        -0.0127             50       58.33269         0.4037         0.4431         0.4092         0.4729            -60       -52.2374           3620      0.5389934      0.3947301
      5728.0000          12.48         0.3106        -0.0147        49.7959       58.01903          0.389         0.4349         0.4176         0.5233            -63       -55.2405           3620      0.5323197      0.3585482
      5728.5000          12.48         0.3045        -0.0166        48.7755       56.36622         0.3748         0.4349         0.4032          0.772          -64.5       -56.7436           3620      0.4971537      0.3404386
      5729.0000          12.48         0.3149        -0.0184        47.3469       54.04376         0.3646         0.4349           0.39            0.7          -67.8       -60.0467           3600      0.4477395      0.3006422
      5729.5000          12.56         0.3374        -0.0252        43.8776       48.37351          0.348         0.4152         0.3768         0.5378          -71.4       -63.6498           3580       0.327096      0.2572313
      5730.0000          12.56         0.3504         -0.029         42.449       46.05104         0.3353         0.3963         0.3732         0.3854          -73.8       -66.0529           3560      0.2776818      0.2282783
      5730.5000           12.6         0.3528         -0.032        42.8571        46.7417         0.3416         0.3783         0.3696         0.2787          -74.4        -66.656           3580      0.2923765      0.2210121
      5731.0000           12.6         0.3528         -0.032        44.0816       48.77164         0.3448         0.3748         0.3612         0.2449          -74.1       -66.3591           3580      0.3355668      0.2245892
      5731.5000          12.64         0.3492          -0.03        44.0816        48.7928          0.348         0.3854          0.354         0.2518          -73.8       -66.0622           3600      0.3360171      0.2281662
      5732.0000          12.64         0.3468         -0.027        44.0816       48.81396         0.3545         0.4075         0.3492         0.2761          -74.1       -66.3653           3600      0.3364673      0.2245144
      5732.5000          12.64         0.3456         -0.024        44.0816       48.83511         0.3646         0.4349         0.3432         0.3819       -75.3061       -67.5745           3600      0.3369173      0.2099458
      5733.0000          12.68         0.3444          -0.02        46.1224       52.20421         0.3714         0.4642         0.3372          0.439       -76.8367       -69.1082           3620      0.4086002      0.1914675
      5733.5000           12.8         0.3396         -0.018        48.7755        56.5778         0.3748         0.4954         0.3396          0.439       -77.7551       -70.0296           3580      0.5016553      0.1803662
