#------------------------------------------------------------------------------
# Created by    : vladimir.rabinovich
# Created on    : 09/19/2023 17:20:42
#------------------------------------------------------------------------------
~Version Information Section
VERS.           2.0     :   CWLS log ASCII Standard - VERSION 2.0
WRAP.           NO      :   One line per depth step
~Well Information Section
#MNEM       .UNIT                                         VALUE :DESCRIPTION
#------------------------------------------------------------------------------
STRT        .FT                                             202 :START DEPTH
STOP        .FT                                            9625 :STOP DEPTH
STEP        .FT                                             0.5 :STEP      
NULL        .                                           -999.25 :NULL      
COMP        .                           GENERAL AMERICAN OIL CO :COMPANY   
WELL        .                               OCS G01862 ST00BP00 :WELL      
FLD         .                           WEST CAMERON BLOCK 0045 :FIELD     
LOC         .                                                   :LOCATION  
CNTY        .                                      WEST CAMERON :LOCATION  
STAT        .                                         LOUISIANA :STATE     
CTRY        .                                     UNITED STATES :COUNTRY   
SRVC        .                                                   :SERVICE COMPANY
DATE        .                             9/13/2023 11:18:18 AM :LOG DATE  
API         .                                    17700004050000 :API NUMBER
UWI         .                                    17700004050000 :UNIQUE WELL ID
XCOORD      .                                  1441793.49938464 :SURFACE X 
YCOORD      .                                  10754125.7201806 :SURFACE Y 
LAT         .                                        29.6308281 :LATITUDE  
LON         .                                       -93.6253819 :LONGITUDE 
ELEV        .FT                                              70 :ELEVATION VALUE
ELEV_TYPE   .                                                KB :ELEVATION REFERENCE TYPE
~Curve Information Section
#MNEM       .UNIT                                      API CODE :CURVE DESCRIPTION
#------------------------------------------------------------------------------
DEPT        .FT                                                 :DEPTH     
ASN         .OHMM                                               :          
CALI        .IN                                                 :          
CALI_1      .IN                                                 :          
DRHO        .G/C3                                               :          
DT          .US/F                                               :          
GR          .GAPI                                               :          
GR_NORM     .GAPI                                               :GammaRay Normalized
ILD         .OHMM                                               :          
RHOB        .G/C3                                               :          
SP          .MV                                                 :          
SP_NORM     .MV                                                 :SP Normalized
VSH_GR      .V/V                                                :Volume of Shale from GR
VSH_SP      .V/V                                                :Volume of Shale from SP
~A        DEPTH            ASN           CALI         CALI_1           DRHO             DT             GR        GR_NORM            ILD           RHOB             SP        SP_NORM         VSH_GR         VSH_SP
# ...
      5940.0000         0.5979        11.5217         7.2297         0.0684       137.2839        92.2554       97.27801         0.5703         2.2767       -49.1006        -3.4187              1      0.9693835
      5940.5000         0.5888          11.65          7.309           0.07       135.8977        90.4216       95.05184         0.5591         2.2806       -49.1876         -3.507              1      0.9682658
      5941.0000         0.5807        11.6783          7.393         0.0717       134.9026        91.2158       96.01511         0.5519         2.2865       -49.3965        -3.7171              1      0.9656063
      5941.5000         0.5723        11.5967         7.3604         0.0628       134.0957        92.0145       96.98383          0.547         2.2934       -49.7962         -4.118              1      0.9605317
      5942.0000         0.5664        11.5473         7.2904         0.0652       133.6941        92.6364       97.73786         0.5347         2.2987       -50.3243        -4.6474              1      0.9538304
      5942.5000         0.5748         11.601         7.2798         0.0753       133.5237        93.3848       98.64553         0.5219         2.3044       -50.8519        -5.1762              1      0.9471367
      5943.0000         0.5728        11.7976         7.3464         0.0589       133.7498        92.1328       97.12545         0.5118         2.2826       -51.1677        -5.4933              1      0.9431228
      5943.5000         0.5719        11.8586         7.3979          0.048       134.1099        91.6482       96.53672         0.5082         2.2688        -51.166        -5.4928              1      0.9431291
      5944.0000         0.5748        11.8391         7.4019         0.0427       134.5752        90.8895       95.61533         0.5466         2.2619       -50.7867        -5.1147              1      0.9479152
      5944.5000         0.5771        11.8386         7.3699         0.0556       134.9226        92.2515       97.26769         0.5402         2.2901       -50.2196        -4.5489              1      0.9550772
      5945.0000         0.5779        11.8461         7.3739           0.07       134.6729        93.5538        98.8476         0.5461          2.301       -49.7367        -4.0672              1      0.9611747
      5945.5000         0.5784        11.8621         7.4118         0.0754       134.3401        92.0248       96.99123         0.5531         2.3036       -49.3021        -3.6339              1      0.9666595
      5946.0000         0.5802        11.8673         7.4347         0.0731       134.4878         89.684       94.14975         0.5632         2.3083       -49.2821        -3.6151              1      0.9668975
      5946.5000         0.5847        11.8525         7.4173         0.0793       134.6663         88.281       92.44643         0.5729         2.2954       -49.4959        -3.8301              1      0.9641759
      5947.0000         0.5923        11.8198         7.3858         0.0682       134.2778        89.4612       93.87815         0.5817          2.276       -49.6877        -4.0232              1      0.9617317
      5947.5000         0.6029        11.7789         7.3911         0.0582        134.623        91.9486       96.89633         0.5877         2.2682       -49.6685        -4.0052              1      0.9619595
      5948.0000         0.6142        11.7315         7.3952          0.054       135.0505        94.0276       99.41885         0.5898          2.274       -49.5801        -3.9181              1       0.963062
      5948.5000         0.6216        11.6765         7.3674         0.0715       135.6885        93.6193       98.92271         0.5902         2.2893       -49.3333        -3.6725              1      0.9661709
      5949.0000         0.6244         11.646         7.3298         0.0797       135.8372        91.6096       96.48295         0.5884         2.3033       -49.0548        -3.3952              1       0.969681
      5949.5000         0.6242        11.7117           7.29         0.0804       134.1775        90.2867       94.87684         0.5862         2.3223        -48.751        -3.0927              1      0.9735101
      5950.0000         0.6223        11.8888          7.277         0.0814       131.7515        89.5863       94.02621         0.5897          2.346       -48.5659        -2.9088              1       0.975838
      5950.5000         0.6187        11.9183         7.2884         0.0837       128.8281        88.9928       93.30531         0.5877         2.3579       -48.7068         -3.051              1      0.9740379
      5951.0000         0.6157        11.8197         7.3491         0.0863       127.9061        89.3635       93.75459         0.5888         2.3483        -49.036        -3.3814              1      0.9698557
      5951.5000          0.616          11.81         7.3765         0.0801       129.5076        91.2775       96.07677         0.5768         2.3359       -49.5562        -3.9028              1      0.9632557
      5952.0000         0.6148        11.9345         7.3804         0.0737       130.9172        90.6923       95.36594         0.5704         2.3209       -49.9423        -4.2902              1      0.9583519
      5952.5000          0.612        11.9939         7.3711         0.0635       130.2935         90.571       95.21811         0.5627         2.3075       -50.1301        -4.4792              1      0.9559595
      5953.0000         0.6074        12.0269         7.3735         0.0532       129.3132        91.8246       96.73891         0.5549         2.3101       -50.2444        -4.5948              1      0.9544962
      5953.5000         0.5981        12.0412         7.3822         0.0636       128.4092         89.387       93.77996         0.5472         2.3323       -50.5113        -4.8629              1      0.9511026
      5954.0000         0.5788        12.0343         7.3954         0.0711       127.5348        83.8573       87.06834         0.5342         2.3374       -51.4079        -5.7607              1       0.939738
      5954.5000         0.5594         12.015         7.4063         0.0807       127.0225        80.1985       82.62732         0.5048         2.3413       -53.6858        -8.0399              1      0.9108874
      5955.0000         0.5545        12.0379         7.4142         0.0894       127.5225         79.795       82.13688         0.4601         2.3291       -59.3079       -13.6632              1      0.8397063
      5955.5000         0.5638        12.0823         7.4197         0.0865       127.0781         78.947       81.10712         0.4251         2.3162       -66.0597       -20.4163              1      0.7542241
      5956.0000          0.581        12.1721         7.4233         0.0709       124.0631        74.9746        76.2855         0.4076         2.2856       -73.1614       -27.5192      0.9209681      0.6643139
      5956.5000         0.5737        12.3665         7.4369         0.0626       123.1869        66.0372       65.43819         0.3915         2.2621       -75.8375       -30.1965      0.6901743       0.630424
      5957.0000           0.55        12.8348         7.4558         0.0766       125.5087        61.3263       59.72029         0.3754         2.2529       -72.4319       -26.7922      0.5685169      0.6735165
      5957.5000          0.527         13.523         7.4914         0.0859       125.7296        60.2634       58.42973         0.3559         2.2402       -69.8413       -24.2028       0.541058      0.7062936
      5958.0000         0.5055        13.7942         7.5302          0.089       125.4534        60.5115       58.73022          0.351         2.2595       -69.4774       -23.8402      0.5474514      0.7108836
      5958.5000         0.4894        13.3039         7.4647         0.0652       125.0984        62.0766       60.62894          0.356         2.2312       -70.9747       -25.3387      0.5878499      0.6919152
