#------------------------------------------------------------------------------
# Created by    : vladimir.rabinovich
# Created on    : 09/19/2023 17:20:13
#------------------------------------------------------------------------------
~Version Information Section
VERS.           2.0     :   CWLS log ASCII Standard - VERSION 2.0
WRAP.           NO      :   One line per depth step
~Well Information Section
#MNEM       .UNIT                                         VALUE :DESCRIPTION
#------------------------------------------------------------------------------
STRT        .FT                                             608 :START DEPTH
STOP        .FT                                            9135 :STOP DEPTH
STEP        .FT                                             0.5 :STEP      
NULL        .                                           -999.25 :NULL      
COMP        .                             PHILLIPS PETROLEUM CO :COMPANY   
WELL        .                                OCS 00757 ST00BP00 :WELL      
FLD         .                           WEST CAMERON BLOCK 0118 :FIELD     
LOC         .                                                   :LOCATION  
CNTY        .                                      WEST CAMERON :LOCATION  
STAT        .                                         LOUISIANA :STATE     
CTRY        .                                     UNITED STATES :COUNTRY   
SRVC        .                                                   :SERVICE COMPANY
DATE        .                             9/13/2023 11:18:18 AM :LOG DATE  
API         .                                    17700400630000 :API NUMBER
UWI         .                                    17700400630000 :UNIQUE WELL ID
XCOORD      .                                  1437747.16229911 :SURFACE X 
YCOORD      .                                  10702102.5427903 :SURFACE Y 
LAT         .                                         29.487661 :LATITUDE  
LON         .                                       -93.6372228 :LONGITUDE 
ELEV        .FT                                              84 :ELEVATION VALUE
ELEV_TYPE   .                                                KB :ELEVATION REFERENCE TYPE
~Curve Information Section
#MNEM       .UNIT                                      API CODE :CURVE DESCRIPTION
#------------------------------------------------------------------------------
DEPT        .FT                                                 :DEPTH     
ASFL        .OHMM                                               :          
ASN         .OHMM                                               :          
CALI        .IN                                                 :          
DRHO        .G/CC                                               :          
GR          .GAPI                                               :          
GR_NORM     .GAPI                                               :GammaRay Normalized
ILD         .OHMM                                               :          
RHOB        .G/CC                                               :          
SP          .MV                                                 :          
SP_NORM     .MV                                                 :SP Normalized
VSH_GR      .V/V                                                :Volume of Shale from GR
VSH_SP      .V/V                                                :Volume of Shale from SP
~A        DEPTH           ASFL            ASN           CALI           DRHO             GR        GR_NORM            ILD           RHOB             SP        SP_NORM         VSH_GR         VSH_SP
# ...
      8377.5000        -999.25          1.315        10.9656        -0.0131        110.399       50.24073         0.6387         2.1414       -95.5027       -51.6309      0.3668241      0.4295299
      8378.0000        -999.25          1.337        11.0269        -0.0162       110.2335       50.15204         0.6352         2.1398       -91.2983       -47.4414       0.364937      0.4776851
      8378.5000        -999.25         1.3363        10.6661        -0.0158       116.5945       53.61028         0.6591         2.2113       -76.8269       -32.9849      0.4385166      0.6438517
      8379.0000        -999.25         1.2972        10.3649        -0.0104       126.4994       58.99455         0.6965         2.2369       -64.5833       -20.7562      0.5530755      0.7844115
      8379.5000        -999.25         1.2259        10.2834        -0.0054       136.4043       64.37881         0.7499         2.2501       -53.3403        -9.5281      0.6676342      0.9134701
      8380.0000        -999.25         1.1808        10.2866         -0.006       146.3091       69.76296         0.8084         2.2607        -50.378        -6.5807      0.7821907      0.9473483
      8380.5000        -999.25         1.1696        10.3058        -0.0007       155.4922       74.75484         0.8588         2.2682       -48.9781        -5.1957       0.888401      0.9632678
      8381.0000        -999.25         1.1727        10.3289         0.0125       160.1531       77.28921         0.8986         2.2762       -48.0601        -4.2926      0.9423236      0.9736483
      8381.5000        -999.25         1.1836        10.3546         0.0259            163       78.83763         0.9346         2.2916        -47.217        -3.4644      0.9752687      0.9831678
      8382.0000        -999.25         1.2062        10.3802         0.0387       164.1221       79.44881         0.9383         2.3179       -47.0981        -3.3604      0.9882725      0.9843632
      8382.5000        -999.25         1.2253        10.4356         0.0485       163.2571       78.98002         0.9421         2.3428       -46.9791        -3.2563      0.9782982      0.9855598
      8383.0000        -999.25         1.2124        10.4958          0.051       161.8779       78.23179         0.9441          2.327       -46.9622        -3.2543      0.9623785      0.9855828
      8383.5000        -999.25         1.1873        10.5837         0.0373       161.6853       78.12842         0.9448         2.3064       -46.9527        -3.2597      0.9601791      0.9855207
      8384.0000        -999.25         1.1643        10.6707         0.0231       162.5649       78.60774         0.9454         2.2902       -46.1342        -2.4561      0.9703775      0.9947575
      8384.5000        -999.25         1.1424        10.7421         0.0157       164.1047       79.44598          0.944         2.2813       -45.2556        -1.5924      0.9882123              1
      8385.0000        -999.25         1.1269        10.7916         0.0137       166.0544       80.50681         0.9376         2.2791       -44.4337        -0.7854              1              1
      8385.5000        -999.25         1.1159        10.7779         0.0166       167.0906       81.07125         0.9312         2.2829       -43.6142         0.0191              1              1
      8386.0000        -999.25         1.1114        10.7638          0.021       167.4729       81.28037         0.9247         2.2798       -43.5624          0.056              1              1
      8386.5000        -999.25         1.1146        10.7429         0.0254        165.407       80.15889         0.9249         2.2703       -43.8712        -0.2677              1              1
      8387.0000        -999.25         1.1215        10.7366         0.0276       163.7327       79.25033         0.9256         2.2697        -43.996        -0.4074      0.9840496              1
      8387.5000        -999.25         1.1313        10.7677         0.0277       162.9258       78.81318         0.9262         2.2727       -44.3326        -0.7589      0.9747485              1
      8388.0000        -999.25         1.1408        10.8249          0.023       162.4697       78.56656          0.935         2.2716       -44.8218         -1.263      0.9695013              1
      8388.5000        -999.25         1.1506        10.8382         0.0168       162.2429        78.4446         0.9473           2.26       -45.4071        -1.8632      0.9669064              1
      8389.0000        -999.25         1.1672        10.8022         0.0092       161.1069       77.82854         0.9595         2.2502        -46.335         -2.806      0.9537988      0.9907357
      8389.5000        -999.25         1.1948        10.7674         0.0056       159.7051       77.06802         0.9751         2.2468       -47.5833        -4.0692      0.9376175      0.9762161
      8390.0000        -999.25         1.2427         10.735         0.0083        159.906       77.17857         0.9926         2.2657       -49.1507        -5.6515      0.9399695      0.9580287
      8390.5000        -999.25         1.3068        10.7096          0.013        159.219       76.80651         1.0101          2.277       -53.2269        -9.7426      0.9320534      0.9110046
      8391.0000        -999.25         1.3638        10.6857         0.0186       152.1709       72.97751         1.0157         2.2767       -61.9808       -18.5114      0.8505853      0.8102138
      8391.5000        -999.25         1.4135        10.6209         0.0126       142.0781        67.4938         1.0185          2.276       -70.5917       -27.1372      0.7339107      0.7110667
      8392.0000        -999.25          1.457        10.5433         0.0053       133.9131       63.05777         1.0262         2.2831       -65.6676        -22.228       0.639527      0.7674943
      8392.5000        -999.25         1.4355        10.4772        -0.0022       127.4088        59.5242         1.0681         2.2917       -57.8306       -14.4059      0.5643447      0.8574035
      8393.0000        -999.25         1.4071        10.4296        -0.0028       132.2031       62.13107         1.1028         2.3001       -53.4487       -10.0389      0.6198099      0.9075989
      8393.5000        -999.25         1.3933        10.4096         0.0075       143.7092       68.38551         1.1368         2.3122       -50.6491        -7.2542      0.7528831      0.9396069
      8394.0000        -999.25         1.3814        10.4425         0.0122       155.0474       74.54866         1.1544         2.3306       -48.4372        -5.0572      0.8840141      0.9648598
      8394.5000        -999.25         1.3828        10.5609         0.0168        162.145       78.40722          1.172         2.3471       -47.2123        -3.8472      0.9661111      0.9787678
      8395.0000        -999.25         1.4152        10.7104         0.0216       163.9539       79.39164         1.1896         2.3466       -46.1613        -2.8111      0.9870561       0.990677
      8395.5000        -999.25         1.4477         10.821         0.0322       156.0557       75.10059         1.1844         2.3644       -45.4256        -2.0903      0.8957573       0.998962
      8396.0000        -999.25          1.466        10.9018         0.0402       150.8167       72.25472         1.1724         2.3778       -44.8809        -1.5606      0.8352069              1
      8396.5000        -999.25         1.3928        10.9523         0.0469        149.759       71.68115         1.1605         2.3925        -44.621        -1.3156      0.8230032              1
      8397.0000        -999.25         1.3265        10.9727           0.05       153.8811       73.92271         1.1233         2.4113       -44.4487        -1.1582      0.8706959              1
      8397.5000        -999.25         1.2702        10.9637         0.0527       159.4958        76.9753         1.0848         2.3923       -44.6376         -1.362      0.9356447              1
