#------------------------------------------------------------------------------
# Created by    : vladimir.rabinovich
# Created on    : 09/19/2023 17:21:07
#------------------------------------------------------------------------------
~Version Information Section
VERS.           2.0     :   CWLS log ASCII Standard - VERSION 2.0
WRAP.           NO      :   One line per depth step
~Well Information Section
#MNEM       .UNIT                                         VALUE :DESCRIPTION
#------------------------------------------------------------------------------
STRT        .FT                                            3871 :START DEPTH
STOP        .FT                                           10481 :STOP DEPTH
STEP        .FT                                             0.5 :STEP      
NULL        .                                           -999.25 :NULL      
COMP        .                               TALOS PETROLEUM LLC :COMPANY   
WELL        .                                OCS 00300 ST00BP00 :WELL      
FLD         .                           WEST CAMERON BLOCK 0045 :FIELD     
LOC         .                                                   :LOCATION  
CNTY        .                                      WEST CAMERON :LOCATION  
STAT        .                                         LOUISIANA :STATE     
CTRY        .                                     UNITED STATES :COUNTRY   
SRVC        .                                                   :SERVICE COMPANY
DATE        .                             9/13/2023 11:18:36 AM :LOG DATE  
API         .                                    17700410010000 :API NUMBER
UWI         .                                    17700410010000 :UNIQUE WELL ID
XCOORD      .                                  1453780.44334001 :SURFACE X 
YCOORD      .                                   10773222.791693 :SURFACE Y 
LAT         .                                         29.683533 :LATITUDE  
LON         .                                        -93.587947 :LONGITUDE 
ELEV        .FT                                              92 :ELEVATION VALUE
ELEV_TYPE   .                                                KB :ELEVATION REFERENCE TYPE
~Curve Information Section
#MNEM       .UNIT                                      API CODE :CURVE DESCRIPTION
#------------------------------------------------------------------------------
DEPT        .FT                                                 :DEPTH     
ATR         .OHMM                                               :          
CATR        .MMHO                                               :          
DCAL        .IN                                                 :          
DRHB        .G/C3                                               :          
GR          .GAPI                                               :          
GR_NORM     .GAPI                                               :GammaRay Normalized
PSR         .OHMM                                               :          
RHOB        .G/C3                                               :          
ROP5        .F/HR                                               :          
TNPH        .%                                                  :          
VSH_GR      .V/V                                                :Volume of Shale from GR
~A        DEPTH            ATR           CATR           DCAL           DRHB             GR        GR_NORM            PSR           RHOB           ROP5           TNPH         VSH_GR
# ...
      9563.5000           0.59       1694.914           1.15           0.09          92.37       76.43299           0.59           1.86          18.13             53      0.9241062
      9564.0000           0.59       1694.914           1.13           0.09          93.71       77.87095           0.59           1.86          21.43             53      0.9547011
      9564.5000            0.6       1666.666           1.19           0.08        94.7699        79.0086           0.59           1.86             25             51      0.9789063
      9565.0000           0.62       1612.902           1.11           0.12           95.6        79.8997           0.59            1.9          26.91             51      0.9978659
      9565.5000           0.65       1538.461              1           0.16          96.34       80.69411           0.64           1.95          29.76             48              1
      9566.0000           0.66        1515.15            0.8           0.21        94.1299       78.32445           0.66           2.01           30.2             46      0.9643499
      9566.5000           0.68       1470.588           0.84           0.15          93.25       77.38148           0.65           2.01           30.2             42      0.9442868
      9567.0000           0.68       1470.588           1.01           0.09        91.1299       75.10815           0.72           2.02          30.82             40      0.8959182
      9567.5000            0.7        1428.57           1.06           0.06        92.0499       76.09583           0.83           2.07          30.82             39      0.9169325
      9568.0000           0.73       1369.861           1.07           0.04          91.59       75.60335           0.83           2.08             30             38      0.9064542
      9568.5000           0.73       1369.861           1.02           0.05        91.3099       75.30373           0.75           2.05          28.94             37      0.9000794
      9569.0000           0.71       1408.449           1.07           0.05        90.2999       74.22116           0.72              2          25.32             38       0.877046
      9569.5000            0.7        1428.57           1.14           0.05          91.36       75.35897           0.71           1.97          25.32             42      0.9012547
      9570.0000            0.7        1428.57           1.16           0.06          91.96       76.00323            0.7           1.96          23.74             44      0.9149623
      9570.5000           0.68       1470.588           1.12           0.05        91.5399       75.55346           0.69           1.97          23.38             47      0.9053928
      9571.0000           0.66        1515.15           1.02           0.04           93.7       77.87112           0.66           1.99          22.76             47      0.9547048
      9571.5000           0.65       1538.461           0.99           0.06        93.7999       77.97911           0.64           2.01          22.17             49      0.9570023
      9572.0000           0.63       1587.301           0.93           0.06          97.95       82.43114           0.62           2.01          23.68             48              1
      9572.5000           0.61       1639.344           0.96           0.06        96.5199       80.89792           0.61           2.01          23.08             50              1
      9573.0000           0.59       1694.914           0.92           0.05          97.95       82.43257           0.58           2.01          21.56             48              1
      9573.5000           0.57       1754.385           0.89           0.05          95.74        80.0631           0.56           2.01          20.69             47              1
      9574.0000           0.56       1785.713           0.87           0.06           99.2       83.77487           0.55           2.01          20.59             48              1
      9574.5000           0.56       1785.713           0.93           0.06        98.1299       82.62796           0.55           2.01           21.4             48              1
      9575.0000           0.55       1818.182           0.93           0.07          98.87       83.42254           0.57           2.02          21.69             50              1
      9575.5000           0.55       1818.182           0.94           0.07        95.1799       79.46549           0.52           2.01          21.74             50      0.9886275
      9576.0000           0.54       1851.852           0.89           0.08        99.0599       83.62777           0.54           2.01           22.7             52              1
      9576.5000           0.54       1851.852            0.9           0.06          97.49       81.94475           0.57           2.01          24.19             53              1
      9577.0000           0.53       1886.793           0.89           0.06        99.1499       83.72592           0.52           2.02          24.96             55              1
      9577.5000           0.53       1886.793           0.93           0.05        97.9099       82.39665           0.54              2          26.01             54              1
      9578.0000           0.53       1886.793           0.97           0.07       100.0299        84.6712           0.54           1.98          28.12             53              1
      9578.5000           0.53       1886.793           0.98           0.07        97.6299       82.09792           0.53           1.96           30.4             52              1
      9579.0000           0.52       1923.076           0.94           0.09          95.37        79.6748           0.54           1.96          31.41             52       0.993081
      9579.5000           0.52       1923.076           0.87            0.1        96.0199        80.3727           0.53           1.96          31.41             53              1
      9580.0000           0.53       1886.793           0.88            0.1          97.45        81.9072           0.54           1.96          32.91             53              1
      9580.5000           0.53       1886.793           0.94           0.09        97.6799       82.15461           0.55           1.95          33.27             52              1
      9581.0000           0.52       1923.076           1.11           0.08        96.0599       80.41795           0.54           1.94          33.39             52              1
      9581.5000           0.52       1923.076           1.14           0.08        96.5199       80.91203           0.52           1.93          34.22             52              1
      9582.0000           0.52       1923.076           1.19           0.08        95.1399       79.43259           0.55           1.92          35.64             53      0.9879276
      9582.5000           0.53       1886.793           1.15           0.08          95.09       79.37985           0.56           1.92        36.0699             54      0.9868054
      9583.0000           0.53       1886.793           1.17           0.08          92.33       76.42046           0.54           1.94        35.5699             54      0.9238395
      9583.5000           0.53       1886.793           1.18           0.07           91.5       75.53094           0.54           1.94        35.5699             54      0.9049135
      9584.0000           0.54       1851.852           1.15           0.07          91.36       75.38149           0.54           1.93          36.96             53      0.9017339
      9584.5000           0.55       1818.182            1.1           0.09        91.7699       75.82198           0.56           1.93          36.96             53      0.9111059
      9585.0000           0.57       1754.385           0.92           0.12        93.0599       77.20647           0.55           1.97          38.54             53      0.9405633
      9585.5000           0.58       1724.137           0.82           0.13        94.3099        78.5479           0.55           2.06          38.54             52      0.9691043
