#------------------------------------------------------------------------------
# Created by    : vladimir.rabinovich
# Created on    : 09/19/2023 17:21:07
#------------------------------------------------------------------------------
~Version Information Section
VERS.           2.0     :   CWLS log ASCII Standard - VERSION 2.0
WRAP.           NO      :   One line per depth step
~Well Information Section
#MNEM       .UNIT                                         VALUE :DESCRIPTION
#------------------------------------------------------------------------------
STRT        .FT                                            3871 :START DEPTH
STOP        .FT                                           10481 :STOP DEPTH
STEP        .FT                                             0.5 :STEP      
NULL        .                                           -999.25 :NULL      
COMP        .                               TALOS PETROLEUM LLC :COMPANY   
WELL        .                                OCS 00300 ST00BP00 :WELL      
FLD         .                           WEST CAMERON BLOCK 0045 :FIELD     
LOC         .                                                   :LOCATION  
CNTY        .                                      WEST CAMERON :LOCATION  
STAT        .                                         LOUISIANA :STATE     
CTRY        .                                     UNITED STATES :COUNTRY   
SRVC        .                                                   :SERVICE COMPANY
DATE        .                             9/13/2023 11:18:36 AM :LOG DATE  
API         .                                    17700410010000 :API NUMBER
UWI         .                                    17700410010000 :UNIQUE WELL ID
XCOORD      .                                  1453780.44334001 :SURFACE X 
YCOORD      .                                   10773222.791693 :SURFACE Y 
LAT         .                                         29.683533 :LATITUDE  
LON         .                                        -93.587947 :LONGITUDE 
ELEV        .FT                                              92 :ELEVATION VALUE
ELEV_TYPE   .                                                KB :ELEVATION REFERENCE TYPE
~Curve Information Section
#MNEM       .UNIT                                      API CODE :CURVE DESCRIPTION
#------------------------------------------------------------------------------
DEPT        .FT                                                 :DEPTH     
ATR         .OHMM                                               :          
CATR        .MMHO                                               :          
DCAL        .IN                                                 :          
DRHB        .G/C3                                               :          
GR          .GAPI                                               :          
GR_NORM     .GAPI                                               :GammaRay Normalized
PSR         .OHMM                                               :          
RHOB        .G/C3                                               :          
ROP5        .F/HR                                               :          
TNPH        .%                                                  :          
VSH_GR      .V/V                                                :Volume of Shale from GR
~A        DEPTH            ATR           CATR           DCAL           DRHB             GR        GR_NORM            PSR           RHOB           ROP5           TNPH         VSH_GR
# ...
      4006.0000        -999.25        -999.25        -999.25        -999.25          28.49       39.52028        -999.25        -999.25       159.2998             57      0.1387293
      4006.5000        -999.25        -999.25        -999.25        -999.25          29.37       40.24413        -999.25        -999.25       159.2998             51      0.1541305
      4007.0000        -999.25        -999.25        -999.25        -999.25          30.61       41.26958        -999.25        -999.25       162.1599             51      0.1759484
      4007.5000        -999.25        -999.25        -999.25        -999.25          31.62       42.10234        -999.25        -999.25         168.22             54      0.1936667
      4008.0000        -999.25        -999.25        -999.25        -999.25          31.49       41.98002        -999.25        -999.25         168.22             58      0.1910643
      4008.5000        -999.25        -999.25        -999.25        -999.25          31.18        41.7069        -999.25        -999.25       165.1399             58      0.1852532
      4009.0000        -999.25        -999.25        -999.25        -999.25          30.39       41.03164        -999.25        -999.25       165.1399             56       0.170886
      4009.5000        -999.25        -999.25        -999.25        -999.25          29.55        40.3145        -999.25        -999.25         168.22             56      0.1556275
      4010.0000        -999.25        -999.25        -999.25        -999.25           28.8       39.67276        -999.25        -999.25       171.4299             58      0.1419735
      4010.5000        -999.25        -999.25        -999.25        -999.25          27.43       38.51159        -999.25        -999.25       132.3499             60      0.1172679
      4011.0000        -999.25        -999.25        -999.25        -999.25          27.16       38.27197        -999.25        -999.25       132.3499             58      0.1121696
      4011.5000        -999.25        -999.25        -999.25        -999.25          27.38       38.44289        -999.25        -999.25       123.2899             57      0.1158061
      4012.0000        -999.25        -999.25        -999.25        -999.25          29.06       39.83696        -999.25        -999.25       105.2599             58      0.1454672
      4012.5000        -999.25        -999.25        -999.25        -999.25          34.22       44.14652        -999.25        -999.25        90.9099             59      0.2371601
      4013.0000        -999.25        -999.25        -999.25        -999.25          38.68       47.86965        -999.25        -999.25        86.5399             59      0.3163755
      4013.5000        -999.25        -999.25        -999.25        -999.25          43.48       51.87762        -999.25        -999.25        87.3799             60      0.4016516
      4014.0000           1.19       840.3359           2.37           0.09          43.79       52.12392           0.57            1.7        85.3099             63       0.406892
      4014.5000           1.19       840.3359           1.44           0.06        44.0099       52.29484           0.57           1.68          83.72             64      0.4105285
      4015.0000           0.81       1234.566           1.45           0.06          44.49       52.68358            0.5           1.72        93.2599             64      0.4187995
      4015.5000           0.51       1960.783           1.57           0.06          49.08       56.51559           0.73           1.72        93.2599             60      0.5003317
      4016.0000           0.51       1960.783           1.55           0.08          55.87       62.19076           0.59           1.76          94.74             57        0.62108
      4016.5000           0.52       1923.076            1.5           0.11          59.22       64.98396           0.52           1.82       100.5599             56      0.6805097
      4017.0000           0.51       1960.783            1.5           0.14          56.05       62.31475           0.64            1.9       117.6499             55      0.6237181
      4017.5000           0.48       2083.332           1.53           0.16          49.79       57.05682           0.67           1.95       163.6399             53      0.5118473
      4018.0000           0.44       2272.727           1.58           0.16        44.9399       52.98016            0.5           1.87       163.6399             53      0.4251097
      4018.5000           0.43       2325.578           1.57           0.15          43.84       52.04533           0.43           1.71         176.47             55      0.4052198
      4019.0000           0.46        2173.91           1.25           0.13          43.84       52.03192           0.49           1.58            225             61      0.4049345
      4019.5000           0.46        2173.91           1.18           0.11        46.1299        53.9369            0.5           1.58            225             61      0.4454659
      4020.0000           0.46        2173.91           1.17           0.16          51.91       58.76603            0.5           1.74       253.5198             57      0.5482133
      4020.5000           0.47       2127.656           1.36           0.18           57.2       63.18452           0.55           1.93         285.71             53       0.642224
      4021.0000           0.44       2272.727            1.4           0.18          59.71       65.27396           0.51              2       299.9897             48      0.6866799
      4021.5000           0.41       2439.023           1.63           0.11          57.73       63.60175           0.48           1.91       310.3296             42      0.6511011
      4022.0000           0.38       2631.578           1.65           0.09        54.8199       61.15025           0.47           1.82         327.25             40      0.5989414
      4022.5000           0.31       3225.805            1.7           0.07           49.3       56.51239           0.45           1.72       352.9399             39      0.5002636
      4023.0000           0.29       3448.273           1.71           0.07          44.28       52.29331           0.39           1.61         272.73             43       0.410496
      4023.5000           0.27       3703.703           1.62           0.07        40.1299       48.80295           0.36           1.54         272.73             47       0.336233
      4024.0000           0.25           4000           1.34           0.08          39.25       48.05244           0.33           1.51       246.5598             56      0.3202648
      4024.5000           0.25           4000           1.08            0.1          37.31       46.41372           0.35           1.51       246.5798             61      0.2853984
      4025.0000           0.25           4000           1.04           0.11          35.24        44.6661           0.33           1.54       246.5698             64       0.248215
      4025.5000           0.25           4000           1.12           0.11          33.03       42.80119           0.32           1.53       246.5698             62      0.2085359
      4026.0000           0.28       3571.426           1.61           0.09          37.75       46.74215           0.33           1.55       253.5198             59      0.2923861
      4026.5000           0.33       3030.301           1.63           0.11          45.34       53.08751           0.37           1.66       264.6997             55      0.4273939
      4027.0000           0.39       2564.102           1.63           0.13        56.7599       62.64149           0.44           1.84       268.6597             49      0.6306701
      4027.5000           0.44       2272.727           1.37           0.16          62.98       67.83929           0.45           2.04       260.8599             42      0.7412614
      4028.0000           0.46        2173.91           1.23           0.15          67.47       71.58752           0.48           2.11       327.2695             37      0.8210112
