#------------------------------------------------------------------------------
# Created by    : vladimir.rabinovich
# Created on    : 09/19/2023 17:21:07
#------------------------------------------------------------------------------
~Version Information Section
VERS.           2.0     :   CWLS log ASCII Standard - VERSION 2.0
WRAP.           NO      :   One line per depth step
~Well Information Section
#MNEM       .UNIT                                         VALUE :DESCRIPTION
#------------------------------------------------------------------------------
STRT        .FT                                            3871 :START DEPTH
STOP        .FT                                           10481 :STOP DEPTH
STEP        .FT                                             0.5 :STEP      
NULL        .                                           -999.25 :NULL      
COMP        .                               TALOS PETROLEUM LLC :COMPANY   
WELL        .                                OCS 00300 ST00BP00 :WELL      
FLD         .                           WEST CAMERON BLOCK 0045 :FIELD     
LOC         .                                                   :LOCATION  
CNTY        .                                      WEST CAMERON :LOCATION  
STAT        .                                         LOUISIANA :STATE     
CTRY        .                                     UNITED STATES :COUNTRY   
SRVC        .                                                   :SERVICE COMPANY
DATE        .                             9/13/2023 11:18:36 AM :LOG DATE  
API         .                                    17700410010000 :API NUMBER
UWI         .                                    17700410010000 :UNIQUE WELL ID
XCOORD      .                                  1453780.44334001 :SURFACE X 
YCOORD      .                                   10773222.791693 :SURFACE Y 
LAT         .                                         29.683533 :LATITUDE  
LON         .                                        -93.587947 :LONGITUDE 
ELEV        .FT                                              92 :ELEVATION VALUE
ELEV_TYPE   .                                                KB :ELEVATION REFERENCE TYPE
~Curve Information Section
#MNEM       .UNIT                                      API CODE :CURVE DESCRIPTION
#------------------------------------------------------------------------------
DEPT        .FT                                                 :DEPTH     
ATR         .OHMM                                               :          
CATR        .MMHO                                               :          
DCAL        .IN                                                 :          
DRHB        .G/C3                                               :          
GR          .GAPI                                               :          
GR_NORM     .GAPI                                               :GammaRay Normalized
PSR         .OHMM                                               :          
RHOB        .G/C3                                               :          
ROP5        .F/HR                                               :          
TNPH        .%                                                  :          
VSH_GR      .V/V                                                :Volume of Shale from GR
~A        DEPTH            ATR           CATR           DCAL           DRHB             GR        GR_NORM            PSR           RHOB           ROP5           TNPH         VSH_GR
# ...
      5288.5000           0.21       4761.898           0.97           0.26          38.59       36.86326           0.36           1.86       206.9199             49     0.08219699
      5289.0000           0.21       4761.898           1.02           0.27        38.6299       36.89995           0.38           1.86       240.0198             53     0.08297762
      5289.5000           0.21       4761.898              1           0.21        37.8799       36.17364           0.38           1.81       250.0298             54      0.0675242
      5290.0000           0.21       4761.898           0.95           0.18          39.03       37.28259           0.34           1.76         268.73             54     0.09111883
      5290.5000           0.21       4761.898           0.75           0.17          39.91       38.13059           0.36           1.77         268.73             55      0.1091615
      5291.0000            0.2           5000           1.07           0.19          39.73       37.95498           0.38           1.77       272.7896             55      0.1054251
      5291.5000            0.2           5000           1.11            0.2          39.03       37.27695           0.35           1.79       281.3198             57     0.09099904
      5292.0000            0.2           5000           1.13            0.2          40.84       39.02335           0.33           1.77       276.9697             54      0.1281563
      5292.5000            0.2           5000           0.77            0.2          41.41       39.57195           0.35           1.79       281.3096             51      0.1398287
      5293.0000            0.2           5000           0.61           0.21        42.0699       40.20747           0.34           1.79       281.3096             48      0.1533504
      5293.5000            0.2           5000           0.76           0.23          41.41       39.56824           0.34           1.79       277.0098             47      0.1397497
      5294.0000           0.21       4761.898           0.89           0.22        41.3199       39.47938           0.38           1.75       272.7896             50      0.1378592
      5294.5000           0.22       4545.453           0.93           0.17          41.59       39.73839           0.36           1.65       243.2898             51        0.14337
      5295.0000           0.23        4347.82           0.84           0.15          42.73       40.83767           0.34            1.6       236.8799             56       0.166759
      5295.5000           0.23        4347.82           0.92           0.14           48.9       46.79497           0.36           1.63       233.8298             54        0.29351
      5296.0000           0.21       4761.898           0.94           0.14          58.12       55.69824           0.33           1.74       233.8298             53      0.4829412
      5296.5000           0.19       5263.156           0.89           0.16        67.1599       64.42751            0.3           1.87       233.8298             49      0.6686705
      5297.0000            0.2           5000           0.78           0.21        67.7799       65.02438           0.31           1.91         222.25             50      0.6813698
      5297.5000           0.22       4545.453           0.77           0.26          62.36       59.78777           0.35           1.86         222.25             52      0.5699524
      5298.0000           0.23        4347.82           1.15           0.15          52.92       50.66848           0.37           1.79       209.3098             52      0.3759251
      5298.5000           0.22       4545.453           1.44           0.13          49.48       47.34406           0.34           1.78       209.3098             51      0.3051926
      5299.0000           0.22       4545.453           1.45           0.14          46.18       44.15502           0.35           1.81       197.8198             50      0.2373409
      5299.5000           0.23        4347.82           1.35           0.22          44.06       42.10551           0.35           1.84       214.2998             50      0.1937342
      5300.0000           0.23        4347.82           1.38           0.24          40.18       38.35611           0.36           1.83       209.3098             51      0.1139599
      5300.5000           0.23        4347.82           1.58           0.18          37.48       35.74658           0.34           1.73       209.3098             52     0.05843784
      5301.0000           0.22       4545.453            1.5           0.14          35.23       33.57151           0.33           1.65       206.8799             51     0.01215987
      5301.5000           0.22       4545.453           1.25           0.12           34.4       32.76809           0.34           1.59       204.5398             50              0
      5302.0000           0.21       4761.898           1.08           0.14           36.6       34.89101           0.36           1.65       204.5298             51     0.04023418
      5302.5000            0.2           5000           1.13           0.18          38.77        36.9851            0.4           1.71       209.2898             50     0.08478936
      5303.0000            0.2           5000           1.06           0.19        40.5699       38.72168           0.41           1.75          219.5             46      0.1217379
      5303.5000           0.21       4761.898           1.01           0.17          40.92       39.05796           0.38           1.69       219.5098             44      0.1288928
      5304.0000           0.22       4545.453           1.01           0.14        42.0699       40.16674           0.38           1.64       225.0098             48      0.1524839
      5304.5000           0.22       4545.453           1.16           0.13          42.73       40.80244           0.39           1.64       227.8699             53      0.1660093
      5305.0000           0.23        4347.82           1.32           0.11          43.48       41.52488            0.4           1.69       230.7698             57      0.1813804
      5305.5000           0.24       4166.664           1.51           0.07          45.78       43.74453           0.32           1.74       240.0198             58       0.228607
      5306.0000           0.24       4166.664           1.74           0.06          47.68       45.57769            0.3           1.74       243.2698             57      0.2676105
      5306.5000           0.23        4347.82           1.74           0.08          46.75       44.67769           0.31            1.7       240.0198             55      0.2484615
      5307.0000           0.23        4347.82           1.76           0.08          43.39       41.43055           0.31           1.66       240.0298             54      0.1793733
      5307.5000           0.25           4000           1.44           0.02        42.5099       40.57867           0.34           1.69       233.7998             53      0.1612484
      5308.0000           0.26       3846.152           1.32          -0.01          46.52       44.44992           0.36           1.78       227.8799             53      0.2436154
      5308.5000           0.27       3703.703           1.24           0.02          50.89       48.66888           0.35           1.87       227.8799             50      0.3333803
      5309.0000           0.27       3703.703           1.29           0.12        51.0699       48.84063           0.33           1.81       227.8599             44      0.3370346
      5309.5000           0.25           4000            1.4           0.15          48.64       46.49203           0.27           1.71       225.0198             42      0.2870644
      5310.0000           0.25           4000           1.28           0.15          46.04        43.9789           0.27           1.66       227.8699             46      0.2335937
      5310.5000           0.25           4000            1.1           0.13          45.12       43.08841           0.28            1.7       219.5198             54      0.2146469
