#------------------------------------------------------------------------------
# Created by    : vladimir.rabinovich
# Created on    : 09/19/2023 17:20:44
#------------------------------------------------------------------------------
~Version Information Section
VERS.           2.0     :   CWLS log ASCII Standard - VERSION 2.0
WRAP.           NO      :   One line per depth step
~Well Information Section
#MNEM       .UNIT                                         VALUE :DESCRIPTION
#------------------------------------------------------------------------------
STRT        .FT                                            2904 :START DEPTH
STOP        .FT                                           14016 :STOP DEPTH
STEP        .FT                                             0.5 :STEP      
NULL        .                                           -999.25 :NULL      
COMP        .                                          MCN CORP :COMPANY   
WELL        .                                OCS 00043 ST00BP00 :WELL      
FLD         .                          EUGENE ISLAND BLOCK 0089 :FIELD     
LOC         .                                                   :LOCATION  
CNTY        .                                     EUGENE ISLAND :LOCATION  
STAT        .                                         LOUISIANA :STATE     
CTRY        .                                     UNITED STATES :COUNTRY   
SRVC        .                                                   :SERVICE COMPANY
DATE        .                             9/13/2023 11:18:42 AM :LOG DATE  
API         .                                    17709009460000 :API NUMBER
UWI         .                                    17709009460000 :UNIQUE WELL ID
XCOORD      .                                  2058690.32320654 :SURFACE X 
YCOORD      .                                  10563305.2032801 :SURFACE Y 
LAT         .                                        29.1009424 :LATITUDE  
LON         .                                       -91.6898776 :LONGITUDE 
ELEV        .FT                                              49 :ELEVATION VALUE
ELEV_TYPE   .                                                KB :ELEVATION REFERENCE TYPE
~Curve Information Section
#MNEM       .UNIT                                      API CODE :CURVE DESCRIPTION
#------------------------------------------------------------------------------
DEPT        .FT                                                 :DEPTH     
ASN         .OHMM                                               :          
CALI        .IN                                                 :          
DT          .US/F                                               :          
GR          .GAPI                                               :          
GR_NORM     .GAPI                                               :GammaRay Normalized
ILD         .OHMM                                               :          
SP          .MV                                                 :          
SP_NORM     .MV                                                 :SP Normalized
VSH_GR      .V/V                                                :Volume of Shale from GR
VSH_SP      .V/V                                                :Volume of Shale from SP
~A        DEPTH            ASN           CALI             DT             GR        GR_NORM            ILD             SP        SP_NORM         VSH_GR         VSH_SP
# ...
     12532.5000         0.7288        10.6338        97.9626        70.5283       81.44783         0.6861        -72.251        -4.3265              1      0.9672324
     12533.0000         0.7305        10.7337        97.6323        68.4579       79.33247         0.6895       -72.8628        -4.9383      0.9857972      0.9586155
     12533.5000         0.7355        10.7803        97.5831        67.6285        78.4846         0.6929       -73.0408        -5.1163      0.9677573      0.9561085
     12534.0000         0.7399        10.8443        98.8066        68.1215       78.98717         0.6947       -73.0922        -5.1677      0.9784504      0.9553845
     12534.5000         0.7442         10.828        99.1542        70.2908        81.2017         0.6965       -73.3414        -5.4169              1      0.9518747
     12535.0000         0.7489        10.7218        99.0916        71.6882       82.62791         0.6999       -73.7074        -5.7829              1      0.9467197
     12535.5000         0.7483        10.7135       100.0055         72.678       83.63786         0.7035       -74.1436        -6.2191              1      0.9405761
     12536.0000         0.7401        10.7221        99.0197        73.6478       84.62737         0.6969       -74.6573        -6.7328              1      0.9333408
     12536.5000         0.7318        10.6273        98.8257        74.1272       85.11605         0.7064       -74.9478        -7.0233              1      0.9292493
     12537.0000         0.7278        10.5011        98.3152          73.92       84.90363         0.7184       -74.5085         -6.584              1      0.9354366
     12537.5000         0.7284         10.347        97.1384        72.8442       83.80401         0.7149       -73.9126        -5.9881              1      0.9438296
     12538.0000         0.7318        10.2808        97.4966        71.7991       82.73576         0.7045       -73.7047        -5.7802              1      0.9467577
     12538.5000         0.7367        10.1053        98.0426         71.049       81.96878         0.6916       -73.6864        -5.7619              1      0.9470155
     12539.0000           0.74        10.3141         98.868        70.3562       81.26032         0.7048        -73.728        -5.8035              1      0.9464296
     12539.5000         0.7376        10.5338        99.5645        70.7678       81.67977         0.7066       -73.6011        -5.6766              1      0.9482169
     12540.0000         0.7369         10.586        99.4515        70.4709       81.37572         0.7165       -73.0947        -5.1702              1      0.9553493
     12540.5000         0.7414        10.4423        99.0646        69.5209       80.40459         0.7296       -72.2797        -4.3552              1      0.9668282
     12541.0000         0.7643         9.8618        97.9075        68.6578       79.52222         0.7316       -71.9397        -4.0152      0.9898344      0.9716169
     12541.5000         0.7752         9.4204        98.1948        71.2885       82.20797         0.7392       -72.3739        -4.4494              1      0.9655014
     12542.0000         0.7706         9.5745        98.4626        73.9764       84.95213         0.7291       -72.5673        -4.6428              1      0.9627775
     12542.5000         0.7564         9.5655        98.6887        74.7069       85.69727          0.707       -72.3356        -4.4111              1      0.9660408
     12543.0000         0.7275         9.7064        99.2759        74.1547        85.1324         0.6736       -72.2616        -4.3371              1      0.9670831
     12543.5000         0.7051        10.0147        99.9293         71.621       82.54397         0.6666       -72.2238        -4.2993              1      0.9676155
     12544.0000         0.7041         10.025       100.3248        70.2908       81.18455         0.6789       -72.2357        -4.3112              1      0.9674479
     12544.5000         0.7045        10.0117       100.6569        69.3932       80.26694         0.6915       -72.3027        -4.3782              1      0.9665042
     12545.0000         0.7056        10.1463       100.8862        68.7172       79.57563         0.7029       -72.4026        -4.4781      0.9909708      0.9650972
     12545.5000         0.7075        10.3278       101.1816        70.3066       81.19792         0.7126        -72.019        -4.0945              1         0.9705
     12546.0000         0.7161        10.3095       101.4844        71.8624       82.78591         0.7144       -71.5681        -3.6436              1      0.9768507
     12546.5000         0.7283        10.3293         101.66        72.0609        82.9877         0.7123       -71.2355         -3.311              1      0.9815352
     12547.0000         0.7311        10.3076       101.9598        71.8778        82.7999         0.7174       -71.9747        -4.0502              1      0.9711239
     12547.5000         0.7279        10.2418       101.4716        72.4246       83.35741         0.7198       -72.4784        -4.5539              1      0.9640296
     12548.0000         0.7294        10.3923       101.5814        73.4044       84.35715         0.7206       -72.2621        -4.3376              1      0.9670761
     12548.5000         0.7364        10.2804       100.2327        74.1378       85.10522           0.72       -71.9437        -4.0192              1      0.9715605
     12549.0000         0.7428        10.2019         99.777        73.5034       84.45641         0.7233       -71.9414        -4.0169              1       0.971593
     12549.5000         0.7449        10.3265        99.6074        72.7671       83.70352          0.727       -72.3656        -4.4411              1      0.9656183
     12550.0000         0.7444         10.343        98.9479        71.7655        82.6797          0.728       -72.7823        -4.8578              1      0.9597493
     12550.5000         0.7394        10.2597        98.8409        70.8738        81.7682         0.7131       -72.9764        -5.0519              1      0.9570155
     12551.0000         0.7326        10.2358        98.9011        70.5115       81.39727         0.7053       -73.1123        -5.1878              1      0.9551014
     12551.5000         0.7254        10.0988        98.9613        70.2449       81.12408         0.7015       -73.2247        -5.3002              1      0.9535183
     12552.0000          0.719         10.133        98.0856        70.3557       81.23632         0.7006         -73.29        -5.3655              1      0.9525986
     12552.5000         0.7138        10.0877         98.115        70.4731       81.35531            0.7       -73.3153        -5.3908              1      0.9522423
     12553.0000         0.7114        10.0338        97.8853        70.2285       81.10458         0.7005       -73.3319        -5.4074              1      0.9520084
     12553.5000          0.711        10.1917        97.9136        69.7129        80.5771         0.7023       -73.1649        -5.2404              1      0.9543605
     12554.0000         0.7131        10.2517        98.3668        69.0576       79.90703         0.7003       -72.8323        -4.9078      0.9980219      0.9590451
     12554.5000         0.7162        10.3438         98.895        69.2438       80.09628         0.7059       -72.3583        -4.4338              1      0.9657211
     12555.0000         0.7199        10.6041        99.8679        70.4393       81.31629          0.707       -71.9586        -4.0341              1      0.9713507
     12555.5000         0.7235        10.5734       100.2677         71.811       82.71626         0.7014       -72.4202        -4.4957              1      0.9648493
     12556.0000         0.7247        10.3653       100.4851        72.9907       83.92014         0.7004       -72.7288        -4.8043              1      0.9605028
     12556.5000         0.7259        10.2496       100.7369        73.0145       83.94352          0.704       -72.4802        -4.5557              1      0.9640042
