#------------------------------------------------------------------------------
# Created by    : vladimir.rabinovich
# Created on    : 09/19/2023 17:21:07
#------------------------------------------------------------------------------
~Version Information Section
VERS.           2.0     :   CWLS log ASCII Standard - VERSION 2.0
WRAP.           NO      :   One line per depth step
~Well Information Section
#MNEM       .UNIT                                         VALUE :DESCRIPTION
#------------------------------------------------------------------------------
STRT        .FT                                            3871 :START DEPTH
STOP        .FT                                           10481 :STOP DEPTH
STEP        .FT                                             0.5 :STEP      
NULL        .                                           -999.25 :NULL      
COMP        .                               TALOS PETROLEUM LLC :COMPANY   
WELL        .                                OCS 00300 ST00BP00 :WELL      
FLD         .                           WEST CAMERON BLOCK 0045 :FIELD     
LOC         .                                                   :LOCATION  
CNTY        .                                      WEST CAMERON :LOCATION  
STAT        .                                         LOUISIANA :STATE     
CTRY        .                                     UNITED STATES :COUNTRY   
SRVC        .                                                   :SERVICE COMPANY
DATE        .                             9/13/2023 11:18:36 AM :LOG DATE  
API         .                                    17700410010000 :API NUMBER
UWI         .                                    17700410010000 :UNIQUE WELL ID
XCOORD      .                                  1453780.44334001 :SURFACE X 
YCOORD      .                                   10773222.791693 :SURFACE Y 
LAT         .                                         29.683533 :LATITUDE  
LON         .                                        -93.587947 :LONGITUDE 
ELEV        .FT                                              92 :ELEVATION VALUE
ELEV_TYPE   .                                                KB :ELEVATION REFERENCE TYPE
~Curve Information Section
#MNEM       .UNIT                                      API CODE :CURVE DESCRIPTION
#------------------------------------------------------------------------------
DEPT        .FT                                                 :DEPTH     
ATR         .OHMM                                               :          
CATR        .MMHO                                               :          
DCAL        .IN                                                 :          
DRHB        .G/C3                                               :          
GR          .GAPI                                               :          
GR_NORM     .GAPI                                               :GammaRay Normalized
PSR         .OHMM                                               :          
RHOB        .G/C3                                               :          
ROP5        .F/HR                                               :          
TNPH        .%                                                  :          
VSH_GR      .V/V                                                :Volume of Shale from GR
~A        DEPTH            ATR           CATR           DCAL           DRHB             GR        GR_NORM            PSR           RHOB           ROP5           TNPH         VSH_GR
# ...
      8708.5000           0.34       2941.176           0.93           0.13          81.71       63.66548           0.34           2.28        54.3799             44      0.6524571
      8709.0000           0.35       2857.141           0.84           0.09          77.34       58.97906           0.37           2.27        54.3799             43       0.552746
      8709.5000           0.37       2702.699           0.66           0.08          73.59        54.9578           0.45           2.28             40             39      0.4671873
      8710.0000            0.3       3333.332           0.57           0.07        67.7699       48.71617           0.53            2.3             40             37      0.3343866
      8710.5000           0.24       4166.664           0.58           0.11        66.5499       47.40834            0.3           2.31          39.91             35      0.3065604
      8711.0000           0.23        4347.82           0.51           0.11        65.3899       46.16487           0.25           2.27          40.45             34      0.2801037
      8711.5000           0.22       4545.453           0.48           0.11          65.45       46.23012           0.24           2.21        40.6299             32      0.2814919
      8712.0000           0.22       4545.453           0.46           0.08          62.78       43.36726           0.24           2.18          38.79             34      0.2205799
      8712.5000           0.24       4166.664            0.5           0.06          67.21       48.11945           0.23           2.17        39.1299             37      0.3216904
      8713.0000           0.29       3448.273           0.46           0.04        72.0499        53.3114           0.27           2.18          40.27             40      0.4321575
      8713.5000           0.33       3030.301            0.3           0.06          81.08       62.99759           0.33           2.21        45.5699             38      0.6382467
      8714.0000           0.45       2222.219           0.28           0.07        83.3099       65.38997           0.44           2.25        45.5699             36      0.6891482
      8714.5000           0.52       1923.076           0.51           0.07          82.59       64.61862           0.79            2.3          37.58             33      0.6727366
      8715.0000           0.53       1886.793           0.73           0.06        77.5699       59.23503           1.33           2.34          57.33             29      0.5581923
      8715.5000           0.51       1960.783           0.79           0.04        74.0699       55.48174           1.35           2.43          39.22             25      0.4783349
      8716.0000           0.47       2127.656           0.64           0.04        73.0599       54.39935           0.67            2.5          39.22             22      0.4553054
      8716.5000           0.41       2439.023           0.44           0.05          75.37       56.87788           0.36           2.49          36.29             21      0.5080401
      8717.0000           0.39       2564.102           0.29           0.07        77.7799        59.4635           0.36           2.39          36.29             23      0.5630531
      8717.5000           0.38       2631.578           0.47           0.08        82.4199       64.44093            0.4           2.32          37.66             27      0.6689559
      8718.0000           0.38       2631.578           0.71           0.05        84.4399       66.60823           0.42           2.28          37.66             32      0.7150688
      8718.5000           0.39       2564.102           0.87           0.04        87.4099       69.79464           0.44           2.29          36.96             36      0.7828647
      8719.0000            0.4           2500           0.86           0.03          84.74       66.93182            0.4           2.28        36.4399             39      0.7219535
      8719.5000           0.41       2439.023           0.78           0.05        86.8199       69.16328           0.43           2.27          42.65             39      0.7694314
      8720.0000           0.44       2272.727            0.8           0.05          85.98        68.2632           0.51           2.26          42.86             39      0.7502808
      8720.5000           0.47       2127.656           0.94           0.06        87.1399       69.50809           0.46           2.25          53.73             38       0.776768
      8721.0000            0.5           2000           1.16           0.06        83.7799       65.90517           0.51           2.22        73.7799             38      0.7001099
      8721.5000           0.54       1851.852           1.19            0.1        87.6499       70.05673           0.58           2.23       121.6499             38      0.7884411
      8722.0000           0.56       1785.713           1.07           0.14        90.2599       72.85687           0.64           2.26       111.8199             39      0.8480186
      8722.5000           0.62       1612.902            0.8           0.19          93.11       75.91457           0.61           2.29         110.45             40      0.9130759
      8723.0000           0.65       1538.461           0.76           0.17           89.7       72.25799           0.61           2.25       109.7799             39      0.8352764
      8723.5000           0.68       1470.588           1.02           0.13        86.6399       68.97647           0.67           2.23         111.83             38      0.7654569
      8724.0000           0.71       1408.449           1.18           0.08        87.5299       69.93196           0.86           2.25       114.6799             36      0.7857864
      8724.5000           0.72       1388.889           1.14           0.06          90.97       73.62248            0.9           2.31       114.6799             35      0.8643081
      8725.0000           0.75       1333.332              1           0.06        97.0299       80.12278           0.86           2.34        89.5699             33              1
      8725.5000           0.75       1333.332           0.97           0.08        98.6399       81.85052           0.79           2.33        89.5699             32              1
      8726.0000           0.74        1351.35              1            0.1        99.2599       82.51626           0.79           2.33        89.5599             34              1
      8726.5000           0.73       1369.861           1.05           0.12        97.1499       80.25385           0.76           2.33           76.6             36              1
      8727.0000           0.71       1408.449           1.09           0.12        95.2799       78.24902           0.73           2.33        67.4199             39      0.9627452
      8727.5000            0.7        1428.57           1.17           0.11        92.9099       75.70774           0.72           2.32        67.4199             40      0.9086753
      8728.0000           0.68       1470.588            1.2           0.09        91.5099       74.20704           0.69            2.3          65.45             43      0.8767455
      8728.5000           0.67       1492.535           1.18           0.09        91.6899       74.40081           0.67            2.3          60.81             44      0.8808683
      8729.0000           0.68       1470.588           1.15           0.11          92.34       75.09889           0.68           2.32          56.96             46      0.8957211
      8729.5000           0.69       1449.273           1.12           0.14        94.4199       77.33055           0.71           2.35          52.18             42      0.9432032
      8730.0000            0.7        1428.57           1.16           0.16        94.1799       77.07384           0.72           2.34          48.78             41      0.9377414
      8730.5000            0.7        1428.57           1.26           0.12          96.09       79.12336           0.74           2.29          48.78             39      0.9813481
