#------------------------------------------------------------------------------
# Created by    : vladimir.rabinovich
# Created on    : 09/19/2023 17:20:44
#------------------------------------------------------------------------------
~Version Information Section
VERS.           2.0     :   CWLS log ASCII Standard - VERSION 2.0
WRAP.           NO      :   One line per depth step
~Well Information Section
#MNEM       .UNIT                                         VALUE :DESCRIPTION
#------------------------------------------------------------------------------
STRT        .FT                                            2904 :START DEPTH
STOP        .FT                                           14016 :STOP DEPTH
STEP        .FT                                             0.5 :STEP      
NULL        .                                           -999.25 :NULL      
COMP        .                                          MCN CORP :COMPANY   
WELL        .                                OCS 00043 ST00BP00 :WELL      
FLD         .                          EUGENE ISLAND BLOCK 0089 :FIELD     
LOC         .                                                   :LOCATION  
CNTY        .                                     EUGENE ISLAND :LOCATION  
STAT        .                                         LOUISIANA :STATE     
CTRY        .                                     UNITED STATES :COUNTRY   
SRVC        .                                                   :SERVICE COMPANY
DATE        .                             9/13/2023 11:18:42 AM :LOG DATE  
API         .                                    17709009460000 :API NUMBER
UWI         .                                    17709009460000 :UNIQUE WELL ID
XCOORD      .                                  2058690.32320654 :SURFACE X 
YCOORD      .                                  10563305.2032801 :SURFACE Y 
LAT         .                                        29.1009424 :LATITUDE  
LON         .                                       -91.6898776 :LONGITUDE 
ELEV        .FT                                              49 :ELEVATION VALUE
ELEV_TYPE   .                                                KB :ELEVATION REFERENCE TYPE
~Curve Information Section
#MNEM       .UNIT                                      API CODE :CURVE DESCRIPTION
#------------------------------------------------------------------------------
DEPT        .FT                                                 :DEPTH     
ASN         .OHMM                                               :          
CALI        .IN                                                 :          
DT          .US/F                                               :          
GR          .GAPI                                               :          
GR_NORM     .GAPI                                               :GammaRay Normalized
ILD         .OHMM                                               :          
SP          .MV                                                 :          
SP_NORM     .MV                                                 :SP Normalized
VSH_GR      .V/V                                                :Volume of Shale from GR
VSH_SP      .V/V                                                :Volume of Shale from SP
~A        DEPTH            ASN           CALI             DT             GR        GR_NORM            ILD             SP        SP_NORM         VSH_GR         VSH_SP
# ...
     10327.5000         0.9329        13.0539        96.3701        84.2795        77.9735         0.9437      -121.4408       -17.6454      0.9568831       0.799418
     10328.0000         0.9232        13.0184        96.3685        82.2748       76.05024         0.9388      -123.7467       -19.9614      0.9159625      0.7697257
     10328.5000         0.9134        12.9967        95.8745        80.1963       74.05613         0.9288      -124.6041       -20.8288      0.8735347      0.7586051
     10329.0000         0.9055        13.0711        95.0778        77.9034       71.85629         0.9143      -124.8123       -21.0471      0.8267297      0.7558064
     10329.5000         0.8971        13.2346        94.7285         73.298       67.43636         0.9062      -124.9585       -21.2033      0.7326884      0.7538038
     10330.0000         0.8889        13.4169        94.4822        72.0703         66.259         0.9037      -125.4218       -21.6767      0.7076384      0.7477346
     10330.5000         0.8856        13.5691        94.3276        71.6101       65.81846         0.9039      -126.4421        -22.707      0.6982651      0.7345256
     10331.0000         0.8974        13.4268        94.8318        70.7573       65.00102         0.9086      -127.9856       -24.2606      0.6808728      0.7146077
     10331.5000         0.9159        13.1362        95.2404         69.371       63.67152         0.9141       -129.041        -25.326      0.6525856      0.7009487
     10332.0000         0.9342        13.0197        94.8969        67.3439       61.72675         0.9276      -129.8591       -26.1541      0.6112074      0.6903321
     10332.5000         0.9489        12.9572        94.3049        66.5143       60.93158         0.9411      -130.4565       -26.7616       0.594289      0.6825436
     10333.0000         0.9599        12.6857        94.6442        68.1095       62.46423         0.9604      -130.8464       -27.1615      0.6268984      0.6774167
     10333.5000         0.9653        12.5932        94.6073         70.196       64.46851         0.9806      -131.1023       -27.4275      0.6695428      0.6740064
     10334.0000         0.9647        12.5768         93.637        70.3964       64.66224         1.0137      -131.0786       -27.4138      0.6736647      0.6741821
     10334.5000         0.9641        12.4728         92.317        69.3987        63.7057           1.05      -130.2581       -26.6034      0.6533127      0.6845718
     10335.0000         0.9635        12.3928        90.3297         69.843       64.13348           1.08      -128.7163       -25.0716      0.6624144      0.7042103
     10335.5000         0.9668        12.4686        89.7888        70.4353       64.70333         1.1093      -125.9227       -22.2881       0.674539      0.7398962
     10336.0000         0.9722        12.7108        90.4647         69.838       64.13116         1.1361      -122.8284       -19.2038      0.6623652      0.7794384
     10336.5000         0.9829        13.0053        91.1477        69.1171       63.44045          1.158      -120.4613       -16.8468      0.6476691      0.8096564
     10337.0000         0.9838        13.2944        91.3185        68.3319        62.6879         1.1681      -118.7397       -15.1352      0.6316575         0.8316
     10337.5000         0.9886        13.4902        90.6462        69.0892       63.41616         1.1783      -117.3298       -13.7354      0.6471524      0.8495461
     10338.0000         0.9927        13.6995        89.8691        72.3262       66.52493         1.1906      -116.0944         -12.51      0.7132963      0.8652564
     10338.5000         0.9957        13.7627        90.1624        74.9324       69.02823         1.1941      -115.3959       -11.8215      0.7665581      0.8740833
     10339.0000          0.997        13.6011         90.599        75.6626       69.73047         1.1848      -114.7968       -11.2325      0.7814993      0.8816346
     10339.5000         0.9975        13.4502        90.2599         75.442       69.51994         1.1815      -114.3256       -10.7713      0.7770199      0.8875474
     10340.0000         0.9972        13.4224        89.5526         76.527       70.56278         1.1687      -113.7987       -10.2545      0.7992081      0.8941731
     10340.5000         0.9951        13.4052         89.465         79.157       73.08884         1.1563      -113.1113        -9.5771       0.852954      0.9028577
     10341.0000         0.9915        13.2826        90.3911         79.276       73.20432         1.1442      -112.4463        -8.9222      0.8554111      0.9112539
     10341.5000         0.9865        13.3188        92.0791         75.809       69.87735         1.1454      -112.3048        -8.7907      0.7846245      0.9129397
     10342.0000         0.9852        13.4739        94.4957        73.7224       67.87546         1.1478      -112.3733        -8.8693       0.742031      0.9119321
     10342.5000          0.985        13.6521        95.9696        73.9407       68.08627         1.1513      -112.2506        -8.7566      0.7465165      0.9133769
     10343.0000         0.9845        13.7054        95.1532        75.1803       69.27753         1.1617      -111.9854        -8.5015      0.7718624      0.9166474
     10343.5000          0.984        13.5929         94.162        75.6334       69.71385         1.1489        -111.72        -8.2461      0.7811458      0.9199218
     10344.0000         0.9849        13.5374        93.7714        75.0885       69.19199         1.1575      -110.9613        -7.4975      0.7700424      0.9295192
     10344.5000         0.9876        13.5969        93.0494         75.454       69.54413         1.1708      -110.3389        -6.8851      0.7775347      0.9373705
     10345.0000         0.9962        13.6766        92.4403        76.8364       70.87248          1.185      -110.3433        -6.8996      0.8057975      0.9371846
     10345.5000         1.0102        13.7109        92.0815        77.8132       71.81145         1.1785      -110.4409        -7.0072      0.8257756      0.9358051
     10346.0000         1.0343        13.6727        92.9943        77.1121       71.13974         1.1693      -110.6051        -7.1814      0.8114838      0.9335718
     10346.5000         1.0433        13.6053        94.9496        77.3391       71.35891         1.1582      -110.8788        -7.4652       0.816147      0.9299333
     10347.0000          1.039        13.6795        96.0917         77.473        71.4887         1.1566      -111.1691        -7.7655      0.8189085      0.9260833
     10347.5000         1.0337        13.7513        95.1753        75.8486       69.93053          1.156      -111.3536        -7.9601      0.7857559      0.9235885
     10348.0000         1.0358         13.809        94.1571        73.7185       67.88688         1.1573      -111.3333        -7.9498       0.742274      0.9237205
     10348.5000         1.0371        13.8532         93.783        71.0608       65.33683         1.1667      -111.0907        -7.7173      0.6880177      0.9267013
     10349.0000         1.0395        13.8786        93.5374        69.1606       63.51389         1.1905      -110.8477        -7.4843      0.6492317      0.9296885
     10349.5000         1.0486        13.8703        93.5118        68.9425       63.30576         1.2026      -110.6691        -7.3158      0.6448033      0.9318487
     10350.0000         1.0598        13.6207        94.0198        70.5212       64.82256         1.1996      -110.5624        -7.2191      0.6770756      0.9330885
     10350.5000         1.0696        13.5119        94.7957        72.9053       67.11254         1.1934      -110.5825        -7.2493      0.7257987      0.9327013
     10351.0000         1.0768        13.6767        95.1704        73.9768       68.14252         1.1824      -110.7772         -7.454      0.7477133      0.9300769
     10351.5000         1.0786        13.8096        95.4709         73.663       67.84252         1.1761      -111.0134        -7.7003      0.7413303      0.9269192
