#------------------------------------------------------------------------------
# Created by    : vladimir.rabinovich
# Created on    : 09/19/2023 17:20:42
#------------------------------------------------------------------------------
~Version Information Section
VERS.           2.0     :   CWLS log ASCII Standard - VERSION 2.0
WRAP.           NO      :   One line per depth step
~Well Information Section
#MNEM       .UNIT                                         VALUE :DESCRIPTION
#------------------------------------------------------------------------------
STRT        .FT                                             202 :START DEPTH
STOP        .FT                                            9625 :STOP DEPTH
STEP        .FT                                             0.5 :STEP      
NULL        .                                           -999.25 :NULL      
COMP        .                           GENERAL AMERICAN OIL CO :COMPANY   
WELL        .                               OCS G01862 ST00BP00 :WELL      
FLD         .                           WEST CAMERON BLOCK 0045 :FIELD     
LOC         .                                                   :LOCATION  
CNTY        .                                      WEST CAMERON :LOCATION  
STAT        .                                         LOUISIANA :STATE     
CTRY        .                                     UNITED STATES :COUNTRY   
SRVC        .                                                   :SERVICE COMPANY
DATE        .                             9/13/2023 11:18:18 AM :LOG DATE  
API         .                                    17700004050000 :API NUMBER
UWI         .                                    17700004050000 :UNIQUE WELL ID
XCOORD      .                                  1441793.49938464 :SURFACE X 
YCOORD      .                                  10754125.7201806 :SURFACE Y 
LAT         .                                        29.6308281 :LATITUDE  
LON         .                                       -93.6253819 :LONGITUDE 
ELEV        .FT                                              70 :ELEVATION VALUE
ELEV_TYPE   .                                                KB :ELEVATION REFERENCE TYPE
~Curve Information Section
#MNEM       .UNIT                                      API CODE :CURVE DESCRIPTION
#------------------------------------------------------------------------------
DEPT        .FT                                                 :DEPTH     
ASN         .OHMM                                               :          
CALI        .IN                                                 :          
CALI_1      .IN                                                 :          
DRHO        .G/C3                                               :          
DT          .US/F                                               :          
GR          .GAPI                                               :          
GR_NORM     .GAPI                                               :GammaRay Normalized
ILD         .OHMM                                               :          
RHOB        .G/C3                                               :          
SP          .MV                                                 :          
SP_NORM     .MV                                                 :SP Normalized
VSH_GR      .V/V                                                :Volume of Shale from GR
VSH_SP      .V/V                                                :Volume of Shale from SP
~A        DEPTH            ASN           CALI         CALI_1           DRHO             DT             GR        GR_NORM            ILD           RHOB             SP        SP_NORM         VSH_GR         VSH_SP
# ...
      9018.0000         0.7939        10.7367        11.3111         0.0936       104.5151        90.0778       84.75532          0.785         2.3957       -44.5832         0.7074              1              1
      9018.5000          0.792        10.6979        11.3199         0.1026       105.6143        90.4946       85.26857         0.7761          2.401       -44.4827         0.8022              1              1
      9019.0000         0.8033        10.6611        11.2865         0.0963       107.0206        91.6416       86.68674         0.7821         2.3927       -44.5049         0.7742              1              1
      9019.5000         0.8155        10.6373        11.2219         0.0872       108.4542        90.1636       84.85149         0.7829         2.3814        -44.774         0.4994              1              1
      9020.0000         0.8081        10.6344        11.1721         0.0734       110.3029        87.9563       82.11218         0.7797         2.3795       -45.5439        -0.2762              1              1
      9020.5000         0.7958        10.6496        11.1739         0.0854       111.4973        85.9293       79.59646          0.791         2.3871       -46.5201        -1.2582       0.991414      0.9965108
      9021.0000         0.7919        10.6782        11.1925         0.0909       111.2006        86.6161       80.44424         0.8061         2.3924       -46.9775        -1.7213              1      0.9902527
      9021.5000         0.8129        10.7315        11.2326         0.0879       109.9113        87.4487       81.47275         0.8283         2.3774       -47.4442        -2.1938              1      0.9838676
      9022.0000         0.8673        10.7848        11.2985         0.0759       108.9349        89.3438       83.81828          0.857         2.3627       -48.3455        -3.1008              1      0.9716108
      9022.5000         0.8949        10.8195        11.3686         0.0587       108.4412        89.9664       84.58649         0.8911         2.3697        -49.592         -4.353              1      0.9546892
      9023.0000         0.9155        10.8414        11.3612         0.0551       108.1335        86.9945       80.89962         0.9142         2.3739       -50.3792         -5.146              1      0.9439729
      9023.5000         0.9472         10.824        11.3368         0.0525       108.6462        84.5231       77.83297         0.9157         2.3588       -52.4456        -7.2181      0.9538929      0.9159716
      9024.0000         1.0055        10.7876        11.3332         0.0441       108.6227        76.6439       68.06361         0.8945         2.3228       -58.3119       -13.0902      0.7460342      0.8366189
      9024.5000         1.0302        10.7738        11.3721         0.0355       107.1631        72.6708        63.1358         0.8409         2.3049       -66.2163       -21.0003      0.6411871      0.7297257
      9025.0000         1.0259        10.8816        11.4098         0.0483       105.7283        70.2112       60.08378         0.8049         2.2975       -71.0378       -25.8275      0.5762506      0.6644933
      9025.5000         0.9537         10.948        11.4335         0.0424       103.4955        68.5981       58.08107         0.7758           2.29        -73.255       -28.0505      0.5336398      0.6344527
      9026.0000         0.8577        10.9849        11.4385         0.0326        99.8229        67.7625        57.0419         0.7498         2.2762        -73.361       -28.1622      0.5115299      0.6329432
      9026.5000         0.7685        11.0273        11.4331         0.0454        98.0823        67.2343       56.38377         0.7378         2.2495       -70.3439       -25.1509       0.497527      0.6736365
      9027.0000         0.7126         11.075        11.4204         0.0551        98.7374        67.5328       56.75039         0.7284         2.2552       -57.2234       -12.0361      0.5053275      0.8508635
      9027.5000         0.6869        11.1035        11.4057         0.0612       100.5018        70.6211       60.57473         0.7226         2.2823       -53.5707        -8.3891      0.5866963      0.9001473
      9028.0000         0.7041        11.0983        11.3473         0.0712       102.9651        76.3759       67.70417         0.7238         2.3145       -53.0958          -7.92      0.7383866      0.9064865
      9028.5000         0.7466        11.0653        11.2944         0.0711       106.0331        85.4021       78.88824         0.7309         2.3165       -56.3832       -11.2131      0.9763455      0.8619851
      9029.0000         0.7819        11.0098        11.2588         0.0678       108.9275        85.5262        79.0387         0.7444         2.3103       -60.9783        -15.814      0.9795469      0.7998108
      9029.5000         0.8054        10.9522         11.238         0.0743       111.1504        83.8649       76.97614         0.7618         2.3002       -63.3239       -18.1653      0.9356624      0.7680365
      9030.0000         0.8113        10.8918        11.2704         0.0617        112.641        81.8153       74.43229         0.7706         2.2793        -62.118       -16.9651      0.8815381      0.7842554
      9030.5000         0.8137        10.8662        11.3049         0.0563       112.7933        82.0872       74.76595         0.7756         2.2762       -58.2096       -13.0625      0.8886373      0.8369932
      9031.0000         0.8178        10.9043        11.3204         0.0546       111.7079        83.4845       76.49437         0.7759         2.3029       -54.2574         -9.116      0.9254121      0.8903243
      9031.5000          0.828        10.9631        11.3266         0.0687       109.4777         85.339       78.78959         0.7748         2.3473       -51.3096         -6.174      0.9742466      0.9300811
      9032.0000         0.8308        11.0205        11.3356         0.0963       107.9659        87.5522       81.52925         0.7654         2.3925       -49.3956        -4.2657              1      0.9558689
      9032.5000         0.8129        11.0766        11.3714         0.1066       107.5314        87.6532       81.65098         0.7536         2.3982       -47.4561        -2.3319              1      0.9820014
      9033.0000         0.7845        11.1274        11.3952         0.0892        106.707        89.2491       83.62567          0.724         2.3792       -45.8799        -0.7615              1              1
      9033.5000         0.7464        11.1452        11.4025         0.0681       105.9414        93.4824       88.86917         0.7133         2.3587       -45.0475         0.0652              1              1
      9034.0000         0.7297        11.1152        11.3348          0.066       105.8774        95.4039       91.24743         0.7257         2.3557       -44.2636         0.8433              1              1
      9034.5000          0.741        11.0473        11.2922         0.0788       106.3639        96.3174        92.3762         0.7445          2.358       -45.0161         0.0851              1              1
      9035.0000         0.7763        11.0068         11.285         0.0828       108.7144        92.8044       88.01853         0.7634         2.3615       -45.5128        -0.4173              1              1
      9035.5000         0.8072        11.0003        11.3138         0.1063       110.9385         91.145       85.95844         0.7837         2.3784       -45.5019        -0.4122              1              1
      9036.0000         0.8302        11.0596         11.356         0.1118       112.2754        90.7058       85.41061         0.8042         2.3736       -44.5649         0.5191              1              1
      9036.5000         0.8313        11.1174        11.3895         0.0825        112.776        91.8427       86.81639         0.8175          2.361       -43.5842          1.494              1              1
