#------------------------------------------------------------------------------
# Created by    : vladimir.rabinovich
# Created on    : 09/19/2023 17:22:20
#------------------------------------------------------------------------------
~Version Information Section
VERS.           2.0     :   CWLS log ASCII Standard - VERSION 2.0
WRAP.           NO      :   One line per depth step
~Well Information Section
#MNEM       .UNIT                                         VALUE :DESCRIPTION
#------------------------------------------------------------------------------
STRT        .FT                                            3394 :START DEPTH
STOP        .FT                                            9102 :STOP DEPTH
STEP        .FT                                             0.5 :STEP      
NULL        .                                           -999.25 :NULL      
COMP        .                               TALOS PETROLEUM LLC :COMPANY   
WELL        .                                OCS 00299 ST00BP02 :WELL      
FLD         .                           WEST CAMERON BLOCK 0045 :FIELD     
LOC         .                                                   :LOCATION  
CNTY        .                                      WEST CAMERON :LOCATION  
STAT        .                                         LOUISIANA :STATE     
CTRY        .                                     UNITED STATES :COUNTRY   
SRVC        .                                                   :SERVICE COMPANY
DATE        .                             9/13/2023 11:19:21 AM :LOG DATE  
API         .                                    17700408910000 :API NUMBER
UWI         .                                    17700408910000 :UNIQUE WELL ID
XCOORD      .                                  1447531.51187247 :SURFACE X 
YCOORD      .                                  10768708.3799417 :SURFACE Y 
LAT         .                                         29.671026 :LATITUDE  
LON         .                                        -93.607557 :LONGITUDE 
ELEV        .FT                                              95 :ELEVATION VALUE
ELEV_TYPE   .                                                KB :ELEVATION REFERENCE TYPE
~Curve Information Section
#MNEM       .UNIT                                      API CODE :CURVE DESCRIPTION
#------------------------------------------------------------------------------
DEPT        .FT                                                 :DEPTH     
CALI        .IN                                                 :          
DPHI        .V/V                                                :          
DRHO        .G/C3                                               :          
GR          .GAPI                                               :          
GR_NORM     .GAPI                                               :GammaRay Normalized
IDPH        .OHMM                                               :          
IMPH        .OHMM                                               :          
NPOR        .V/V                                                :          
SFLU        .OHMM                                               :          
SP          .MV                                                 :          
SP_NORM     .MV                                                 :SP Normalized
TENS        .LBS                                                :          
VSH_GR      .V/V                                                :Volume of Shale from GR
VSH_SP      .V/V                                                :Volume of Shale from SP
~A        DEPTH           CALI           DPHI           DRHO             GR        GR_NORM           IDPH           IMPH           NPOR           SFLU             SP        SP_NORM           TENS         VSH_GR         VSH_SP
# ...
      3862.0000        19.5482         0.4116         -0.009           38.4       61.11195         0.4431         0.5578         0.5976            0.7          -51.9       -21.4684           2618      0.5981266      0.7050242
      3862.5000        19.5102         0.4008         -0.004           38.8       62.00839         0.4472         0.5578         0.5544         0.7189          -50.7       -20.2753           2640      0.6171998      0.7231016
      3863.0000        19.4286         0.3852          0.002           39.2       62.90482         0.4556         0.5578         0.4788         0.7652          -49.8       -19.3821           2640      0.6362727      0.7366349
      3863.5000        19.3878         0.3768          0.012           39.6       63.80129         0.4599         0.5578           0.45         0.7929          -48.9       -18.4889           2660      0.6553466      0.7501682
      3864.0000        19.4286         0.3768          0.018             40       64.69774         0.4685         0.5578         0.5016         0.7859          -48.3       -17.8957           2660        0.67442       0.759156
      3864.5000        19.4286         0.3828          0.022        40.4082       65.61251         0.4773         0.5578         0.5412          0.745          -46.8       -16.4025           2680      0.6938832      0.7817803
      3865.0000        19.4694           0.39          0.017        41.2245       67.43951         0.4862         0.5578          0.546            0.7          -44.7       -14.3093           2680      0.7327556      0.8134955
      3865.5000        19.5102         0.4008          0.012        42.0408       69.26652         0.4954         0.5629          0.552         0.6543            -42       -11.6162           2700       0.771628         0.8543
      3866.0000        19.5102         0.4152          0.008        41.6327       68.35661         0.5139         0.5681         0.5736         0.6117          -39.3         -8.923           2760      0.7522682      0.8951061
      3866.5000        19.5102         0.4296              0        42.2449       69.72739         0.5329         0.5946          0.558         0.6117          -37.5        -7.1298           2760      0.7814339      0.9222758
      3867.0000        19.5918         0.4416         -0.007        45.9184       77.94112         0.5428         0.6236         0.5172         0.6236          -37.5        -7.1366           2780       0.956194      0.9221727
      3867.5000        19.6327         0.4416         -0.012        48.9796        84.7862         0.5428         0.6543         0.4764         0.6801          -38.1        -7.7434           2780              1      0.9129788
      3868.0000        19.7143          0.432          -0.01         47.551       81.59513         0.5428         0.6866         0.4644         0.7517          -40.8       -10.4502           2820              1      0.8719667
      3868.5000        19.7551         0.4212         -0.007        44.6815       75.18324         0.5378         0.7126         0.4764         0.8371          -44.4        -14.057           2840      0.8975157      0.8173182
      3869.0000        19.8367         0.4104         -0.005        41.0122       66.98352         0.5378         0.7254         0.4884          0.868          -48.9       -18.5639           2800      0.7230536      0.7490318
      3869.5000        19.9592         0.4116         -0.002        38.9868       62.45846         0.5281         0.7126         0.4932            0.9          -53.1       -22.7707           2800      0.6267758      0.6852924
      3870.0000             20         0.4188         -0.005         37.556        59.2625         0.5092         0.6866          0.498         0.9174          -57.9       -27.5775           2760      0.5587766      0.6124621
      3870.5000         20.114         0.4285         -0.009        35.7143       55.14805         0.4908         0.6671          0.498         0.9262        -62.449       -32.1333           2720      0.4712351      0.5434349
      3871.0000         20.184         0.4395        -0.0151        33.8776       51.04477         0.4729         0.6481         0.4776         0.9442       -66.7347       -36.4258           2660      0.3839313       0.478397
      3871.5000         20.254         0.4658        -0.0233        31.8367       46.48507         0.4556         0.6236         0.4587         0.9532       -71.0204       -40.7183           2600      0.2869163      0.4133591
      3872.0000         20.284         0.5004        -0.0407        30.8163       44.20646          0.439         0.6058         0.4529          0.981            -75       -44.7048           2620      0.2384354      0.3529576
      3872.5000          20.28         0.5424         -0.057        31.4286       45.57745         0.4349         0.5946         0.4541         1.0093          -78.6       -48.3116           2640      0.2676054      0.2983091
      3873.0000          20.28            0.6         -0.075        32.2449       47.40447         0.4269            0.6         0.4518         1.0473          -81.6       -51.3184           2660      0.3064781      0.2527515
      3873.5000          20.32         0.6024         -0.088        32.2449       47.40678          0.419         0.6058         0.4494         1.0668          -84.6       -54.3252           2680      0.3065273       0.207194
      3874.0000          20.36          0.618         -0.097        30.2041       42.84731         0.4152         0.6058         0.5016         1.0281          -86.4        -56.132           2680      0.2095172      0.1798182
      3874.5000          20.64          0.618           -0.1           28.2       38.36983         0.4075         0.5892           0.57          0.981          -87.6       -57.3388           2680      0.1142517      0.1615334
      3875.0000           21.4         0.5856         -0.093           27.8       37.47802            0.4         0.5838         0.5796         0.9442          -87.9       -57.6457           2700     0.09527709      0.1568834
      3875.5000          21.44           0.57          -0.08           28.8       39.71565         0.3926         0.5733          0.558            0.9          -87.9       -57.6525           2720      0.1428862      0.1567803
      3876.0000          21.16         0.5592         -0.069           29.8       41.95329          0.389         0.5578         0.5376          0.868          -87.3       -57.0593           2740      0.1904955      0.1657682
      3876.5000             21         0.5568         -0.063        31.4286       45.59605         0.3819         0.5378         0.5328         0.8371            -87       -56.7661           2740       0.268001      0.1702106
      3877.0000             21         0.5616          -0.06        33.8776       51.07263         0.3783         0.5139         0.5232         0.8073            -87       -56.7729           2760       0.384524      0.1701076
      3877.5000          20.96         0.5616          -0.06        36.5306       57.00525         0.3714         0.5092         0.4896         0.7859          -86.7       -56.4797           2760      0.5107501        0.17455
      3878.0000          20.96         0.5592         -0.062         37.551       59.28848         0.3748         0.5092         0.4576         0.7929            -87       -56.7865           2760      0.5593293      0.1699015
      3878.5000          20.88          0.557         -0.065        36.7347       57.46611         0.3819         0.5186         0.4318         0.8073          -87.3       -57.0934           2760      0.5205556      0.1652515
      3879.0000          20.72         0.5585         -0.068        35.9184       55.64376          0.389         0.5329         0.4236         0.8146          -87.6       -57.4002           2780       0.481782       0.160603
      3879.5000          20.56         0.5516         -0.068        35.3061        54.2774         0.3963         0.5477         0.4605          0.822          -87.9        -57.707           2780      0.4527106      0.1559545
