#------------------------------------------------------------------------------
# Created by    : vladimir.rabinovich
# Created on    : 09/19/2023 17:20:13
#------------------------------------------------------------------------------
~Version Information Section
VERS.           2.0     :   CWLS log ASCII Standard - VERSION 2.0
WRAP.           NO      :   One line per depth step
~Well Information Section
#MNEM       .UNIT                                         VALUE :DESCRIPTION
#------------------------------------------------------------------------------
STRT        .FT                                             608 :START DEPTH
STOP        .FT                                            9135 :STOP DEPTH
STEP        .FT                                             0.5 :STEP      
NULL        .                                           -999.25 :NULL      
COMP        .                             PHILLIPS PETROLEUM CO :COMPANY   
WELL        .                                OCS 00757 ST00BP00 :WELL      
FLD         .                           WEST CAMERON BLOCK 0118 :FIELD     
LOC         .                                                   :LOCATION  
CNTY        .                                      WEST CAMERON :LOCATION  
STAT        .                                         LOUISIANA :STATE     
CTRY        .                                     UNITED STATES :COUNTRY   
SRVC        .                                                   :SERVICE COMPANY
DATE        .                             9/13/2023 11:18:18 AM :LOG DATE  
API         .                                    17700400630000 :API NUMBER
UWI         .                                    17700400630000 :UNIQUE WELL ID
XCOORD      .                                  1437747.16229911 :SURFACE X 
YCOORD      .                                  10702102.5427903 :SURFACE Y 
LAT         .                                         29.487661 :LATITUDE  
LON         .                                       -93.6372228 :LONGITUDE 
ELEV        .FT                                              84 :ELEVATION VALUE
ELEV_TYPE   .                                                KB :ELEVATION REFERENCE TYPE
~Curve Information Section
#MNEM       .UNIT                                      API CODE :CURVE DESCRIPTION
#------------------------------------------------------------------------------
DEPT        .FT                                                 :DEPTH     
ASFL        .OHMM                                               :          
ASN         .OHMM                                               :          
CALI        .IN                                                 :          
DRHO        .G/CC                                               :          
GR          .GAPI                                               :          
GR_NORM     .GAPI                                               :GammaRay Normalized
ILD         .OHMM                                               :          
RHOB        .G/CC                                               :          
SP          .MV                                                 :          
SP_NORM     .MV                                                 :SP Normalized
VSH_GR      .V/V                                                :Volume of Shale from GR
VSH_SP      .V/V                                                :Volume of Shale from SP
~A        DEPTH           ASFL            ASN           CALI           DRHO             GR        GR_NORM            ILD           RHOB             SP        SP_NORM         VSH_GR         VSH_SP
# ...
      5466.5000        -999.25         1.2302        10.9927        -0.0132       135.2422       63.45765         0.6198         2.1568      -131.8181       -31.3192       0.648035      0.4468075
      5467.0000        -999.25          1.225        11.0352        -0.0205       136.9741       64.40468         0.6377         2.1444      -131.5876       -31.0959      0.6681846      0.4510208
      5467.5000        -999.25         1.2199        10.9866         -0.027       140.3545       66.24744         0.6556         2.1467      -131.1565       -30.6719      0.7073923      0.4590208
      5468.0000        -999.25         1.2166        10.9256        -0.0196        143.377       67.89585         0.6678         2.1718      -128.9434        -28.466      0.7424649      0.5006415
      5468.5000        -999.25         1.2145        10.8678        -0.0084       146.2454       69.46048         0.6774         2.1939      -123.5236       -23.0533      0.7757549      0.6027679
      5469.0000        -999.25         1.2124        10.8181         0.0035       148.8577       70.88585          0.687         2.2145      -120.2679       -19.8047      0.8060819      0.6640623
      5469.5000        -999.25          1.214        10.7737          0.004       149.8823       71.44844         0.6856         2.2287      -120.5389       -20.0829      0.8180519      0.6588132
      5470.0000        -999.25          1.216        10.7361         -0.005       149.6743       71.34116         0.6801         2.2334      -122.1279        -21.679      0.8157694      0.6286981
      5470.5000        -999.25         1.2181        10.7026         -0.009       148.5925        70.7589         0.6745         2.2255       -124.235       -23.7933      0.8033809      0.5888057
      5471.0000        -999.25         1.2203        10.6724        -0.0079       146.7034       69.73807         0.6653         2.2144      -125.6616        -25.227       0.781661      0.5617547
      5471.5000        -999.25         1.2233        10.6548         -0.008       144.6416       68.62333         0.6557         2.1917      -127.0585        -26.631      0.7579432      0.5352641
      5472.0000        -999.25         1.2277        10.6442        -0.0087       142.9351       67.70162         0.6462          2.174      -129.2964       -28.8761      0.7383324      0.4929038
      5472.5000        -999.25          1.228        10.6414        -0.0119        141.885       67.13665         0.6387         2.1627      -131.2876       -30.8744      0.7263117         0.4552
      5473.0000        -999.25         1.2182        10.6676        -0.0153       142.3872       67.41533          0.635         2.1525      -132.0317       -31.6256       0.732241      0.4410264
      5473.5000        -999.25          1.197        10.7072        -0.0181       145.4773       69.10049         0.6314         2.1453      -131.5752       -31.1763      0.7680954      0.4495038
      5474.0000        -999.25         1.1787        10.7659        -0.0123       149.9155       71.51811         0.6379         2.1621      -125.8851       -25.4933      0.8195343      0.5567302
      5474.5000        -999.25         1.1676        10.8354        -0.0026       153.2991       73.36272         0.6674         2.1889      -119.9319       -19.5473      0.8587812      0.6689188
      5475.0000        -999.25          1.158        10.8238         0.0045       154.6096       74.08074          0.708          2.206       -120.668       -20.2905      0.8740584      0.6548962
      5475.5000        -999.25         1.1513        10.7603         0.0042       152.1548       72.75231         0.7456         2.2169      -123.2841       -22.9137      0.8457938      0.6054019
      5476.0000        -999.25         1.1515         10.734        -0.0021       149.4175       71.27052         0.7538         2.2129      -124.3696       -24.0064      0.8142663      0.5847849
      5476.5000        -999.25         1.1581        10.7525        -0.0064       147.6733       70.32838         0.7587         2.2056      -125.0947       -24.7386      0.7942208      0.5709698
      5477.0000        -999.25         1.1671        10.7759        -0.0081       148.6787       70.88042         0.7561         2.2013      -124.9232       -24.5743      0.8059663      0.5740698
      5477.5000        -999.25         1.1659        10.8051        -0.0038       152.1609       72.77861         0.7551         2.2105      -124.3276       -23.9858      0.8463534      0.5851736
      5478.0000        -999.25         1.1558        10.8356        -0.0006       156.4202       75.09918         0.7567         2.2156      -123.4001       -23.0654      0.8957273      0.6025397
      5478.5000        -999.25         1.1355        10.8731         0.0024       160.9387       77.56051         0.7582         2.2168       -121.703       -21.3755      0.9480959      0.6344245
      5479.0000        -999.25         1.1136         10.911         0.0036       165.4539       80.02008         0.7642         2.2179      -118.7115       -18.3911              1       0.690734
      5479.5000        -999.25         1.0951        10.9718         0.0049       170.9656       83.02118          0.771         2.2191      -114.7222       -14.4089              1      0.7658698
      5480.0000        -999.25          1.079        11.0539         0.0052       174.7498       85.08349         0.7778         2.2234      -110.5746       -10.2685              1      0.8439906
      5480.5000        -999.25         1.0649        11.1321         0.0051        175.345       85.41272         0.7854         2.2312      -107.4844        -7.1854              1      0.9021623
      5481.0000        -999.25         1.0541        11.2393         0.0057       174.5278       84.97437         0.7933         2.2323      -105.8046        -5.5128              1      0.9337208
      5481.5000        -999.25         1.0464        11.4327         0.0076       173.7949       84.58177         0.7975         2.2294      -104.1237         -3.839              1      0.9653019
      5482.0000        -999.25         1.0462        11.6489         0.0125       173.3584       84.35026         0.7935         2.2375      -103.8461        -3.5685              1      0.9704056
      5482.5000        -999.25         1.0494        11.7318         0.0195       173.0505       84.18874         0.7895         2.2583      -104.3657        -4.0953              1       0.960466
      5483.0000        -999.25         1.0561        11.4917         0.0275       172.8711         84.097         0.7856         2.2657      -105.1608        -4.8975              1      0.9453302
      5483.5000        -999.25         1.0628        11.2939         0.0355       172.8279       84.07919          0.782         2.2693      -105.6178        -5.3616              1      0.9365736
      5484.0000        -999.25         1.0696        11.1544         0.0433       172.9827       84.16907         0.7784         2.2693      -106.0751        -5.8261              1      0.9278094
      5484.5000        -999.25         1.0762        11.0749         0.0422        173.813       84.62611         0.7779         2.2643      -106.0347        -5.7928              1      0.9284377
      5485.0000        -999.25          1.079        11.0257         0.0308       174.9009       85.22306         0.7824         2.2562       -105.991        -5.7563              1      0.9291264
      5485.5000        -999.25         1.0776        10.9886         0.0235       176.2256       85.94868         0.7869         2.2491      -105.9471        -5.7195              1      0.9298208
      5486.0000        -999.25         1.0704        10.9671         0.0181       177.9883       86.91245         0.7819         2.2314      -105.8311        -5.6106              1      0.9318755
      5486.5000        -999.25         1.0625        10.9498         0.0159       179.2458       87.60155          0.773         2.2112      -105.6322        -5.4189              1      0.9354925
