#------------------------------------------------------------------------------
# Created by    : vladimir.rabinovich
# Created on    : 09/19/2023 17:22:23
#------------------------------------------------------------------------------
~Version Information Section
VERS.           2.0     :   CWLS log ASCII Standard - VERSION 2.0
WRAP.           NO      :   One line per depth step
~Well Information Section
#MNEM       .UNIT                                         VALUE :DESCRIPTION
#------------------------------------------------------------------------------
STRT        .FT                                            4000 :START DEPTH
STOP        .FT                                           10100 :STOP DEPTH
STEP        .FT                                             0.5 :STEP      
NULL        .                                           -999.25 :NULL      
COMP        .                         TALOS ENERGY VENTURES LLC :COMPANY   
WELL        .                               OCS G13557 ST00BP00 :WELL      
FLD         .                           WEST CAMERON BLOCK 0118 :FIELD     
LOC         .                                                   :LOCATION  
CNTY        .                                      WEST CAMERON :LOCATION  
STAT        .                                         LOUISIANA :STATE     
CTRY        .                                     UNITED STATES :COUNTRY   
SRVC        .                                                   :SERVICE COMPANY
DATE        .                             9/13/2023 11:19:21 AM :LOG DATE  
API         .                                    17700409600000 :API NUMBER
UWI         .                                    17700409600000 :UNIQUE WELL ID
XCOORD      .                                  1437367.94342701 :SURFACE X 
YCOORD      .                                  10730631.2479363 :SURFACE Y 
LAT         .                                         29.566133 :LATITUDE  
LON         .                                        -93.638908 :LONGITUDE 
ELEV        .FT                                              97 :ELEVATION VALUE
ELEV_TYPE   .                                                KB :ELEVATION REFERENCE TYPE
~Curve Information Section
#MNEM       .UNIT                                      API CODE :CURVE DESCRIPTION
#------------------------------------------------------------------------------
DEPT        .FT                                                 :DEPTH     
CALX        .IN                                                 :          
CNC         .%                                                  :          
CSAX        .MMHO                                               :          
GR          .API                                                :          
GR_NORM     .GAPI                                               :GammaRay Normalized
GRAX        .GAPI                                               :          
PORZ        .%                                                  :          
RIPD        .OHMM                                               :          
RIPM        .OHMM                                               :          
ROPS        .M/MIN                                              :          
RSAX        .OHMM                                               :          
RSFL        .OHMM                                               :          
RSTX        .MINS                                               :          
RWAZ        .OHMM                                               :          
SP          .MV                                                 :          
SP_NORM     .MV                                                 :SP Normalized
TEN         .LBF                                                :          
VSH_GR      .V/V                                                :Volume of Shale from GR
VSH_SP      .V/V                                                :Volume of Shale from SP
ZCOR        .G/C3                                               :          
~A        DEPTH           CALX            CNC           CSAX             GR        GR_NORM           GRAX           PORZ           RIPD           RIPM           ROPS           RSAX           RSFL           RSTX           RWAZ             SP        SP_NORM            TEN         VSH_GR         VSH_SP           ZCOR
      4000.0000         10.518         63.925        -999.25        35.8149       38.73019        -999.25         38.876        -999.25          10000        -999.25        -999.25          0.322        -999.25        -999.25        -12.271       -10.3662        -17.655      0.1219189      0.8769677         -0.534
      4000.5000         11.043         57.176        -999.25         41.569       47.07103        -999.25         31.756        -999.25          10000        -999.25        -999.25          0.286        -999.25        -999.25        -22.507       -20.6022        -18.926      0.2993836      0.7264382         -0.206
      4001.0000         11.624         49.336        -999.25        44.7419        51.6703        -999.25         30.506        -999.25          10000        -999.25        -999.25          0.474        -999.25        -999.25        -31.609       -29.7042        -19.734      0.3972405      0.5925853         -0.027
      4001.5000         12.216         45.674        -999.25         45.418       52.65034        -999.25         32.262        -999.25          7.352        -999.25        -999.25          1.284        -999.25        -999.25        -37.665       -35.7602        -19.654      0.4180924      0.5035264          0.032
      4002.0000         12.833         47.785        -999.25         46.621       54.39415        -999.25         33.998        -999.25          0.443        -999.25        -999.25          1.605        -999.25        -999.25        -41.179       -39.2742        -18.352      0.4551948        0.45185          0.034
      4002.5000         13.414         53.323        -999.25        48.4319       57.01914        -999.25         34.856        -999.25          0.341        -999.25        -999.25           1.35        -999.25        -999.25        -43.316       -41.4112        -16.896      0.5110456      0.4204235          0.039
      4003.0000         13.872         54.986        -999.25         48.568       57.21643        -999.25         35.343        -999.25          0.381        -999.25        -999.25          1.189        -999.25        -999.25       -44.7729       -42.8681        -15.613      0.5152431      0.3989985          0.051
      4003.5000         14.143         52.752        -999.25         47.593       55.80312        -999.25         35.314        -999.25          0.389        -999.25        -999.25          1.095        -999.25          0.044       -45.8459       -43.9411        -14.746      0.4851727      0.3832191          0.051
      4004.0000          14.23         51.173        -999.25          48.16         56.625        -999.25          35.04          0.276          0.392        -999.25        -999.25           1.05        -999.25          0.047        -46.642       -44.7372        -14.925      0.5026596      0.3715117          0.045
      4004.5000         14.017         51.424        -999.25         49.634       58.76163        -999.25         34.883          0.363          0.419        -999.25        -999.25          1.054        -999.25          0.061        -47.201       -45.2962         -15.55      0.5481198      0.3632912          0.051
      4005.0000         13.499         51.882        -999.25         49.691       58.84426        -999.25         34.514           0.34          0.483        -999.25        -999.25          1.046        -999.25          0.056        -47.573       -45.6682        -15.449      0.5498778      0.3578206          0.059
      4005.5000         13.002         50.889        -999.25        49.2549       58.21212        -999.25         34.004          0.334          0.493        -999.25        -999.25          0.974        -999.25          0.053        -47.824       -45.9192        -14.127      0.5364281      0.3541294          0.051
      4006.0000         12.789        49.3979        -999.25         49.858       59.08635        -999.25         33.442          0.339          0.501        -999.25        -999.25           0.89        -999.25          0.052        -48.016       -46.1112         -11.72      0.5550288      0.3513059           0.04
      4006.5000         12.719         47.305        -999.25             50       59.29219        -999.25         33.082          0.341          0.492        -999.25        -999.25          0.849        -999.25          0.051        -48.154       -46.2492         -11.04      0.5594082      0.3492765          0.043
      4007.0000         12.635        44.9399        -999.25         48.693       57.39762        -999.25         33.184          0.348           0.49        -999.25        -999.25          0.848        -999.25          0.052        -48.292       -46.3872        -12.919      0.5190984      0.3472471          0.057
      4007.5000         12.634         45.241        -999.25         47.671       55.91618        -999.25          33.21          0.342          0.522        -999.25        -999.25          0.859        -999.25          0.052        -48.636       -46.7312        -15.169      0.4875783      0.3421882          0.064
      4008.0000         12.731         48.938        -999.25         47.888       56.23073        -999.25         32.874          0.328          0.512        -999.25        -999.25          0.858        -999.25          0.048        -49.272       -47.3672        -16.023      0.4942709      0.3328353          0.054
      4008.5000         12.734         49.832        -999.25         48.298       56.82504        -999.25         32.401          0.404          0.516        -999.25        -999.25          0.842        -999.25          0.058        -50.081       -48.1762        -15.233      0.5069157      0.3209382          0.036
      4009.0000         12.571         46.198        -999.25         48.024       56.42788        -999.25         31.968          0.449          0.525        -999.25        -999.25          0.823        -999.25          0.062        -51.038       -49.1332        -13.963      0.4984654      0.3068647          0.023
      4009.5000         12.406          43.25        -999.25         47.004       54.94933        -999.25         31.539          0.474          0.534        -999.25        -999.25          0.812        -999.25          0.064        -52.157       -50.2522        -13.101       0.467007      0.2904088          0.018
      4010.0000         12.343         43.311        -999.25        45.4189       52.65165        -999.25         31.096          0.505          0.554        -999.25        -999.25          0.813        -999.25          0.066        -53.263       -51.3582        -13.092      0.4181202      0.2741441          0.022
      4010.5000         12.348        42.4189        -999.25         43.801       50.30642        -999.25         30.394          0.538          0.588        -999.25        -999.25          0.833        -999.25          0.067        -54.028       -52.1232        -14.986      0.3682218      0.2628941           0.03
      4011.0000         12.404         38.246        -999.25         42.882       48.97429        -999.25         28.905          0.579           0.64        -999.25        -999.25          0.908        -999.25          0.065        -54.097       -52.1922        -17.519      0.3398785      0.2618794          0.041
      4011.5000         12.534         34.494        -999.25          42.31       48.14515        -999.25         26.533          0.617          0.696        -999.25        -999.25          1.084        -999.25          0.057        -53.363       -51.4582        -17.546      0.3222373      0.2726735          0.041
      4012.0000         12.782         33.222        -999.25        41.9269       47.58982        -999.25          23.96           0.65          0.729        -999.25        -999.25          1.354        -999.25          0.049        -52.145       -50.2402        -16.629      0.3104218      0.2905853          0.014
      4012.5000         13.089         32.889        -999.25         42.522       48.45245        -999.25         22.342          0.682          0.743        -999.25        -999.25          1.522        -999.25          0.044        -50.918       -49.0132        -17.494      0.3287756      0.3086294          -0.02
