#------------------------------------------------------------------------------
# Created by    : vladimir.rabinovich
# Created on    : 09/19/2023 17:21:07
#------------------------------------------------------------------------------
~Version Information Section
VERS.           2.0     :   CWLS log ASCII Standard - VERSION 2.0
WRAP.           NO      :   One line per depth step
~Well Information Section
#MNEM       .UNIT                                         VALUE :DESCRIPTION
#------------------------------------------------------------------------------
STRT        .FT                                            3871 :START DEPTH
STOP        .FT                                           10481 :STOP DEPTH
STEP        .FT                                             0.5 :STEP      
NULL        .                                           -999.25 :NULL      
COMP        .                               TALOS PETROLEUM LLC :COMPANY   
WELL        .                                OCS 00300 ST00BP00 :WELL      
FLD         .                           WEST CAMERON BLOCK 0045 :FIELD     
LOC         .                                                   :LOCATION  
CNTY        .                                      WEST CAMERON :LOCATION  
STAT        .                                         LOUISIANA :STATE     
CTRY        .                                     UNITED STATES :COUNTRY   
SRVC        .                                                   :SERVICE COMPANY
DATE        .                             9/13/2023 11:18:36 AM :LOG DATE  
API         .                                    17700410010000 :API NUMBER
UWI         .                                    17700410010000 :UNIQUE WELL ID
XCOORD      .                                  1453780.44334001 :SURFACE X 
YCOORD      .                                   10773222.791693 :SURFACE Y 
LAT         .                                         29.683533 :LATITUDE  
LON         .                                        -93.587947 :LONGITUDE 
ELEV        .FT                                              92 :ELEVATION VALUE
ELEV_TYPE   .                                                KB :ELEVATION REFERENCE TYPE
~Curve Information Section
#MNEM       .UNIT                                      API CODE :CURVE DESCRIPTION
#------------------------------------------------------------------------------
DEPT        .FT                                                 :DEPTH     
ATR         .OHMM                                               :          
CATR        .MMHO                                               :          
DCAL        .IN                                                 :          
DRHB        .G/C3                                               :          
GR          .GAPI                                               :          
GR_NORM     .GAPI                                               :GammaRay Normalized
PSR         .OHMM                                               :          
RHOB        .G/C3                                               :          
ROP5        .F/HR                                               :          
TNPH        .%                                                  :          
VSH_GR      .V/V                                                :Volume of Shale from GR
~A        DEPTH            ATR           CATR           DCAL           DRHB             GR        GR_NORM            PSR           RHOB           ROP5           TNPH         VSH_GR
# ...
      6998.5000           0.22       4545.453           0.78           0.15           61.7       54.00164           0.23           2.02        79.3099             43      0.4468434
      6999.0000           0.21       4761.898           0.78           0.14        55.2599       47.63632           0.23           2.04          74.08             42      0.3114111
      6999.5000            0.2           5000           0.78            0.1          52.96       45.36348           0.25           2.07        70.3199             38      0.2630528
      7000.0000            0.2           5000           0.47           0.06          52.79       45.19592           0.24           2.14        70.0499             33      0.2594877
      7000.5000            0.2           5000           0.51           0.05           58.3       50.64294           0.24           2.21        70.0499             32      0.3753818
      7001.0000           0.22       4545.453           0.36           0.03        63.5099       55.79342           0.25           2.24        71.4399             33      0.4849663
      7001.5000           0.26       3846.152           0.51           0.05        71.1799       63.37572           0.25           2.22        72.0099             36      0.6462919
      7002.0000            0.3       3333.332           0.51           0.06        73.6899        65.8573           0.29            2.2          72.59             37      0.6990915
      7002.5000           0.34       2941.176            0.8           0.06        75.4099       67.55798           0.34           2.16        84.1299             40      0.7352762
      7003.0000           0.38       2631.578           0.81           0.03          72.72       64.89964           0.39            2.2        92.3199             40      0.6787156
      7003.5000           0.35       2857.141           0.69              0        70.2599       62.46847           0.43           2.24        92.3199             37      0.6269886
      7004.0000           0.29       3448.273           0.55           0.01           72.2       64.38678           0.25           2.27          97.85             35      0.6678038
      7004.5000           0.37       2702.699           0.65           0.06        78.8999       71.01007           0.31           2.12          99.47             34      0.8087249
      7005.0000           0.43       2325.578           0.85           0.13        85.6399       77.67294           0.48           1.97        96.7899             37       0.950488
      7005.5000           0.45       2222.219            0.9           0.24        85.2899       77.32748           0.58           1.94        93.7699             40      0.9431379
      7006.0000            0.4           2500           0.76           0.28          77.84       69.96394           0.51           1.91        91.3899             46      0.7864669
      7006.5000           0.28       3571.426           0.66           0.29        68.1799       60.41571           0.35           1.89        67.9299             50       0.583313
      7007.0000            0.2           5000           0.57           0.28           59.4       51.73751           0.29           1.87          59.81             53      0.3986704
      7007.5000           0.19       5263.156           0.43           0.26          53.49        45.8961           0.32           1.89          59.81             52      0.2743851
      7008.0000           0.19       5263.156           0.53           0.25        48.6899       41.15188           0.34           1.89          61.65             51      0.1734443
      7008.5000           0.18       5555.555            0.9           0.23        46.8799       39.36324           0.33           1.85          63.84             46       0.135388
      7009.0000           0.17       5882.352           1.13           0.25        48.6899       41.15287           0.33           1.77          65.95             47      0.1734653
      7009.5000           0.17       5882.352           1.34           0.26          51.55       43.98058           0.34            1.8          68.98             47      0.2336294
      7010.0000           0.17       5882.352           1.41           0.16           53.1       45.51339           0.34           1.84        72.3099             52      0.2662422
      7010.5000           0.18       5555.555           1.23           0.15          52.96        45.3755           0.35           2.04        72.3099             52      0.2633085
      7011.0000           0.19       5263.156           1.11           0.14          57.77       50.13058           0.39           2.09        73.1899             53      0.3644804
      7011.5000           0.23        4347.82           1.12           0.15        67.1699        59.4228            0.4           1.94       102.8899             46      0.5621873
      7012.0000           0.25           4000           1.29           0.14        77.0499       69.18946           0.39           1.78       132.4199             46      0.7699885
      7012.5000           0.22       4545.453           1.54           0.16          73.74       65.91827           0.32           1.73         142.95             46      0.7003887
      7013.0000           0.17       5882.352           1.54            0.2           63.6       55.89573           0.23           1.76       124.1899             46      0.4871432
      7013.5000           0.19       5263.156           1.53           0.24        51.6899       44.12326           0.36           1.81       124.1899             44       0.236665
      7014.0000            0.2           5000           1.34           0.25           50.1       42.55223           0.37           1.86       120.0499             45      0.2032389
      7014.5000           0.17       5882.352           1.31           0.21          49.04       41.50509            0.3           1.83          122.5             50      0.1809594
      7015.0000           0.16           6250            1.3           0.15           49.7         42.158           0.25           1.71       125.0499             56       0.194851
      7015.5000           0.17       5882.352           1.43           0.11          48.33       40.80426           0.31           1.59       126.8199             58      0.1660482
      7016.0000           0.18       5555.555           0.85           0.08          47.67       40.15253           0.37            1.5       126.8199             62      0.1521816
      7016.5000           0.19       5263.156           0.61           0.05          46.83        39.3227           0.41           1.48       124.1799             54      0.1345255
      7017.0000            0.2           5000           0.41           0.04          44.41       36.93108           0.43           1.48       125.9199             58     0.08363999
      7017.5000           0.21       4761.898            0.6           0.04          44.37       36.89219           0.53           1.49       133.3899             57     0.08281261
      7018.0000           0.22       4545.453           0.51           0.04        43.1299       35.66681           0.57           1.47       150.0798             69     0.05674062
      7018.5000           0.23        4347.82           0.37           0.04          44.28       36.80421           0.59           1.44         155.25             69     0.08094073
      7019.0000           0.24       4166.664              0           0.03           44.1       36.62695           0.69           1.39         155.25             77     0.07716914
      7019.5000           0.26       3846.152              0           0.02          42.16        34.7098           0.71           1.37       152.6099             74     0.03637866
      7020.0000           0.27       3703.703           0.76           0.03          41.85       34.40386           0.75           1.42       150.0698             73      0.0298694
      7020.5000           0.29       3448.273            0.8           0.02          40.93       33.49512            0.8            1.4       153.9099             75     0.01053449
