#------------------------------------------------------------------------------
# Created by    : vladimir.rabinovich
# Created on    : 09/19/2023 17:22:23
#------------------------------------------------------------------------------
~Version Information Section
VERS.           2.0     :   CWLS log ASCII Standard - VERSION 2.0
WRAP.           NO      :   One line per depth step
~Well Information Section
#MNEM       .UNIT                                         VALUE :DESCRIPTION
#------------------------------------------------------------------------------
STRT        .FT                                            4000 :START DEPTH
STOP        .FT                                           10100 :STOP DEPTH
STEP        .FT                                             0.5 :STEP      
NULL        .                                           -999.25 :NULL      
COMP        .                         TALOS ENERGY VENTURES LLC :COMPANY   
WELL        .                               OCS G13557 ST00BP00 :WELL      
FLD         .                           WEST CAMERON BLOCK 0118 :FIELD     
LOC         .                                                   :LOCATION  
CNTY        .                                      WEST CAMERON :LOCATION  
STAT        .                                         LOUISIANA :STATE     
CTRY        .                                     UNITED STATES :COUNTRY   
SRVC        .                                                   :SERVICE COMPANY
DATE        .                             9/13/2023 11:19:21 AM :LOG DATE  
API         .                                    17700409600000 :API NUMBER
UWI         .                                    17700409600000 :UNIQUE WELL ID
XCOORD      .                                  1437367.94342701 :SURFACE X 
YCOORD      .                                  10730631.2479363 :SURFACE Y 
LAT         .                                         29.566133 :LATITUDE  
LON         .                                        -93.638908 :LONGITUDE 
ELEV        .FT                                              97 :ELEVATION VALUE
ELEV_TYPE   .                                                KB :ELEVATION REFERENCE TYPE
~Curve Information Section
#MNEM       .UNIT                                      API CODE :CURVE DESCRIPTION
#------------------------------------------------------------------------------
DEPT        .FT                                                 :DEPTH     
CALX        .IN                                                 :          
CNC         .%                                                  :          
CSAX        .MMHO                                               :          
GR          .API                                                :          
GR_NORM     .GAPI                                               :GammaRay Normalized
GRAX        .GAPI                                               :          
PORZ        .%                                                  :          
RIPD        .OHMM                                               :          
RIPM        .OHMM                                               :          
ROPS        .M/MIN                                              :          
RSAX        .OHMM                                               :          
RSFL        .OHMM                                               :          
RSTX        .MINS                                               :          
RWAZ        .OHMM                                               :          
SP          .MV                                                 :          
SP_NORM     .MV                                                 :SP Normalized
TEN         .LBF                                                :          
VSH_GR      .V/V                                                :Volume of Shale from GR
VSH_SP      .V/V                                                :Volume of Shale from SP
ZCOR        .G/C3                                               :          
~A        DEPTH           CALX            CNC           CSAX             GR        GR_NORM           GRAX           PORZ           RIPD           RIPM           ROPS           RSAX           RSFL           RSTX           RWAZ             SP        SP_NORM            TEN         VSH_GR         VSH_SP           ZCOR
# ...
     10071.0000        -999.25        -999.25       598.8916        -999.25        -999.25         64.361        -999.25           1.33          1.259         43.752           1.67          1.401             44          0.011        -22.418       -21.3955         14.138        -999.25       0.714772        -999.25
     10071.5000        -999.25        -999.25       619.4082        -999.25        -999.25         59.897        -999.25          1.387          1.288         28.836          1.614          1.334             46          0.013        -18.558       -17.4958         25.875        -999.25      0.7721206        -999.25
     10072.0000        -999.25        -999.25       623.6299        -999.25        -999.25         61.776        -999.25          1.421          1.341         28.836          1.604          1.279             46          0.013        -15.781       -14.6791         50.679        -999.25      0.8135427        -999.25
     10072.5000        -999.25        -999.25       653.7549        -999.25        -999.25        62.7159        -999.25          1.421          1.362         44.823           1.53          1.285             47        -999.25        -14.002       -12.8604        64.8209        -999.25      0.8402882        -999.25
     10073.0000        -999.25        -999.25       676.1807        -999.25        -999.25         60.993        -999.25            1.4          1.378         44.823          1.479           1.36             47        -999.25         -12.38       -11.1988         55.704        -999.25      0.8647235        -999.25
     10073.5000        -999.25        -999.25       697.0254        -999.25        -999.25         58.017        -999.25          1.404          1.396         49.488          1.435          1.465           47.5        -999.25        -10.852        -9.6311         34.387        -999.25      0.8877779        -999.25
     10074.0000        -999.25        -999.25       704.1104        -999.25        -999.25        64.5959        -999.25          1.402           1.38         49.488           1.42          1.548             48        -999.25         -9.684        -8.4234         24.309        -999.25      0.9055383        -999.25
     10074.5000        -999.25        -999.25       690.0049        -999.25        -999.25        63.6559        -999.25          1.423          1.363         48.546          1.449          1.573             49        -999.25         -8.773        -7.4727        33.8669        -999.25      0.9195191        -999.25
     10075.0000        -999.25        -999.25        708.877        -999.25        -999.25         61.072        -999.25          1.447          1.359         48.546          1.411          1.526             43        -999.25         -7.614         -6.274         49.567        -999.25      0.9371471        -999.25
     10075.5000        -999.25        -999.25        708.877        -999.25        -999.25           68.7        -999.25          1.439          1.389         24.578          1.411          1.438             44        -999.25         -5.756        -4.3763         59.226        -999.25      0.9650544        -999.25
     10076.0000        -999.25        -999.25       676.1807        -999.25        -999.25         70.235        -999.25          1.401          1.424         24.578          1.479          1.372             43        -999.25         -3.898        -2.4786         61.671        -999.25      0.9929618        -999.25
     10076.5000        -999.25        -999.25       694.6748        -999.25        -999.25        73.5239        -999.25          1.356           1.41         35.439           1.44          1.362             43        -999.25         -3.533        -2.0739         55.405        -999.25      0.9989132        -999.25
     10077.0000        -999.25        -999.25       690.0049        -999.25        -999.25        89.0299        -999.25          1.292          1.394         35.439          1.449           1.39             42        -999.25         -4.563        -3.0642         40.521        -999.25        0.98435        -999.25
     10077.5000        -999.25        -999.25       676.1807        -999.25        -999.25         83.392        -999.25          1.315          1.331         24.725          1.479          1.416             43        -999.25         -4.974        -3.4355         25.639        -999.25      0.9788897        -999.25
     10078.0000        -999.25        -999.25       649.3584        -999.25        -999.25        90.4399        -999.25          1.334          1.311         24.725           1.54          1.417             42        -999.25         -4.165        -2.5868         18.696        -999.25      0.9913706        -999.25
     10078.5000        -999.25        -999.25       611.1074        -999.25        -999.25          89.97        -999.25          1.303          1.296         29.048          1.636          1.395             42        -999.25         -3.456        -1.8381         25.515        -999.25              1        -999.25
     10079.0000        -999.25        -999.25        606.999        -999.25        -999.25         94.199        -999.25          1.295           1.29         29.048          1.647           1.37             41        -999.25         -3.941        -2.2834         49.251        -999.25      0.9958323        -999.25
     10079.5000        -999.25        -999.25        602.918        -999.25        -999.25        97.0189        -999.25          1.322           1.29         26.927          1.659          1.352             41        -999.25         -5.195        -3.4977         75.986        -999.25       0.977975        -999.25
     10080.0000        -999.25        -999.25       582.9219        -999.25        -999.25        86.2109        -999.25          1.317          1.309         26.927          1.715          1.342             41        -999.25         -5.884         -4.147        86.3479        -999.25      0.9684265        -999.25
     10080.5000        -999.25        -999.25        579.002        -999.25        -999.25           89.5        -999.25          1.357           1.32         27.905          1.727          1.339             41        -999.25         -5.117        -3.3403         86.262        -999.25      0.9802897        -999.25
     10081.0000        -999.25        -999.25        602.918        -999.25        -999.25           89.5        -999.25          1.374          1.339         27.905          1.659          1.348             40        -999.25          -3.64        -1.8236         97.026        -999.25              1        -999.25
     10081.5000        -999.25        -999.25        606.999        -999.25        -999.25        91.3799        -999.25          1.363          1.349          29.75          1.647          1.354             41        -999.25         -2.623        -0.7669       123.3529        -999.25              1        -999.25
     10082.0000        -999.25        -999.25       594.8389        -999.25        -999.25        86.6809        -999.25          1.434          1.388          29.75          1.681          1.344             39        -999.25         -2.119        -0.2232        150.303        -999.25              1        -999.25
     10082.5000        -999.25        -999.25        579.002        -999.25        -999.25        83.8619        -999.25          1.504          1.412          30.29          1.727          1.338             40        -999.25         -1.867         0.0378       167.9949        -999.25              1        -999.25
     10083.0000        -999.25        -999.25       603.1758        -999.25        -999.25         89.599        -999.25          1.508          1.524          30.29          1.659           1.38             40        -999.25         -2.033        -0.1282       174.9919        -999.25              1        -999.25
     10083.5000        -999.25        -999.25       611.1074        -999.25        -999.25        90.9099        -999.25          1.557          1.516         36.621          1.636          1.477             40        -999.25         -3.035        -1.1302       172.7278        -999.25              1        -999.25
