#------------------------------------------------------------------------------
# Created by    : vladimir.rabinovich
# Created on    : 09/19/2023 17:19:27
#------------------------------------------------------------------------------
~Version Information Section
VERS.           2.0     :   CWLS log ASCII Standard - VERSION 2.0
WRAP.           NO      :   One line per depth step
~Well Information Section
#MNEM       .UNIT                                         VALUE :DESCRIPTION
#------------------------------------------------------------------------------
STRT        .FT                                          4322.5 :START DEPTH
STOP        .FT                                            9954 :STOP DEPTH
STEP        .FT                                             0.5 :STEP      
NULL        .                                           -999.25 :NULL      
COMP        .                                ATP OIL & GAS CORP :COMPANY   
WELL        .                               OCS G13829 ST00BP00 :WELL      
FLD         .                           WEST CAMERON BLOCK 0092 :FIELD     
LOC         .                                                   :LOCATION  
CNTY        .                                      WEST CAMERON :LOCATION  
STAT        .                                         LOUISIANA :STATE     
CTRY        .                                     UNITED STATES :COUNTRY   
SRVC        .                                                   :SERVICE COMPANY
DATE        .                             9/13/2023 11:19:21 AM :LOG DATE  
API         .                                    17700409910000 :API NUMBER
UWI         .                                    17700409910000 :UNIQUE WELL ID
XCOORD      .                                  1447604.75856055 :SURFACE X 
YCOORD      .                                  10719416.1500606 :SURFACE Y 
LAT         .                                        29.5354331 :LATITUDE  
LON         .                                       -93.6065144 :LONGITUDE 
ELEV        .FT                                              97 :ELEVATION VALUE
ELEV_TYPE   .                                                KB :ELEVATION REFERENCE TYPE
~Curve Information Section
#MNEM       .UNIT                                      API CODE :CURVE DESCRIPTION
#------------------------------------------------------------------------------
DEPT        .FT                                                 :DEPTH     
AFCO        .MMHO                                               :          
AT10        .OHMM                                               :          
AT20        .OHMM                                               :          
AT30        .OHMM                                               :          
AT60        .OHMM                                               :          
AT90        .OHMM                                               :          
CSAX        .MMHO                                               :          
DCAL        .IN                                                 :          
DPHZ        .%                                                  :          
GR          .GAPI                                               :          
GR_NORM     .GAPI                                               :GammaRay Normalized
GRAX        .GAPI                                               :          
HDRA        .G/C3                                               :          
NPOR        .%                                                  :          
ROPS        .FT/HR                                              :          
RSAX        .OHMM                                               :          
RWA         .OHMM                                               :          
SP          .MV                                                 :          
SP_NORM     .MV                                                 :SP Normalized
TENS        .LBF                                                :          
VSH_SP      .V/V                                                :Volume of Shale from SP
~A        DEPTH           AFCO           AT10           AT20           AT30           AT60           AT90           CSAX           DCAL           DPHZ             GR        GR_NORM           GRAX           HDRA           NPOR           ROPS           RSAX            RWA             SP        SP_NORM           TENS         VSH_SP
# ...
      9585.0000       1419.844         0.6656         0.6836         0.6966          0.692         0.6634       1183.432         2.3334          17.87       111.2124       83.34086         94.658         0.0297        34.5099         15.543          0.845          0.027           -2.5         0.2053           3458              1
      9585.5000       1435.025         0.6636         0.6828         0.6941         0.6893         0.6594       1131.221         1.9211          17.76       108.6998       81.53172        93.1089         0.0308        36.3499         14.707          0.884         0.0264         -2.125         0.5693           3470              1
      9586.0000       1437.988         0.6697         0.6883         0.6927         0.6879         0.6569       1084.598            2.2          17.71       107.7802       80.86425        91.5609         0.0287          36.14         14.707          0.922         0.0261          -1.75         0.9333           3470              1
      9586.5000       1447.918         0.6859         0.7019         0.6964         0.6935         0.6607       1048.217         1.9817          17.46       108.7515       81.55226        90.2119         0.0285          37.67         13.125          0.954         0.0251         -1.625         1.0474           3489              1
      9587.0000       1452.688         0.6967         0.7163         0.7012         0.6995         0.6651       1091.701         2.0059          16.87       107.2424       80.46239        92.4349         0.0319        41.6099         13.125          0.916         0.0232         -1.625         1.0364           3465              1
      9587.5000        1461.91         0.6804          0.709         0.6945         0.6893          0.655         1098.9         1.7877          15.84       102.8739       77.32291         97.741         0.0436          37.42         23.626           0.91         0.0201        -3.3125        -0.6621           3440              1
      9588.0000       1483.006         0.6488         0.6731         0.6768         0.6817         0.6478        1223.99         1.7877          15.72       101.2645       76.16106        102.809         0.0448        36.3199         23.626          0.817         0.0195        -4.0625        -1.4231           3421              1
      9588.5000        1498.66         0.6302         0.6488          0.664         0.6748         0.6412       1233.045         1.6421          16.09        98.1438       73.91602         96.606         0.0405        36.0999         27.573          0.811         0.0203        -3.6875         -1.059           3401              1
      9589.0000       1527.389         0.6276         0.6456         0.6551         0.6657         0.6326       1240.693         1.8483          15.97       104.7284       78.62743        95.7689         0.0396          38.97         27.573          0.806         0.0196          -3.75        -1.1325           3407              1
      9589.5000       1544.105         0.6249         0.6372         0.6401         0.6622         0.6285       1121.076         1.8362          15.73       105.8447       79.41943        95.3989         0.0437          35.09         38.928          0.892         0.0188        -4.0625         -1.456           3413              1
      9590.0000       1545.713         0.6271         0.6426         0.6373         0.6493         0.6171       861.3262         1.8362          15.99       117.6702       87.88742        95.3989         0.0494          35.59         38.928          1.161         0.0194        -3.8125         -1.217           3390              1
      9590.5000       1535.221         0.6132         0.6387         0.6379         0.6485         0.6162       916.5898         1.8604          16.05       124.6508       92.88268        96.4569         0.0543          38.21         35.439          1.091         0.0197           -3.5        -0.9155           3447              1
      9591.0000       1503.521          0.606         0.6388         0.6393         0.6479         0.6155       978.4727         1.8362          15.86       131.7957       97.99577        97.5149         0.0575          35.64         35.439          1.022         0.0196        -3.3125        -0.7389           3458              1
      9591.5000       1445.832         0.6415         0.6453         0.6703         0.6754         0.6402        1050.42         1.6664          15.41       122.5647       91.37096       100.5859         0.0557        35.6799         38.521          0.952         0.0191        -3.4375        -0.8749           3455              1
      9592.0000       1403.225         0.7028         0.7105         0.7258         0.7326         0.6915       1011.122         1.6664          14.69       114.7151       85.73633         98.944         0.0527        34.1799         38.521          0.989         0.0177         -3.875        -1.3234           3482              1
      9592.5000       1343.605         0.8014         0.8352         0.8083         0.8063         0.7565       789.2656         2.1515          14.42       105.9939       79.47697        98.3629         0.0432        28.5899         35.213          1.267         0.0177        -4.9375        -2.3969           3461      0.9957322
      9593.0000       1316.945         0.8398         0.8421         0.8213         0.8103         0.7598       977.5166         1.3025          14.32       100.8158       75.75716         96.616         0.0352          28.84         35.213          1.023         0.0178         -4.125        -1.5954           3463              1
      9593.5000       1323.336          0.822         0.8273         0.8009         0.7841         0.7377       1106.193         1.5936          15.15       104.0669       78.07925         96.511         0.0278        34.2399        33.4059          0.904           0.02        -4.8125        -2.2938           3492      0.9968408
      9594.0000       1366.061         0.7757         0.8081         0.7658         0.7394         0.6985       1183.432          1.351          15.69       110.7346        82.8503        75.0199         0.0309          42.14        33.4059          0.845          0.021          -3.75        -1.2423           3481              1
      9594.5000       1416.549         0.7279          0.715         0.7174         0.7015         0.6656       961.5381         1.4966          16.04        113.889       85.10307        85.0239         0.0372        38.1799          9.766           1.04         0.0212        -2.4375         0.0592           3490              1
      9595.0000       1469.621          0.668         0.6789         0.6744         0.6591         0.6279       953.2881         1.4966          16.57       111.1625       83.14055         90.502          0.042        39.4099          9.766          1.049          0.022          -1.75         0.7357           3505              1
      9595.5000       1487.631         0.6395          0.666         0.6643         0.6507         0.6211        1050.42         1.3753          17.22       109.8197       82.16983          95.98         0.0439          41.35         40.243          0.952         0.0236        -1.5625         0.9123           3503              1
      9596.0000        1468.26          0.677         0.6584         0.6665         0.6554         0.6262       1158.748         1.3268          17.13       106.6652       79.90053        99.1039         0.0478          38.54         40.243          0.863         0.0237         -3.875        -1.4112           3524              1
      9596.5000       1444.469         0.7854         0.7539         0.7298          0.713         0.6795       1172.332         1.5208          15.81        98.0984       73.75183         99.845          0.055          30.33         26.058          0.853         0.0203          -6.75        -4.2972           3497      0.9752989
      9597.0000       1411.543         0.8791         0.8531         0.7918         0.7727         0.7348       1175.088         1.3389          14.25        89.1229       67.31011        92.8049         0.0569        27.3199         26.058          0.851         0.0166        -7.9375        -5.4957           3467      0.9624118
