#------------------------------------------------------------------------------
# Created by    : vladimir.rabinovich
# Created on    : 09/19/2023 17:19:27
#------------------------------------------------------------------------------
~Version Information Section
VERS.           2.0     :   CWLS log ASCII Standard - VERSION 2.0
WRAP.           NO      :   One line per depth step
~Well Information Section
#MNEM       .UNIT                                         VALUE :DESCRIPTION
#------------------------------------------------------------------------------
STRT        .FT                                          4322.5 :START DEPTH
STOP        .FT                                            9954 :STOP DEPTH
STEP        .FT                                             0.5 :STEP      
NULL        .                                           -999.25 :NULL      
COMP        .                                ATP OIL & GAS CORP :COMPANY   
WELL        .                               OCS G13829 ST00BP00 :WELL      
FLD         .                           WEST CAMERON BLOCK 0092 :FIELD     
LOC         .                                                   :LOCATION  
CNTY        .                                      WEST CAMERON :LOCATION  
STAT        .                                         LOUISIANA :STATE     
CTRY        .                                     UNITED STATES :COUNTRY   
SRVC        .                                                   :SERVICE COMPANY
DATE        .                             9/13/2023 11:19:21 AM :LOG DATE  
API         .                                    17700409910000 :API NUMBER
UWI         .                                    17700409910000 :UNIQUE WELL ID
XCOORD      .                                  1447604.75856055 :SURFACE X 
YCOORD      .                                  10719416.1500606 :SURFACE Y 
LAT         .                                        29.5354331 :LATITUDE  
LON         .                                       -93.6065144 :LONGITUDE 
ELEV        .FT                                              97 :ELEVATION VALUE
ELEV_TYPE   .                                                KB :ELEVATION REFERENCE TYPE
~Curve Information Section
#MNEM       .UNIT                                      API CODE :CURVE DESCRIPTION
#------------------------------------------------------------------------------
DEPT        .FT                                                 :DEPTH     
AFCO        .MMHO                                               :          
AT10        .OHMM                                               :          
AT20        .OHMM                                               :          
AT30        .OHMM                                               :          
AT60        .OHMM                                               :          
AT90        .OHMM                                               :          
CSAX        .MMHO                                               :          
DCAL        .IN                                                 :          
DPHZ        .%                                                  :          
GR          .GAPI                                               :          
GR_NORM     .GAPI                                               :GammaRay Normalized
GRAX        .GAPI                                               :          
HDRA        .G/C3                                               :          
NPOR        .%                                                  :          
ROPS        .FT/HR                                              :          
RSAX        .OHMM                                               :          
RWA         .OHMM                                               :          
SP          .MV                                                 :          
SP_NORM     .MV                                                 :SP Normalized
TENS        .LBF                                                :          
VSH_SP      .V/V                                                :Volume of Shale from SP
~A        DEPTH           AFCO           AT10           AT20           AT30           AT60           AT90           CSAX           DCAL           DPHZ             GR        GR_NORM           GRAX           HDRA           NPOR           ROPS           RSAX            RWA             SP        SP_NORM           TENS         VSH_SP
# ...
      8485.0000       5661.586         0.2165         0.1875         0.1783         0.1808          0.155           3125         0.4172          32.89        51.8865       35.64893         53.529        -0.0016          30.54         21.798           0.32         0.0228       -101.875       -83.6001           3062      0.1225796
      8485.5000       5681.961         0.2176         0.1876         0.1786         0.1818         0.1558        2538.07         0.4536          32.86        49.2403       33.30553         54.811        -0.0018             31         20.367          0.394         0.0226       -101.125       -82.8566           3081      0.1305742
      8486.0000        5695.82         0.2192          0.188         0.1788          0.182         0.1558       3436.426         0.4536        32.7499          49.47       33.51027         54.888         -0.002          31.13         20.367          0.291         0.0224        -100.25       -81.9881           3041      0.1399129
      8486.5000       5708.172         0.2211         0.1885         0.1787         0.1821         0.1559       2816.898         0.4536        32.4199        48.5511       32.69735          58.47        -0.0017        32.6799         29.533          0.355         0.0219       -98.6875       -80.4322           3046       0.156643
      8487.0000       5711.867         0.2237         0.1893         0.1782         0.1828         0.1565       2857.141         0.4536        32.1199        50.3931       34.33063        60.9399        -0.0015          32.02         29.533           0.35         0.0214          -96.5       -78.2512           3043      0.1800946
      8487.5000       5686.023         0.2272         0.1905         0.1793         0.1819         0.1556       3610.105         0.5142          31.95        48.7687       32.89252         60.199        -0.0016          30.53         27.472          0.277         0.0213       -94.8125       -76.5702           3041      0.1981699
      8488.0000       5632.438         0.2315         0.1924         0.1811         0.1807          0.155       2976.188         0.5263        32.4899        50.8687       34.75451         61.311        -0.0024          31.04         27.472          0.336         0.0222       -91.9375       -73.7017           3055       0.229014
      8488.5000       5512.219         0.2369          0.196         0.1848         0.1817          0.156       2724.793         0.5263          33.08        51.4543       35.27456         61.866        -0.0035        34.0699          19.78          0.367         0.0236        -89.125       -70.8958           3055       0.259185
      8489.0000       5334.555         0.2445         0.2027         0.1913         0.1852         0.1587       2949.852         0.5263        33.4399        53.7866       37.34234         62.252         -0.005          33.45          19.78          0.339         0.0249        -86.625       -68.4023           3039      0.2859968
      8489.5000       5124.445         0.2717         0.2191         0.2083         0.1964         0.1676       2915.449         0.5506          32.78        55.8578       39.17869         59.952        -0.0049        33.7999         24.957          0.343         0.0247        -85.375       -67.1588           3040      0.2993678
      8490.0000       4923.063         0.3347         0.2533         0.2335         0.2134         0.1809       2785.512         0.5991        31.7599         59.548        42.4496         61.774        -0.0047          34.53         24.957          0.359          0.024       -82.5625       -64.3528           3057      0.3295398
      8490.5000           4780         0.3832         0.2781         0.2542         0.2224         0.1886       2232.141         0.5991          31.11        58.7756        41.7664         58.717         -0.005        32.4199         33.597          0.448         0.0238       -88.6875       -70.4843           3046      0.2636097
      8491.0000       4692.414         0.3596         0.2614         0.2371         0.2033         0.1753        2538.07         0.4778        31.4399        64.9893       47.27321         56.123        -0.0065          30.15         33.597          0.394         0.0249       -96.1875       -77.9909           3069      0.1828936
      8491.5000       4633.742         0.3243         0.2383          0.225         0.2041         0.1768       3164.555         0.5021        32.0099        60.1804       43.01359         60.199        -0.0058          33.45         26.058          0.316         0.0263        -98.125       -79.9349           3021      0.1619903
      8492.0000       4571.008         0.3193         0.2361         0.2245         0.2038         0.1773       2583.977         0.5021           32.3         61.202       43.91996         70.574         -0.004        32.2699         26.058          0.387         0.0272      -104.6875       -86.5039           3000     0.09135593
      8492.5000        4499.82         0.3134         0.2382         0.2306         0.2128         0.1854       3623.188         0.4778        32.0699        56.8293       40.04678         63.904        -0.0022          31.73         26.906          0.276         0.0272       -98.9375       -80.7604           3018       0.153114
      8493.0000       4411.828         0.3348         0.2482         0.2399         0.2251         0.1944       3021.145         0.5749        32.0399        63.6498       46.09123        58.3459        -0.0036        33.4699         26.906          0.331         0.0278       -95.4375       -77.2669           2973      0.1906785
      8493.5000       4329.398         0.4072         0.2727         0.2543         0.2432         0.2077       2583.977         0.5142          32.05        64.5502       46.89032        50.5649        -0.0051          32.79         22.717          0.387         0.0282       -95.9375       -77.7735           2995      0.1852312
      8494.0000       4332.531         0.3618         0.2762         0.2468         0.2446         0.2092       2336.445         0.4778        32.4199        64.7804       47.09541        50.1949        -0.0071          29.61         22.717          0.428         0.0289      -104.3125        -86.155           2990     0.09510754
      8494.5000       4378.219         0.2811         0.2368         0.2228         0.2194         0.1903       2403.844         0.4778          32.77        62.3094       44.90725        50.5649        -0.0069        30.7599         16.954          0.416         0.0293       -101.375        -83.224           2970      0.1266237
      8495.0000           4438         0.2459         0.1995         0.2002         0.1992         0.1745       2155.172         0.4778          33.35        61.0168       43.76319         50.442        -0.0057          32.95         16.954          0.464         0.0301        -95.375       -77.2305           3033      0.1910699
      8495.5000       4454.336         0.2405         0.2068          0.204         0.2064         0.1803       2141.324         0.4414          33.04        65.8248       48.02446          46.86         -0.002        37.4799          22.43          0.467         0.0294       -89.9375       -71.7996           3068      0.2494667
      8496.0000       4501.609         0.2815         0.2436         0.2314         0.2341          0.202       1017.294         0.5749          31.45        66.7634       48.85734          46.86         0.0026          40.96          22.43          0.983         0.0263        -78.125       -59.9936           3034      0.3764129
      8496.5000       4497.844         0.3295          0.266         0.2495         0.2521         0.2174       818.3301         0.5749          30.05        66.1339       48.30079        38.7079         0.0055        36.3099         20.574          1.222          0.024        -74.375       -56.2501           3063      0.4166656
      8497.0000       4632.766         0.3126         0.2629         0.2481         0.2487         0.2168       536.7686         0.6961          30.01        59.0247       42.00292         33.706         0.0046        28.6199         20.574          1.863         0.0235       -84.5625       -66.4441           3067      0.3070527
