#------------------------------------------------------------------------------
# Created by    : vladimir.rabinovich
# Created on    : 09/19/2023 17:20:44
#------------------------------------------------------------------------------
~Version Information Section
VERS.           2.0     :   CWLS log ASCII Standard - VERSION 2.0
WRAP.           NO      :   One line per depth step
~Well Information Section
#MNEM       .UNIT                                         VALUE :DESCRIPTION
#------------------------------------------------------------------------------
STRT        .FT                                            2904 :START DEPTH
STOP        .FT                                           14016 :STOP DEPTH
STEP        .FT                                             0.5 :STEP      
NULL        .                                           -999.25 :NULL      
COMP        .                                          MCN CORP :COMPANY   
WELL        .                                OCS 00043 ST00BP00 :WELL      
FLD         .                          EUGENE ISLAND BLOCK 0089 :FIELD     
LOC         .                                                   :LOCATION  
CNTY        .                                     EUGENE ISLAND :LOCATION  
STAT        .                                         LOUISIANA :STATE     
CTRY        .                                     UNITED STATES :COUNTRY   
SRVC        .                                                   :SERVICE COMPANY
DATE        .                             9/13/2023 11:18:42 AM :LOG DATE  
API         .                                    17709009460000 :API NUMBER
UWI         .                                    17709009460000 :UNIQUE WELL ID
XCOORD      .                                  2058690.32320654 :SURFACE X 
YCOORD      .                                  10563305.2032801 :SURFACE Y 
LAT         .                                        29.1009424 :LATITUDE  
LON         .                                       -91.6898776 :LONGITUDE 
ELEV        .FT                                              49 :ELEVATION VALUE
ELEV_TYPE   .                                                KB :ELEVATION REFERENCE TYPE
~Curve Information Section
#MNEM       .UNIT                                      API CODE :CURVE DESCRIPTION
#------------------------------------------------------------------------------
DEPT        .FT                                                 :DEPTH     
ASN         .OHMM                                               :          
CALI        .IN                                                 :          
DT          .US/F                                               :          
GR          .GAPI                                               :          
GR_NORM     .GAPI                                               :GammaRay Normalized
ILD         .OHMM                                               :          
SP          .MV                                                 :          
SP_NORM     .MV                                                 :SP Normalized
VSH_GR      .V/V                                                :Volume of Shale from GR
VSH_SP      .V/V                                                :Volume of Shale from SP
~A        DEPTH            ASN           CALI             DT             GR        GR_NORM            ILD             SP        SP_NORM         VSH_GR         VSH_SP
# ...
      9592.5000         0.8281        11.9299       109.7111        85.7273       80.46883         0.7337       -119.728        -4.9237              1      0.9570044
      9593.0000         0.8162        11.8891       109.8632         86.087       80.81069         0.7242      -120.2617        -5.4796              1      0.9488294
      9593.5000         0.8138        11.8805       109.7423        87.3451       82.01501         0.7148      -119.7362        -4.9763              1      0.9562309
      9594.0000         0.8111        11.8913       109.3287        89.8727       84.43805          0.712      -119.6448         -4.907              1        0.95725
      9594.5000         0.8084        11.8912       110.1437        91.7673        86.2534         0.7058       -119.701        -4.9854              1      0.9560971
      9595.0000         0.8059        11.8859       111.4517        92.9758       87.41011         0.7032       -119.807        -5.1136              1      0.9542118
      9595.5000         0.8033        11.8678       112.2351        92.0848        86.5513         0.7082      -119.2415        -4.5703              1      0.9622015
      9596.0000         0.8005         11.869       112.3625        91.7244       86.20186         0.7241      -118.5547        -3.9056              1      0.9719765
      9596.5000         0.7979        11.8701       111.8488        91.7866       86.25812         0.7556      -117.8763        -3.2494              1      0.9816265
      9597.0000         0.7959        11.8735       111.2906        93.7767       88.16515         0.7692      -117.1794        -2.5747              1      0.9915485
      9597.5000         0.7947        11.8738       111.0804        97.4594       91.69709          0.763      -116.4529        -1.8704              1              1
      9598.0000         0.7944        11.8578       111.6718         97.491       91.72397         0.7593      -116.0057        -1.4453              1              1
      9598.5000         0.7966        11.8474       111.3546        94.1921       88.55357         0.7598      -115.6726        -1.1344              1              1
      9599.0000         0.8009        11.8142       110.3737        91.8702       86.32109         0.7578      -115.4441        -0.9281              1              1
      9599.5000         0.8067        11.7988       109.5426        90.9011        85.3873         0.7528      -115.4255        -0.9317              1              1
      9600.0000         0.8113        11.7947        108.896        92.2183       86.64835         0.7486      -115.2129        -0.7412              1              1
      9600.5000         0.8118        11.7959        108.816        93.0045       87.39964         0.7513      -114.7402        -0.2907              1              1
      9601.0000         0.8094        11.7987       109.6003        91.8662       86.30342         0.7558       -114.073         0.3543              1              1
      9601.5000         0.7968        11.8061       110.4596        90.0229        84.5304         0.7603      -113.8986         0.5065              1              1
      9602.0000         0.7837        11.8073       111.1825          87.27       81.88416         0.7593      -113.9611         0.4219              1              1
      9602.5000         0.7928        11.8045       111.8113        84.9026         79.608         0.7581       -114.218         0.1428      0.9916596              1
      9603.0000         0.7964        11.7974       112.1399        84.1957       78.92592         0.7543      -114.5513        -0.2127      0.9771472              1
      9603.5000         0.7962        11.7874       111.6274        84.2377       78.96288         0.7492      -114.8348        -0.5184      0.9779335              1
      9604.0000         0.7954        11.7953       110.9796        85.5336       80.20339         0.7429      -115.3334        -1.0391              1              1
      9604.5000         0.7938        11.7792       110.1412        88.3538       82.90742         0.7359      -116.0785        -1.8064              1              1
      9605.0000         0.7918        11.7548       109.4274        90.3453       84.81581         0.7324      -116.9996        -2.7497              1       0.988975
      9605.5000         0.7889        11.7228       109.6394        90.9995       85.44038         0.7273      -117.8689        -3.6412              1      0.9758647
      9606.0000         0.7835        11.7225       111.7639        90.4502        84.9096         0.7223      -117.3964        -3.1908              1      0.9824882
      9606.5000         0.7764        11.7618       113.2625        90.0245       84.49747         0.7309      -117.0826        -2.8992              1      0.9867765
      9607.0000         0.7734        11.8152       113.2736        89.9319       84.40512         0.7399      -116.7925        -2.6313              1      0.9907162
      9607.5000         0.7797        11.8266        112.755        91.3639       85.77639         0.7474       -117.083         -2.944              1      0.9861177
      9608.0000         0.7788        11.8192       112.5426        91.7714       86.16413         0.7511      -117.8281        -3.7112              1      0.9748353
      9608.5000         0.7828        11.8108       112.7744        91.9691       86.35046         0.7549      -117.6622        -3.5675              1      0.9769485
      9609.0000         0.7928         11.813       112.9885        92.9441         87.283         0.7594      -116.8718        -2.7993              1      0.9882456
      9609.5000         0.8068        11.8537       112.4966        93.7253       88.02951          0.764      -116.4482        -2.3978              1        0.99415
      9610.0000         0.8162        11.9127       111.2894        91.8464       86.22231         0.7741       -116.819        -2.7908              1      0.9883706
      9610.5000         0.8186        11.9672         109.77        89.4811       83.94816         0.7815      -117.3815        -3.3755              1       0.979772
      9611.0000         0.8142        12.0032       108.5789        88.8285       83.31821         0.7879      -117.4934        -3.5096              1         0.9778
      9611.5000         0.8112        11.9914       107.5819        89.2477       83.71719         0.7911      -117.1804        -3.2187              1       0.982078
      9612.0000         0.8097        11.9162        107.347        88.5763       83.06918         0.7899      -116.9686        -3.0291              1      0.9848662
      9612.5000         0.8108        11.8426       108.1548        90.4343       84.84941         0.7887       -116.801        -2.8837              1      0.9870044
      9613.0000          0.813        11.8324       109.0398        92.6494       86.97244         0.7857      -116.7676        -2.8725              1      0.9871691
      9613.5000         0.8149        11.8628       109.7054        93.0562       87.35952         0.7823      -116.7323        -2.8593              1      0.9873632
      9614.0000         0.8168        11.8857       110.1207        91.9631       86.30669         0.7695      -116.3649        -2.5141              1      0.9924397
      9614.5000         0.8084        11.8695       110.0964        90.3612       84.76541         0.7642      -116.1028        -2.2742              1      0.9959676
      9615.0000         0.7946        11.8474       109.4233        88.9728       83.42908         0.7591      -116.0458        -2.2394              1      0.9964794
      9615.5000         0.7817        11.8492       108.6501        88.0562       82.54569         0.7539      -116.0177        -2.2334              1      0.9965677
      9616.0000         0.7781         11.869       108.0693        87.6477       82.15008         0.7508      -115.9913        -2.2292              1      0.9966294
      9616.5000         0.7803        11.9015       108.0453        87.5308        82.0344         0.7477      -116.0521        -2.3122              1      0.9954088
