#------------------------------------------------------------------------------
# Created by    : vladimir.rabinovich
# Created on    : 09/19/2023 17:20:59
#------------------------------------------------------------------------------
~Version Information Section
VERS.           2.0     :   CWLS log ASCII Standard - VERSION 2.0
WRAP.           NO      :   One line per depth step
~Well Information Section
#MNEM       .UNIT                                         VALUE :DESCRIPTION
#------------------------------------------------------------------------------
STRT        .FT                                            4010 :START DEPTH
STOP        .FT                                           10351 :STOP DEPTH
STEP        .FT                                             0.5 :STEP      
NULL        .                                           -999.25 :NULL      
COMP        .                         TALOS ENERGY VENTURES LLC :COMPANY   
WELL        .                               OCS G13557 ST00BP00 :WELL      
FLD         .                           WEST CAMERON BLOCK 0118 :FIELD     
LOC         .                                                   :LOCATION  
CNTY        .                                      WEST CAMERON :LOCATION  
STAT        .                                         LOUISIANA :STATE     
CTRY        .                                     UNITED STATES :COUNTRY   
SRVC        .                                                   :SERVICE COMPANY
DATE        .                             9/13/2023 11:19:21 AM :LOG DATE  
API         .                                    17700409470000 :API NUMBER
UWI         .                                    17700409470000 :UNIQUE WELL ID
XCOORD      .                                  1434760.35260149 :SURFACE X 
YCOORD      .                                  10716448.9068769 :SURFACE Y 
LAT         .                                        29.5270802 :LATITUDE  
LON         .                                       -93.6468641 :LONGITUDE 
ELEV        .FT                                             100 :ELEVATION VALUE
ELEV_TYPE   .                                                KB :ELEVATION REFERENCE TYPE
~Curve Information Section
#MNEM       .UNIT                                      API CODE :CURVE DESCRIPTION
#------------------------------------------------------------------------------
DEPT        .FT                                                 :DEPTH     
AT10        .OHMM                                               :          
AT20        .OHMM                                               :          
AT30        .OHMM                                               :          
AT60        .OHMM                                               :          
AT90        .OHMM                                               :          
CALI        .IN                                                 :          
DPHI        .%                                                  :          
DRHO        .G/C3                                               :          
DTLF        .US/F                                               :          
DTLN        .US/F                                               :          
GR          .GAPI                                               :          
GR_NORM     .GAPI                                               :GammaRay Normalized
NPOR        .%                                                  :          
RHOB        .G/C3                                               :          
SP          .MV                                                 :          
SP_NORM     .MV                                                 :SP Normalized
TENS        .LBF                                                :          
VSH_GR      .V/V                                                :Volume of Shale from GR
VSH_SP      .V/V                                                :Volume of Shale from SP
~A        DEPTH           AT10           AT20           AT30           AT60           AT90           CALI           DPHI           DRHO           DTLF           DTLN             GR        GR_NORM           NPOR           RHOB             SP        SP_NORM           TENS         VSH_GR         VSH_SP
# ...
      7385.0000         0.3357         0.2903          0.277         0.2831         0.2828         9.9711        24.8368        -0.0188          115.6          117.2        61.3238        55.0206        36.3293         2.2402        -999.25        -999.25           2695      0.4685234        -999.25
      7385.5000         0.3392         0.2846         0.2786         0.2845         0.2838         9.9711        25.7903        -0.0192       116.7999          116.5         54.584        48.2815        36.0955         2.2245        -999.25        -999.25           2695      0.3251383        -999.25
      7386.0000         0.3189         0.2679         0.2685         0.2729         0.2734         9.9524        27.6531        -0.0239          116.2       116.7999        55.6138        49.3121         33.881         2.1937        -999.25        -999.25           2770       0.347066        -999.25
      7386.5000         0.3067         0.2631         0.2625         0.2688         0.2703         9.9711        27.9414         -0.024          115.5       115.8999        49.6924        43.3914        33.1343          2.189        -999.25        -999.25           2770      0.2210936        -999.25
      7387.0000         0.3179         0.2738         0.2723         0.2847         0.2861         9.9661        27.2405        -0.0171          114.7       115.2999        58.9606        52.6603        32.7477         2.2005        -999.25        -999.25           2770      0.4183043        -999.25
      7387.5000         0.3466         0.2979         0.2985         0.3213         0.3214        10.1242        25.6935         -0.006       113.2999          114.5        60.8127        54.5131        32.8353         2.2261        -999.25        -999.25           2770      0.4577255        -999.25
      7388.0000         0.3966         0.3362         0.3417         0.3772          0.374        10.1989        24.2424        -0.0018          112.1            112        73.4276        67.1288         33.706           2.25        -999.25        -999.25           2815      0.7261447        -999.25
      7388.5000         0.4771         0.3957         0.4029         0.4418         0.4338        10.6698         21.883          0.004          110.6       111.8999        73.6852        67.3871        34.9274         2.2889        -999.25        -999.25           2815      0.7316405        -999.25
      7389.0000         0.5561         0.4645         0.4637         0.4819         0.4718        11.0336        20.9558         0.0066       111.7999          112.1        74.9225        68.6251        35.9888         2.3042        -999.25        -999.25           2815      0.7579808        -999.25
      7389.5000         0.5874         0.5062         0.4941          0.484         0.4771         10.523        20.0365         0.0081          115.6          115.7        75.6384        69.3417         37.683         2.3194        -999.25        -999.25           2815      0.7732276        -999.25
      7390.0000         0.5839         0.5048         0.4953         0.4728          0.471        10.3061        19.3383         0.0068          115.6       116.8999        78.0126        71.7167        38.3572         2.3309        -999.25        -999.25           2710      0.8237595        -999.25
      7390.5000         0.5739         0.4867         0.4852         0.4622         0.4653         10.329        19.1026          0.003          119.1          119.7        81.8744        75.5792        38.4608         2.3348        -999.25        -999.25           2710      0.9059404        -999.25
      7391.0000         0.5626         0.4848         0.4727         0.4536         0.4602        10.2606        19.3825        -0.0078       120.7999          121.2        83.9902        77.6957         38.687         2.3302        -999.25        -999.25           2710      0.9509724        -999.25
      7391.5000         0.5573         0.4821         0.4643         0.4495         0.4579        10.2808        19.5898        -0.0121          119.7          119.6        87.2799        80.9861        38.9296         2.3268        -999.25        -999.25           2710              1        -999.25
      7392.0000         0.5576         0.4739         0.4579          0.446         0.4546        10.2666        20.0221        -0.0142            118          118.2        82.6459        76.3528        38.3277         2.3196        -999.25        -999.25           2710      0.9223999        -999.25
      7392.5000         0.5435         0.4622         0.4433         0.4332         0.4418        10.1899        21.0024        -0.0166          118.2       117.7999        80.9009        74.6086        38.4017         2.3035        -999.25        -999.25           2710      0.8852893        -999.25
      7393.0000         0.5178         0.4407          0.422         0.4131         0.4218        10.1153        21.5861        -0.0166       116.7999       117.2999        83.2179        76.9263        39.1451         2.2938        -999.25        -999.25           2710      0.9346021        -999.25
      7393.5000         0.5008         0.4206         0.4054         0.3974         0.4063        10.1153        22.3169        -0.0158       117.2999            118         85.397        79.1061        39.4576         2.2818        -999.25        -999.25           2710      0.9809809        -999.25
      7394.0000         0.4925         0.4151         0.3979         0.3924         0.4015        10.1153        22.6995        -0.0169       118.2999       119.8999         87.203        80.9128        39.5149         2.2755        -999.25        -999.25           2710              1        -999.25
      7394.5000         0.4934         0.4181         0.3983         0.3963         0.4054        10.1204        22.3018        -0.0132       119.2999            120        86.4305         80.141        39.5181          2.282        -999.25        -999.25           2715              1        -999.25
      7395.0000          0.506         0.4224         0.4034         0.4024         0.4115        10.1153        21.6724        -0.0078       117.3999            118         83.994        77.7053         39.845         2.2924        -999.25        -999.25           2715      0.9511766        -999.25
      7395.5000         0.5219         0.4269         0.4092         0.4053         0.4145        10.1293        21.0789        -0.0071          118.5          119.5        82.9033        76.6153        40.3041         2.3022        -999.25        -999.25           2715      0.9279852        -999.25
      7396.0000         0.5373         0.4412         0.4155         0.4079         0.4172        10.1809        20.8118        -0.0031          117.1       116.3999        78.5266        72.2393        40.6656         2.3066        -999.25        -999.25           2715      0.8348788        -999.25
      7396.5000         0.5539         0.4538         0.4242         0.4149         0.4245         10.191         19.842        -0.0065       116.2999       116.3999        83.4791        77.1925        40.2408         2.3226        -999.25        -999.25           2750      0.9402659        -999.25
      7397.0000         0.5617         0.4525         0.4337         0.4246         0.4345         10.191        17.0877        -0.0025       117.2999          117.5        83.4791        77.1933        38.3497         2.3681        -999.25        -999.25           2750      0.9402829        -999.25
      7397.5000         0.5687         0.4614         0.4439         0.4358         0.4464        10.2101        14.9598          0.006       116.2999            116        82.7068        76.4217        36.3755         2.4032        -999.25        -999.25           2750       0.923866        -999.25
      7398.0000         0.6061          0.495         0.4632         0.4529         0.4638         10.191        16.3013         0.0135          108.5          112.5        81.6161        75.3317        34.7792          2.381        -999.25        -999.25           2750      0.9006745        -999.25
