#------------------------------------------------------------------------------
# Created by    : vladimir.rabinovich
# Created on    : 09/19/2023 17:22:04
#------------------------------------------------------------------------------
~Version Information Section
VERS.           2.0     :   CWLS log ASCII Standard - VERSION 2.0
WRAP.           NO      :   One line per depth step
~Well Information Section
#MNEM       .UNIT                                         VALUE :DESCRIPTION
#------------------------------------------------------------------------------
STRT        .FT                                           911.5 :START DEPTH
STOP        .FT                                           12432 :STOP DEPTH
STEP        .FT                                             0.5 :STEP      
NULL        .                                           -999.25 :NULL      
COMP        .                                    EXXON CO U S A :COMPANY   
WELL        .                               OCS G03260 ST00BP00 :WELL      
FLD         .                                           WILDCAT :FIELD     
LOC         .                                                   :LOCATION  
CNTY        .                                      WEST CAMERON :LOCATION  
STAT        .                                         LOUISIANA :STATE     
CTRY        .                                     UNITED STATES :COUNTRY   
SRVC        .                                                   :SERVICE COMPANY
DATE        .                             9/13/2023 11:18:18 AM :LOG DATE  
API         .                                    17700402650000 :API NUMBER
UWI         .                                    17700402650000 :UNIQUE WELL ID
XCOORD      .                                  1465533.33943019 :SURFACE X 
YCOORD      .                                  10722576.3450242 :SURFACE Y 
LAT         .                                        29.5443718 :LATITUDE  
LON         .                                       -93.5501671 :LONGITUDE 
ELEV        .FT                                              99 :ELEVATION VALUE
ELEV_TYPE   .                                                KB :ELEVATION REFERENCE TYPE
~Curve Information Section
#MNEM       .UNIT                                      API CODE :CURVE DESCRIPTION
#------------------------------------------------------------------------------
DEPT        .FT                                                 :DEPTH     
CALI        .IN                                                 :          
DRHO        .G/CC                                               :          
GR          .GAPI                                               :          
GR_NORM     .GAPI                                               :GammaRay Normalized
ILD         .OHMM                                               :          
RHOB        .G/CC                                               :          
VSH_GR      .V/V                                                :Volume of Shale from GR
~A        DEPTH           CALI           DRHO             GR        GR_NORM            ILD           RHOB         VSH_GR
# ...
      4797.5000        13.2195         0.0093        30.4353       48.08413         0.3762         2.2618      0.3209389
      4798.0000        13.3722          -0.02        30.0527       47.43331         0.3696         2.2422      0.3070917
      4798.5000        13.5877        -0.0254        29.9638       47.28138         0.3718         2.2496      0.3038592
      4799.0000        14.0513        -0.0232        30.0779       47.47441         0.3853         2.2406      0.3079663
      4799.5000        14.5135        -0.0202         30.143        47.5842         0.3988         2.2216      0.3103021
      4800.0000         14.811        -0.0153        30.0875        47.4892         0.4198         2.2197      0.3082809
      4800.5000        14.1437        -0.0103        30.2091       47.69499         0.4465         2.2364      0.3126593
      4801.0000        13.9354        -0.0062        30.7375       48.59205         0.4731         2.2459      0.3317458
      4801.5000        14.0326        -0.0016        32.1796       51.04191         0.4995         2.2554      0.3838704
      4802.0000        14.2148         0.0059        33.6923       53.61158         0.5078         2.2681      0.4385442
      4802.5000        13.8573         0.0123        35.2469       56.25245         0.5161         2.2761      0.4947329
      4803.0000        13.8107         0.0003        36.8445       58.96655         0.5244         2.2777      0.5524797
      4803.5000        13.8892        -0.0092           38.1       61.09917         0.5328         2.2921      0.5978547
      4804.0000        13.7971        -0.0009        37.5087       60.09352         0.5411         2.3066       0.576458
      4804.5000        13.6775         0.0057        35.1559       56.09458         0.5468         2.2892      0.4913741
      4805.0000        13.7148         0.0113        32.6906       51.90464         0.5363         2.2739      0.4022263
      4805.5000         13.981         0.0137        30.2253       47.71453         0.5258         2.2595      0.3130751
      4806.0000        13.6592         0.0078         28.502        44.7853         0.5153         2.2302      0.2507511
      4806.5000          12.68         0.0024        29.6137       46.67371         0.5048         2.2327        0.29093
      4807.0000        12.5437         0.0085        31.3036        49.5445          0.492         2.2477      0.3520107
      4807.5000        12.4041         0.0177         30.692       48.50436         0.4712         2.2605      0.3298801
      4808.0000        12.3738         0.0224        29.1602       45.90071         0.4504         2.2614      0.2744833
      4808.5000        12.4601         0.0222        28.1609       44.20176         0.4296         2.2359      0.2383353
      4809.0000         12.473         0.0098        26.9761       42.18759         0.4087          2.231      0.1954806
      4809.5000        12.4632          0.005        24.6532       38.23962         0.3879         2.2344      0.1114813
      4810.0000        12.5034        -0.0006        20.8906       31.84502          0.369         2.2327              0
      4810.5000        12.5976        -0.0102        18.5294       27.83181         0.3529         2.2096              0
      4811.0000        12.7997        -0.0145        17.6964       26.41562         0.3367         2.1899              0
      4811.5000        13.3141        -0.0105        17.2925       25.72843         0.3205         2.1726              0
      4812.0000        13.9756        -0.0039        17.3488       25.82325         0.3043         2.1834              0
      4812.5000        14.1767         0.0045        17.9484       26.84147         0.2882          2.214              0
      4813.0000        13.4285         0.0095         18.507       27.78984         0.2841         2.2424              0
      4813.5000        13.2536         0.0096        18.9165       28.48485         0.2806         2.2417              0
      4814.0000        13.2192         0.0068        19.4359        29.3666          0.277         2.2387              0
      4814.5000        13.2218          0.005         20.358       30.93285         0.2735         2.2416              0
      4815.0000         13.159         0.0049        21.4973       32.86799           0.27         2.2451              0
      4815.5000        12.8471         0.0138        22.8928       35.23852         0.2725          2.249     0.04762804
      4816.0000        12.6994         0.0218         24.404        37.8058         0.2845         2.2629      0.1022511
      4816.5000        12.4406          0.015        24.6406         38.207         0.2964         2.2354      0.1107873
      4817.0000        12.3651         0.0091        23.8053       36.78673         0.3084         2.2276     0.08056876
      4817.5000        12.3393         0.0058        23.3015       35.92995         0.3203         2.2179     0.06233929
      4818.0000        12.3698         0.0075         24.488       37.94531         0.3322         2.2065      0.1052193
      4818.5000        12.4255         0.0118        26.2186       40.88525         0.3404         2.1975      0.1677713
      4819.0000         12.443         0.0178        28.2841       44.39444         0.3388         2.2147      0.2424349
      4819.5000        12.5077          0.024        31.0726       49.13207         0.3373         2.2225      0.3432356
      4820.0000        12.7923         0.0313        33.6145       53.45066         0.3357          2.289      0.4351204
      4820.5000        12.9531         0.0316        34.9504       55.72007         0.3342         2.3226      0.4834056
      4821.0000         13.063         0.0049        33.0137       52.42821         0.3486         2.3686      0.4133661
      4821.5000        13.2404         0.0099        31.1109       49.19392         0.3648         2.3761      0.3445516
      4822.0000        13.4716         0.0042        32.1234       50.91362         0.3811         2.2907      0.3811409
      4822.5000        13.6593        -0.0129         36.099       57.66862         0.3973         2.2767      0.5248644
      4823.0000         13.782         -0.012        38.6672        62.0319         0.4288         2.2812         0.6177
      4823.5000        13.8559         -0.004        40.1943       64.62606         0.4708         2.2879      0.6728949
      4824.0000        13.8437         0.0022        41.3324       66.55933          0.513         2.2854      0.7140282
      4824.5000        13.7936         0.0071        42.4142       68.39677         0.5551         2.2801      0.7531227
      4825.0000        13.7003         0.0115        42.4579       68.47019         0.5905         2.2764      0.7546849
      4825.5000        13.5305         0.0152        41.4748       66.79893         0.6197         2.2748      0.7191261
      4826.0000        13.3383         0.0187         39.925       64.16451         0.6353         2.2874      0.6630746
      4826.5000        13.1444         0.0133        37.7792       60.51733         0.6008         2.2677      0.5854752
      4827.0000        12.9905        -0.0018        36.0583       57.59235         0.5663         2.2539      0.5232415
      4827.5000        13.0345         0.0047        35.2714       56.25432         0.5318         2.2475      0.4947727
      4828.0000        13.1815         0.0146        35.9135       57.34459         0.5207         2.2386      0.5179701
      4828.5000        13.3435         0.0109        38.4662       61.68169         0.5098         2.2397      0.6102486
      4829.0000        13.3786         0.0081        41.8745       67.47253         0.4989         2.2701      0.7334582
      4829.5000        13.3868         0.0092         44.686       72.24924         0.4879         2.2591      0.8350902
      4830.0000        13.3965        -0.0126        44.5116       71.95202          0.477         2.1964      0.8287663
      4830.5000        13.4501        -0.0107        43.4883       70.21246         0.4661         2.1674      0.7917545
