#------------------------------------------------------------------------------
# Created by    : vladimir.rabinovich
# Created on    : 09/19/2023 17:20:42
#------------------------------------------------------------------------------
~Version Information Section
VERS.           2.0     :   CWLS log ASCII Standard - VERSION 2.0
WRAP.           NO      :   One line per depth step
~Well Information Section
#MNEM       .UNIT                                         VALUE :DESCRIPTION
#------------------------------------------------------------------------------
STRT        .FT                                             202 :START DEPTH
STOP        .FT                                            9625 :STOP DEPTH
STEP        .FT                                             0.5 :STEP      
NULL        .                                           -999.25 :NULL      
COMP        .                           GENERAL AMERICAN OIL CO :COMPANY   
WELL        .                               OCS G01862 ST00BP00 :WELL      
FLD         .                           WEST CAMERON BLOCK 0045 :FIELD     
LOC         .                                                   :LOCATION  
CNTY        .                                      WEST CAMERON :LOCATION  
STAT        .                                         LOUISIANA :STATE     
CTRY        .                                     UNITED STATES :COUNTRY   
SRVC        .                                                   :SERVICE COMPANY
DATE        .                             9/13/2023 11:18:18 AM :LOG DATE  
API         .                                    17700004050000 :API NUMBER
UWI         .                                    17700004050000 :UNIQUE WELL ID
XCOORD      .                                  1441793.49938464 :SURFACE X 
YCOORD      .                                  10754125.7201806 :SURFACE Y 
LAT         .                                        29.6308281 :LATITUDE  
LON         .                                       -93.6253819 :LONGITUDE 
ELEV        .FT                                              70 :ELEVATION VALUE
ELEV_TYPE   .                                                KB :ELEVATION REFERENCE TYPE
~Curve Information Section
#MNEM       .UNIT                                      API CODE :CURVE DESCRIPTION
#------------------------------------------------------------------------------
DEPT        .FT                                                 :DEPTH     
ASN         .OHMM                                               :          
CALI        .IN                                                 :          
CALI_1      .IN                                                 :          
DRHO        .G/C3                                               :          
DT          .US/F                                               :          
GR          .GAPI                                               :          
GR_NORM     .GAPI                                               :GammaRay Normalized
ILD         .OHMM                                               :          
RHOB        .G/C3                                               :          
SP          .MV                                                 :          
SP_NORM     .MV                                                 :SP Normalized
VSH_GR      .V/V                                                :Volume of Shale from GR
VSH_SP      .V/V                                                :Volume of Shale from SP
~A        DEPTH            ASN           CALI         CALI_1           DRHO             DT             GR        GR_NORM            ILD           RHOB             SP        SP_NORM         VSH_GR         VSH_SP
# ...
      2881.0000         0.5233        12.7131         7.0831          0.128       168.4001        83.3596       96.01444         0.5582         2.1669       -66.4099         -2.416              1      0.9794782
      2881.5000         0.5236        12.6596         7.0816         0.1119       171.1506        84.0179        96.8643         0.5669         2.1732       -65.8145        -1.8188              1      0.9881333
      2882.0000         0.5243        12.6517         7.0802         0.0769       170.0422        82.1653       94.46819         0.5743          2.161       -65.0497        -1.0521              1      0.9992449
      2882.5000         0.5356        12.6438         7.0787         0.0587       171.1406        80.7535        92.6419         0.5817          2.185       -64.6724        -0.6729              1              1
      2883.0000         0.5466        12.6456         7.0809          0.088       164.6072        82.6149       95.04707         0.5856         2.1905        -64.525        -0.5236              1              1
      2883.5000         0.5574        12.6545         7.0842         0.0941        160.844        83.4755       96.15845         0.5871         2.1691       -65.1304        -1.1272              1      0.9981565
      2884.0000         0.5562        12.6637         7.0874         0.0873       165.0266        81.7611       93.94099         0.5886         2.1477       -65.7653        -1.7602              1      0.9889826
      2884.5000         0.5522         12.675         7.0919         0.0817         161.05        79.8663       91.49032         0.5922         2.1379       -66.4255        -2.4185              1       0.979442
      2885.0000         0.5476        12.6862         7.0974         0.0689       164.8704        78.9501       90.30473         0.5967         2.1358       -66.2327        -2.2238              1      0.9964476
      2885.5000          0.543        12.6871         7.1029         0.0664       169.7532        78.5553       89.79306         0.6013         2.1365       -65.9685        -1.9578              1              1
      2886.0000         0.5411        12.7041         7.1078         0.0776       166.1414        80.2074       91.92767         0.6074         2.1345         -65.22        -1.2074              1              1
      2886.5000         0.5392        12.7489         7.1087         0.0816       170.7112           84.2       97.08795         0.6134         2.1282       -65.5576        -1.5431              1              1
      2887.0000         0.5395        12.8526         7.1095         0.0811       172.6099        85.9266       99.31886         0.6189         2.1249       -66.0093         -1.993              1              1
      2887.5000         0.5418        13.0383         7.1104         0.0826       168.6831        84.7402       97.78397         0.6233         2.1308       -66.5466        -2.5284              1      0.9916127
      2888.0000         0.5446        13.1479         7.1126          0.088       156.8064        84.0048       96.83211         0.6277         2.1434       -66.8787        -2.8586              1      0.9863715
      2888.5000          0.553        13.1274         7.1148         0.0968       158.3342        84.9207       98.01498         0.6307         2.1582       -67.0698        -3.0479              1      0.9833667
      2889.0000         0.5614        13.0881         7.1177         0.0887       159.7795        85.2479       98.43681         0.6328         2.1602       -67.0647        -3.0409              1      0.9834778
      2889.5000         0.5783        13.1821         7.1244         0.0813       156.7729        83.4271       96.08179           0.64         2.1519       -67.0903        -3.0646              1      0.9831016
      2890.0000         0.6006        13.1147         7.1281         0.0754       154.6934        80.2883       92.02294         0.6502         2.1504       -67.3777        -3.3501              1      0.9785699
      2890.5000         0.6606        13.1007         7.1062         0.0716       160.1687        77.2894       88.14493         0.6596          2.155       -68.6276        -4.5982              1      0.9587587
      2891.0000         0.7426        13.5446         7.0919          0.068       167.8145        72.7073       82.22022         0.6688         2.1465       -71.6272        -7.5959              1      0.9111762
      2891.5000         0.9372        14.1414         7.0963         0.0907       168.5913        63.9059         70.841         0.6653         2.1425       -76.7633       -12.7301      0.8051277       0.829681
      2892.0000         0.9962        14.3559         7.1227         0.1511       169.6016        56.3585       61.08277          0.657         2.0839       -84.8931        -20.858      0.5975057      0.7006667
      2892.5000          0.987        14.5061         7.1451         0.1871       177.3218        44.2566       45.43682         0.6355         2.0578       -94.3257       -30.2888      0.2646131      0.5509714
      2893.0000         0.9435        14.7064         7.1515         0.1899       177.3862        41.5239       41.90294          0.577         2.0382       -99.0619       -35.0231      0.1894243      0.4758238
      2893.5000         0.9381        15.1884         7.1566         0.1741       179.6899        41.4076       41.75143         0.5319         2.0524      -102.6218       -38.5811      0.1862006      0.4193476
      2894.0000         0.9177        15.2146         7.1609         0.1646       182.3511         43.639       44.63492         0.5084         2.0993      -104.8296        -40.787      0.2475515      0.3843333
      2894.5000         0.8689        14.4291         7.1537          0.223       164.1406        44.2744       45.45517         0.4848         2.1429      -105.9916       -41.9472      0.2650035      0.3659174
      2895.0000         0.8554        14.5019         7.1535         0.1941       162.0168        43.9436       45.02636         0.4775         2.0818      -106.4507       -42.4044      0.2558801      0.3586603
      2895.5000         0.8553        14.8849         7.1593         0.1738       165.5691        43.7055        44.7174         0.4725         2.0535       -106.847       -42.7988      0.2493064         0.3524
      2896.0000         0.8545        14.9694         7.1818          0.162       144.2507        43.9909       45.08519         0.4694         2.0663      -106.8103       -42.7603      0.2571316      0.3530111
      2896.5000         0.8526        15.0137         7.2088         0.1647       142.7651        45.0117       46.40368         0.4677         2.0983      -106.6974       -42.6455      0.2851846      0.3548333
      2897.0000         0.8468        15.0026         7.2504         0.1395       144.6455        46.4639       48.27984         0.4696         2.0894      -106.0718        -42.018       0.325103      0.3647936
      2897.5000         0.8401        14.9178         7.3271         0.1159       143.3665         47.911       50.14943         0.4782         2.0947      -105.4205       -41.3648      0.3648815      0.3751619
      2898.0000         0.8166        14.8415         7.3391         0.1296       144.3601        49.1502       51.75024         0.4867         2.1031      -104.5043       -40.4468      0.3989413      0.3897333
      2898.5000         0.7862        14.8274         7.3065          0.147       144.3774        50.2159       53.12665         0.4914         2.1062      -103.5886       -39.5292      0.4282266      0.4042984
      2899.0000         0.7596        14.8542         7.2645         0.1421       143.7441        50.7559       53.82356          0.491         2.0824      -103.0641       -39.0028      0.4430545       0.412654
      2899.5000         0.7749        14.8033         7.2273         0.1339       141.8882        51.1063       54.27538          0.479         2.0762       -103.046       -38.9829      0.4526677      0.4129699
