#------------------------------------------------------------------------------
# Created by    : vladimir.rabinovich
# Created on    : 09/19/2023 17:22:20
#------------------------------------------------------------------------------
~Version Information Section
VERS.           2.0     :   CWLS log ASCII Standard - VERSION 2.0
WRAP.           NO      :   One line per depth step
~Well Information Section
#MNEM       .UNIT                                         VALUE :DESCRIPTION
#------------------------------------------------------------------------------
STRT        .FT                                            3394 :START DEPTH
STOP        .FT                                            9102 :STOP DEPTH
STEP        .FT                                             0.5 :STEP      
NULL        .                                           -999.25 :NULL      
COMP        .                               TALOS PETROLEUM LLC :COMPANY   
WELL        .                                OCS 00299 ST00BP02 :WELL      
FLD         .                           WEST CAMERON BLOCK 0045 :FIELD     
LOC         .                                                   :LOCATION  
CNTY        .                                      WEST CAMERON :LOCATION  
STAT        .                                         LOUISIANA :STATE     
CTRY        .                                     UNITED STATES :COUNTRY   
SRVC        .                                                   :SERVICE COMPANY
DATE        .                             9/13/2023 11:19:21 AM :LOG DATE  
API         .                                    17700408910000 :API NUMBER
UWI         .                                    17700408910000 :UNIQUE WELL ID
XCOORD      .                                  1447531.51187247 :SURFACE X 
YCOORD      .                                  10768708.3799417 :SURFACE Y 
LAT         .                                         29.671026 :LATITUDE  
LON         .                                        -93.607557 :LONGITUDE 
ELEV        .FT                                              95 :ELEVATION VALUE
ELEV_TYPE   .                                                KB :ELEVATION REFERENCE TYPE
~Curve Information Section
#MNEM       .UNIT                                      API CODE :CURVE DESCRIPTION
#------------------------------------------------------------------------------
DEPT        .FT                                                 :DEPTH     
CALI        .IN                                                 :          
DPHI        .V/V                                                :          
DRHO        .G/C3                                               :          
GR          .GAPI                                               :          
GR_NORM     .GAPI                                               :GammaRay Normalized
IDPH        .OHMM                                               :          
IMPH        .OHMM                                               :          
NPOR        .V/V                                                :          
SFLU        .OHMM                                               :          
SP          .MV                                                 :          
SP_NORM     .MV                                                 :SP Normalized
TENS        .LBS                                                :          
VSH_GR      .V/V                                                :Volume of Shale from GR
VSH_SP      .V/V                                                :Volume of Shale from SP
~A        DEPTH           CALI           DPHI           DRHO             GR        GR_NORM           IDPH           IMPH           NPOR           SFLU             SP        SP_NORM           TENS         VSH_GR         VSH_SP
# ...
      9082.0000           4.44        -999.25        -0.1147        -999.25        -999.25          0.669         0.6751        -999.25         0.6569            1.5        -4.2143           5800        -999.25      0.9531745
      9082.5000           4.44        -999.25        -0.1167        -999.25        -999.25         0.7319         0.6687        -999.25         0.6447            1.5        -4.2143           5800        -999.25      0.9531745
      9083.0000           4.44        -999.25        -0.1186        -999.25        -999.25         0.7859         0.6621        -999.25         0.5922            1.5        -4.2143           5800        -999.25      0.9531745
      9083.5000           4.44        -999.25        -0.1206        -999.25        -999.25         0.8381            0.7        -999.25         0.5964            1.5        -4.2143           5800        -999.25      0.9531745
      9084.0000           4.44        -999.25        -0.1225        -999.25        -999.25         0.8845          0.745        -999.25            0.7            0.3        -5.4143           5820        -999.25      0.9398411
      9084.5000           4.44        -999.25        -0.1225        -999.25        -999.25         0.9087         0.8146        -999.25          0.822            0.6        -5.1143           5820        -999.25      0.9431744
      9085.0000           4.44        -999.25        -0.1196        -999.25        -999.25         0.9087         0.9174        -999.25         0.9905            0.3        -5.4143           5820        -999.25      0.9398411
      9085.5000           4.44        -999.25        -0.1157        -999.25        -999.25            0.9         0.9905        -999.25         0.9262        -0.3061        -6.0204           5820        -999.25      0.9331067
      9086.0000           4.44        -999.25        -0.1147        -999.25        -999.25         0.8919         0.9532        -999.25         0.7384            0.6        -5.1143           5820        -999.25      0.9431744
      9086.5000           4.44        -999.25        -0.1147        -999.25        -999.25         0.8759         0.8759        -999.25         0.6419            0.9        -4.8143           5820        -999.25      0.9465078
      9087.0000           4.44        -999.25        -0.1186        -999.25        -999.25          0.868            0.8        -999.25         0.6543            0.9        -4.8143           5840        -999.25      0.9465078
      9087.5000            4.4        -999.25        -0.1225        -999.25        -999.25          0.868         0.8146        -999.25         0.7126            0.6        -5.1143           5820        -999.25      0.9431744
      9088.0000           4.24        -999.25        -0.1225        -999.25        -999.25         0.8838         0.8295        -999.25            0.8        -0.3061        -6.0204           5820        -999.25      0.9331067
      9088.5000              4        -999.25        -0.1235        -999.25        -999.25            0.9         0.8524        -999.25         0.8759        -1.2245        -6.9388           5820        -999.25      0.9229022
      9089.0000           3.36        -999.25        -0.1235        -999.25        -999.25         0.8919         0.8759        -999.25         0.8759        -1.8367         -7.551           5820        -999.25         0.9161
      9089.5000           3.08        -999.25        -0.1206        -999.25        -999.25         0.8919          0.868        -999.25         0.8759        -2.1429        -7.8572           5820        -999.25      0.9126978
      9090.0000              3        -999.25        -0.1176        -999.25        -999.25         0.8601         0.8759        -999.25         0.8759        -1.8367         -7.551           5820        -999.25         0.9161
      9090.5000              3        -999.25        -0.1176        -999.25        -999.25         0.8307         0.8535        -999.25         0.8613        -1.5306        -7.2449           5820        -999.25      0.9195011
      9091.0000              3        -999.25        -0.1167        -999.25        -999.25         0.8102         0.8325        -999.25         0.7884        -1.5306        -7.2449           5820        -999.25      0.9195011
      9091.5000              3        -999.25        -0.1157        -999.25        -999.25          0.812         0.8269        -999.25         0.7402        -1.5306        -7.2449           5800        -999.25      0.9195011
      9092.0000              3        -999.25        -0.1127        -999.25        -999.25         0.8213         0.8439        -999.25         0.7067        -1.5306        -7.2449           5800        -999.25      0.9195011
      9092.5000        -999.25        -999.25        -0.1108        -999.25        -999.25         0.8371         0.8524        -999.25         0.7412        -1.5306        -7.2449           5840        -999.25      0.9195011
      9093.0000        -999.25        -999.25        -0.1059        -999.25        -999.25         0.8447          0.868        -999.25         0.7849        -1.5306        -7.2449           5840        -999.25      0.9195011
      9093.5000        -999.25        -999.25         -0.101        -999.25        -999.25         0.8601         0.8759        -999.25         0.8073        -1.5306        -7.2449           5820        -999.25      0.9195011
      9094.0000        -999.25        -999.25         -0.101        -999.25        -999.25         0.8601         0.8838        -999.25          0.822        -1.8367         -7.551           5800        -999.25         0.9161
      9094.5000        -999.25        -999.25           -0.1        -999.25        -999.25        -999.25        -999.25        -999.25         0.8371        -1.8367         -7.551           5800        -999.25         0.9161
      9095.0000        -999.25        -999.25        -999.25        -999.25        -999.25        -999.25        -999.25        -999.25        -999.25        -1.8367         -7.551           5800        -999.25         0.9161
      9095.5000        -999.25        -999.25        -999.25        -999.25        -999.25        -999.25        -999.25        -999.25        -999.25        -1.8367         -7.551           5800        -999.25         0.9161
      9096.0000        -999.25        -999.25        -999.25        -999.25        -999.25        -999.25        -999.25        -999.25        -999.25        -2.1429        -7.8572           5800        -999.25      0.9126978
      9096.5000        -999.25        -999.25        -999.25        -999.25        -999.25        -999.25        -999.25        -999.25        -999.25        -2.1429        -7.8572           5820        -999.25      0.9126978
      9097.0000        -999.25        -999.25        -999.25        -999.25        -999.25        -999.25        -999.25        -999.25        -999.25        -2.1429        -7.8572           5820        -999.25      0.9126978
      9097.5000        -999.25        -999.25        -999.25        -999.25        -999.25        -999.25        -999.25        -999.25        -999.25        -2.1429        -7.8572           5820        -999.25      0.9126978
      9098.0000        -999.25        -999.25        -999.25        -999.25        -999.25        -999.25        -999.25        -999.25        -999.25         -2.449        -8.1633           5820        -999.25      0.9092967
      9098.5000        -999.25        -999.25        -999.25        -999.25        -999.25        -999.25        -999.25        -999.25        -999.25         -2.449        -8.1633           5820        -999.25      0.9092967
      9099.0000        -999.25        -999.25        -999.25        -999.25        -999.25        -999.25        -999.25        -999.25        -999.25         -2.449        -8.1633           5820        -999.25      0.9092967
      9099.5000        -999.25        -999.25        -999.25        -999.25        -999.25        -999.25        -999.25        -999.25        -999.25         -2.449        -8.1633           5820        -999.25      0.9092967
