#------------------------------------------------------------------------------
# Created by    : vladimir.rabinovich
# Created on    : 09/19/2023 17:22:23
#------------------------------------------------------------------------------
~Version Information Section
VERS.           2.0     :   CWLS log ASCII Standard - VERSION 2.0
WRAP.           NO      :   One line per depth step
~Well Information Section
#MNEM       .UNIT                                         VALUE :DESCRIPTION
#------------------------------------------------------------------------------
STRT        .FT                                            4000 :START DEPTH
STOP        .FT                                           10100 :STOP DEPTH
STEP        .FT                                             0.5 :STEP      
NULL        .                                           -999.25 :NULL      
COMP        .                         TALOS ENERGY VENTURES LLC :COMPANY   
WELL        .                               OCS G13557 ST00BP00 :WELL      
FLD         .                           WEST CAMERON BLOCK 0118 :FIELD     
LOC         .                                                   :LOCATION  
CNTY        .                                      WEST CAMERON :LOCATION  
STAT        .                                         LOUISIANA :STATE     
CTRY        .                                     UNITED STATES :COUNTRY   
SRVC        .                                                   :SERVICE COMPANY
DATE        .                             9/13/2023 11:19:21 AM :LOG DATE  
API         .                                    17700409600000 :API NUMBER
UWI         .                                    17700409600000 :UNIQUE WELL ID
XCOORD      .                                  1437367.94342701 :SURFACE X 
YCOORD      .                                  10730631.2479363 :SURFACE Y 
LAT         .                                         29.566133 :LATITUDE  
LON         .                                        -93.638908 :LONGITUDE 
ELEV        .FT                                              97 :ELEVATION VALUE
ELEV_TYPE   .                                                KB :ELEVATION REFERENCE TYPE
~Curve Information Section
#MNEM       .UNIT                                      API CODE :CURVE DESCRIPTION
#------------------------------------------------------------------------------
DEPT        .FT                                                 :DEPTH     
CALX        .IN                                                 :          
CNC         .%                                                  :          
CSAX        .MMHO                                               :          
GR          .API                                                :          
GR_NORM     .GAPI                                               :GammaRay Normalized
GRAX        .GAPI                                               :          
PORZ        .%                                                  :          
RIPD        .OHMM                                               :          
RIPM        .OHMM                                               :          
ROPS        .M/MIN                                              :          
RSAX        .OHMM                                               :          
RSFL        .OHMM                                               :          
RSTX        .MINS                                               :          
RWAZ        .OHMM                                               :          
SP          .MV                                                 :          
SP_NORM     .MV                                                 :SP Normalized
TEN         .LBF                                                :          
VSH_GR      .V/V                                                :Volume of Shale from GR
VSH_SP      .V/V                                                :Volume of Shale from SP
ZCOR        .G/C3                                               :          
~A        DEPTH           CALX            CNC           CSAX             GR        GR_NORM           GRAX           PORZ           RIPD           RIPM           ROPS           RSAX           RSFL           RSTX           RWAZ             SP        SP_NORM            TEN         VSH_GR         VSH_SP           ZCOR
# ...
      9668.0000         10.735         28.796       997.7393        85.5439       86.06075         95.844         11.739          0.952          0.942        68.8849          1.002          0.952            102          0.015         -2.631        -2.2514       -93.0139              1       0.996303          0.066
      9668.5000         10.699         28.686        1003.35         87.595        89.2277        96.1959         12.169          1.033          1.207        68.8799          0.997          0.933          103.5          0.018         -2.582        -2.1954       -109.674              1      0.9971265          0.065
      9669.0000         10.664         29.191       1015.835        88.8729       91.20082        96.8619         13.095          1.116          1.579        68.8799          0.984           0.91             68          0.023         -2.662        -2.2683      -122.5239              1      0.9960544          0.068
      9669.5000         10.637         29.621       1018.704        87.7419       89.45451         96.392         14.064           1.18          1.608         54.253          0.982          0.907             70          0.028         -2.965        -2.5643      -128.8918              1      0.9917015          0.076
      9670.0000         10.602         28.902       985.6768        85.4559       85.92487         98.428         14.557          1.318          1.586         39.627          1.015          0.971             73          0.034         -3.597        -3.1892       -125.621              1      0.9825118          0.089
      9670.5000          10.55         28.301       986.5645        82.8589       81.91502        99.3679         14.387          1.447          1.615             25          1.014          1.176             75          0.036         -4.617        -4.2022        -113.87              1      0.9676147          0.101
      9671.0000          10.49         28.532       960.2998         78.554       75.26813        99.3679         13.397          1.469          1.608             25          1.041          1.694             72          0.032         -5.974        -5.5521       -98.3309      0.8993219      0.9477632          0.105
      9671.5000          10.42         25.627       934.7334        72.3119       65.63016        97.9579         11.303           1.43          1.452         18.081           1.07          2.886             73          0.021         -7.477        -7.0481        -86.084      0.6942587      0.9257632          0.094
      9672.0000         10.348         22.778       942.1309         66.469       56.60855        99.3679          8.651          1.467           1.26         18.081          1.064          4.403           69.5          0.012         -8.818         -8.382       -80.0189      0.5023096      0.9061471          0.065
      9672.5000         10.289         25.395       879.6729        64.0549        52.8811        93.1029          7.402          1.454          1.182         12.456          1.137          3.545             72          0.009         -9.665        -9.2219        -81.052      0.4230021      0.8937956          0.036
      9673.0000         10.264        33.6689       854.3467        67.8619       58.75922         96.705          9.002          1.424          1.138         12.456          1.171          2.005             70          0.013         -9.788        -9.3379       -96.6289      0.5480685      0.8920897          0.031
      9673.5000         10.291        38.6479       890.7227         75.627       70.74876        93.7289         12.127          1.341          1.064         22.699          1.123          1.266           71.5          0.023         -9.167        -8.7098      -133.4189      0.8031652      0.9013265           0.05
      9674.0000         10.368         34.383       924.2881        81.4049       79.67001       104.3799         14.257          1.185          1.013         22.699          1.082          0.969             71          0.029         -7.987        -7.5228      -187.2129      0.9929789      0.9187824          0.066
      9674.5000         10.473         33.058       912.9795        83.8619       83.46368         98.663         14.335          1.059          0.984          18.04          1.095          0.869             72          0.026         -6.555        -6.0837      -220.8259              1      0.9399456          0.073
      9675.0000          10.56         32.905       868.9346         85.052       85.30125         98.761         13.188          0.953          0.965          18.04          1.151          0.853             72           0.02         -5.172        -4.6937      -168.2749              1      0.9603868          0.082
      9675.5000         10.598        32.2729       849.2705        85.2339       85.58208        100.308         12.172          0.909          0.953         23.012          1.178          0.889             74          0.016         -4.035        -3.5496        -10.206              1      0.9772118           0.09
      9676.0000         10.592         32.004       839.0986         84.335       84.19417         96.392         11.795          0.903          0.937         23.012          1.192          0.969             73          0.015         -3.216        -2.7236       151.8328              1      0.9893588          0.082
      9676.5000         10.571         31.333       829.0088         83.152       82.36759        94.9819         11.786          0.888          0.916         22.467          1.207          1.053           75.5          0.014         -2.678        -2.1785        204.137              1       0.997375          0.064
      9677.0000         10.551         30.143       805.8145        82.1449       80.81258         98.428         11.961          0.896            0.9         22.467          1.241          1.066             75          0.015         -2.335        -1.8285       146.3289              1              1          0.055
      9677.5000         10.536         30.118       805.8145         82.178       80.86369        91.3799         12.256          0.941          0.896         23.163          1.241          1.003             76          0.017         -2.108        -1.5944        66.8109              1              1          0.059
      9678.0000          10.54          30.79       779.0879         83.028       82.17611         96.079         12.431          0.994          0.951         23.163          1.284          0.932             74          0.018          -1.97        -1.4494         20.054              1              1          0.065
      9678.5000         10.566          30.03       763.4795         82.605       81.52299         98.272         12.274           0.96          0.953         20.217           1.31           0.92             75          0.017         -1.932        -1.4043              7              1              1          0.067
      9679.0000         10.608         28.994       734.8594         81.444       79.73038        95.6089         12.048          0.937          0.918         20.217          1.361          0.994             71          0.016         -2.001        -1.4663          8.294      0.9942634              1          0.062
      9679.5000         10.667         29.754       675.2334         81.542       79.88169         92.981         11.856          0.929          0.908         13.273          1.484          1.084             72          0.015         -2.154        -1.6122           4.81      0.9974828              1          0.057
      9680.0000         10.728         31.621       524.9736        82.0649       80.68906         91.693          11.49          0.924          0.893         13.273          1.909          1.058             71          0.014         -2.345        -1.7962         -8.689              1              1          0.062
      9680.5000         10.763         32.568         443.21        81.1709       79.30871        66.9449         11.037          0.944          0.895         16.496          2.258          0.968             72          0.013         -2.524        -1.9681        -20.885      0.9852917              1          0.075
