#------------------------------------------------------------------------------
# Created by    : vladimir.rabinovich
# Created on    : 09/19/2023 17:20:59
#------------------------------------------------------------------------------
~Version Information Section
VERS.           2.0     :   CWLS log ASCII Standard - VERSION 2.0
WRAP.           NO      :   One line per depth step
~Well Information Section
#MNEM       .UNIT                                         VALUE :DESCRIPTION
#------------------------------------------------------------------------------
STRT        .FT                                            4010 :START DEPTH
STOP        .FT                                           10351 :STOP DEPTH
STEP        .FT                                             0.5 :STEP      
NULL        .                                           -999.25 :NULL      
COMP        .                         TALOS ENERGY VENTURES LLC :COMPANY   
WELL        .                               OCS G13557 ST00BP00 :WELL      
FLD         .                           WEST CAMERON BLOCK 0118 :FIELD     
LOC         .                                                   :LOCATION  
CNTY        .                                      WEST CAMERON :LOCATION  
STAT        .                                         LOUISIANA :STATE     
CTRY        .                                     UNITED STATES :COUNTRY   
SRVC        .                                                   :SERVICE COMPANY
DATE        .                             9/13/2023 11:19:21 AM :LOG DATE  
API         .                                    17700409470000 :API NUMBER
UWI         .                                    17700409470000 :UNIQUE WELL ID
XCOORD      .                                  1434760.35260149 :SURFACE X 
YCOORD      .                                  10716448.9068769 :SURFACE Y 
LAT         .                                        29.5270802 :LATITUDE  
LON         .                                       -93.6468641 :LONGITUDE 
ELEV        .FT                                             100 :ELEVATION VALUE
ELEV_TYPE   .                                                KB :ELEVATION REFERENCE TYPE
~Curve Information Section
#MNEM       .UNIT                                      API CODE :CURVE DESCRIPTION
#------------------------------------------------------------------------------
DEPT        .FT                                                 :DEPTH     
AT10        .OHMM                                               :          
AT20        .OHMM                                               :          
AT30        .OHMM                                               :          
AT60        .OHMM                                               :          
AT90        .OHMM                                               :          
CALI        .IN                                                 :          
DPHI        .%                                                  :          
DRHO        .G/C3                                               :          
DTLF        .US/F                                               :          
DTLN        .US/F                                               :          
GR          .GAPI                                               :          
GR_NORM     .GAPI                                               :GammaRay Normalized
NPOR        .%                                                  :          
RHOB        .G/C3                                               :          
SP          .MV                                                 :          
SP_NORM     .MV                                                 :SP Normalized
TENS        .LBF                                                :          
VSH_GR      .V/V                                                :Volume of Shale from GR
VSH_SP      .V/V                                                :Volume of Shale from SP
~A        DEPTH           AT10           AT20           AT30           AT60           AT90           CALI           DPHI           DRHO           DTLF           DTLN             GR        GR_NORM           NPOR           RHOB             SP        SP_NORM           TENS         VSH_GR         VSH_SP
# ...
      9072.5000         0.8162         0.7892         0.7593         0.7338         0.7373        10.0351        15.7863        -0.0015           94.7           95.2        71.4142        66.8269        28.8748         2.3895        -999.25        -999.25           3350      0.7197212        -999.25
      9073.0000         0.8464         0.8098         0.7757         0.7425         0.7467        10.0116        17.0044        -0.0052           95.1        93.8999        74.2303        69.6421        29.0799         2.3694        -999.25        -999.25           3350      0.7796191        -999.25
      9073.5000          0.832         0.7795         0.7542          0.717         0.7236        10.0199        17.0229        -0.0034           95.6           96.7        74.2391          69.65        30.6737         2.3691        -999.25        -999.25           3350      0.7797872        -999.25
      9074.0000         0.8232         0.7615         0.7317         0.6939         0.7025         10.069        17.6493        -0.0014           97.5           97.7        81.5483        76.9582        31.9192         2.3588        -999.25        -999.25           3350      0.9352808        -999.25
      9074.5000         0.8468          0.776         0.7324         0.6967         0.7061        10.1888        17.6073        -0.0002        97.2999           96.6        83.0392        78.4482        33.0703         2.3595        -999.25        -999.25           3365      0.9669829        -999.25
      9075.0000         0.8681         0.7919         0.7465         0.7145         0.7236        10.1261        17.7922        -0.0004             96           96.6        92.0774        87.4855        33.8022         2.3564        -999.25        -999.25           3365              1        -999.25
      9075.5000         0.8643         0.8005         0.7588         0.7293         0.7379        10.1059        16.6713         0.0047        95.7999        96.3999        89.7531        85.1603        34.1157         2.3749        -999.25        -999.25           3365              1        -999.25
      9076.0000         0.8618         0.8045         0.7751         0.7425         0.7503        10.1088        16.3354          0.014           95.1        96.2999        91.7772        87.1835        33.1702         2.3805        -999.25        -999.25           3365              1        -999.25
      9076.5000         0.8745          0.834         0.8028         0.7604         0.7671        10.1312        17.1432         0.0099           97.5        96.8999        81.2571        76.6624        33.1183         2.3671        -999.25        -999.25           3335      0.9289872        -999.25
      9077.0000         0.8996         0.8917         0.8343         0.7812         0.7869        10.1534        17.7742          0.011        97.3999             97        82.5809        77.9853        34.6152         2.3567        -999.25        -999.25           3335       0.957134        -999.25
      9077.5000         0.9087         0.9293           0.85         0.7959         0.8011        10.1818         18.503         0.0144        96.2999        95.3999        84.8406        80.2441        36.2834         2.3447        -999.25        -999.25           3335              1        -999.25
      9078.0000         0.8682         0.8822          0.835          0.791         0.7966        10.2327        19.7863         0.0107           96.2           97.5        95.3242        90.7268        37.5391         2.3235        -999.25        -999.25           3335              1        -999.25
      9078.5000         0.8107         0.8173         0.8012         0.7681         0.7747        10.2344        20.5341         0.0085             97           98.6        96.9016        92.3033        38.8362         2.3112        -999.25        -999.25           3335              1        -999.25
      9079.0000         0.7663         0.7832         0.7669         0.7404          0.748        10.2273        20.6838         0.0071           99.6          100.7        90.3522        85.7529          39.98         2.3087        -999.25        -999.25           3345              1        -999.25
      9079.5000         0.7229         0.7456         0.7377         0.7179         0.7259        10.2283        20.4434         0.0046       100.7999       102.8999         89.976        85.3758        39.4376         2.3127        -999.25        -999.25           3345              1        -999.25
      9080.0000         0.6977         0.7213         0.7248         0.7124         0.7201        10.2324        19.9692         0.0098          102.1       102.2999        88.6201         84.019        38.2048         2.3205        -999.25        -999.25           3345              1        -999.25
      9080.5000         0.7142          0.742         0.7374         0.7265         0.7331        10.2132        19.8751         0.0053       102.2999          102.6        90.9447        86.3427        37.5544         2.3221        -999.25        -999.25           3345              1        -999.25
      9081.0000         0.7474         0.7777         0.7591         0.7413         0.7467        10.2549        19.2064         0.0047          101.6       102.8999        89.3239         84.721        36.7529         2.3331        -999.25        -999.25           3355              1        -999.25
      9081.5000          0.754         0.7804         0.7636         0.7388         0.7438        10.2627        18.6348         0.0068          102.5          101.7        86.2582        81.6543        35.7278         2.3425        -999.25        -999.25           3355              1        -999.25
      9082.0000         0.7375         0.7598         0.7527         0.7276         0.7327        10.2362        18.3701         0.0106       102.2999       101.8999        87.2913        82.6865        35.0561         2.3469        -999.25        -999.25           3355              1        -999.25
      9082.5000          0.736          0.758         0.7497         0.7252         0.7304        10.2648        18.8804         0.0137          102.1       101.3999        86.6134        82.0077        35.7679         2.3385        -999.25        -999.25           3355              1        -999.25
      9083.0000         0.7598         0.7847         0.7614         0.7334         0.7382        10.2526        19.4376         0.0125          101.1          100.2        88.9082        84.3016         36.769         2.3293        -999.25        -999.25           3360              1        -999.25
      9083.5000         0.7672         0.7933         0.7643         0.7356         0.7401        10.2301        20.7342         0.0061        98.7999        99.3999        93.5929        88.9854         37.812         2.3079        -999.25        -999.25           3360              1        -999.25
      9084.0000          0.726         0.7481         0.7371         0.7181         0.7232        10.1969        20.6157         0.0086       102.3999          103.1        96.7562        92.1477        38.3727         2.3098        -999.25        -999.25           3360              1        -999.25
      9084.5000         0.6716          0.688         0.6969         0.6904         0.6961        10.1929        21.4584         0.0029          102.5       103.8999        97.2727        92.6633        38.5828         2.2959        -999.25        -999.25           3360              1        -999.25
      9085.0000           0.65         0.6623         0.6747         0.6725         0.6786        10.1254        21.2955         0.0012       105.3999          105.6        86.3896        81.7793        38.2806         2.2986        -999.25        -999.25           3345              1        -999.25
      9085.5000         0.6711         0.6823         0.6826         0.6759         0.6817        10.1363        21.0435         0.0029       103.2999       104.7999        84.6116        80.0004        37.3538         2.3028        -999.25        -999.25           3345              1        -999.25
