#------------------------------------------------------------------------------
# Created by    : vladimir.rabinovich
# Created on    : 09/19/2023 17:22:23
#------------------------------------------------------------------------------
~Version Information Section
VERS.           2.0     :   CWLS log ASCII Standard - VERSION 2.0
WRAP.           NO      :   One line per depth step
~Well Information Section
#MNEM       .UNIT                                         VALUE :DESCRIPTION
#------------------------------------------------------------------------------
STRT        .FT                                            4000 :START DEPTH
STOP        .FT                                           10100 :STOP DEPTH
STEP        .FT                                             0.5 :STEP      
NULL        .                                           -999.25 :NULL      
COMP        .                         TALOS ENERGY VENTURES LLC :COMPANY   
WELL        .                               OCS G13557 ST00BP00 :WELL      
FLD         .                           WEST CAMERON BLOCK 0118 :FIELD     
LOC         .                                                   :LOCATION  
CNTY        .                                      WEST CAMERON :LOCATION  
STAT        .                                         LOUISIANA :STATE     
CTRY        .                                     UNITED STATES :COUNTRY   
SRVC        .                                                   :SERVICE COMPANY
DATE        .                             9/13/2023 11:19:21 AM :LOG DATE  
API         .                                    17700409600000 :API NUMBER
UWI         .                                    17700409600000 :UNIQUE WELL ID
XCOORD      .                                  1437367.94342701 :SURFACE X 
YCOORD      .                                  10730631.2479363 :SURFACE Y 
LAT         .                                         29.566133 :LATITUDE  
LON         .                                        -93.638908 :LONGITUDE 
ELEV        .FT                                              97 :ELEVATION VALUE
ELEV_TYPE   .                                                KB :ELEVATION REFERENCE TYPE
~Curve Information Section
#MNEM       .UNIT                                      API CODE :CURVE DESCRIPTION
#------------------------------------------------------------------------------
DEPT        .FT                                                 :DEPTH     
CALX        .IN                                                 :          
CNC         .%                                                  :          
CSAX        .MMHO                                               :          
GR          .API                                                :          
GR_NORM     .GAPI                                               :GammaRay Normalized
GRAX        .GAPI                                               :          
PORZ        .%                                                  :          
RIPD        .OHMM                                               :          
RIPM        .OHMM                                               :          
ROPS        .M/MIN                                              :          
RSAX        .OHMM                                               :          
RSFL        .OHMM                                               :          
RSTX        .MINS                                               :          
RWAZ        .OHMM                                               :          
SP          .MV                                                 :          
SP_NORM     .MV                                                 :SP Normalized
TEN         .LBF                                                :          
VSH_GR      .V/V                                                :Volume of Shale from GR
VSH_SP      .V/V                                                :Volume of Shale from SP
ZCOR        .G/C3                                               :          
~A        DEPTH           CALX            CNC           CSAX             GR        GR_NORM           GRAX           PORZ           RIPD           RIPM           ROPS           RSAX           RSFL           RSTX           RWAZ             SP        SP_NORM            TEN         VSH_GR         VSH_SP           ZCOR
# ...
      6834.0000         11.988         48.285       1274.834         84.059         82.209        107.356         21.876          0.601          0.565         31.642          0.784          0.719             49          0.037        -17.002       -15.2367        -14.478              1      0.8795682          0.092
      6834.5000         11.973         47.002        1257.75          86.22        84.3689        107.356         22.319          0.603          0.562         79.298          0.795          0.696             49          0.039        -16.738       -14.9739        -18.088              1        0.88266          0.087
      6835.0000         11.964        47.5699       1238.721         87.293        85.4407        105.371         22.618          0.609          0.571         79.298          0.807          0.672        49.7549           0.04        -16.548       -14.7851        -10.988              1      0.8848812          0.086
      6835.5000         11.966        48.7029       1232.551        84.8799        83.0265        104.537         22.723          0.614          0.581         23.997          0.811          0.668             50          0.041        -16.286       -14.5242         -1.022              1      0.8879506           0.09
      6836.0000         11.974         47.269       1224.266        80.2739        78.4194       106.4159         22.702          0.616          0.584         23.997          0.817          0.693             49          0.041        -16.173       -14.4124          1.296      0.9663703      0.8892659          0.088
      6836.5000         11.974         43.207       1216.033         76.375        74.5194       101.2479         22.638          0.609          0.585         38.147          0.822          0.728             50           0.04        -16.437       -14.6776         -2.807      0.8833915      0.8861459          0.078
      6837.0000          11.97         39.644       1224.266         75.257        73.4003       104.0669         22.513          0.615          0.583         38.147          0.817          0.751             49           0.04        -16.801       -15.0428          -4.92      0.8595808      0.8818494          0.072
      6837.5000         11.964         38.961       1224.293        76.2209        74.3631       101.2479         22.448          0.623          0.585         38.521          0.817           0.75           49.5          0.041         -16.96       -15.2029         -3.397      0.8800659      0.8799659          0.074
      6838.0000         11.961        39.7679       1243.828        76.0399         74.181        98.0349         22.556          0.621          0.582         38.521          0.804          0.735        48.8019          0.041        -17.151       -15.3951         -2.925      0.8761915      0.8777047          0.072
      6838.5000         11.966         39.937       1263.363        74.3829        72.5229         94.823         22.722          0.625           0.58         40.243          0.792          0.714        48.1039          0.042        -17.925       -16.1703         -5.876      0.8409128      0.8685847          0.069
      6839.0000         11.975         40.029       1249.406         72.887        71.0259        94.6689         22.841          0.629          0.588         40.243          0.801          0.689           48.5          0.042        -19.325       -17.5714        -10.554      0.8090618      0.8521012          0.076
      6839.5000          11.98         40.814       1243.238         72.726        70.8638       102.1869         22.844          0.637            0.6        39.7859          0.804          0.674         48.138          0.043        -20.798       -19.0456        -13.497      0.8056127      0.8347576          0.087
      6840.0000          11.98         39.912       1240.895         74.319        72.4557        95.6089         22.705          0.644          0.606        39.7859          0.806          0.688             48          0.043        -21.714       -19.9628        -11.887      0.8394831      0.8239671           0.09
      6840.5000         11.978          37.73       1207.857        77.0879        75.2235        102.892         22.578          0.646          0.609         32.697          0.828          0.729             48          0.043        -21.878       -20.1279         -9.372      0.8983724      0.8220247           0.09
      6841.0000         11.975         37.318        1292.15         79.423        77.5575        99.8379         22.689          0.648          0.613         32.697          0.774          0.765             47          0.043         -21.71       -19.9611        -12.801       0.948032      0.8239871          0.086
      6841.5000         11.977        39.1039       1274.834         79.689        77.8224       102.5339         22.962          0.666           0.62         34.076          0.784          0.777             48          0.045        -22.019       -20.2713        -19.211      0.9536682      0.8203377          0.078
      6842.0000         11.981         40.909       1319.844         78.262        76.3943         105.23          23.09          0.675          0.627         34.076          0.758          0.777             48          0.047        -23.524       -21.7774        -18.152       0.923283      0.8026189          0.072
      6842.5000         11.981        41.1949        1327.49         77.047        75.1782       105.9469         22.907          0.667          0.624        44.1219          0.753          0.775             48          0.045        -26.411       -24.6656         -9.184      0.8974085        0.76864          0.073
      6843.0000         11.974         40.271       1382.324         76.934        75.0641        98.8979         22.577           0.67           0.62        44.1219          0.723           0.76             48          0.044        -28.938       -27.1938         -3.795      0.8949809      0.7388965          0.075
      6843.5000         11.967         38.832       1468.848         77.257         75.386        97.4879         22.357           0.67          0.622         55.373          0.681          0.729             48          0.043        -28.016       -26.2729         -7.678      0.9018298      0.7497306          0.074
      6844.0000         11.967         37.993       1336.477        76.6599        74.7878        100.308         22.385           0.66          0.619         55.373          0.748          0.699             48          0.043        -23.896       -22.1541         -12.62      0.8891022      0.7981871          0.071
      6844.5000         11.974         38.762       1283.463        75.2319        73.3587        94.6689         22.621          0.663          0.621        58.0829          0.779          0.691             49          0.044        -20.261       -18.5203         -8.916      0.8586958      0.8409377          0.067
      6845.0000         11.978        39.4059        1257.75         75.079        73.2047        90.9099         22.833          0.663          0.619        58.0829          0.795          0.703             48          0.045        -18.907       -17.1675          1.231      0.8554191      0.8568529          0.067
      6845.5000         11.975         38.861       1262.715         76.886        75.0106        91.6609         22.886          0.659          0.615         58.097          0.792          0.721             48          0.045        -18.486       -16.7476          4.687      0.8938425      0.8617929          0.074
      6846.0000          11.96         38.377       1266.264        77.5129        75.6363        92.3199          22.99          0.656          0.622         58.097           0.79          0.735             48          0.045        -18.124       -16.3868          -4.59      0.9071553      0.8660377          0.078
      6846.5000         11.944         38.778        1292.15        76.2079        74.3302        94.6689         23.312          0.664          0.619         46.356          0.774          0.742             49          0.047        -17.939        -16.203        -15.757       0.879366         0.8682          0.074
