#------------------------------------------------------------------------------
# Created by    : vladimir.rabinovich
# Created on    : 09/19/2023 17:20:44
#------------------------------------------------------------------------------
~Version Information Section
VERS.           2.0     :   CWLS log ASCII Standard - VERSION 2.0
WRAP.           NO      :   One line per depth step
~Well Information Section
#MNEM       .UNIT                                         VALUE :DESCRIPTION
#------------------------------------------------------------------------------
STRT        .FT                                            2904 :START DEPTH
STOP        .FT                                           14016 :STOP DEPTH
STEP        .FT                                             0.5 :STEP      
NULL        .                                           -999.25 :NULL      
COMP        .                                          MCN CORP :COMPANY   
WELL        .                                OCS 00043 ST00BP00 :WELL      
FLD         .                          EUGENE ISLAND BLOCK 0089 :FIELD     
LOC         .                                                   :LOCATION  
CNTY        .                                     EUGENE ISLAND :LOCATION  
STAT        .                                         LOUISIANA :STATE     
CTRY        .                                     UNITED STATES :COUNTRY   
SRVC        .                                                   :SERVICE COMPANY
DATE        .                             9/13/2023 11:18:42 AM :LOG DATE  
API         .                                    17709009460000 :API NUMBER
UWI         .                                    17709009460000 :UNIQUE WELL ID
XCOORD      .                                  2058690.32320654 :SURFACE X 
YCOORD      .                                  10563305.2032801 :SURFACE Y 
LAT         .                                        29.1009424 :LATITUDE  
LON         .                                       -91.6898776 :LONGITUDE 
ELEV        .FT                                              49 :ELEVATION VALUE
ELEV_TYPE   .                                                KB :ELEVATION REFERENCE TYPE
~Curve Information Section
#MNEM       .UNIT                                      API CODE :CURVE DESCRIPTION
#------------------------------------------------------------------------------
DEPT        .FT                                                 :DEPTH     
ASN         .OHMM                                               :          
CALI        .IN                                                 :          
DT          .US/F                                               :          
GR          .GAPI                                               :          
GR_NORM     .GAPI                                               :GammaRay Normalized
ILD         .OHMM                                               :          
SP          .MV                                                 :          
SP_NORM     .MV                                                 :SP Normalized
VSH_GR      .V/V                                                :Volume of Shale from GR
VSH_SP      .V/V                                                :Volume of Shale from SP
~A        DEPTH            ASN           CALI             DT             GR        GR_NORM            ILD             SP        SP_NORM         VSH_GR         VSH_SP
# ...
     14002.5000         1.2782         8.3472        84.6499        76.5624       83.38361         1.0075       -68.1471       -30.4113              1      0.5998408
     14003.0000         1.2712         8.2283        86.9998        76.5942       83.41675         0.9987       -62.3849        -24.649              1          0.681
     14003.5000         1.2644         8.1769        89.0715        77.2067       84.05476         1.0078        -53.311       -15.5751              1      0.8088014
     14004.0000         1.2794         8.2185        89.4061        78.0731       84.95725         1.0213       -44.0886        -6.3527              1      0.9386944
     14004.5000         1.3199         8.2652        88.6698        78.0129       84.89455         1.0466       -42.3177        -4.5818              1      0.9636366
     14005.0000          1.376         8.2894         88.214        77.7554       84.62632           1.07       -41.7891        -4.0532              1      0.9710817
     14005.5000         1.4027           8.31        87.3564        79.9899       86.95393          1.092       -41.6136        -3.8778              1      0.9735521
     14006.0000         1.4238         8.3214        87.2725        81.2057       88.22038         1.1157       -41.4044        -3.6685              1         0.9765
     14006.5000         1.4432        -999.25        -999.25        -999.25        -999.25         1.1373       -40.9764        -3.2405        -999.25      0.9825282
     14007.0000         1.4579        -999.25        -999.25        -999.25        -999.25         1.1599       -40.6154        -2.8795        -999.25      0.9876127
     14007.5000         1.4686        -999.25        -999.25        -999.25        -999.25         1.1711       -40.3555        -2.6196        -999.25      0.9912732
     14008.0000         1.4751        -999.25        -999.25        -999.25        -999.25         1.1776       -40.2264        -2.4905        -999.25      0.9930915
     14008.5000         1.4799        -999.25        -999.25        -999.25        -999.25         1.1821       -40.2906        -2.5547        -999.25      0.9921873
     14009.0000         1.4835        -999.25        -999.25        -999.25        -999.25         1.1842       -40.4771        -2.7412        -999.25      0.9895605
     14009.5000         1.4856        -999.25        -999.25        -999.25        -999.25         1.1842       -40.5198        -2.7839        -999.25      0.9889591
     14010.0000         1.4875        -999.25        -999.25        -999.25        -999.25         1.1838       -40.1235        -2.3876        -999.25      0.9945409
     14010.5000         1.4908        -999.25        -999.25        -999.25        -999.25         1.1834       -39.5944        -1.8585        -999.25              1
     14011.0000          1.493        -999.25        -999.25        -999.25        -999.25         1.1809       -39.0931        -1.3573        -999.25              1
     14011.5000         1.4862        -999.25        -999.25        -999.25        -999.25         1.1751       -38.9428        -1.2069        -999.25              1
     14012.0000         1.4783        -999.25        -999.25        -999.25        -999.25         1.1714        -39.483        -1.7472        -999.25              1
     14012.5000         1.4938        -999.25        -999.25        -999.25        -999.25         1.1701       -39.5071        -1.7712        -999.25              1
     14013.0000         1.5167        -999.25        -999.25        -999.25        -999.25         1.1677       -38.8871        -1.1512        -999.25              1
     14013.5000         1.5239        -999.25        -999.25        -999.25        -999.25         1.1626       -38.6022        -0.8663        -999.25              1
     14014.0000         1.5263        -999.25        -999.25        -999.25        -999.25         1.1611       -38.4114        -0.6755        -999.25              1
     14014.5000         1.5333        -999.25        -999.25        -999.25        -999.25         1.1607       -38.3372        -0.6013        -999.25              1
     14015.0000         1.5434        -999.25        -999.25        -999.25        -999.25         1.1625         -38.39        -0.6541        -999.25              1
     14015.5000         1.5601        -999.25        -999.25        -999.25        -999.25         1.1638       -38.4608        -0.7249        -999.25              1
     14016.0000         1.5754        -999.25        -999.25        -999.25        -999.25         1.1635         -38.54        -0.8041        -999.25              1
