#------------------------------------------------------------------------------
# Created by    : vladimir.rabinovich
# Created on    : 09/19/2023 17:22:04
#------------------------------------------------------------------------------
~Version Information Section
VERS.           2.0     :   CWLS log ASCII Standard - VERSION 2.0
WRAP.           NO      :   One line per depth step
~Well Information Section
#MNEM       .UNIT                                         VALUE :DESCRIPTION
#------------------------------------------------------------------------------
STRT        .FT                                           911.5 :START DEPTH
STOP        .FT                                           12432 :STOP DEPTH
STEP        .FT                                             0.5 :STEP      
NULL        .                                           -999.25 :NULL      
COMP        .                                    EXXON CO U S A :COMPANY   
WELL        .                               OCS G03260 ST00BP00 :WELL      
FLD         .                                           WILDCAT :FIELD     
LOC         .                                                   :LOCATION  
CNTY        .                                      WEST CAMERON :LOCATION  
STAT        .                                         LOUISIANA :STATE     
CTRY        .                                     UNITED STATES :COUNTRY   
SRVC        .                                                   :SERVICE COMPANY
DATE        .                             9/13/2023 11:18:18 AM :LOG DATE  
API         .                                    17700402650000 :API NUMBER
UWI         .                                    17700402650000 :UNIQUE WELL ID
XCOORD      .                                  1465533.33943019 :SURFACE X 
YCOORD      .                                  10722576.3450242 :SURFACE Y 
LAT         .                                        29.5443718 :LATITUDE  
LON         .                                       -93.5501671 :LONGITUDE 
ELEV        .FT                                              99 :ELEVATION VALUE
ELEV_TYPE   .                                                KB :ELEVATION REFERENCE TYPE
~Curve Information Section
#MNEM       .UNIT                                      API CODE :CURVE DESCRIPTION
#------------------------------------------------------------------------------
DEPT        .FT                                                 :DEPTH     
CALI        .IN                                                 :          
DRHO        .G/CC                                               :          
GR          .GAPI                                               :          
GR_NORM     .GAPI                                               :GammaRay Normalized
ILD         .OHMM                                               :          
RHOB        .G/CC                                               :          
VSH_GR      .V/V                                                :Volume of Shale from GR
~A        DEPTH           CALI           DRHO             GR        GR_NORM            ILD           RHOB         VSH_GR
# ...
      6472.5000          14.09         0.0178         27.687       41.32096         0.2609         2.1496      0.1770416
      6473.0000         13.366         0.0261        27.9791       41.81663          0.259         2.1519      0.1875878
      6473.5000        12.9947         0.0243        28.3517       42.44928         0.2571         2.1477      0.2010484
      6474.0000        13.0194         0.0364        28.8057       43.22009         0.2552         2.1626      0.2174487
      6474.5000        13.2223         0.0523         29.387       44.20736         0.2533          2.178      0.2384544
      6475.0000        13.3788         0.0658        29.9211       45.11429         0.2514         2.1733      0.2577508
      6475.5000        13.4358         0.0397         30.465       46.03801         0.2529         2.1633      0.2774045
      6476.0000        13.3431         0.0211        30.8201       46.64092         0.2649         2.1569      0.2902324
      6476.5000        13.0704         0.0189        30.7379       46.50056          0.277         2.1512      0.2872459
      6477.0000        13.0906         0.0191        30.5631         46.203          0.289         2.1323       0.280915
      6477.5000         12.895        -0.0018        30.4369       45.98789         0.3011         2.1267       0.276338
      6478.0000        13.2251         0.0172        30.6073       46.27694         0.3132         2.1447       0.282488
      6478.5000        13.3304         0.0386        31.1577       47.21154         0.3253         2.1623      0.3023732
      6479.0000        13.0792         0.0502        32.3141       49.17608         0.3499         2.1748       0.344172
      6479.5000        13.4224         0.0259        34.2314       52.43364         0.3793         2.1799      0.4134816
      6480.0000        13.7782         0.0137        36.9904       57.12128         0.4087         2.2261      0.5132188
      6480.5000        13.8311          0.001        40.3957       62.90738         0.4381         2.2771      0.6363272
      6481.0000        13.7322         0.0052        43.7913       68.67683         0.4723          2.333      0.7590814
      6481.5000        13.7173         0.0246        46.2078       72.78265         0.5146         2.3623      0.8464393
      6482.0000        13.8573         0.0185        47.5969       75.14262         0.5568         2.3713      0.8966516
      6482.5000        13.9817         0.0186         48.267       76.28063         0.5908         2.3599      0.9208645
      6483.0000        14.0571         0.0328        48.0334       75.88318          0.614         2.3601      0.9124081
      6483.5000         13.556         0.0311        46.7432       73.69006         0.6149         2.3555       0.865746
      6484.0000        13.8078           0.04        44.7078       70.23083         0.5785          2.344      0.7921453
      6484.5000        13.6284         0.0417        43.1812       67.63617         0.5422         2.3368      0.7369398
      6485.0000        14.0263         0.0256        42.0742       65.75437         0.5059         2.2838      0.6969015
      6485.5000        14.8053         0.0159        41.4044       64.61568         0.4826         2.2402      0.6726741
      6486.0000        13.8652           0.01        41.1094        64.1137         0.4608           2.25      0.6619936
      6486.5000        13.1048         0.0332        41.1026       64.10165         0.4391         2.2781      0.6617371
      6487.0000        13.0877         0.0555        41.1864       64.24355         0.4174         2.2993      0.6647563
      6487.5000        13.7504          0.063        41.6576       65.04356         0.3957         2.2932       0.681778
      6488.0000        13.8228         0.0377        42.6011       66.64633          0.394         2.2986      0.7158794
      6488.5000        13.6237         0.0228        44.0421       69.09431         0.3979          2.326       0.767964
      6489.0000        13.6228         0.0172        46.5021       73.27409         0.4018         2.3363      0.8568954
      6489.5000        13.6625         0.0133        48.5001       76.66859         0.4057         2.2942      0.9291189
      6490.0000        14.0668         0.0105        47.5801       75.10473         0.4096         2.2368      0.8958453
      6490.5000        14.6697         0.0076        45.8834       72.22104         0.4135         2.2206      0.8344902
      6491.0000        14.7608         0.0008        44.8682       70.49522           0.42         2.2426      0.7977707
      6491.5000        14.2385        -0.0038        44.8066       70.39005         0.4455         2.2777      0.7955329
      6492.0000        14.0572         -0.001        46.7432        73.6802         0.4711         2.3187      0.8655362
      6492.5000        14.1026         0.0099        48.1335       76.04221         0.4965         2.3592      0.9157917
      6493.0000        14.1644         0.0201        49.0192       77.54678         0.5221         2.3797      0.9478039
      6493.5000        14.1846         0.0307        48.9987       77.51125         0.5476         2.3903      0.9470479
      6494.0000        14.1813          0.032        48.5424       76.73537          0.576          2.399      0.9305397
      6494.5000        14.1118         0.0111        48.1242       76.02404         0.6045         2.3776      0.9154051
      6495.0000        14.0466        -0.0006        48.3699       76.44105          0.633         2.3661      0.9242776
      6495.5000         14.138         0.0059        49.3056        78.0304         0.6615         2.3605      0.9580937
      6496.0000        14.3314         0.0093        50.4403       79.95808          0.685         2.3654       0.999108
      6496.5000        14.4307         0.0167        51.4943       81.74861         0.6883         2.3646              1
      6497.0000        14.3046         0.0378        52.0598       82.70889         0.6917          2.379              1
      6497.5000        14.2885         0.0526        52.1367       82.83906         0.6951          2.388              1
      6498.0000         13.925         0.0567        52.2828       83.08662         0.6984         2.3846              1
      6498.5000        13.8237         0.0669        53.4598       85.08617         0.7018         2.3779              1
      6499.0000        13.7665         0.0742        54.2936       86.50253          0.693         2.3713              1
      6499.5000        13.6581         0.0679        54.5195       86.88573         0.6802         2.3656              1
      6500.0000        13.5126         0.0507          53.52       85.18678         0.6675         2.3443              1
      6500.5000        14.0495          0.023        52.1984       82.94032         0.6548         2.3043              1
      6501.0000        14.4144         0.0297        51.5135       81.77598          0.642         2.3063              1
      6501.5000        13.8867         0.0521        52.2057       82.95171         0.6294          2.324              1
      6502.0000        13.7129         0.0543        53.8987       85.82793         0.6173         2.3125              1
      6502.5000        13.6931         0.0404        52.8978       84.12661         0.6052         2.3085              1
      6503.0000        13.6826         0.0388        50.7321       80.44577         0.5931         2.3237              1
      6503.5000        13.7121         0.0342        49.2996       78.01103          0.581         2.3294      0.9576815
      6504.0000        13.7024         0.0146        47.9044       75.63948         0.5693         2.3131       0.907223
      6504.5000        13.5893         0.0035        46.9862       74.07869         0.5656         2.3123      0.8740147
      6505.0000        13.3493         0.0093        46.4273       73.12845          0.562         2.3207      0.8537968
      6505.5000        13.4275         0.0166        45.7375        71.9556         0.5584         2.3225      0.8288426
