#------------------------------------------------------------------------------
# Created by    : vladimir.rabinovich
# Created on    : 09/19/2023 17:19:27
#------------------------------------------------------------------------------
~Version Information Section
VERS.           2.0     :   CWLS log ASCII Standard - VERSION 2.0
WRAP.           NO      :   One line per depth step
~Well Information Section
#MNEM       .UNIT                                         VALUE :DESCRIPTION
#------------------------------------------------------------------------------
STRT        .FT                                          4322.5 :START DEPTH
STOP        .FT                                            9954 :STOP DEPTH
STEP        .FT                                             0.5 :STEP      
NULL        .                                           -999.25 :NULL      
COMP        .                                ATP OIL & GAS CORP :COMPANY   
WELL        .                               OCS G13829 ST00BP00 :WELL      
FLD         .                           WEST CAMERON BLOCK 0092 :FIELD     
LOC         .                                                   :LOCATION  
CNTY        .                                      WEST CAMERON :LOCATION  
STAT        .                                         LOUISIANA :STATE     
CTRY        .                                     UNITED STATES :COUNTRY   
SRVC        .                                                   :SERVICE COMPANY
DATE        .                             9/13/2023 11:19:21 AM :LOG DATE  
API         .                                    17700409910000 :API NUMBER
UWI         .                                    17700409910000 :UNIQUE WELL ID
XCOORD      .                                  1447604.75856055 :SURFACE X 
YCOORD      .                                  10719416.1500606 :SURFACE Y 
LAT         .                                        29.5354331 :LATITUDE  
LON         .                                       -93.6065144 :LONGITUDE 
ELEV        .FT                                              97 :ELEVATION VALUE
ELEV_TYPE   .                                                KB :ELEVATION REFERENCE TYPE
~Curve Information Section
#MNEM       .UNIT                                      API CODE :CURVE DESCRIPTION
#------------------------------------------------------------------------------
DEPT        .FT                                                 :DEPTH     
AFCO        .MMHO                                               :          
AT10        .OHMM                                               :          
AT20        .OHMM                                               :          
AT30        .OHMM                                               :          
AT60        .OHMM                                               :          
AT90        .OHMM                                               :          
CSAX        .MMHO                                               :          
DCAL        .IN                                                 :          
DPHZ        .%                                                  :          
GR          .GAPI                                               :          
GR_NORM     .GAPI                                               :GammaRay Normalized
GRAX        .GAPI                                               :          
HDRA        .G/C3                                               :          
NPOR        .%                                                  :          
ROPS        .FT/HR                                              :          
RSAX        .OHMM                                               :          
RWA         .OHMM                                               :          
SP          .MV                                                 :          
SP_NORM     .MV                                                 :SP Normalized
TENS        .LBF                                                :          
VSH_SP      .V/V                                                :Volume of Shale from SP
~A        DEPTH           AFCO           AT10           AT20           AT30           AT60           AT90           CSAX           DCAL           DPHZ             GR        GR_NORM           GRAX           HDRA           NPOR           ROPS           RSAX            RWA             SP        SP_NORM           TENS         VSH_SP
# ...
      8122.5000       1429.668          0.859         0.8347           0.75         0.8431         0.8386        2100.84         0.9872           20.8       100.4355       82.08372        71.3149         0.0596        34.1299        57.2339          0.476         0.0385       -21.1875         1.8158           3043              1
      8123.0000       1437.156         0.9535          0.871         0.7517         0.8136         0.8161           2000         0.8417          20.23        98.1385       80.01083        71.1909         0.0592        37.2999        57.2339            0.5         0.0363            -22         0.9967           3023              1
      8123.5000       1476.775          0.988         0.7918         0.7048         0.7075          0.713       1821.492         0.8174          20.68       103.2015       84.58388        68.7209         0.0565        35.2399          39.85          0.549         0.0373        -26.125        -3.1348           3018      0.9877979
      8124.0000       1565.146         0.9186         0.7639         0.6615         0.6288         0.6357       1934.234         0.6961          22.54        97.8611       79.76283        66.8679          0.051        34.1199        39.8329          0.517         0.0426        -35.625       -12.6413           3042      0.8855774
      8124.5000       1675.844         0.9625         0.7234         0.6228         0.5539         0.5628       1788.908         0.8417           25.7        86.8778        69.8463        74.0569         0.0438          37.39         38.106          0.559         0.0529            -57       -34.0228           3034      0.6556688
      8125.0000       1819.447         0.9651         0.6768         0.5939         0.4852          0.492       1760.563         0.9751        29.7499        73.4893       57.75806        74.8419          0.028          37.29         38.106          0.568         0.0668            -74       -51.0293           3054      0.4728032
      8125.5000       2001.941         0.9532         0.6434         0.5721         0.4321         0.4376       1733.102         0.6234          31.45        68.9526       53.66275        75.6279         0.0133          24.93         23.593          0.577         0.0685       -83.5625       -60.5984           3053      0.3699097
      8126.0000        2215.18         0.9063          0.594         0.5484         0.4145         0.4192       1715.266         0.6234          28.45        75.1122       59.22594         76.132         0.0088          17.68         35.271          0.583         0.0498        -86.375       -63.4174           3016      0.3395979
      8126.5000       2393.617          0.707          0.498         0.4704         0.3763         0.3795       1488.094         0.6476          21.36         78.835       62.58888         96.881         0.0216          21.47          46.95          0.672         0.0249        -81.875       -58.9239           3042       0.387915
      8127.0000       2550.742         0.5395         0.4018         0.3954         0.3258          0.328       1703.576         0.6476           16.2        76.0785       60.10099        92.4349          0.039          34.05          46.95          0.587         0.0129       -72.6875       -49.7429           3006      0.4866355
      8127.5000       2627.719         0.4883         0.3708         0.3696         0.3157         0.3173       1468.428         0.6234           17.6         72.296       56.68677         94.287         0.0383           33.4         36.915          0.681         0.0149       -73.5625       -50.6245           3020      0.4771559
      8128.0000       2608.691          0.473         0.3655         0.3689         0.3254         0.3267       1449.275         0.7932          23.19        73.6769       57.93492         99.351         0.0239        28.3499         42.238           0.69         0.0271       -74.1875        -51.256           3041      0.4703656
      8128.5000       2497.566         0.5152         0.3813         0.3938         0.3523         0.3532       1265.822         0.6112          28.09        80.1636       63.79345         99.079         0.0053          31.25          47.56           0.79         0.0427       -70.6875       -47.7625           2977      0.5079301
      8129.0000       2292.438         0.5827         0.4336         0.4436          0.417         0.4174       1369.861         0.6112          29.88        82.5165        65.9193        98.8069        -0.0007          30.39          47.56           0.73         0.0531       -62.0625        -39.144           3008      0.6006021
      8129.5000       2108.648         0.5766          0.488          0.502         0.4986         0.4979       1418.439         0.4051          29.13        87.8097       70.70028        97.0659         0.0082          32.54         54.521          0.705         0.0544        -47.375        -24.463           3021      0.7584624
      8130.0000       1933.191         0.5492          0.493         0.5139         0.5513         0.5489       1488.094          0.308        26.9099        92.3486       74.80005         96.356         0.0316          40.21         54.521          0.672         0.0499       -32.6875        -9.7821           3022      0.9163215
      8130.5000       1821.951         0.5381         0.5125         0.5349         0.6106         0.6054        1428.57         0.4051           24.2        97.9127       79.82555        96.1399         0.0539          40.72         44.441            0.7          0.042       -26.1875        -3.2886           3025      0.9861441
      8131.0000       1750.816         0.5398         0.5505         0.5707         0.6812         0.6724       1447.178         0.5021          22.55        98.1428       80.03455         95.028         0.0611          42.22         44.441          0.691         0.0374        -23.875        -0.9826           3035              1
      8131.5000       1706.041         0.5137         0.5495         0.5783         0.6929         0.6805       1449.275         0.6597          22.51         98.436       80.30051        93.5459         0.0519          42.87         42.292           0.69          0.038        -22.125         0.7609           2986              1
      8132.0000       1688.715         0.4891          0.539         0.5699          0.684         0.6694       1410.436           0.49          23.64        99.1885       80.98125         94.658         0.0335          38.27         42.292          0.709         0.0426        -21.625         1.2544           3009              1
      8132.5000       1681.016         0.4748         0.5308         0.5663         0.6703         0.6541       1418.439         0.5506          24.96       100.3391       82.02148          95.74         0.0193          40.45          59.05          0.705         0.0479            -21         1.8728           3039              1
      8133.0000       1694.113         0.4702         0.5307         0.5584         0.6442         0.6263        1377.41         0.5263          25.72        98.3777       80.25163         94.287         0.0083          43.02         59.066          0.726         0.0505        -20.375         2.4913           3056              1
      8133.5000       1700.646         0.4779         0.5404         0.5638         0.6283         0.6109       1335.113         0.5263          25.71        96.9968         79.006        97.9929         0.0061        42.8099        44.8589          0.749         0.0501       -19.5625         3.2973           3070              1
      8134.0000         1698.5         0.4969         0.5623         0.5797         0.6231         0.6048        1326.26         0.4778          24.48        96.5365       78.59159        93.5459         0.0169          40.97        44.8589          0.754         0.0451       -20.0625         2.7908           3058              1
      8134.5000       1695.414         0.5083         0.5765          0.586         0.6215         0.6031       1331.557         0.6476          23.64        99.2877       81.07706        96.0969         0.0271        40.6299         46.318          0.751         0.0419       -20.4375         2.4092           3050              1
