#------------------------------------------------------------------------------
# Created by    : vladimir.rabinovich
# Created on    : 09/19/2023 17:19:27
#------------------------------------------------------------------------------
~Version Information Section
VERS.           2.0     :   CWLS log ASCII Standard - VERSION 2.0
WRAP.           NO      :   One line per depth step
~Well Information Section
#MNEM       .UNIT                                         VALUE :DESCRIPTION
#------------------------------------------------------------------------------
STRT        .FT                                          4322.5 :START DEPTH
STOP        .FT                                            9954 :STOP DEPTH
STEP        .FT                                             0.5 :STEP      
NULL        .                                           -999.25 :NULL      
COMP        .                                ATP OIL & GAS CORP :COMPANY   
WELL        .                               OCS G13829 ST00BP00 :WELL      
FLD         .                           WEST CAMERON BLOCK 0092 :FIELD     
LOC         .                                                   :LOCATION  
CNTY        .                                      WEST CAMERON :LOCATION  
STAT        .                                         LOUISIANA :STATE     
CTRY        .                                     UNITED STATES :COUNTRY   
SRVC        .                                                   :SERVICE COMPANY
DATE        .                             9/13/2023 11:19:21 AM :LOG DATE  
API         .                                    17700409910000 :API NUMBER
UWI         .                                    17700409910000 :UNIQUE WELL ID
XCOORD      .                                  1447604.75856055 :SURFACE X 
YCOORD      .                                  10719416.1500606 :SURFACE Y 
LAT         .                                        29.5354331 :LATITUDE  
LON         .                                       -93.6065144 :LONGITUDE 
ELEV        .FT                                              97 :ELEVATION VALUE
ELEV_TYPE   .                                                KB :ELEVATION REFERENCE TYPE
~Curve Information Section
#MNEM       .UNIT                                      API CODE :CURVE DESCRIPTION
#------------------------------------------------------------------------------
DEPT        .FT                                                 :DEPTH     
AFCO        .MMHO                                               :          
AT10        .OHMM                                               :          
AT20        .OHMM                                               :          
AT30        .OHMM                                               :          
AT60        .OHMM                                               :          
AT90        .OHMM                                               :          
CSAX        .MMHO                                               :          
DCAL        .IN                                                 :          
DPHZ        .%                                                  :          
GR          .GAPI                                               :          
GR_NORM     .GAPI                                               :GammaRay Normalized
GRAX        .GAPI                                               :          
HDRA        .G/C3                                               :          
NPOR        .%                                                  :          
ROPS        .FT/HR                                              :          
RSAX        .OHMM                                               :          
RWA         .OHMM                                               :          
SP          .MV                                                 :          
SP_NORM     .MV                                                 :SP Normalized
TENS        .LBF                                                :          
VSH_SP      .V/V                                                :Volume of Shale from SP
~A        DEPTH           AFCO           AT10           AT20           AT30           AT60           AT90           CSAX           DCAL           DPHZ             GR        GR_NORM           GRAX           HDRA           NPOR           ROPS           RSAX            RWA             SP        SP_NORM           TENS         VSH_SP
# ...
      9947.5000       1710.254         0.5687         0.5768         0.5815         0.5859         0.5678        -999.25        -5.2708          15.56       137.5591       79.32785        -999.25         0.4026          44.09        -999.25        -999.25         0.0169          0.375        -1.5298           3636              1
      9948.0000       1710.047         0.5686         0.5767         0.5816         0.5862          0.568        -999.25        -5.2708          15.64       137.5591       81.23141        -999.25         0.6435          44.09        -999.25        -999.25         0.0171          -0.25        -2.1548           3602      0.9983355
      9948.5000       1709.869         0.5685         0.5766         0.5815         0.5863         0.5682        -999.25        -5.2708          15.78       137.5591       81.28704        -999.25         1.3674          44.09        -999.25        -999.25         0.0174           2.75         0.8452           3521              1
      9949.0000       1709.752         0.5684         0.5763         0.5815         0.5866         0.5684        -999.25        -5.2708          16.08       137.5591       78.78349        -999.25         2.0886          44.09        -999.25        -999.25         0.0181             -3        -4.9048           3489      0.9687656
      9949.5000       1709.633         0.5687         0.5766         0.5815         0.5865         0.5684        -999.25        -5.2708        -999.25       137.5591       82.58105        -999.25        -999.25          44.09        -999.25        -999.25        -999.25        -0.4375        -2.3423           3457      0.9963194
      9950.0000       1709.586         0.5682         0.5768         0.5814         0.5866         0.5685        -999.25        -5.2708        -999.25       137.5591       78.78314        -999.25        -999.25          44.09        -999.25        -999.25        -999.25        -0.6875        -2.5923           3369      0.9936312
      9950.5000       1709.441         0.5676         0.5758         0.5814         0.5867         0.5685        -999.25        -5.2708        -999.25       137.5591       83.91586        -999.25        -999.25          44.09        -999.25        -999.25        -999.25          -0.75        -2.6548           3242      0.9929591
      9951.0000       1709.324         0.5684         0.5759         0.5815         0.5867         0.5686        -999.25        -5.2708        -999.25       137.5591       82.52766        -999.25        -999.25          44.09        -999.25        -999.25        -999.25        -0.6875        -2.5923           3175      0.9936312
      9951.5000       1709.133          0.569         0.5778         0.5817         0.5872         0.5691        -999.25        -5.2708        -999.25       137.5591       81.43106        -999.25        -999.25          44.09        -999.25        -999.25        -999.25         -0.375        -2.2798           3147      0.9969914
      9952.0000       1709.115          0.569         0.5773         0.5818         0.5872         0.5691        -999.25        -5.2708        -999.25       137.5591       78.90022        -999.25        -999.25          44.09        -999.25        -999.25        -999.25          -0.25        -2.1548           3126      0.9983355
      9952.5000       1709.188         0.5684         0.5763         0.5816         0.5868         0.5688        -999.25        -5.2708        -999.25       137.5591        80.2422        -999.25        -999.25          44.09        -999.25        -999.25        -999.25          0.625        -1.2798           3042              1
      9953.0000       1709.207         0.5685         0.5766         0.5816         0.5868         0.5688        -999.25        -5.2708        -999.25       137.5591       79.62867        -999.25        -999.25          44.09        -999.25        -999.25        -999.25         0.3125        -1.5923           3082              1
      9953.5000       1709.201         0.5685         0.5766         0.5816         0.5869         0.5688        -999.25        -5.2708        -999.25       137.5591       79.84545        -999.25        -999.25          44.09        -999.25        -999.25        -999.25          0.125        -1.7798           3030              1
      9954.0000        -999.25         0.5684         0.5766         0.5816         0.5869         0.5688        -999.25        -999.25        -999.25        -999.25       83.47588        -999.25        -999.25        -999.25        -999.25        -999.25        -999.25         0.4456        -1.4592        -999.25              1
