#------------------------------------------------------------------------------
# Created by    : vladimir.rabinovich
# Created on    : 09/19/2023 17:21:07
#------------------------------------------------------------------------------
~Version Information Section
VERS.           2.0     :   CWLS log ASCII Standard - VERSION 2.0
WRAP.           NO      :   One line per depth step
~Well Information Section
#MNEM       .UNIT                                         VALUE :DESCRIPTION
#------------------------------------------------------------------------------
STRT        .FT                                            3871 :START DEPTH
STOP        .FT                                           10481 :STOP DEPTH
STEP        .FT                                             0.5 :STEP      
NULL        .                                           -999.25 :NULL      
COMP        .                               TALOS PETROLEUM LLC :COMPANY   
WELL        .                                OCS 00300 ST00BP00 :WELL      
FLD         .                           WEST CAMERON BLOCK 0045 :FIELD     
LOC         .                                                   :LOCATION  
CNTY        .                                      WEST CAMERON :LOCATION  
STAT        .                                         LOUISIANA :STATE     
CTRY        .                                     UNITED STATES :COUNTRY   
SRVC        .                                                   :SERVICE COMPANY
DATE        .                             9/13/2023 11:18:36 AM :LOG DATE  
API         .                                    17700410010000 :API NUMBER
UWI         .                                    17700410010000 :UNIQUE WELL ID
XCOORD      .                                  1453780.44334001 :SURFACE X 
YCOORD      .                                   10773222.791693 :SURFACE Y 
LAT         .                                         29.683533 :LATITUDE  
LON         .                                        -93.587947 :LONGITUDE 
ELEV        .FT                                              92 :ELEVATION VALUE
ELEV_TYPE   .                                                KB :ELEVATION REFERENCE TYPE
~Curve Information Section
#MNEM       .UNIT                                      API CODE :CURVE DESCRIPTION
#------------------------------------------------------------------------------
DEPT        .FT                                                 :DEPTH     
ATR         .OHMM                                               :          
CATR        .MMHO                                               :          
DCAL        .IN                                                 :          
DRHB        .G/C3                                               :          
GR          .GAPI                                               :          
GR_NORM     .GAPI                                               :GammaRay Normalized
PSR         .OHMM                                               :          
RHOB        .G/C3                                               :          
ROP5        .F/HR                                               :          
TNPH        .%                                                  :          
VSH_GR      .V/V                                                :Volume of Shale from GR
~A        DEPTH            ATR           CATR           DCAL           DRHB             GR        GR_NORM            PSR           RHOB           ROP5           TNPH         VSH_GR
# ...
      4433.5000           0.58       1724.137           0.64           0.13        87.2799       77.31714           0.55           2.23       260.8599             41      0.9429178
      4434.0000           0.58       1724.137           0.79            0.1          85.34       75.67844           0.57           2.23       264.6997             39      0.9080518
      4434.5000           0.59       1694.914           0.82           0.06          84.59       75.03682           0.58           2.22       268.6499             39      0.8944004
      4435.0000           0.59       1694.914           0.82           0.05        87.7599       77.67905           0.56           2.21       253.5098             39      0.9506181
      4435.5000           0.59       1694.914           0.78           0.09        93.0599       82.10593           0.57           2.24         249.99             44              1
      4436.0000           0.59       1694.914           0.67           0.12        94.3799        83.1984           0.57           2.26         243.24             46              1
      4436.5000            0.6       1666.666           0.55           0.16          93.45       82.40599           0.58           2.29         239.99             45              1
      4437.0000           0.61       1639.344           0.45           0.21           95.7       84.27763           0.58           2.31       236.8298             42              1
      4437.5000           0.61       1639.344           0.42            0.2        98.1699       86.33338            0.6           2.33       227.8499             42              1
      4438.0000           0.61       1639.344           0.35           0.15       100.4199       88.20499            0.6           2.34         211.75             41              1
      4438.5000           0.61       1639.344           0.29            0.1           99.1       87.08587           0.58           2.34         211.75             42              1
      4439.0000            0.6       1666.666           0.32           0.08          99.36        87.2903           0.57           2.32         199.99             42              1
      4439.5000            0.6       1666.666           0.36           0.06       100.5499       88.27372           0.55           2.32         187.49             47              1
      4440.0000           0.62       1612.902            0.4           0.07        99.0099       86.97009           0.53           2.32       183.6599             44              1
      4440.5000           0.69       1449.273           0.52           0.08           91.2       80.41374           0.55           2.31         178.21             42              1
      4441.0000           0.79       1265.822           0.57           0.08        73.2899       65.39545           0.76           2.32         178.21             43       0.689265
      4441.5000           0.83       1204.818           0.59           0.07          52.21       47.72165           1.03           2.36         176.47             46      0.3132267
      4442.0000           0.78       1282.051           0.55           0.05          38.81       36.48191           1.03           2.39       171.4199             47     0.07408329
      4442.5000           0.78       1282.051           0.56           0.13          37.97       35.76476           1.03           2.43         178.21             40     0.05882458
      4443.0000           0.66        1515.15           0.88           0.13          45.42       41.99287           0.91           2.29         178.21             40      0.1913377
      4443.5000           0.54       1851.852           1.09           0.18          49.17       45.12116           0.63           2.11       183.6599             41       0.257897
      4444.0000           0.45       2222.219           1.38           0.16          48.29        44.3705           0.43           1.89         191.49             46      0.2419256
      4444.5000            0.4           2500           1.19           0.15          43.92       40.69596           0.39           1.75       204.5398             50      0.1637439
      4445.0000           0.36       2777.777           1.39            0.1          39.33       36.83712           0.34            1.6       214.2698             55     0.08164094
      4445.5000           0.35       2857.141            1.5           0.09           35.5       33.61501            0.3            1.5         222.21             63      0.0130853
      4446.0000           0.34       2941.176           1.26           0.09          33.95       32.30303           0.29            1.4         243.24             67              0
      4446.5000           0.34       2941.176           0.88            0.1          35.54        33.6217           0.29           1.37       253.5098             64     0.01322767
      4447.0000           0.34       2941.176           0.48           0.08        37.2599       35.04929            0.3           1.33       272.7197             63     0.04360199
      4447.5000           0.34       2941.176           0.12           0.06        38.0099       35.66422            0.3           1.34       285.6997             74     0.05668559
      4448.0000           0.34       2941.176              0           0.05          38.89       36.38808            0.3           1.36       310.3398             93     0.07208674
      4448.5000           0.35       2857.141              0           0.05          38.81       36.30779           0.31           1.39       315.7695             89     0.07037849
      4449.0000           0.35       2857.141           0.23           0.06        39.0699       36.51207           0.32           1.42       315.7695             70     0.07472489
      4449.5000           0.35       2857.141              0           0.08          38.59       36.09666           0.33           1.45       321.4199             62     0.06588648
      4450.0000           0.35       2857.141           0.21           0.09          39.47       36.82051           0.33           1.44       321.4199             59     0.08128747
      4450.5000           0.35       2857.141              0           0.09             40       37.25113           0.33           1.42       327.2695             60     0.09044964
      4451.0000           0.34       2941.176              0           0.08          40.49       37.64824           0.33           1.38       321.4199             59     0.09889878
      4451.5000           0.33       3030.301              0           0.06          40.09       37.29973           0.31           1.32       321.4199             62     0.09148367
      4452.0000           0.33       3030.301           0.33           0.05          38.41       35.87884            0.3            1.3         327.25             64     0.06125195
      4452.5000           0.34       2941.176            0.2           0.05        36.0699       33.90488           0.29           1.28       327.2695             65     0.01925286
      4453.0000           0.33       3030.301           0.25           0.06          35.28       33.22976           0.31           1.29       327.2695             70    0.004888494
      4453.5000           0.33       3030.301           0.32           0.06          36.56       34.28872            0.3           1.28       333.3198             77     0.02741964
      4454.0000           0.33       3030.301           0.39           0.06        37.4399       35.01244           0.28           1.31       333.3198             97     0.04281779
      4454.5000           0.34       2941.176           0.19           0.07          40.97       37.95655            0.3           1.37       333.3296            114      0.1054584
      4455.0000           0.35       2857.141              0           0.09          45.03       41.34456           0.34           1.45       333.3296             99      0.1775438
      4455.5000           0.36       2777.777           1.29           0.08           53.8       48.67853           0.31           1.55       327.2695             77      0.3335858
