#------------------------------------------------------------------------------
# Created by    : vladimir.rabinovich
# Created on    : 09/19/2023 17:20:44
#------------------------------------------------------------------------------
~Version Information Section
VERS.           2.0     :   CWLS log ASCII Standard - VERSION 2.0
WRAP.           NO      :   One line per depth step
~Well Information Section
#MNEM       .UNIT                                         VALUE :DESCRIPTION
#------------------------------------------------------------------------------
STRT        .FT                                            2904 :START DEPTH
STOP        .FT                                           14016 :STOP DEPTH
STEP        .FT                                             0.5 :STEP      
NULL        .                                           -999.25 :NULL      
COMP        .                                          MCN CORP :COMPANY   
WELL        .                                OCS 00043 ST00BP00 :WELL      
FLD         .                          EUGENE ISLAND BLOCK 0089 :FIELD     
LOC         .                                                   :LOCATION  
CNTY        .                                     EUGENE ISLAND :LOCATION  
STAT        .                                         LOUISIANA :STATE     
CTRY        .                                     UNITED STATES :COUNTRY   
SRVC        .                                                   :SERVICE COMPANY
DATE        .                             9/13/2023 11:18:42 AM :LOG DATE  
API         .                                    17709009460000 :API NUMBER
UWI         .                                    17709009460000 :UNIQUE WELL ID
XCOORD      .                                  2058690.32320654 :SURFACE X 
YCOORD      .                                  10563305.2032801 :SURFACE Y 
LAT         .                                        29.1009424 :LATITUDE  
LON         .                                       -91.6898776 :LONGITUDE 
ELEV        .FT                                              49 :ELEVATION VALUE
ELEV_TYPE   .                                                KB :ELEVATION REFERENCE TYPE
~Curve Information Section
#MNEM       .UNIT                                      API CODE :CURVE DESCRIPTION
#------------------------------------------------------------------------------
DEPT        .FT                                                 :DEPTH     
ASN         .OHMM                                               :          
CALI        .IN                                                 :          
DT          .US/F                                               :          
GR          .GAPI                                               :          
GR_NORM     .GAPI                                               :GammaRay Normalized
ILD         .OHMM                                               :          
SP          .MV                                                 :          
SP_NORM     .MV                                                 :SP Normalized
VSH_GR      .V/V                                                :Volume of Shale from GR
VSH_SP      .V/V                                                :Volume of Shale from SP
~A        DEPTH            ASN           CALI             DT             GR        GR_NORM            ILD             SP        SP_NORM         VSH_GR         VSH_SP
# ...
     11062.5000           1.01         9.1242        95.6194         79.047       85.58092         0.9904       -81.9052        -6.1567              1       0.946709
     11063.0000         1.0097         9.1748        96.4573        78.0667       84.63927         0.9884       -81.9932        -6.2542              1      0.9454589
     11063.5000         1.0095          9.217         97.047         77.022       83.63587         0.9888       -82.1376        -6.4082              1      0.9434846
     11064.0000         1.0092          9.254         97.079        76.8112       83.43293         0.9887       -82.2235        -6.5037              1      0.9422603
     11064.5000         1.0087         9.2735        97.0396         75.726       82.39056         0.9855       -82.3097        -6.5994              1      0.9410333
     11065.0000          1.008         9.2769        96.5685        74.0917       80.82115         0.9824       -82.4354        -6.7347              1      0.9392987
     11065.5000         1.0082         9.3035        96.1058        73.7712       80.51289         0.9812       -82.5068        -6.8157              1      0.9382603
     11066.0000         1.0086         9.3347        95.5026        74.0966        80.8247         0.9815       -82.3795        -6.6979              1      0.9397705
     11066.5000         1.0092         9.3296        96.7152        74.9167       81.61143         0.9875        -81.924         -6.252              1      0.9454872
     11067.0000         1.0095         9.2367        96.4867        75.8546       82.51133         0.9904       -81.2798        -5.6174              1      0.9536231
     11067.5000         1.0048         9.1394        96.2373        76.6371       83.26196         0.9912       -80.7849         -5.132              1      0.9598461
     11068.0000         0.9953         9.0136        96.9376        76.6875       83.30976         0.9906        -80.552        -4.9087              1       0.962709
     11068.5000         0.9865         8.8662        97.1835        75.6349       82.29878         0.9894       -80.2937          -4.66              1      0.9658974
     11069.0000         0.9797         8.8241        96.8811        74.5883       81.29347          0.988       -80.0007        -4.3766              1      0.9695308
     11069.5000         0.9762         8.8096        97.7939        74.2672       80.98464         0.9834       -79.5876         -3.973              1      0.9747051
     11070.0000         0.9874         8.9028        99.3372        73.7236       80.46231         0.9789       -78.8206        -3.2156              1      0.9844154
     11070.5000         0.9986         9.0223        99.7863        73.9907       80.71814         0.9764       -78.5314         -2.936              1          0.988
     11071.0000         1.0041         9.0696        99.2069        74.8867       81.57773         0.9752       -79.1218        -3.5359              1      0.9803089
     11071.5000         1.0037         9.0527        98.0103        75.0132       81.69868         0.9751       -79.6107        -4.0344              1       0.973918
     11072.0000         1.0013          8.984        97.6545         75.637       82.29696         0.9771       -79.8524        -4.2857              1      0.9706962
     11072.5000         0.9962         8.9389        97.1637         76.828       83.43974          0.979       -80.0253        -4.4681              1      0.9683577
     11073.0000         0.9933         8.9945        97.4653        77.8806       84.44976         0.9844       -80.1306         -4.583              1      0.9668846
     11073.5000         0.9958          9.072        97.7374        78.6721       85.20902           0.99        -80.084         -4.546              1      0.9673589
     11074.0000         0.9994         9.1444         98.082        79.3962       85.90359         0.9948       -79.9396        -4.4111              1      0.9690884
     11074.5000         1.0009         9.2129        98.2467         78.951       85.47562          0.999       -79.7365        -4.2176              1      0.9715692
     11075.0000         1.0023          9.253        97.6294        77.2336       83.82643         1.0005       -79.5289        -4.0196              1      0.9741077
     11075.5000         1.0107         9.2341        96.8406        75.3263       81.99485         1.0023       -79.3224        -3.8227              1      0.9766321
     11076.0000         1.0252         9.1128         95.811        74.4478       81.15092         1.0153       -79.1251        -3.6349              1      0.9790397
     11076.5000         1.0393         8.9498        95.0382        75.4846       82.14576         1.0183       -79.1805        -3.6999              1      0.9782064
     11077.0000         1.0438         8.8672        95.3269        77.1149       83.71027         1.0183       -79.3342        -3.8645              1      0.9760962
     11077.5000         1.0308           8.87        96.3025        77.9865       84.54643         1.0154       -79.4364        -3.9954              1      0.9744179
     11078.0000         1.0148         8.9241        98.5262        78.4169       84.95914         1.0124       -79.3794        -3.9671              1      0.9747808
     11078.5000         1.0014         9.0235        99.8359        78.3766       84.91987         1.0093       -79.6348        -4.2512              1      0.9711385
     11079.0000         0.9928         9.1087        99.5706         77.943       84.50304          1.006       -79.7921        -4.4372              1      0.9687539
     11079.5000          0.987         9.1698        98.7375        77.6401       84.21177         0.9982       -79.9391        -4.6129              1      0.9665013
     11080.0000         0.9828         9.1842         98.036        77.5699       84.14381         0.9904       -79.9777        -4.6803              1      0.9656371
     11080.5000         0.9797         9.1552         98.428        75.9238       82.56297         0.9857       -80.0164        -4.7477              1      0.9647731
     11081.0000         0.9794         9.1381        99.4231        75.9648       82.60176         0.9829       -79.9772        -4.7372              1      0.9649077
     11081.5000          0.982         9.1392       100.3556        76.3329       82.95466         0.9806       -79.8547        -4.6434              1      0.9661102
     11082.0000         0.9887         9.1524         98.364        76.4402       83.05709         0.9827       -79.6945        -4.5119              1      0.9677961
     11082.5000         0.9898         9.1663        96.8898        75.7585       82.40208         0.9848       -79.4615        -4.3076              1      0.9704154
     11083.0000         0.9831          9.168        97.7198        74.8693       81.54797         0.9856       -79.1262         -4.001              1      0.9743462
     11083.5000         0.9846         9.1632         98.993         74.744        81.4271         0.9861       -79.0793        -3.9828              1      0.9745795
     11084.0000         0.9884         9.1569       101.0792        75.4104       82.06628         0.9857       -79.0187        -3.9509              1      0.9749885
     11084.5000         0.9825         9.1722       101.8575        76.0227        82.6536         0.9845       -78.8419        -3.8028              1      0.9768872
     11085.0000         0.9739         9.2059       101.6296        75.9778       82.60992         0.9832       -78.4297        -3.4193              1      0.9818038
     11085.5000         0.9683          9.223       100.3986        75.5667       82.21468         0.9847        -78.007        -3.0253              1      0.9868551
     11086.0000         0.9767         9.1962        98.5828        75.0289       81.69791         0.9864       -78.1039        -3.1509              1      0.9852449
     11086.5000         0.9886         9.1873        98.3075        74.9484       81.62006         0.9878        -78.327        -3.4028              1      0.9820154
