#------------------------------------------------------------------------------
# Created by    : vladimir.rabinovich
# Created on    : 09/19/2023 17:20:44
#------------------------------------------------------------------------------
~Version Information Section
VERS.           2.0     :   CWLS log ASCII Standard - VERSION 2.0
WRAP.           NO      :   One line per depth step
~Well Information Section
#MNEM       .UNIT                                         VALUE :DESCRIPTION
#------------------------------------------------------------------------------
STRT        .FT                                            2904 :START DEPTH
STOP        .FT                                           14016 :STOP DEPTH
STEP        .FT                                             0.5 :STEP      
NULL        .                                           -999.25 :NULL      
COMP        .                                          MCN CORP :COMPANY   
WELL        .                                OCS 00043 ST00BP00 :WELL      
FLD         .                          EUGENE ISLAND BLOCK 0089 :FIELD     
LOC         .                                                   :LOCATION  
CNTY        .                                     EUGENE ISLAND :LOCATION  
STAT        .                                         LOUISIANA :STATE     
CTRY        .                                     UNITED STATES :COUNTRY   
SRVC        .                                                   :SERVICE COMPANY
DATE        .                             9/13/2023 11:18:42 AM :LOG DATE  
API         .                                    17709009460000 :API NUMBER
UWI         .                                    17709009460000 :UNIQUE WELL ID
XCOORD      .                                  2058690.32320654 :SURFACE X 
YCOORD      .                                  10563305.2032801 :SURFACE Y 
LAT         .                                        29.1009424 :LATITUDE  
LON         .                                       -91.6898776 :LONGITUDE 
ELEV        .FT                                              49 :ELEVATION VALUE
ELEV_TYPE   .                                                KB :ELEVATION REFERENCE TYPE
~Curve Information Section
#MNEM       .UNIT                                      API CODE :CURVE DESCRIPTION
#------------------------------------------------------------------------------
DEPT        .FT                                                 :DEPTH     
ASN         .OHMM                                               :          
CALI        .IN                                                 :          
DT          .US/F                                               :          
GR          .GAPI                                               :          
GR_NORM     .GAPI                                               :GammaRay Normalized
ILD         .OHMM                                               :          
SP          .MV                                                 :          
SP_NORM     .MV                                                 :SP Normalized
VSH_GR      .V/V                                                :Volume of Shale from GR
VSH_SP      .V/V                                                :Volume of Shale from SP
~A        DEPTH            ASN           CALI             DT             GR        GR_NORM            ILD             SP        SP_NORM         VSH_GR         VSH_SP
# ...
      8147.0000         0.5335        12.0277        115.996        83.7792       77.97744         0.4111      -124.6586        -1.5177      0.9569668              1
      8147.5000         0.5614        12.0099       112.8979        84.3123       78.48816         0.4148      -125.2672        -2.1275      0.9678332       0.998125
      8148.0000         0.5968        11.9715       110.7063        82.0337       76.29955         0.4099       -126.527        -3.3886      0.9212671      0.9795794
      8148.5000         0.6299        11.9104       107.4703        79.7271       74.08416         0.3999      -128.3584        -5.2213      0.8741311       0.952628
      8149.0000         0.6609         11.874       107.5461        77.4044       71.85322         0.3881      -131.0259        -7.8901      0.8266642      0.9133809
      8149.5000         0.6819        11.8627       108.7041        76.4579       70.94342         0.3846      -136.7234       -13.5889      0.8073068       0.829575
      8150.0000         0.6857        11.8551       109.7483        76.7509       71.22365         0.3709      -142.0142        -18.881      0.8132691        0.75175
      8150.5000         0.6658        11.8551        110.678        78.8643       73.25136         0.3554      -146.6091       -23.4771      0.8564119      0.6841603
      8151.0000         0.6523        11.8459       111.3041         81.641       75.91594         0.3391      -150.3423       -27.2116      0.9131051      0.6292412
      8151.5000         0.6298        11.8408       111.7375        84.3226       78.48912         0.3252      -153.1577       -30.0283      0.9678536      0.5878191
      8152.0000         0.6081         11.841        112.021        85.9034       80.00564         0.3196      -154.6433       -31.5152              1       0.565953
      8152.5000          0.592         11.842       111.8551        85.0922       79.22573         0.3247      -155.2278        -32.101      0.9835262      0.5573382
      8153.0000         0.5854        11.8385         110.96        83.3586       77.56042         0.3495       -155.866       -32.7405       0.948094      0.5479338
      8153.5000         0.5833        11.8295       110.0493        82.7577        76.9824         0.3764      -156.4802       -33.3559      0.9357957      0.5388838
      8154.0000         0.5912          11.82       109.7748        83.5868       77.77728         0.4178      -154.5007       -31.3777       0.952708       0.567975
      8154.5000         0.6067         11.817        109.599        84.2443       78.40733         0.4669      -152.4326       -29.3109      0.9661133      0.5983691
      8155.0000         0.6149        11.8211       108.9769        84.1208       78.28761         0.5071      -151.1423       -28.0219      0.9635662       0.617325
      8155.5000         0.6155        11.8278       108.4148         83.441       77.63395         0.4775      -152.3735       -29.2544      0.9496585         0.5992
      8156.0000         0.6073        11.8448       107.8447        81.6251       75.88953         0.4281      -155.5701       -32.4523      0.9125433      0.5521721
      8156.5000         0.5814        11.8551       108.9972        78.1602       72.56218         0.3812      -158.8369       -35.7204      0.8417485      0.5041118
      8157.0000         0.5274         11.863       112.7404         76.859       71.31187         0.3262      -161.7969       -38.6816      0.8151463      0.4605647
      8157.5000         0.4518        11.8706         115.73         73.144       67.74442         0.2903      -164.6272       -41.5132      0.7392429      0.4189236
      8158.0000         0.3613        11.8784       117.7518        64.0679       59.03021         0.2674       -167.905       -44.7923      0.5538342      0.3707015
      8158.5000         0.2995        11.8856       118.8187        57.3481       52.57814         0.2626      -174.8459       -51.7345      0.4165563      0.2686103
      8159.0000         0.2627         11.894       118.9136        50.9496       46.43443         0.2607      -187.6768       -64.5667       0.285839     0.07990141
      8159.5000         0.2448        11.8976       118.3096        48.5873       44.16557         0.2606      -196.4524       -73.3436      0.2375652              0
      8160.0000         0.2355        11.8951       117.6921        46.6176       42.27351         0.2605      -192.6787       -69.5711      0.1973086    0.006307377
      8160.5000         0.2284        11.8947       117.3046        47.6354       43.24944         0.2503      -187.7063          -64.6      0.2180732     0.07941179
      8161.0000         0.2218        11.8975       117.4077        48.6373       44.21021         0.2383      -186.0645       -62.9595      0.2385151      0.1035368
      8161.5000         0.2169        11.9053       117.8137        46.1542       41.82528         0.2275      -186.8442       -63.7405      0.1877719     0.09205145
      8162.0000         0.2129        11.9175       117.9006        42.3008       38.12496         0.2176      -185.7454        -62.643      0.1090417      0.1081912
      8162.5000         0.2088        11.9313       117.0082        39.3662       35.30659         0.2128        -181.72       -58.6189      0.0490764      0.1673691
      8163.0000         0.2042        11.9468        116.495        36.9484       32.98445         0.2127      -180.7751       -57.6752              0       0.181247
      8163.5000         0.2021        11.9666       116.6967        37.3148       33.33504         0.2118      -180.4233       -57.3247    0.007128452      0.1864015
      8164.0000         0.2001        11.9846       117.5339        39.2513       35.19302         0.2102      -179.5454       -56.4481     0.04666008      0.1992926
      8164.5000         0.1988        12.0006       118.4426          40.59       36.47702         0.2086      -178.8711       -55.7751     0.07397924      0.2091897
      8165.0000          0.197        12.0134       119.1998        41.5385       37.38653         0.2083      -178.9739       -55.8792     0.09333038      0.2076588
      8165.5000         0.1942        12.0191       119.5647        42.0929        37.9176         0.2082      -179.8774        -56.784      0.1046298      0.1943529
      8166.0000         0.1919        12.0217       119.5828        42.6533       38.45453          0.211      -180.6582        -57.566      0.1160538      0.1828529
      8166.5000         0.1908        11.9726       119.0964         43.681       39.43997         0.2189      -180.0737       -56.9828      0.1370206      0.1914294
      8167.0000           0.19        11.9601       118.2529        44.7389        40.4544         0.2267      -180.4529       -57.3633      0.1586042      0.1858338
      8167.5000         0.1908        11.9542       117.3997        44.3879       40.11638         0.2339      -181.4592       -58.3709      0.1514124      0.1710162
      8168.0000         0.1917        11.9722        117.028        44.0627       39.80304         0.2411      -183.0889       -60.0019      0.1447455      0.1470309
      8168.5000         0.1917        12.0077       117.5265        45.2097        40.9031         0.2467      -184.6077        -61.522      0.1681511      0.1246765
      8169.0000         0.1906        12.0402       118.3354         46.481        42.1224         0.2466      -185.9082       -62.8238      0.1940936      0.1055324
      8169.5000         0.1899          12.06       119.0742         46.576       42.21254         0.2465      -186.7537       -63.6705      0.1960116     0.09308086
      8170.0000          0.191        12.0653       120.0919        46.0102       41.66822         0.2433      -185.7676       -62.6857      0.1844303      0.1075632
      8170.5000         0.1923        12.0646       120.4281        45.5305       41.20665         0.2381      -183.0334       -59.9528      0.1746096      0.1477529
      8171.0000         0.1981        12.0343       120.8923        45.4671       41.14464         0.2335      -179.9775       -56.8982      0.1732903      0.1926735
