#------------------------------------------------------------------------------
# Created by    : vladimir.rabinovich
# Created on    : 09/19/2023 17:19:27
#------------------------------------------------------------------------------
~Version Information Section
VERS.           2.0     :   CWLS log ASCII Standard - VERSION 2.0
WRAP.           NO      :   One line per depth step
~Well Information Section
#MNEM       .UNIT                                         VALUE :DESCRIPTION
#------------------------------------------------------------------------------
STRT        .FT                                          4322.5 :START DEPTH
STOP        .FT                                            9954 :STOP DEPTH
STEP        .FT                                             0.5 :STEP      
NULL        .                                           -999.25 :NULL      
COMP        .                                ATP OIL & GAS CORP :COMPANY   
WELL        .                               OCS G13829 ST00BP00 :WELL      
FLD         .                           WEST CAMERON BLOCK 0092 :FIELD     
LOC         .                                                   :LOCATION  
CNTY        .                                      WEST CAMERON :LOCATION  
STAT        .                                         LOUISIANA :STATE     
CTRY        .                                     UNITED STATES :COUNTRY   
SRVC        .                                                   :SERVICE COMPANY
DATE        .                             9/13/2023 11:19:21 AM :LOG DATE  
API         .                                    17700409910000 :API NUMBER
UWI         .                                    17700409910000 :UNIQUE WELL ID
XCOORD      .                                  1447604.75856055 :SURFACE X 
YCOORD      .                                  10719416.1500606 :SURFACE Y 
LAT         .                                        29.5354331 :LATITUDE  
LON         .                                       -93.6065144 :LONGITUDE 
ELEV        .FT                                              97 :ELEVATION VALUE
ELEV_TYPE   .                                                KB :ELEVATION REFERENCE TYPE
~Curve Information Section
#MNEM       .UNIT                                      API CODE :CURVE DESCRIPTION
#------------------------------------------------------------------------------
DEPT        .FT                                                 :DEPTH     
AFCO        .MMHO                                               :          
AT10        .OHMM                                               :          
AT20        .OHMM                                               :          
AT30        .OHMM                                               :          
AT60        .OHMM                                               :          
AT90        .OHMM                                               :          
CSAX        .MMHO                                               :          
DCAL        .IN                                                 :          
DPHZ        .%                                                  :          
GR          .GAPI                                               :          
GR_NORM     .GAPI                                               :GammaRay Normalized
GRAX        .GAPI                                               :          
HDRA        .G/C3                                               :          
NPOR        .%                                                  :          
ROPS        .FT/HR                                              :          
RSAX        .OHMM                                               :          
RWA         .OHMM                                               :          
SP          .MV                                                 :          
SP_NORM     .MV                                                 :SP Normalized
TENS        .LBF                                                :          
VSH_SP      .V/V                                                :Volume of Shale from SP
~A        DEPTH           AFCO           AT10           AT20           AT30           AT60           AT90           CSAX           DCAL           DPHZ             GR        GR_NORM           GRAX           HDRA           NPOR           ROPS           RSAX            RWA             SP        SP_NORM           TENS         VSH_SP
# ...
      9222.5000       4503.781         0.2945         0.2231         0.2173         0.2339         0.2179       2222.219          0.017          30.42        30.5259        28.9442         52.418        -0.0001          28.09        110.746           0.45         0.0263      -107.5625       -98.9074           3341              0
      9223.0000        4313.32         0.3255         0.2477         0.2339         0.2476         0.2321       1538.461        -0.0073          30.89        29.6795        28.3078         65.757        -0.0009          28.54        110.746           0.65         0.0285      -104.8125       -96.1639           3351              0
      9223.5000       4170.086         0.3135         0.2651         0.2444         0.2511         0.2383         1424.5         0.0048        30.7299        39.6364        35.7739        72.0559        -0.0006        30.3099        40.7339          0.702         0.0295          -98.5       -89.8579           3344     0.05529137
      9224.0000       4005.648          0.332         0.2576         0.2589         0.2628         0.2515       1727.115        -0.0073          29.74         44.063        39.0922         77.799         0.0005          29.97        40.7339          0.579         0.0289       -93.9375       -85.3019           3358      0.1042806
      9224.5000       3850.563         0.3984          0.288          0.284         0.2835         0.2738       2392.344        -0.0073          28.26        50.0016        43.5446         76.626         0.0022        29.2499         29.274          0.418         0.0272       -96.3125       -87.6835           3328     0.07867202
      9225.0000       3706.047         0.4949         0.3507         0.3255          0.319         0.3115       1949.316         0.0412        26.9799        43.9958        39.0386         48.713         0.0037        27.0099         29.274          0.513         0.0258        -95.625       -87.0025           3350     0.08599459
      9225.5000       3544.418         0.4556         0.3299         0.3075          0.296         0.2927       1805.053         0.0412          26.75        43.1921        38.4342         43.525         0.0031          26.18        81.3799          0.554         0.0268       -95.4375       -86.8215           3345     0.08794083
      9226.0000       3363.148         0.3895          0.293         0.2802           0.27         0.2686       1949.316         0.0412        27.2499        40.6418        36.5199         38.276          0.002        28.6599        81.3799          0.513         0.0296        -92.375       -83.7655           3322       0.120801
      9226.5000       3137.742         0.4315         0.3035         0.2888         0.2729         0.2726       1587.301         0.0412        28.0599        45.2718        39.9908         33.151         0.0001           30.2         58.062           0.63          0.034         -88.25        -79.647           3297       0.165086
      9227.0000       2854.895         0.5961         0.3842         0.3604         0.3352         0.3367       2386.633         0.0412        27.2599        49.7831        43.3727          32.78         0.0011          23.49         58.062          0.419         0.0355         -82.25       -73.6536           3287      0.2295312
      9227.5000       2506.664         0.8657         0.5118         0.4626         0.4278         0.4315        2087.68         0.0897           24.6        61.7176        52.3219         30.372         0.0122          21.41          24.27          0.479         0.0323        -73.125       -64.5351           3272      0.3275795
      9228.0000        2231.82         1.0397         0.5486         0.5071         0.4553         0.4559       2262.441         0.0897          20.65        70.8939        59.2026         33.892         0.0298        25.5999          24.27          0.442         0.0249       -61.8125       -53.2291           3272      0.4491495
      9228.5000        2089.41         1.1016         0.5615         0.5304         0.4737         0.4709       2320.184          0.114          18.11        79.0967        65.3531         30.186         0.0453          25.55        67.4889          0.431           0.02       -59.4375       -50.8606           3256      0.4746172
      9229.0000       2062.676         1.0571         0.5828         0.5523         0.4892         0.4816       1785.713         0.1625          17.12        81.6071        67.2342         33.892         0.0576          27.61        67.4889           0.56         0.0178        -53.125       -44.5546           3267      0.5424237
      9229.5000        2161.98         0.8032         0.5454         0.5018         0.4395         0.4293       1976.283         0.5021          17.77        72.0221        60.0439         36.485         0.0675        32.4399        104.632          0.506         0.0182       -52.8125       -44.2487           3285      0.5457129
      9230.0000       2388.566         0.6427         0.4593         0.4372         0.3874         0.3748       1538.461         1.5208           20.4        61.2195        51.9403        49.0829         0.0644           28.4        104.632           0.65         0.0219       -67.9375       -59.3802           3272      0.3830086
      9230.5000       2699.035         0.5685         0.3809         0.3768         0.3418         0.3283       1798.561         0.9023          24.45        47.2679         41.475         63.534         0.0408          22.32        88.5969          0.556         0.0284        -89.625       -81.0742           3286      0.1497397
      9231.0000       3050.879         0.5237         0.3571         0.3376         0.3203         0.3061       1560.063         0.0655          28.26        43.1917        38.4163        87.6179         0.0118          23.78        88.5969          0.641         0.0341      -100.1875       -91.6432           3274     0.03609458
      9231.5000       3377.023         0.4386         0.3488         0.3121         0.3096         0.2937       1183.432         0.0897          29.36        37.6575         34.264           89.1        -0.0026          26.22         55.487          0.845         0.0333        -105.75       -97.2123           3274              0
      9232.0000       3687.969         0.3246         0.2885         0.2683         0.2699         0.2569       1034.125         0.1019          29.24        34.1752        31.6507         93.917        -0.0037        28.9399         55.487          0.967         0.0302      -107.5625       -99.0313           3325              0
      9232.5000       3964.801         0.2758         0.2332         0.2352         0.2354         0.2249       926.7832         0.0655        28.9099        31.9811        30.0035        92.4349         -0.003        29.8199         66.866          1.079         0.0274       -107.875       -99.3503           3316              0
      9233.0000       4136.031         0.2926         0.2291         0.2306         0.2287         0.2194       856.1641         0.0534          28.83        31.5271        29.6614         86.506        -0.0029        29.1899         66.866          1.168         0.0261      -106.6875       -98.1693           3286              0
      9233.5000       4081.418         0.3022         0.2578         0.2407         0.2388          0.229       879.5068         0.0655          28.93        30.3022        28.7411        84.4789         -0.003          29.17         50.126          1.137         0.0266       -104.125       -95.6133           3295              0
      9234.0000        3846.16         0.2781         0.2575         0.2476         0.2488         0.2391       946.9697          0.114          28.84        34.6615         32.009         84.839        -0.0017        27.3199         50.126          1.056         0.0281       -98.5625       -90.0574           3253      0.0531462
      9234.5000       3495.629         0.2659         0.2346         0.2641          0.266         0.2551       891.2656         0.1382        27.5099        48.7494        42.5733        88.7289         0.0103        25.2899         36.162          1.122         0.0278       -90.3125       -81.8139           3253       0.141786
