#------------------------------------------------------------------------------
# Created by    : vladimir.rabinovich
# Created on    : 09/19/2023 17:22:23
#------------------------------------------------------------------------------
~Version Information Section
VERS.           2.0     :   CWLS log ASCII Standard - VERSION 2.0
WRAP.           NO      :   One line per depth step
~Well Information Section
#MNEM       .UNIT                                         VALUE :DESCRIPTION
#------------------------------------------------------------------------------
STRT        .FT                                            4000 :START DEPTH
STOP        .FT                                           10100 :STOP DEPTH
STEP        .FT                                             0.5 :STEP      
NULL        .                                           -999.25 :NULL      
COMP        .                         TALOS ENERGY VENTURES LLC :COMPANY   
WELL        .                               OCS G13557 ST00BP00 :WELL      
FLD         .                           WEST CAMERON BLOCK 0118 :FIELD     
LOC         .                                                   :LOCATION  
CNTY        .                                      WEST CAMERON :LOCATION  
STAT        .                                         LOUISIANA :STATE     
CTRY        .                                     UNITED STATES :COUNTRY   
SRVC        .                                                   :SERVICE COMPANY
DATE        .                             9/13/2023 11:19:21 AM :LOG DATE  
API         .                                    17700409600000 :API NUMBER
UWI         .                                    17700409600000 :UNIQUE WELL ID
XCOORD      .                                  1437367.94342701 :SURFACE X 
YCOORD      .                                  10730631.2479363 :SURFACE Y 
LAT         .                                         29.566133 :LATITUDE  
LON         .                                        -93.638908 :LONGITUDE 
ELEV        .FT                                              97 :ELEVATION VALUE
ELEV_TYPE   .                                                KB :ELEVATION REFERENCE TYPE
~Curve Information Section
#MNEM       .UNIT                                      API CODE :CURVE DESCRIPTION
#------------------------------------------------------------------------------
DEPT        .FT                                                 :DEPTH     
CALX        .IN                                                 :          
CNC         .%                                                  :          
CSAX        .MMHO                                               :          
GR          .API                                                :          
GR_NORM     .GAPI                                               :GammaRay Normalized
GRAX        .GAPI                                               :          
PORZ        .%                                                  :          
RIPD        .OHMM                                               :          
RIPM        .OHMM                                               :          
ROPS        .M/MIN                                              :          
RSAX        .OHMM                                               :          
RSFL        .OHMM                                               :          
RSTX        .MINS                                               :          
RWAZ        .OHMM                                               :          
SP          .MV                                                 :          
SP_NORM     .MV                                                 :SP Normalized
TEN         .LBF                                                :          
VSH_GR      .V/V                                                :Volume of Shale from GR
VSH_SP      .V/V                                                :Volume of Shale from SP
ZCOR        .G/C3                                               :          
~A        DEPTH           CALX            CNC           CSAX             GR        GR_NORM           GRAX           PORZ           RIPD           RIPM           ROPS           RSAX           RSFL           RSTX           RWAZ             SP        SP_NORM            TEN         VSH_GR         VSH_SP           ZCOR
# ...
      9265.0000         10.789        38.7079       1918.662         83.776        84.9439          89.97         20.903          0.512          0.507          29.22          0.522          0.625           81.5          0.029          2.047        -4.8376        71.8329              1      0.9582706          0.069
      9265.5000         10.988         40.658       1537.211         83.037       83.89411        100.073         20.498          0.516          0.522         28.856          0.653          0.632             83          0.028          4.293        -2.5651         19.837              1      0.9916897           0.07
      9266.0000         11.067         39.442       1300.896         82.985       83.82025        96.7839         20.149          0.509          0.531         28.856          0.769          0.646             81          0.026          5.498        -1.3337        -27.618              1              1          0.071
      9266.5000          11.08         37.743       1232.551         82.558       83.21366         96.168         19.923          0.521          0.541         28.856          0.811          0.637             82          0.026          6.199        -0.6063        -48.055              1              1          0.068
      9267.0000         11.079         38.639       1129.064         83.028       83.88131           89.5         19.713          0.531          0.553         28.856          0.886           0.62             81          0.026          6.651        -0.1278       -49.3019              1              1          0.063
      9267.5000         11.072         40.998       1363.924        84.6299       86.15692         87.151         19.025          0.552          0.559         45.338          0.733          0.619           82.5          0.025          7.017         0.2646        -43.132              1              1          0.063
      9268.0000         11.059         41.899        1327.49         85.402       87.25373         83.392         17.755          0.578          0.564         45.338          0.753          0.638             82          0.023          7.284          0.558        -41.062              1              1          0.069
      9268.5000         11.051         40.924       1403.141        85.0599       86.76776         85.271         16.698          0.585          0.583         45.338          0.715          0.662             83           0.02          7.412         0.7124        -48.941              1              1          0.074
      9269.0000         11.061         40.607       1386.195        84.8309       86.44244         90.802         16.443           0.59          0.597         45.338          0.722          0.683             83           0.02          7.369         0.6959        -60.488              1              1          0.074
      9269.5000         11.086         41.451       1430.557        84.4619       85.91826        91.3799         16.711          0.616          0.602         45.338            0.7          0.704           83.5          0.021          7.087         0.4403        -55.668              1              1          0.073
      9270.0000         11.109          41.11       1354.631         83.834        85.0263        90.9099         17.099          0.641           0.61         45.338          0.738          0.727             84          0.023          6.662         0.0417        -35.107              1              1          0.076
      9270.5000         11.113         39.465       1458.973         84.054       85.33881        93.2589          17.48          0.665          0.625         45.338          0.685          0.743             84          0.025          6.366        -0.2278        -31.045              1              1          0.083
      9271.0000         11.106         38.331       1514.336        84.7479       86.32452          91.85         17.817          0.674           0.68         45.338          0.661          0.738           83.5          0.027          6.342        -0.2254        -56.728              1              1          0.086
      9271.5000         11.106        38.0439       1464.084        85.2439       87.02912        100.146         17.874           0.69          0.717         45.338          0.683          0.723         83.886          0.027          6.443         -0.098       -85.4309              1              1          0.088
      9272.0000         11.115         36.975       1439.453         85.266       87.06053        99.1329         17.327          0.755          0.723         45.338          0.695          0.725           84.5          0.028           6.41        -0.1046        -96.194              1              1          0.092
      9272.5000         11.121         35.001       1455.703        83.7169       84.85994        97.3319         16.243          0.855          0.755         37.147          0.687          0.756             86          0.028          6.153        -0.3351       -91.3199              1              1          0.092
      9273.0000         11.128         32.856       1439.422         80.396       80.14243         97.802         15.191          0.893          0.786         37.147          0.695          0.816             85          0.025          5.896        -0.5657       -71.2579              1              1          0.087
      9273.5000         11.122         31.374       1395.938        77.2899       75.73001        93.4299         14.638          0.897           0.81         37.147          0.717          0.881        85.6869          0.023          5.816        -0.6193        -43.888      0.9091492              1          0.084
      9274.0000         11.077         31.022       1376.148        75.6819       73.44577        92.7899         14.477          0.893          0.821         37.147          0.727           0.91             86          0.023          5.844        -0.5648        -30.628      0.8605483              1          0.085
      9274.5000         11.001         31.358       1357.688        76.6849       74.87057        97.0189          14.39          0.901          0.824         37.147          0.737          0.904             87          0.023          5.834        -0.5484         -37.42      0.8908633              1           0.09
      9275.0000         10.939          31.75       1333.582         80.163       79.81142         96.392         14.386          0.922          0.834         37.147           0.75          0.896             87          0.023          5.788         -0.568        -41.192      0.9959878              1          0.096
      9275.5000         10.914         32.099       1344.555        83.4149       84.43093        97.0189         14.601           0.93          0.826         37.147          0.744          0.897             87          0.024           5.82        -0.5096        -27.831              1              1          0.096
      9276.0000         10.907        32.4789       1345.584        84.2369       85.59864        90.5969         14.916          0.888          0.768         37.147          0.743          0.896             87          0.024          6.034        -0.2691        -19.165              1              1          0.092
      9276.5000         10.894         32.467       1307.416          82.96       83.78473        91.0669         15.271          0.861          0.765         37.147          0.766          0.889             89          0.024          6.397         0.1203        -42.322              1              1          0.086
      9277.0000         10.853        32.0779       1252.865         81.418       81.59423       101.3409         15.735          0.846          0.765         37.147          0.799          0.865             88          0.026          6.706         0.4557        -81.449              1              1          0.078
      9277.5000           10.8         31.793       1266.264         81.063       81.08992        100.308         16.206          0.855          0.763         30.513           0.79          0.827             91          0.028          6.869         0.6452       -87.5609              1              1          0.077
