#------------------------------------------------------------------------------
# Created by    : vladimir.rabinovich
# Created on    : 09/19/2023 17:22:23
#------------------------------------------------------------------------------
~Version Information Section
VERS.           2.0     :   CWLS log ASCII Standard - VERSION 2.0
WRAP.           NO      :   One line per depth step
~Well Information Section
#MNEM       .UNIT                                         VALUE :DESCRIPTION
#------------------------------------------------------------------------------
STRT        .FT                                            4000 :START DEPTH
STOP        .FT                                           10100 :STOP DEPTH
STEP        .FT                                             0.5 :STEP      
NULL        .                                           -999.25 :NULL      
COMP        .                         TALOS ENERGY VENTURES LLC :COMPANY   
WELL        .                               OCS G13557 ST00BP00 :WELL      
FLD         .                           WEST CAMERON BLOCK 0118 :FIELD     
LOC         .                                                   :LOCATION  
CNTY        .                                      WEST CAMERON :LOCATION  
STAT        .                                         LOUISIANA :STATE     
CTRY        .                                     UNITED STATES :COUNTRY   
SRVC        .                                                   :SERVICE COMPANY
DATE        .                             9/13/2023 11:19:21 AM :LOG DATE  
API         .                                    17700409600000 :API NUMBER
UWI         .                                    17700409600000 :UNIQUE WELL ID
XCOORD      .                                  1437367.94342701 :SURFACE X 
YCOORD      .                                  10730631.2479363 :SURFACE Y 
LAT         .                                         29.566133 :LATITUDE  
LON         .                                        -93.638908 :LONGITUDE 
ELEV        .FT                                              97 :ELEVATION VALUE
ELEV_TYPE   .                                                KB :ELEVATION REFERENCE TYPE
~Curve Information Section
#MNEM       .UNIT                                      API CODE :CURVE DESCRIPTION
#------------------------------------------------------------------------------
DEPT        .FT                                                 :DEPTH     
CALX        .IN                                                 :          
CNC         .%                                                  :          
CSAX        .MMHO                                               :          
GR          .API                                                :          
GR_NORM     .GAPI                                               :GammaRay Normalized
GRAX        .GAPI                                               :          
PORZ        .%                                                  :          
RIPD        .OHMM                                               :          
RIPM        .OHMM                                               :          
ROPS        .M/MIN                                              :          
RSAX        .OHMM                                               :          
RSFL        .OHMM                                               :          
RSTX        .MINS                                               :          
RWAZ        .OHMM                                               :          
SP          .MV                                                 :          
SP_NORM     .MV                                                 :SP Normalized
TEN         .LBF                                                :          
VSH_GR      .V/V                                                :Volume of Shale from GR
VSH_SP      .V/V                                                :Volume of Shale from SP
ZCOR        .G/C3                                               :          
~A        DEPTH           CALX            CNC           CSAX             GR        GR_NORM           GRAX           PORZ           RIPD           RIPM           ROPS           RSAX           RSFL           RSTX           RWAZ             SP        SP_NORM            TEN         VSH_GR         VSH_SP           ZCOR
# ...
      7640.0000         10.335         34.644       4323.703         48.105       37.22805         50.137         30.791          0.223          0.227         98.976          0.231          0.368             59          0.029       -72.1389       -72.2581        -20.198     0.08995844      0.1535168          0.027
      7640.5000         10.353         32.194       4264.617         48.012       37.11475         50.282         29.847          0.252           0.25        90.8689          0.235          0.428             59           0.03       -74.5339       -74.6542        -15.171     0.08754787      0.1246482           0.03
      7641.0000         10.355         28.643        4235.82        48.9709       38.26792        50.4269         27.049          0.282          0.295        90.8689          0.236          0.441             59          0.027       -76.0129       -76.1344        -14.922      0.1120834      0.1068145          0.042
      7641.5000         10.345          24.24       4448.508         49.717       39.16488         50.499         21.389          0.334          0.352        93.8259          0.226           0.39             59           0.02       -74.2059       -74.3286        -21.741      0.1311676      0.1285711          0.071
      7642.0000         10.346         19.803       4661.188         48.856       38.12693         54.683         13.846            0.4          0.407       112.5409          0.215          0.422             59          0.009       -70.0609       -70.1847        -29.969      0.1090837      0.1784976          0.091
      7642.5000         10.365         17.577       4782.688         46.421       35.19394         58.017          8.783          0.452          0.441       131.2549          0.209          0.688             59          0.004       -66.9089       -67.0339        -27.684     0.04667956      0.2164591          0.069
      7643.0000         10.371         18.037       4571.875         44.988       33.46732         57.957         10.788          0.512          0.444       131.2549          0.219          1.604             59          0.007        -66.449       -66.5752        -21.406    0.009942967      0.2219855          0.022
      7643.5000         10.365         20.756       4361.055         46.267       35.00587         57.897         17.709          0.591          0.449        85.1649           0.23          1.494             59          0.023       -65.7439       -65.8712        -28.233     0.04267818      0.2304675          0.026
      7644.0000         10.415         25.769       4264.492         50.239       39.78673         57.837         23.908          0.646          0.458         88.017          0.234          0.755             59          0.048        -60.062       -60.1905        -38.889      0.1443985      0.2989097           0.06
      7644.5000         10.506         33.495       4386.688         55.894       46.59386         57.776         26.496          0.609          0.447        90.8689          0.229           0.56          59.21          0.056        -50.644       -50.7737        -35.705      0.2892312       0.412365          0.063
      7645.0000         10.518         40.871       4508.883         61.821       53.72849        57.7159         25.869          0.545          0.421        90.8689          0.223          0.585        59.4189          0.048        -42.332       -42.4629        -28.027      0.4410316      0.5124952           0.05
      7645.5000         10.442         43.225        4631.07        67.9469       61.10257        57.6559         24.105          0.451          0.395        98.8979          0.217          0.638         59.629          0.034        -35.981        -36.113        -29.431      0.5979271          0.589          0.057
      7646.0000         10.383         43.246       4753.266         73.651       67.96883        57.5959         23.331            0.4          0.382        98.8979          0.211           0.59         59.838          0.028        -30.847       -30.9802        -34.358      0.7440176      0.6508409          0.072
      7646.5000         10.357         42.291       4847.656         75.496       70.18883         57.547         24.434          0.373          0.371         135.71          0.206          0.529             60          0.029        -30.559       -30.6934        -37.073      0.7912517      0.6542964          0.062
      7647.0000         10.306         38.413       4503.445        71.2479       65.07291         55.705         26.555           0.36          0.356         135.71          0.223          0.505             60          0.034         -38.33       -38.4655        -41.835      0.6824024      0.5606566          0.037
      7647.5000         10.234         34.072       4293.359        64.3979       56.82438         53.863         28.029          0.355          0.346        120.302          0.233          0.537             60          0.037        -51.287       -51.4237        -47.363      0.5069017      0.4045337          0.025
      7648.0000         10.183         32.601       4352.055         60.209       51.77974         53.318          28.05           0.35          0.346        120.302           0.23          0.653        56.6899          0.037       -62.0179       -62.1558        -45.852      0.3995689      0.2752313          0.026
      7648.5000         10.165         33.164       4410.742        59.4529       50.86809          54.34         27.588          0.327           0.35        91.1919          0.227          0.884         53.381          0.033       -66.3379       -66.4769        -39.503      0.3801722      0.2231699          0.027
      7649.0000          10.16         33.595       4469.438         57.897       48.99338         55.361          28.01          0.302          0.344         91.163          0.224          1.303         50.071          0.032       -68.1609       -68.3011        -38.808      0.3402847      0.2011915          0.023
      7649.5000         10.156         33.205       4470.695         54.034       44.34111         56.382         29.265          0.288          0.325        98.4409          0.224          1.975             50          0.033       -72.3929       -72.5343        -43.995      0.2413003      0.1501891           0.02
      7650.0000          10.16         31.833       3935.848         50.934       40.60748         57.404         30.313          0.276          0.301        98.4409          0.289          1.756        47.9709          0.034        -78.246       -78.3885        -45.761      0.1618613     0.07965667          0.019
      7650.5000         10.168         30.282       3400.996         49.483       38.85919         58.425         30.556          0.266          0.285         38.165          0.354          0.951         45.941          0.034        -82.568       -82.7117       -40.8849      0.1246636     0.02756988          0.024
      7651.0000         10.173         29.739       2866.141         48.431       37.59129         59.446         30.241          0.261          0.275         38.106          0.419          0.574         43.912          0.032        -84.704       -84.8489         -34.89     0.09768693    0.001820484          0.031
      7651.5000         10.172         29.959       2331.289         47.914       36.96751         60.467         29.871           0.25          0.268          83.23          0.484          0.421         41.883           0.03       -85.1799        -85.326        -33.626     0.08441503              0          0.031
      7652.0000         10.171         29.264       1835.088         47.417       36.36781         61.489         29.617          0.244          0.259          83.23          0.545          0.359             40          0.029       -84.8359       -84.9831        -36.037     0.07165544   0.0002036037           0.03
      7652.5000         10.175         27.913       1997.934         46.162        34.8555        62.5099         29.435          0.236          0.252          6.613           0.51          0.349         38.451          0.027       -84.9829       -85.1313        -38.249     0.03947871              0          0.032
