#------------------------------------------------------------------------------
# Created by    : vladimir.rabinovich
# Created on    : 09/19/2023 17:22:04
#------------------------------------------------------------------------------
~Version Information Section
VERS.           2.0     :   CWLS log ASCII Standard - VERSION 2.0
WRAP.           NO      :   One line per depth step
~Well Information Section
#MNEM       .UNIT                                         VALUE :DESCRIPTION
#------------------------------------------------------------------------------
STRT        .FT                                           911.5 :START DEPTH
STOP        .FT                                           12432 :STOP DEPTH
STEP        .FT                                             0.5 :STEP      
NULL        .                                           -999.25 :NULL      
COMP        .                                    EXXON CO U S A :COMPANY   
WELL        .                               OCS G03260 ST00BP00 :WELL      
FLD         .                                           WILDCAT :FIELD     
LOC         .                                                   :LOCATION  
CNTY        .                                      WEST CAMERON :LOCATION  
STAT        .                                         LOUISIANA :STATE     
CTRY        .                                     UNITED STATES :COUNTRY   
SRVC        .                                                   :SERVICE COMPANY
DATE        .                             9/13/2023 11:18:18 AM :LOG DATE  
API         .                                    17700402650000 :API NUMBER
UWI         .                                    17700402650000 :UNIQUE WELL ID
XCOORD      .                                  1465533.33943019 :SURFACE X 
YCOORD      .                                  10722576.3450242 :SURFACE Y 
LAT         .                                        29.5443718 :LATITUDE  
LON         .                                       -93.5501671 :LONGITUDE 
ELEV        .FT                                              99 :ELEVATION VALUE
ELEV_TYPE   .                                                KB :ELEVATION REFERENCE TYPE
~Curve Information Section
#MNEM       .UNIT                                      API CODE :CURVE DESCRIPTION
#------------------------------------------------------------------------------
DEPT        .FT                                                 :DEPTH     
CALI        .IN                                                 :          
DRHO        .G/CC                                               :          
GR          .GAPI                                               :          
GR_NORM     .GAPI                                               :GammaRay Normalized
ILD         .OHMM                                               :          
RHOB        .G/CC                                               :          
VSH_GR      .V/V                                                :Volume of Shale from GR
~A        DEPTH           CALI           DRHO             GR        GR_NORM            ILD           RHOB         VSH_GR
# ...
      5367.0000        13.1602         0.0438        21.8022       32.92849           0.29         2.1783              0
      5367.5000        13.1588         0.0567        21.5736       32.49095         0.2833         2.1875              0
      5368.0000        13.0909         0.0653        21.8528       33.02387         0.2758         2.1887   0.0005079229
      5368.5000        12.9745         0.0608        22.2226       33.73016         0.2682         2.1917      0.0155354
      5369.0000         12.977         0.0486        22.7444       34.72681         0.2607         2.1691     0.03674057
      5369.5000        12.9654          0.037         22.948       35.11541         0.2532         2.1655     0.04500872
      5370.0000        12.8731         0.0246        22.4799       34.21988         0.2525         2.1531     0.02595488
      5370.5000        12.7839         0.0424        21.4411       32.23368         0.2599         2.1767              0
      5371.0000        12.8064          0.065        20.5902       30.60663         0.2674         2.2041              0
      5371.5000        12.9902          0.077        20.0217       29.51918         0.2748         2.2018              0
      5372.0000        12.8816         0.0592        20.2713       29.99573         0.2822         2.1741              0
      5372.5000        12.7715         0.0343        21.1993        31.7688         0.2977         2.1413              0
      5373.0000        12.8387          0.029        22.1352       33.55718         0.3133         2.1511     0.01185486
      5373.5000         12.819         0.0503        22.5439       34.33781         0.3289         2.1675     0.02846413
      5374.0000        12.6696         0.0717        22.7096       34.65379         0.3445         2.1655     0.03518693
      5374.5000        12.6848         0.0318        22.7075       34.64919         0.3594         2.1142     0.03508921
      5375.0000        12.6901         0.0398        22.7853       34.79715         0.3477         2.1407     0.03823715
      5375.5000        12.7445         0.0438        23.0226       35.25017          0.336         2.1626     0.04787599
      5376.0000        12.8337         0.0383        23.4547       36.07553         0.3245         2.1562     0.06543691
      5376.5000         12.963         0.0591        24.5036       38.07972         0.3151         2.1402      0.1080791
      5377.0000        13.0899         0.0789        25.7829       40.52449         0.3057         2.1506      0.1600956
      5377.5000        13.1817         0.0888        27.0515       42.94863         0.2963         2.1472      0.2116729
      5378.0000        13.5454         0.0812        27.9275       44.62248         0.2869         2.1293      0.2472869
      5378.5000        13.3246         0.0201        28.6647       46.03085         0.2776         2.1189      0.2772521
      5379.0000        13.1539         0.0073        29.8782       48.34987         0.2903         2.1527       0.326593
      5379.5000        13.1484         0.0434        32.3842       53.13944         0.3039         2.1957      0.4284988
      5380.0000        12.9187         0.0615        36.0176        60.0838         0.3176         2.2061      0.5762511
      5380.5000        12.8797         0.0465        38.9855        65.7563         0.3312         2.2065      0.6969426
      5381.0000        12.9087         0.0664        41.7716       71.08106         0.3449         2.2615      0.8102354
      5381.5000        12.9412         0.0807        43.5458       74.47184         0.3657         2.2798      0.8823796
      5382.0000        12.9464         0.0852         43.222       73.85232         0.3911         2.2666      0.8691983
      5382.5000        12.9023         0.0845        40.6227       68.88306         0.4165         2.2551      0.7634693
      5383.0000        12.8304         0.0822        36.7261       61.43427         0.4419          2.245      0.6049845
      5383.5000        13.0259          0.078        32.8294       53.98506         0.4672         2.2343      0.4464907
      5384.0000        13.4515         0.0753        28.9328       46.53627         0.4926         2.2297      0.2880057
      5384.5000        13.6686         0.0794        26.2497       41.40682         0.4779         2.2306      0.1788685
      5385.0000        13.6044         0.0871        23.3008       35.76952         0.4476         2.2176     0.05892595
      5385.5000        13.2581         0.0958        21.7295       32.76544         0.4174         2.2056              0
      5386.0000        12.8818          0.081        20.9373       31.25042         0.3872          2.191              0
      5386.5000        12.8679         0.0606        20.3311        30.0911         0.3569         2.1473              0
      5387.0000        13.0193         0.0794        19.6214       28.73376         0.3267          2.174              0
      5387.5000        13.1407         0.0922        19.0063       27.55745         0.3096         2.1692              0
      5388.0000        13.1949         0.0926        18.9584       27.46531         0.2951         2.1726              0
      5388.5000        13.1795         0.0753        19.2132       27.95159         0.2806         2.1586              0
      5389.0000        13.1404         0.0644        19.4114       28.32988         0.2661         2.1612              0
      5389.5000        13.0903         0.0605        19.7205       28.91995         0.2516         2.1711              0
      5390.0000        13.0334         0.0561        20.7195       30.82893         0.2371         2.1973              0
      5390.5000        12.9908         0.0504        21.8671       33.02197         0.2226         2.2446   0.0004674222
      5391.0000        12.8639         0.0443        23.4708       36.08662         0.2394         2.3011     0.06567269
      5391.5000        12.6917         0.0416        26.0773        41.0683         0.2642         2.3866      0.1716659
      5392.0000         12.823         0.0696        28.7628       46.20078         0.2888         2.4474      0.2808676
      5392.5000        12.8545         0.0869        31.0223       50.51918         0.3136         2.4333      0.3727486
      5393.0000        12.8391         0.0933         32.894       54.09612         0.3382         2.3767      0.4488536
      5393.5000        12.8163         0.0983        34.1327       56.46329         0.4039         2.3649      0.4992189
      5394.0000        12.7892         0.1025        34.5222       57.20723          0.503         2.3657      0.5150474
      5394.5000        12.7536         0.0759        33.6049       55.45307         0.6022         2.3292      0.4777249
      5395.0000        12.7743         0.0548          33.21       54.69767         0.7015         2.3247      0.4616525
      5395.5000        12.8277         0.0674        34.4462       57.05986         0.7687         2.3248       0.511912
      5396.0000        12.9334         0.0647        35.3384       58.76471         0.8164         2.3096      0.5481854
      5396.5000        13.0982          0.055        35.0309       58.17637         0.8442         2.2947      0.5356674
      5397.0000        12.7372         0.0491        33.9675       56.14292          0.796          2.283      0.4924025
      5397.5000        12.5623         0.0573        32.5458       53.42481         0.7478         2.2954      0.4345704
      5398.0000        12.7284         0.0834        31.0331       50.53258         0.7162         2.2999      0.3730336
      5398.5000        12.9333         0.0786        30.2869       49.10567         0.6847         2.2602      0.3426738
      5399.0000        13.0443         0.0807        29.5138       47.62713         0.6532         2.2269      0.3112155
      5399.5000        13.1539         0.0886        28.3571       45.41556         0.6216         2.2156      0.2641609
      5400.0000         13.383         0.0767        27.2358       43.27166         0.5901         2.1976      0.2185459
