#------------------------------------------------------------------------------
# Created by    : vladimir.rabinovich
# Created on    : 09/19/2023 17:22:04
#------------------------------------------------------------------------------
~Version Information Section
VERS.           2.0     :   CWLS log ASCII Standard - VERSION 2.0
WRAP.           NO      :   One line per depth step
~Well Information Section
#MNEM       .UNIT                                         VALUE :DESCRIPTION
#------------------------------------------------------------------------------
STRT        .FT                                           911.5 :START DEPTH
STOP        .FT                                           12432 :STOP DEPTH
STEP        .FT                                             0.5 :STEP      
NULL        .                                           -999.25 :NULL      
COMP        .                                    EXXON CO U S A :COMPANY   
WELL        .                               OCS G03260 ST00BP00 :WELL      
FLD         .                                           WILDCAT :FIELD     
LOC         .                                                   :LOCATION  
CNTY        .                                      WEST CAMERON :LOCATION  
STAT        .                                         LOUISIANA :STATE     
CTRY        .                                     UNITED STATES :COUNTRY   
SRVC        .                                                   :SERVICE COMPANY
DATE        .                             9/13/2023 11:18:18 AM :LOG DATE  
API         .                                    17700402650000 :API NUMBER
UWI         .                                    17700402650000 :UNIQUE WELL ID
XCOORD      .                                  1465533.33943019 :SURFACE X 
YCOORD      .                                  10722576.3450242 :SURFACE Y 
LAT         .                                        29.5443718 :LATITUDE  
LON         .                                       -93.5501671 :LONGITUDE 
ELEV        .FT                                              99 :ELEVATION VALUE
ELEV_TYPE   .                                                KB :ELEVATION REFERENCE TYPE
~Curve Information Section
#MNEM       .UNIT                                      API CODE :CURVE DESCRIPTION
#------------------------------------------------------------------------------
DEPT        .FT                                                 :DEPTH     
CALI        .IN                                                 :          
DRHO        .G/CC                                               :          
GR          .GAPI                                               :          
GR_NORM     .GAPI                                               :GammaRay Normalized
ILD         .OHMM                                               :          
RHOB        .G/CC                                               :          
VSH_GR      .V/V                                                :Volume of Shale from GR
~A        DEPTH           CALI           DRHO             GR        GR_NORM            ILD           RHOB         VSH_GR
# ...
      8181.0000        13.1404         0.1091        45.1953       69.09042          0.796         2.4022      0.7678812
      8181.5000        13.2188         0.1022        44.6501       68.16347         0.8144         2.4132      0.7481589
      8182.0000        13.4431         0.0889        44.9288       68.63639         0.8328         2.4199      0.7582211
      8182.5000        13.4992         0.0783        46.2437       70.87026          0.845          2.417      0.8057503
      8183.0000        13.4077         0.0756        47.6798        73.3101         0.8481          2.415      0.8576618
      8183.5000        13.3365         0.0733        49.1353       75.78275         0.8511         2.3993      0.9102712
      8184.0000        12.7029         0.0629        50.7011       78.44297         0.8542         2.3597      0.9668717
      8184.5000        12.4882         0.0457         52.309        81.1746         0.8572         2.3305              1
      8185.0000        12.3822         0.0511        53.1316       82.57192          0.855         2.3132              1
      8185.5000         12.339         0.0734        52.2742       81.11445         0.8451         2.3337              1
      8186.0000         12.338         0.0754         51.155       79.21191         0.8352         2.3404      0.9832321
      8186.5000        12.4112         0.0833        50.5579       78.19675         0.8254         2.3702      0.9616329
      8187.0000        12.5972         0.0819        50.8164       78.63533         0.8155          2.391      0.9709645
      8187.5000        12.7903         0.0704        50.8563       78.70264         0.8056         2.4018      0.9723966
      8188.0000         12.872         0.0688        49.8834       77.04871         0.7957         2.4179      0.9372065
      8188.5000        12.6539         0.0653        48.5925       74.85458         0.7858         2.4222      0.8905229
      8189.0000        12.5505          0.058        47.7663       73.45013         0.7639         2.4276       0.860641
      8189.5000         12.516         0.0622        47.4094       72.84296         0.7406         2.4192      0.8477225
      8190.0000        12.4969         0.0716        47.6978       73.33253         0.7173         2.4392      0.8581389
      8190.5000        12.4743         0.0782        47.6978       73.33187          0.694         2.4308      0.8581249
      8191.0000        12.4712         0.0497        47.0602       72.24789         0.6706         2.4274      0.8350614
      8191.5000        12.4541          0.043        46.4016        71.1282         0.6519         2.3988      0.8112384
      8192.0000        12.4417         0.0646        46.2695       70.90305         0.6332         2.4035      0.8064479
      8192.5000        12.5323           0.06        46.2878       70.93365         0.6145         2.4077      0.8070989
      8193.0000        12.5343         0.0649        46.0845        70.5875         0.5958         2.3938      0.7997341
      8193.5000        12.3983         0.0768         46.395       71.11462          0.577         2.3947      0.8109493
      8194.0000        12.4456           0.08        47.1448       72.38824         0.5591           2.39      0.8380476
      8194.5000        12.3792         0.0757        47.4009       72.82274         0.5479         2.3762      0.8472923
      8195.0000        12.3789         0.0706        46.5967       71.45568         0.5368         2.3607       0.818206
      8195.5000        12.4023         0.0727        44.9299        68.6226         0.5256         2.3567      0.7579278
      8196.0000        12.4068         0.0926        43.6418       66.43324         0.5144         2.3737      0.7113456
      8196.5000        12.3869         0.0784        43.7615       66.63596         0.5033         2.3726      0.7156586
      8197.0000        12.3669         0.0563        44.6501       68.14545         0.4921         2.3235      0.7477754
      8197.5000        12.3472         0.0419        45.6132       69.78152         0.4809         2.3007      0.7825856
      8198.0000        12.3222         0.0524        46.5294       71.33775         0.4699         2.3246      0.8156967
      8198.5000        12.3074         0.0523        47.2703       72.59624          0.482         2.3385      0.8424731
      8199.0000        12.3107         0.0642        47.8401       73.56382          0.494         2.3491        0.86306
      8199.5000        12.3033         0.0622        47.7795       73.46033         0.5061           2.36       0.860858
      8200.0000        12.2896         0.0579         47.113       72.32707         0.5182         2.3579      0.8367462
      8200.5000        12.3082         0.0522        45.9603       70.36777         0.5302         2.3601      0.7950589
      8201.0000        12.3316         0.0473        44.9768       68.69602         0.5427         2.3711      0.7594898
      8201.5000         12.295         0.0562        44.3896       67.69753         0.5604         2.3815      0.7382452
      8202.0000         12.236         0.0558        43.8384       66.76035         0.5758          2.374      0.7183054
      8202.5000        12.2465         0.0479        42.6556       64.74976         0.5343         2.3469      0.6755269
      8203.0000         12.388         0.0467        41.3995       62.61477         0.4937         2.3267      0.6301014
      8203.5000        12.5421         0.0486        40.1243       60.44732         0.4636         2.3091      0.5839854
      8204.0000        12.5133         0.0516        38.7337        58.0836         0.4335         2.3016      0.5336936
      8204.5000        12.5576         0.0601        37.5989       56.15473         0.4034         2.2916      0.4926539
      8205.0000        12.6608         0.0423        36.7578       54.72478         0.3733         2.2718      0.4622294
      8205.5000        12.6914         0.0313        36.9036       54.97202         0.3569         2.2706      0.4674898
      8206.0000         12.523          0.025        37.1582       55.40416         0.3653         2.3081      0.4766842
      8206.5000        12.3591         0.0231        39.0675       58.64795         0.3737         2.3271      0.5457011
      8207.0000        12.3143         0.0207         39.435       59.27192         0.3811         2.3048      0.5589769
      8207.5000         12.319         0.0162         35.698       52.92099         0.3876         2.2845      0.4238509
      8208.0000        12.3221         0.0284        32.5422       47.55785         0.3941          2.267      0.3097416
      8208.5000        12.3205         0.0487        30.2223         43.615         0.4006         2.2505      0.2258511
      8209.0000        12.3179          0.049        28.1305       40.05991         0.3989         2.2352      0.1502109
      8209.5000        12.3152          0.039        26.9281       38.01616         0.3783         2.2196      0.1067269
      8210.0000        12.3082         0.0338        27.0833       38.27922         0.3577         2.2164      0.1123238
      8210.5000        12.2924         0.0321        27.5234       39.02657         0.3372         2.2151      0.1282249
      8211.0000        12.2855         0.0276        27.2423       38.54822         0.3166         2.2172      0.1180472
      8211.5000        12.2905          0.042        26.7875       37.77487          0.296         2.2274       0.101593
      8212.0000        12.2892         0.0471        26.5472       37.36602         0.2796         2.2211     0.09289405
      8212.5000        12.2836         0.0397        26.1888       36.75631         0.2708         2.2364     0.07992156
      8213.0000        12.2781          0.051        25.2114       35.09492         0.2621          2.259     0.04457287
      8213.5000        12.2744         0.0648        23.1978       31.67255         0.2533         2.2579              0
      8214.0000        12.2741         0.0529        21.6379       29.02132         0.2445         2.2587              0
