#------------------------------------------------------------------------------
# Created by    : vladimir.rabinovich
# Created on    : 09/19/2023 17:21:07
#------------------------------------------------------------------------------
~Version Information Section
VERS.           2.0     :   CWLS log ASCII Standard - VERSION 2.0
WRAP.           NO      :   One line per depth step
~Well Information Section
#MNEM       .UNIT                                         VALUE :DESCRIPTION
#------------------------------------------------------------------------------
STRT        .FT                                            3871 :START DEPTH
STOP        .FT                                           10481 :STOP DEPTH
STEP        .FT                                             0.5 :STEP      
NULL        .                                           -999.25 :NULL      
COMP        .                               TALOS PETROLEUM LLC :COMPANY   
WELL        .                                OCS 00300 ST00BP00 :WELL      
FLD         .                           WEST CAMERON BLOCK 0045 :FIELD     
LOC         .                                                   :LOCATION  
CNTY        .                                      WEST CAMERON :LOCATION  
STAT        .                                         LOUISIANA :STATE     
CTRY        .                                     UNITED STATES :COUNTRY   
SRVC        .                                                   :SERVICE COMPANY
DATE        .                             9/13/2023 11:18:36 AM :LOG DATE  
API         .                                    17700410010000 :API NUMBER
UWI         .                                    17700410010000 :UNIQUE WELL ID
XCOORD      .                                  1453780.44334001 :SURFACE X 
YCOORD      .                                   10773222.791693 :SURFACE Y 
LAT         .                                         29.683533 :LATITUDE  
LON         .                                        -93.587947 :LONGITUDE 
ELEV        .FT                                              92 :ELEVATION VALUE
ELEV_TYPE   .                                                KB :ELEVATION REFERENCE TYPE
~Curve Information Section
#MNEM       .UNIT                                      API CODE :CURVE DESCRIPTION
#------------------------------------------------------------------------------
DEPT        .FT                                                 :DEPTH     
ATR         .OHMM                                               :          
CATR        .MMHO                                               :          
DCAL        .IN                                                 :          
DRHB        .G/C3                                               :          
GR          .GAPI                                               :          
GR_NORM     .GAPI                                               :GammaRay Normalized
PSR         .OHMM                                               :          
RHOB        .G/C3                                               :          
ROP5        .F/HR                                               :          
TNPH        .%                                                  :          
VSH_GR      .V/V                                                :Volume of Shale from GR
~A        DEPTH            ATR           CATR           DCAL           DRHB             GR        GR_NORM            PSR           RHOB           ROP5           TNPH         VSH_GR
# ...
      6143.5000           0.44       2272.727           1.02            0.1        90.3199       84.85242           0.45           2.09       127.6799             54              1
      6144.0000           0.48       2083.332           0.82           0.12          96.58       90.53638           0.48           2.24       127.6799             56              1
      6144.5000           0.49       2040.814           0.49           0.11        98.5699       92.34354           0.47           2.32       137.4399             54              1
      6145.0000            0.5           2000           0.38           0.09        98.1699       91.98086           0.49           2.35       153.8699             49              1
      6145.5000           0.51       1960.783           0.29           0.08        97.1599       91.06448           0.52           2.37       152.5598             47              1
      6146.0000           0.51       1960.783           0.28            0.1        95.2599       89.33995           0.51           2.37       147.5698             46              1
      6146.5000            0.5           2000           0.29           0.11        96.5399        90.5025           0.49           2.35         138.48             43              1
      6147.0000            0.5           2000            0.3           0.11          95.75       89.78587            0.5           2.35       132.3599             43              1
      6147.5000           0.48       2083.332           0.23            0.1        94.2899        88.4608           0.51           2.35          129.5             46              1
      6148.0000           0.45       2222.219           0.21           0.09          79.25       74.80677           0.49            2.3         126.75             48      0.8895057
      6148.5000            0.4           2500           0.62           0.08          63.37       60.38995           0.46           2.15         126.75             48      0.5827648
      6149.0000           0.26       3846.152           0.99           0.14        47.6299       46.10023           0.31           1.98       123.2799             48      0.2787284
      6149.5000           0.22       4545.453           1.41           0.23           45.6       44.25782           0.28           1.81         124.99             52      0.2395281
      6150.0000           0.21       4761.898           1.44           0.21        43.1299       42.01579           0.28           1.65         129.49             53      0.1918252
      6150.5000           0.21       4761.898           1.19           0.16          42.29       41.25377           0.28           1.56       136.3699             54      0.1756121
      6151.0000           0.22       4545.453           0.55           0.13          41.23       40.29186            0.3           1.52       156.5298             57       0.155146
      6151.5000           0.22       4545.453           0.79           0.15          42.96       41.86296           0.31           1.57       156.5298             57      0.1885736
      6152.0000           0.23        4347.82           0.79           0.16          43.79       42.61712           0.31           1.61         168.24             56      0.2046195
      6152.5000           0.26       3846.152           1.08           0.16          49.27        47.5928           0.33           1.64       181.8499             55      0.3104851
      6153.0000           0.36       2777.777           1.27           0.12        54.1299       52.00559           0.34           1.68       197.8398             59      0.4043743
      6153.5000           0.53       1886.793           1.12           0.07          63.65       60.64929           0.53           1.75       222.3098             63      0.5882827
      6154.0000           0.67       1492.535           0.76           0.05        71.1899       67.49508           0.77           1.91       240.0898             58      0.7339379
      6154.5000           0.74        1351.35           0.46           0.08        79.4299       74.97671           0.78           2.16       222.3098             51      0.8931214
      6155.0000           0.78       1282.051           0.43           0.13          80.97       76.37547           0.84           2.34       222.3098             38      0.9228823
      6155.5000           0.79       1265.822           0.47           0.14          79.34       74.89605           0.88            2.4       197.8298             33      0.8914053
      6156.0000           0.74        1351.35           0.45           0.12        75.5399       71.44636           0.83           2.39         171.46             30      0.8180076
      6156.5000           0.64         1562.5           0.43           0.07        72.6799       68.85041           0.69           2.36       140.6299             31      0.7627747
      6157.0000           0.56       1785.713           0.55           0.04          69.46       65.92761           0.62           2.28       128.5698             32      0.7005875
      6157.5000           0.56       1785.713           0.58           0.04        68.4399       65.00186           0.62           2.23       120.8099             35      0.6808907
      6158.0000           0.53       1886.793           0.52           0.06        70.2999       66.69114           0.48           2.23       113.9199             40      0.7168328
      6158.5000           0.48       2083.332           0.53           0.07        71.3099       67.60858           0.59           2.24         109.75             38      0.7363528
      6159.0000           0.37       2702.699           0.69           0.12          65.62       62.44329           0.45           2.23       104.0299             37      0.6264529
      6159.5000           0.27       3703.703           0.92           0.14          52.96       50.94987           0.32           2.09       100.5599             37      0.3819122
      6160.0000           0.27       3703.703           0.97           0.22          42.47       41.42672           0.31           2.02       102.2699             40      0.1792918
      6160.5000           0.28       3571.426           0.91            0.2          37.93       37.30536            0.3           1.87       108.4299             45     0.09160347
      6161.0000           0.27       3703.703            1.1           0.17        36.5099       36.01661           0.28           1.66       117.6499             51     0.06418309
      6161.5000           0.25           4000           0.98           0.15          34.09       33.82013           0.31           1.69       153.8799             58     0.01744956
      6162.0000           0.25           4000            1.1           0.13          31.53       31.49638           0.41           1.61         168.25             68              0
      6162.5000           0.25           4000           0.64           0.14          30.03         30.135           0.41           1.65       185.6299             66              0
      6163.0000           0.24       4166.664           0.51           0.15          27.65       27.97484           0.43           1.53       197.8599             62              0
      6163.5000           0.24       4166.664           0.19           0.18          26.28       26.73148           0.42           1.55       225.1299             60              0
      6164.0000           0.22       4545.453            1.1           0.17          25.53       26.05102           0.39            1.6       225.1299             55              0
      6164.5000           0.22       4545.453           1.06           0.22          26.37       26.81424           0.39           1.69       268.8096             52              0
      6165.0000           0.21       4761.898           0.96           0.24          27.96       28.25824           0.38           1.75       285.8896             50              0
      6165.5000           0.21       4761.898           0.78           0.27          28.67        28.9033           0.37           1.77       295.2896             51              0
