#------------------------------------------------------------------------------
# Created by    : vladimir.rabinovich
# Created on    : 09/19/2023 17:22:04
#------------------------------------------------------------------------------
~Version Information Section
VERS.           2.0     :   CWLS log ASCII Standard - VERSION 2.0
WRAP.           NO      :   One line per depth step
~Well Information Section
#MNEM       .UNIT                                         VALUE :DESCRIPTION
#------------------------------------------------------------------------------
STRT        .FT                                           911.5 :START DEPTH
STOP        .FT                                           12432 :STOP DEPTH
STEP        .FT                                             0.5 :STEP      
NULL        .                                           -999.25 :NULL      
COMP        .                                    EXXON CO U S A :COMPANY   
WELL        .                               OCS G03260 ST00BP00 :WELL      
FLD         .                                           WILDCAT :FIELD     
LOC         .                                                   :LOCATION  
CNTY        .                                      WEST CAMERON :LOCATION  
STAT        .                                         LOUISIANA :STATE     
CTRY        .                                     UNITED STATES :COUNTRY   
SRVC        .                                                   :SERVICE COMPANY
DATE        .                             9/13/2023 11:18:18 AM :LOG DATE  
API         .                                    17700402650000 :API NUMBER
UWI         .                                    17700402650000 :UNIQUE WELL ID
XCOORD      .                                  1465533.33943019 :SURFACE X 
YCOORD      .                                  10722576.3450242 :SURFACE Y 
LAT         .                                        29.5443718 :LATITUDE  
LON         .                                       -93.5501671 :LONGITUDE 
ELEV        .FT                                              99 :ELEVATION VALUE
ELEV_TYPE   .                                                KB :ELEVATION REFERENCE TYPE
~Curve Information Section
#MNEM       .UNIT                                      API CODE :CURVE DESCRIPTION
#------------------------------------------------------------------------------
DEPT        .FT                                                 :DEPTH     
CALI        .IN                                                 :          
DRHO        .G/CC                                               :          
GR          .GAPI                                               :          
GR_NORM     .GAPI                                               :GammaRay Normalized
ILD         .OHMM                                               :          
RHOB        .G/CC                                               :          
VSH_GR      .V/V                                                :Volume of Shale from GR
~A        DEPTH           CALI           DRHO             GR        GR_NORM            ILD           RHOB         VSH_GR
# ...
      9889.5000        12.9897         0.0509         53.284       72.76753         0.7549         2.3644      0.8461177
      9890.0000          12.96         0.0536        52.0791       70.71545         0.7567         2.3808      0.8024565
      9890.5000        12.6845          0.052        51.0275       68.92389         0.7585         2.3934      0.7643381
      9891.0000        12.6071         0.0684        50.4185       67.88443         0.7604         2.4105      0.7422219
      9891.5000        12.6988         0.0749        50.1265       67.38365         0.7622         2.3987      0.7315671
      9892.0000        12.6843         0.0677        50.0274       67.21068          0.764         2.3923      0.7278868
      9892.5000        12.7323         0.0854        50.0175       67.18926         0.7659         2.4019      0.7274311
      9893.0000        12.9538          0.103         50.016       67.18228         0.7539         2.3997      0.7272826
      9893.5000        12.9782         0.0916        50.1675       67.43517         0.7411         2.3762      0.7326631
      9894.0000        12.8746         0.0687        50.1765       67.44586         0.7284         2.3789      0.7328907
      9894.5000         12.821         0.0507        49.5148       66.31683         0.7158         2.3923      0.7088688
      9895.0000        12.6735         0.0388        48.5291       64.63725         0.7036         2.3924       0.673133
      9895.5000        12.6203         0.0381        47.6979       63.22024         0.6914          2.401      0.6429838
      9896.0000        12.6054         0.0443        47.8044       63.39661         0.6792         2.3903      0.6467364
      9896.5000        12.6456         0.0202        48.0829        63.8653          0.667         2.3645      0.6567084
      9897.0000        12.6413         0.0116        46.4451       61.07759         0.6683         2.3455      0.5973955
      9897.5000         12.744         0.0124        44.7371        58.1706         0.6767         2.3246      0.5355447
      9898.0000        12.4804          0.013        43.5059       56.07384         0.6851         2.3079      0.4909329
      9898.5000        12.4312         0.0135        42.9956       55.20211         0.6935         2.2953      0.4723853
      9899.0000        12.5221          0.014        42.5411       54.42521         0.7044         2.3035      0.4558554
      9899.5000        12.7566         0.0127        42.4815       54.31934         0.7185         2.3189      0.4536029
      9900.0000        12.6155         0.0124        42.7639       54.79462         0.7325         2.3339      0.4637153
      9900.5000        12.5354         0.0132        43.1645       55.47095         0.7465         2.3438      0.4781053
      9901.0000         12.589        -0.0028        43.6124       56.22746         0.7605         2.3417      0.4942012
      9901.5000        12.6332        -0.0233        43.4232       55.90137         0.7473         2.3263      0.4872633
      9902.0000        12.5501        -0.0113        42.3968       54.15263         0.7195         2.3192       0.450056
      9902.5000        12.6342          0.011        41.4493       52.53797         0.7034          2.336      0.4157015
      9903.0000        13.2949         0.0131        41.9225       53.33749         0.6873         2.3046      0.4327125
      9903.5000        13.7691         0.0133         43.252        55.5921         0.6711         2.2782       0.480683
      9904.0000        12.8675         0.0246        44.2772       57.32965          0.655         2.2759      0.5176521
      9904.5000         12.925         0.0435        45.1503       58.80869         0.6388         2.2863       0.549121
      9905.0000        14.0576         0.0499         46.481       61.06535         0.6227         2.2826       0.597135
      9905.5000        14.4588         0.0287        48.4979       64.48808         0.6279         2.2695      0.6699591
      9906.0000        14.1639         0.0681        50.4119       67.73593         0.6338         2.3115      0.7390624
      9906.5000        13.7601         0.0568        51.8132       70.11255         0.6397          2.331      0.7896287
      9907.0000        13.3217         0.0784        52.8456       71.86231         0.6456         2.3525      0.8268577
      9907.5000        13.0843         0.0881         53.587       73.11756         0.6591         2.3621      0.8535652
      9908.0000        13.2134         0.0913        53.7787       73.43891         0.6851         2.3618      0.8604023
      9908.5000        13.4582         0.0875        53.3594        72.7218         0.7112         2.3494      0.8451447
      9909.0000         13.554         0.0894        52.3833       71.05856         0.7372         2.3549      0.8097565
      9909.5000        13.5649         0.0926        50.7065       68.20457         0.7633         2.3663      0.7490333
      9910.0000        13.5441         0.0867        48.6177       64.65051         0.7893         2.3654       0.673415
      9910.5000        13.2891         0.0679        47.1948       62.22801         0.8153         2.3604      0.6218726
      9911.0000        12.9902         0.0585         46.372       60.82524          0.843          2.368      0.5920265
      9911.5000        13.0601         0.0578        45.6414       59.57915         0.8743         2.3898      0.5655138
      9912.0000        13.3188         0.0747        44.8317       58.19865         0.9057         2.4123      0.5361414
      9912.5000        13.5948         0.0723        44.0233       56.82035          0.937         2.4049       0.506816
      9913.0000        13.0122         0.0756        43.2807       55.55386         0.9683         2.4162      0.4798694
      9913.5000        12.6275         0.0756        43.0908       55.22657         0.9937         2.4248      0.4729058
      9914.0000        12.5372         0.0793        44.0137       56.79026         1.0116         2.4268      0.5061758
      9914.5000        12.4498         0.0895        45.8198       59.85478         1.0295         2.4372      0.5713784
      9915.0000        12.6332          0.093        46.9697       61.80438         1.0473         2.4535      0.6128592
      9915.5000        12.9245         0.0573         47.226       62.23531         1.0594         2.4088      0.6220279
      9916.0000        12.9086        -0.0022        46.4307       60.87928         1.0636         2.3824      0.5931762
      9916.5000        12.9959        -0.0136        45.1946       58.77419         1.0678          2.357      0.5483871
      9917.0000        13.2081         0.0185         44.252       57.16786         1.0719         2.3943      0.5142098
      9917.5000        12.7482         0.0589        44.2688       57.19181         1.0761         2.4442      0.5147194
      9918.0000        12.6455         0.0867         45.288       58.91913         1.0474         2.4811      0.5514709
      9918.5000        12.6717         0.1023        46.5504       61.05976          1.012         2.4856      0.5970161
      9919.0000        12.7535         0.1139        47.8488       63.26151         0.9812         2.4678      0.6438619
      9919.5000        12.8716         0.0882        49.0082       65.22709         0.9611         2.4338      0.6856827
      9920.0000        12.9005         0.0564        49.9136       66.76103         0.9411         2.3872      0.7183198
      9920.5000        12.8354         0.0529        50.6047       67.93082         0.9211         2.3761      0.7432089
      9921.0000        13.0735         0.0809        50.9892       68.57962         0.9011         2.3974      0.7570132
      9921.5000        13.6662         0.1105        51.1002       68.76366         0.8807         2.4119       0.760929
      9922.0000        12.9873          0.101        51.0434       68.66254         0.8589         2.3996      0.7587774
      9922.5000        12.8258         0.0696        51.0186       68.61599         0.8371         2.3842       0.757787
