#------------------------------------------------------------------------------
# Created by    : vladimir.rabinovich
# Created on    : 09/19/2023 17:21:07
#------------------------------------------------------------------------------
~Version Information Section
VERS.           2.0     :   CWLS log ASCII Standard - VERSION 2.0
WRAP.           NO      :   One line per depth step
~Well Information Section
#MNEM       .UNIT                                         VALUE :DESCRIPTION
#------------------------------------------------------------------------------
STRT        .FT                                            3871 :START DEPTH
STOP        .FT                                           10481 :STOP DEPTH
STEP        .FT                                             0.5 :STEP      
NULL        .                                           -999.25 :NULL      
COMP        .                               TALOS PETROLEUM LLC :COMPANY   
WELL        .                                OCS 00300 ST00BP00 :WELL      
FLD         .                           WEST CAMERON BLOCK 0045 :FIELD     
LOC         .                                                   :LOCATION  
CNTY        .                                      WEST CAMERON :LOCATION  
STAT        .                                         LOUISIANA :STATE     
CTRY        .                                     UNITED STATES :COUNTRY   
SRVC        .                                                   :SERVICE COMPANY
DATE        .                             9/13/2023 11:18:36 AM :LOG DATE  
API         .                                    17700410010000 :API NUMBER
UWI         .                                    17700410010000 :UNIQUE WELL ID
XCOORD      .                                  1453780.44334001 :SURFACE X 
YCOORD      .                                   10773222.791693 :SURFACE Y 
LAT         .                                         29.683533 :LATITUDE  
LON         .                                        -93.587947 :LONGITUDE 
ELEV        .FT                                              92 :ELEVATION VALUE
ELEV_TYPE   .                                                KB :ELEVATION REFERENCE TYPE
~Curve Information Section
#MNEM       .UNIT                                      API CODE :CURVE DESCRIPTION
#------------------------------------------------------------------------------
DEPT        .FT                                                 :DEPTH     
ATR         .OHMM                                               :          
CATR        .MMHO                                               :          
DCAL        .IN                                                 :          
DRHB        .G/C3                                               :          
GR          .GAPI                                               :          
GR_NORM     .GAPI                                               :GammaRay Normalized
PSR         .OHMM                                               :          
RHOB        .G/C3                                               :          
ROP5        .F/HR                                               :          
TNPH        .%                                                  :          
VSH_GR      .V/V                                                :Volume of Shale from GR
~A        DEPTH            ATR           CATR           DCAL           DRHB             GR        GR_NORM            PSR           RHOB           ROP5           TNPH         VSH_GR
# ...
      7426.0000           0.18       5555.555           0.48           0.09          55.36       35.80946           0.25           2.14          42.61             35     0.05977582
      7426.5000           0.18       5555.555           0.51           0.12        53.6299        33.4335           0.25           2.16          42.61             37     0.00922337
      7427.0000           0.17       5882.352           0.48            0.1          50.21       28.73614           0.23           2.13          42.61             36              0
      7427.5000           0.17       5882.352           0.45           0.08          52.92       32.45973            0.2           2.16          30.86             36              0
      7428.0000           0.16           6250           0.19           0.06        54.6299       34.80956            0.2           2.17          30.86             35     0.03850133
      7428.5000           0.18       5555.555           0.17           0.07          58.45        40.0583           0.19           2.21          30.35             36      0.1501765
      7429.0000           0.18       5555.555           0.23           0.07          59.48       41.47397           0.19           2.15          30.35             35      0.1802973
      7429.5000           0.17       5882.352           0.41           0.09          56.33       37.14749           0.19           2.14          30.35             35     0.08824442
      7430.0000           0.17       5882.352            0.4           0.07        55.1899       35.58185            0.2           2.13          46.87             35     0.05493302
      7430.5000           0.19       5263.156           0.34           0.06          56.27       37.06644           0.26           2.18          46.87             34     0.08652009
      7431.0000            0.2           5000           0.05           0.03          60.74       43.20812           0.23           2.21        82.5699             34       0.217194
      7431.5000           0.21       4761.898           0.06           0.04          63.71       47.28891           0.21           2.23        82.5699             35      0.3040194
      7432.0000           0.22       4545.453           0.15           0.04          62.62       45.79219           0.24           2.21       486.4697             37      0.2721743
      7432.5000           0.23        4347.82           0.15           0.04          61.89       44.79023           0.26           2.19       410.1899             39       0.250856
      7433.0000           0.24       4166.664           0.17           0.05          62.62       45.79378           0.26            2.2       367.4697             40       0.272208
      7433.5000           0.23        4347.82           0.17           0.08        67.4399       52.41609           0.26           2.26       352.9399             39      0.4131083
      7434.0000           0.21       4761.898           0.17           0.08        72.7899       59.76641           0.23            2.3       235.1899             38      0.5694982
      7434.5000           0.29       3448.273           0.09           0.06        73.9099       61.30569           0.31            2.3       235.1899             36      0.6022488
      7435.0000            0.3       3333.332            0.1           0.03           75.5       63.49092           0.36            2.3       236.8398             38      0.6487431
      7435.5000           0.29       3448.273              0           0.03        77.1499       65.75832           0.32           2.32       185.5698             38      0.6969856
      7436.0000           0.32           3125           0.14           0.04          81.85       72.21597           0.35           2.34       185.5698             38      0.8343824
      7436.5000           0.39       2564.102           0.11           0.03        83.5599        74.5658           0.47           2.35       166.6599             35      0.8843788
      7437.0000            0.4           2500           0.21           0.03          82.24       72.75311           0.51           2.33         121.62             36      0.8458108
      7437.5000           0.37       2702.699           0.16           0.02        80.0299       69.71776           0.42           2.29        93.2599             37      0.7812289
      7438.0000           0.38       2631.578           0.21           0.02          72.83       59.82755            0.5           2.23          75.95             38      0.5707988
      7438.5000           0.26       3846.152           0.38           0.05        66.6799       57.65459           0.33           2.22          61.02             41      0.5245658
      7439.0000            0.2           5000           0.47           0.06          61.39       51.98142           0.27           2.23          61.02             41      0.4038601
      7439.5000           0.22       4545.453           0.45           0.06          66.98       57.97763           0.27           2.24        56.0699             38      0.5314389
      7440.0000           0.22       4545.453           0.28           0.01        68.1799       59.26525           0.27           2.18          56.67             39       0.558835
      7440.5000           0.21       4761.898           0.17           0.02          63.71       54.47157           0.23           2.12       171.4299             40      0.4568419
      7441.0000           0.17       5882.352           0.61           0.08          52.36       42.29845           0.26           2.05       171.4299             47      0.1978393
      7441.5000           0.17       5882.352           0.74           0.14          45.72        35.1771           0.31           1.96          55.05             46      0.0463213
      7442.0000           0.18       5555.555           0.96           0.16          43.75       33.06485           0.39           1.93        74.0699             45    0.001379865
      7442.5000           0.18       5555.555            0.8           0.13        43.0099       32.27151            0.4           1.94        74.0699             47              0
      7443.0000           0.17       5882.352           0.73           0.13          40.86       29.96622           0.48           2.02          86.12             47              0
      7443.5000           0.16           6250           0.65           0.16        39.5699       28.58313            0.5           2.03        72.2899             50              0
      7444.0000           0.16           6250           0.69           0.17          39.16       28.14409           0.46            1.9          89.11             50              0
      7444.5000           0.16           6250            0.9           0.18          39.22       28.20898           0.43           1.78       104.6499             49              0
      7445.0000           0.15       6666.664           0.85           0.23          40.45       29.52895           0.45           1.75       111.7999             50              0
      7445.5000           0.16           6250           0.67           0.21        41.1899       30.32301           0.45           1.72       111.7999             48              0
      7446.0000           0.16           6250           1.04           0.13          40.77       29.87326           0.43           1.71         141.73             50              0
      7446.5000           0.16           6250           1.37           0.05           38.3       27.22471           0.43           1.74         141.73             49              0
      7447.0000           0.16           6250           1.56          -0.01          36.54       25.33752           0.44           1.81       141.1099             49              0
      7447.5000           0.16           6250           1.55              0        37.1899       26.03524           0.37           1.93       141.1099             45              0
      7448.0000           0.15       6666.664           1.58           0.05        39.1299       28.11656           0.36           1.94       193.5498             44              0
