#------------------------------------------------------------------------------
# Created by    : vladimir.rabinovich
# Created on    : 09/19/2023 17:20:42
#------------------------------------------------------------------------------
~Version Information Section
VERS.           2.0     :   CWLS log ASCII Standard - VERSION 2.0
WRAP.           NO      :   One line per depth step
~Well Information Section
#MNEM       .UNIT                                         VALUE :DESCRIPTION
#------------------------------------------------------------------------------
STRT        .FT                                             202 :START DEPTH
STOP        .FT                                            9625 :STOP DEPTH
STEP        .FT                                             0.5 :STEP      
NULL        .                                           -999.25 :NULL      
COMP        .                           GENERAL AMERICAN OIL CO :COMPANY   
WELL        .                               OCS G01862 ST00BP00 :WELL      
FLD         .                           WEST CAMERON BLOCK 0045 :FIELD     
LOC         .                                                   :LOCATION  
CNTY        .                                      WEST CAMERON :LOCATION  
STAT        .                                         LOUISIANA :STATE     
CTRY        .                                     UNITED STATES :COUNTRY   
SRVC        .                                                   :SERVICE COMPANY
DATE        .                             9/13/2023 11:18:18 AM :LOG DATE  
API         .                                    17700004050000 :API NUMBER
UWI         .                                    17700004050000 :UNIQUE WELL ID
XCOORD      .                                  1441793.49938464 :SURFACE X 
YCOORD      .                                  10754125.7201806 :SURFACE Y 
LAT         .                                        29.6308281 :LATITUDE  
LON         .                                       -93.6253819 :LONGITUDE 
ELEV        .FT                                              70 :ELEVATION VALUE
ELEV_TYPE   .                                                KB :ELEVATION REFERENCE TYPE
~Curve Information Section
#MNEM       .UNIT                                      API CODE :CURVE DESCRIPTION
#------------------------------------------------------------------------------
DEPT        .FT                                                 :DEPTH     
ASN         .OHMM                                               :          
CALI        .IN                                                 :          
CALI_1      .IN                                                 :          
DRHO        .G/C3                                               :          
DT          .US/F                                               :          
GR          .GAPI                                               :          
GR_NORM     .GAPI                                               :GammaRay Normalized
ILD         .OHMM                                               :          
RHOB        .G/C3                                               :          
SP          .MV                                                 :          
SP_NORM     .MV                                                 :SP Normalized
VSH_GR      .V/V                                                :Volume of Shale from GR
VSH_SP      .V/V                                                :Volume of Shale from SP
~A        DEPTH            ASN           CALI         CALI_1           DRHO             DT             GR        GR_NORM            ILD           RHOB             SP        SP_NORM         VSH_GR         VSH_SP
# ...
      2292.0000          0.529        14.7963         7.3124         0.0418       148.1436        32.9869       32.27682          0.397         2.1586       -124.766       -62.9776              0      0.1017739
      2292.5000         0.5046        14.8809         7.3036         0.0687       147.9431        35.1157       35.02768         0.3883         2.1714      -124.4611       -62.6708     0.04314212      0.1062203
      2293.0000         0.4942         14.873         7.2858         0.1607       148.5903        36.8896       37.31974          0.374         2.1938      -124.2745       -62.4823     0.09190937      0.1089522
      2293.5000         0.4942        14.8704          7.266         0.2007       150.5066        39.1276       40.21176         0.3543         2.2016      -124.1648       -62.3708      0.1534417      0.1105681
      2294.0000         0.5099        15.0021         7.2388         0.2108       153.3987        40.3375        41.7747         0.3286         2.1641      -124.0552       -62.2593      0.1866957      0.1121841
      2294.5000         0.5432        15.2873         7.2115          0.134       154.9805        40.2313       41.63625          0.303         2.0489      -124.3279       -62.5301      0.1837499      0.1082594
      2295.0000         0.5732        15.3841         7.1949         0.0207        155.333        39.4565       40.63345         0.2893         2.0431      -124.9806       -63.1809      0.1624139     0.09882753
      2295.5000         0.5809        15.2391         7.1843         0.0094       154.3445        38.3622       39.21763         0.2776         2.0741      -125.6332       -63.8317      0.1322901     0.08939566
      2296.0000         0.5802        14.8351         7.1929         0.0152       152.6206        34.0948       33.69976         0.2667         2.1061       -126.743       -64.9396     0.01488852     0.07333916
      2296.5000         0.5785         14.781         7.2052         0.0939       150.9658         30.449       28.98548         0.2602         2.1438      -128.2632       -66.4579              0     0.05133477
      2297.0000         0.5793        14.8658         7.2199         0.1414        150.532        29.8791       28.24757         0.2537          2.154      -129.4888       -67.6817              0     0.03359853
      2297.5000         0.5812        14.9699         7.2413         0.1625       151.9487        30.4363       28.96672         0.2479         2.1373      -130.4148       -68.6058              0     0.02020584
      2298.0000         0.5848        15.0803         7.2805         0.1302        154.668        31.5946       30.46296         0.2478         2.1015      -131.1523       -69.3414              0    0.009544926
      2298.5000         0.6023        15.1568         7.3177         0.1131       156.6011        32.6373       31.80963         0.2477         2.1162      -131.3389       -69.5261              0    0.006868114
      2299.0000         0.6114        15.0481         7.3418         0.1204       157.2024         32.972       32.24115         0.2477         2.1156      -131.5251       -69.7105              0    0.004195614
      2299.5000         0.6022        14.8948         7.3534         0.1149        156.229        33.3447       32.72179         0.2537         2.1075      -131.1013       -69.2848              0     0.01036525
      2300.0000         0.5839        14.8388          7.341         0.0985       153.7585        33.9867       33.55058         0.2613         2.1033      -130.3384         -68.52     0.01171445     0.02144932
      2300.5000         0.5965        14.7971         7.3344          0.082       152.1467        34.7567       34.54484          0.269         2.0869      -128.6184       -66.7981     0.03286889      0.0464043
      2301.0000         0.6134        14.7517         7.3445         0.0603       152.3303        35.0722       34.95154         0.2787         2.0634       -127.465       -65.6429     0.04152209      0.0631464
      2301.5000         0.6345        14.7138         7.3712         0.0424       152.4988        35.1017       34.98851         0.2894         2.0539      -126.8695       -65.0455     0.04230881     0.07180432
      2302.0000         0.6465         14.643         7.4099         0.0649       152.6782        34.5607       34.28796         0.3055          2.096      -126.7786       -64.9527     0.02740349     0.07314931
      2302.5000         0.6532        14.6139         7.4445         0.1094       153.0532        33.5286       32.95255         0.3284         2.1051      -127.0247        -65.197              0     0.06960872
      2303.0000         0.6874        14.7873         7.4765         0.1172       153.4314        32.3306       31.40267          0.361         2.0943      -127.3123       -65.4827              0     0.06546817
      2303.5000         0.7591        15.0751          7.509         0.1312       153.8362        31.4493        30.2622         0.4106         2.1038        -127.61       -65.7785              0     0.06118111
      2304.0000         0.8419        15.4773         7.5446         0.1462       154.3547        31.7723       30.67859         0.4501         2.0891      -128.1033       -66.2699              0     0.05405946
      2304.5000         0.9172        15.7566          7.564         0.1417       154.9875        32.8562       32.07865         0.4858         2.0949      -128.6853       -66.8501              0     0.04565076
      2305.0000           0.96        15.6317         7.5259         0.1264        155.656        33.5749       33.00659          0.519         2.1144      -129.2976       -67.4605    0.000140251     0.03680431
      2305.5000         0.9884        15.5357         7.4776         0.0776       156.2695        33.4362       32.82598         0.5177         2.1088      -129.9534       -68.1144              0      0.0273275
      2306.0000         1.0158        15.5541         7.5155         0.0433       155.3518        31.7559       30.65261         0.4986         2.1344      -130.8782       -69.0374              0     0.01395074
      2306.5000         1.0267        15.5094         7.4585         0.0354       150.9192        31.9998       30.96675         0.4591         2.1781      -131.9487        -70.106              0              0
      2307.0000         1.0154         14.923          7.362         0.0608        136.479        32.4987       31.61054          0.462         2.2107      -132.5959       -70.7513              0              0
      2307.5000         1.0269         13.314         7.2489         0.0764       126.1517        33.0312       32.29776         0.4833         2.2032      -132.8254       -70.9789              0              0
      2308.0000         1.0246        12.9168         7.1897         0.0646        120.069        33.5257       32.93587         0.5131         2.1824      -132.0771       -70.2288              0              0
      2308.5000         0.9444         12.763         7.1876         0.0365       119.2092        33.7628       33.24122         0.5377         2.1844      -131.7402         -69.89    0.005132391    0.001594212
      2309.0000         0.8935        12.6308         7.1519         0.0211       124.7965        33.6965       33.15435         0.5478         2.1941      -130.7471        -68.895    0.003283967     0.01601454
      2309.5000         0.8843        12.4417          7.098         0.0276       120.9906        33.6396       33.07963         0.5307         2.2209      -129.0942       -67.2402    0.001694213     0.03999716
      2310.0000         0.9137        12.0043         7.0054         0.0895       114.5089        33.8678       33.37347         0.4906          2.245      -126.6826       -64.8268    0.007946176     0.07497395
      2310.5000         1.0032         11.705         6.9469         0.1652       109.4841        34.0439       33.59996         0.4426          2.208      -125.3713       -63.5136     0.01276519     0.09400581
