#------------------------------------------------------------------------------
# Created by    : vladimir.rabinovich
# Created on    : 09/19/2023 17:22:23
#------------------------------------------------------------------------------
~Version Information Section
VERS.           2.0     :   CWLS log ASCII Standard - VERSION 2.0
WRAP.           NO      :   One line per depth step
~Well Information Section
#MNEM       .UNIT                                         VALUE :DESCRIPTION
#------------------------------------------------------------------------------
STRT        .FT                                            4000 :START DEPTH
STOP        .FT                                           10100 :STOP DEPTH
STEP        .FT                                             0.5 :STEP      
NULL        .                                           -999.25 :NULL      
COMP        .                         TALOS ENERGY VENTURES LLC :COMPANY   
WELL        .                               OCS G13557 ST00BP00 :WELL      
FLD         .                           WEST CAMERON BLOCK 0118 :FIELD     
LOC         .                                                   :LOCATION  
CNTY        .                                      WEST CAMERON :LOCATION  
STAT        .                                         LOUISIANA :STATE     
CTRY        .                                     UNITED STATES :COUNTRY   
SRVC        .                                                   :SERVICE COMPANY
DATE        .                             9/13/2023 11:19:21 AM :LOG DATE  
API         .                                    17700409600000 :API NUMBER
UWI         .                                    17700409600000 :UNIQUE WELL ID
XCOORD      .                                  1437367.94342701 :SURFACE X 
YCOORD      .                                  10730631.2479363 :SURFACE Y 
LAT         .                                         29.566133 :LATITUDE  
LON         .                                        -93.638908 :LONGITUDE 
ELEV        .FT                                              97 :ELEVATION VALUE
ELEV_TYPE   .                                                KB :ELEVATION REFERENCE TYPE
~Curve Information Section
#MNEM       .UNIT                                      API CODE :CURVE DESCRIPTION
#------------------------------------------------------------------------------
DEPT        .FT                                                 :DEPTH     
CALX        .IN                                                 :          
CNC         .%                                                  :          
CSAX        .MMHO                                               :          
GR          .API                                                :          
GR_NORM     .GAPI                                               :GammaRay Normalized
GRAX        .GAPI                                               :          
PORZ        .%                                                  :          
RIPD        .OHMM                                               :          
RIPM        .OHMM                                               :          
ROPS        .M/MIN                                              :          
RSAX        .OHMM                                               :          
RSFL        .OHMM                                               :          
RSTX        .MINS                                               :          
RWAZ        .OHMM                                               :          
SP          .MV                                                 :          
SP_NORM     .MV                                                 :SP Normalized
TEN         .LBF                                                :          
VSH_GR      .V/V                                                :Volume of Shale from GR
VSH_SP      .V/V                                                :Volume of Shale from SP
ZCOR        .G/C3                                               :          
~A        DEPTH           CALX            CNC           CSAX             GR        GR_NORM           GRAX           PORZ           RIPD           RIPM           ROPS           RSAX           RSFL           RSTX           RWAZ             SP        SP_NORM            TEN         VSH_GR         VSH_SP           ZCOR
# ...
      4403.0000         14.428         58.642        -999.25        57.0649       63.97654        -999.25         35.727          0.325           0.36        -999.25        -999.25          0.516        -999.25          0.057        -35.347       -30.4614        -17.444      0.6590752        0.58145          0.061
      4403.5000         14.032         60.486        -999.25         52.614        58.2669        -999.25         34.467          0.312          0.362        -999.25        -999.25          0.656        -999.25          0.051        -40.412       -35.5285        -17.889      0.5375935      0.5069338          0.052
      4404.0000         13.768         58.038        -999.25         46.627       50.58965        -999.25         33.037          0.296           0.35        -999.25        -999.25          0.967        -999.25          0.044        -47.358       -42.4766        -21.087      0.3742478      0.4047559          0.026
      4404.5000         13.681         50.693        -999.25         41.847       44.45836        -999.25         32.904          0.281          0.328        -999.25        -999.25           1.32        -999.25          0.042       -53.8849       -49.0056        -26.995      0.2437949      0.3087412          0.008
      4405.0000         13.658          42.56        -999.25         39.126       40.96441        -999.25        33.2599          0.268          0.304        -999.25        -999.25          1.265        -999.25          0.041        -58.585       -53.7078        -30.142      0.1694554      0.2395912          0.002
      4405.5000         13.651        37.6169        -999.25         37.916       39.40565        -999.25         33.114          0.257          0.286        -999.25        -999.25          0.985        -999.25          0.038        -61.575       -56.6999        -24.295      0.1362904      0.1955897          0.003
      4406.0000          13.69         36.614        -999.25         36.871       38.05822        -999.25         32.575          0.248          0.275        -999.25        -999.25          0.835        -999.25          0.036        -63.535       -58.6621        -10.629      0.1076217      0.1667338          0.002
      4406.5000         13.826         38.845        -999.25        35.2679       35.99598        -999.25          32.29          0.239           0.27        -999.25        -999.25          0.838        -999.25          0.034        -64.647       -59.7762         -0.536     0.06374416        0.15035         -0.002
      4407.0000         14.052         41.621        -999.25         34.574       35.09837        -999.25         32.501          0.234          0.269        -999.25        -999.25          0.914        -999.25          0.034       -64.8929       -60.0242         -1.264     0.04464616      0.1467029         -0.006
      4407.5000         14.273         42.396        -999.25        35.2939       36.01147        -999.25         32.897          0.236          0.274        -999.25        -999.25          0.926        -999.25          0.035       -64.3429       -59.4763         -4.927     0.06407376      0.1547603         -0.002
      4408.0000         14.406         41.666        -999.25         36.037       36.95428        -999.25         32.847          0.244          0.287        -999.25        -999.25           0.85        -999.25          0.036        -62.891       -58.0265         -3.336     0.08413363      0.1760809          0.007
      4408.5000         14.457         40.993        -999.25         37.931       39.37132        -999.25         32.033          0.252          0.301        -999.25        -999.25          0.784        -999.25          0.035        -60.495       -55.6327         -0.254      0.1355601      0.2112838          0.013
      4409.0000         14.469         40.792        -999.25         41.746       44.24868        -999.25          31.27          0.267          0.313        -999.25        -999.25          0.767        -999.25          0.035        -57.756       -52.8958         -2.235      0.2393337      0.2515323          0.012
      4409.5000         14.467         41.575        -999.25         44.924       48.31017        -999.25         30.932          0.279          0.322        -999.25        -999.25          0.772        -999.25          0.036        -55.486       -50.6279          -7.97      0.3257483      0.2848838          0.008
      4410.0000         14.455         43.691        -999.25          45.56       49.11594        -999.25         30.811          0.291          0.324        -999.25        -999.25          0.765        -999.25          0.037        -54.082        -49.226        -11.089      0.3428923         0.3055          0.007
      4410.5000         14.389         46.238        -999.25        44.6349       47.92208        -999.25         30.978          0.298          0.323        -999.25        -999.25          0.742        -999.25          0.039        -53.633       -48.7791         -8.255      0.3174912      0.3120721           0.01
      4411.0000         14.259         46.684        -999.25         43.534       46.50306        -999.25         31.221          0.298          0.319        -999.25        -999.25          0.712        -999.25          0.039        -53.608       -48.7562         -2.469      0.2872991      0.3124088          0.017
      4411.5000         14.128        43.5179        -999.25         43.138       45.98702        -999.25         31.376           0.29          0.319        -999.25        -999.25          0.699        -999.25          0.039        -52.597       -47.7474          1.272      0.2763196      0.3272441          0.018
      4412.0000         14.035         39.597        -999.25         43.038       45.84996        -999.25         31.702          0.281          0.318        -999.25        -999.25          0.747        -999.25          0.038       -50.2549       -45.4074          2.082      0.2734035      0.3616559           0.01
      4412.5000          13.96         38.019        -999.25         42.254       44.83683        -999.25         31.993          0.278          0.312        -999.25        -999.25          0.894        -999.25          0.039        -48.525       -43.6796          1.402      0.2518475      0.3870647         -0.001
      4413.0000         13.903        38.1769        -999.25         40.299       42.32387        -999.25         31.894          0.286           0.31        -999.25        -999.25          1.077        -999.25           0.04        -48.787       -43.9437          0.857      0.1983802      0.3831809         -0.007
      4413.5000         13.881         38.004        -999.25         38.037       39.41781        -999.25          31.95          0.303          0.319        -999.25        -999.25           1.07        -999.25          0.042        -49.335       -44.4938          2.628      0.1365492      0.3750912         -0.008
      4414.0000         13.889         38.129        -999.25         38.002       39.36401        -999.25         31.493          0.317          0.336        -999.25        -999.25          0.887        -999.25          0.043        -47.446        -42.607          3.421      0.1354045      0.4028383         -0.004
      4414.5000         13.914         40.606        -999.25         42.102       44.60642        -999.25         30.741          0.328          0.351        -999.25        -999.25          0.738        -999.25          0.042        -43.166       -38.3291         -1.729      0.2469452      0.4657485           0.01
      4415.0000         13.936        46.2419        -999.25         48.254        52.4772        -999.25         30.478          0.325          0.362        -999.25        -999.25          0.686        -999.25          0.041        -39.426       -34.5912          -9.72      0.4144085      0.5207176          0.027
      4415.5000         13.948         53.506        -999.25         52.573        58.0001        -999.25         30.475           0.32          0.363        -999.25        -999.25          0.713        -999.25           0.04        -38.941       -34.1083         -16.17      0.5319169      0.5278192          0.031
