#------------------------------------------------------------------------------
# Created by    : vladimir.rabinovich
# Created on    : 09/19/2023 17:20:44
#------------------------------------------------------------------------------
~Version Information Section
VERS.           2.0     :   CWLS log ASCII Standard - VERSION 2.0
WRAP.           NO      :   One line per depth step
~Well Information Section
#MNEM       .UNIT                                         VALUE :DESCRIPTION
#------------------------------------------------------------------------------
STRT        .FT                                            2904 :START DEPTH
STOP        .FT                                           14016 :STOP DEPTH
STEP        .FT                                             0.5 :STEP      
NULL        .                                           -999.25 :NULL      
COMP        .                                          MCN CORP :COMPANY   
WELL        .                                OCS 00043 ST00BP00 :WELL      
FLD         .                          EUGENE ISLAND BLOCK 0089 :FIELD     
LOC         .                                                   :LOCATION  
CNTY        .                                     EUGENE ISLAND :LOCATION  
STAT        .                                         LOUISIANA :STATE     
CTRY        .                                     UNITED STATES :COUNTRY   
SRVC        .                                                   :SERVICE COMPANY
DATE        .                             9/13/2023 11:18:42 AM :LOG DATE  
API         .                                    17709009460000 :API NUMBER
UWI         .                                    17709009460000 :UNIQUE WELL ID
XCOORD      .                                  2058690.32320654 :SURFACE X 
YCOORD      .                                  10563305.2032801 :SURFACE Y 
LAT         .                                        29.1009424 :LATITUDE  
LON         .                                       -91.6898776 :LONGITUDE 
ELEV        .FT                                              49 :ELEVATION VALUE
ELEV_TYPE   .                                                KB :ELEVATION REFERENCE TYPE
~Curve Information Section
#MNEM       .UNIT                                      API CODE :CURVE DESCRIPTION
#------------------------------------------------------------------------------
DEPT        .FT                                                 :DEPTH     
ASN         .OHMM                                               :          
CALI        .IN                                                 :          
DT          .US/F                                               :          
GR          .GAPI                                               :          
GR_NORM     .GAPI                                               :GammaRay Normalized
ILD         .OHMM                                               :          
SP          .MV                                                 :          
SP_NORM     .MV                                                 :SP Normalized
VSH_GR      .V/V                                                :Volume of Shale from GR
VSH_SP      .V/V                                                :Volume of Shale from SP
~A        DEPTH            ASN           CALI             DT             GR        GR_NORM            ILD             SP        SP_NORM         VSH_GR         VSH_SP
# ...
      3002.0000        -999.25        -999.25        -999.25        36.3846       47.83154        -999.25        -999.25        -999.25      0.3155648        -999.25
      3002.5000        -999.25        -999.25        -999.25        36.4694       47.96241        -999.25        -999.25        -999.25      0.3183492        -999.25
      3003.0000        -999.25        -999.25        -999.25        36.0892        47.2621        -999.25        -999.25        -999.25      0.3034489        -999.25
      3003.5000        -999.25        -999.25        -999.25        35.7996       46.72376        -999.25        -999.25        -999.25      0.2919949        -999.25
      3004.0000         0.1595        12.7699       189.4656        35.2474       45.71591        10.0032       -139.104        -7.0285      0.2705513      0.8952396
      3004.5000         0.3282        12.9432       173.7708        34.8821       45.04222         5.7785      -151.0933       -19.0178      0.2562175      0.6454625
      3005.0000         0.5026        13.6156       158.4944        36.3121       47.57839         0.9402      -161.2976       -29.2221      0.3101785      0.4328729
      3005.5000         0.6004        14.0803       178.5364         39.161       52.65139         0.3864      -164.6165        -32.541      0.4181148      0.3637291
      3006.0000         0.6446        13.8128       198.5549        41.7364       57.23542         0.2739      -167.3757       -35.3002      0.5156473      0.3062458
      3006.5000         0.6437        13.3915       200.1133        43.9757       61.21851         0.2642      -169.2053       -37.1298      0.6003939      0.2681292
      3007.0000         0.6312        12.9889       197.0742        44.6914        62.4774         0.2731      -170.4656       -38.3901      0.6271787       0.241873
      3007.5000         0.6179        12.9137       187.5061        44.0084       61.23569          0.281       -171.248       -39.1725      0.6007594      0.2255729
      3008.0000         0.6099        13.0254       173.2292        44.5378       62.16164         0.2862      -171.6069       -39.5314      0.6204603      0.2180959
      3008.5000         0.6075        13.2359       161.7732        45.4805       63.82656         0.2853      -171.9092       -39.8337      0.6558843       0.211798
      3009.0000         0.6129        13.3865       161.4763         43.603       60.44921          0.283      -172.0249       -39.9494      0.5840257      0.2093875
      3009.5000          0.624        13.3823       162.0029        42.4318       58.33463         0.2792      -172.0447       -39.9692      0.5390346       0.208975
      3010.0000         0.6391        13.3111        162.967        42.4937       58.42475          0.271       -171.981       -39.9055      0.5409521      0.2103021
      3010.5000          0.654        13.3087       166.0071        44.4128       61.83537         0.2663      -171.6477       -39.5722      0.6135184      0.2172458
      3011.0000         0.6604        13.4846       167.4348        46.0217       64.69136         0.2748      -170.9817       -38.9062      0.6742843      0.2311208
      3011.5000         0.6608        13.6413       166.9294        46.6987       65.88106         0.2857      -170.3723       -38.2968       0.699597      0.2438167
      3012.0000         0.6537        13.6534       167.0388        46.5092       65.52167         0.2968      -170.0466       -37.9711      0.6919504      0.2506021
      3012.5000          0.642        13.4971       167.7034        46.6358       65.72746         0.3072      -169.9622       -37.8867       0.696329      0.2523604
      3013.0000         0.6262        13.4771       168.0315        47.8208       67.82557         0.3142      -170.0396       -37.9641      0.7409695      0.2507479
      3013.5000          0.606        13.4674       166.9431         47.722       67.62836         0.3158      -170.2927       -38.2172      0.7367737       0.245475
      3014.0000         0.5846        13.3585       166.1079        47.1478       66.58119         0.3143       -170.863       -38.7875      0.7144935      0.2335938
      3014.5000         0.5705         13.122       162.1448        47.0106       66.31535         0.3106      -171.5237       -39.4482      0.7088372      0.2198292
      3015.0000         0.5651        12.8768       159.8987        47.5538       67.26595         0.3033      -172.3142       -40.2387      0.7290629      0.2033604
      3015.5000         0.5692        12.7486       158.4673        46.5516       65.45357         0.2961      -172.6372       -40.5617      0.6905015      0.1966313
      3016.0000         0.5793        12.7632       160.0945         45.764       64.02484         0.2928      -172.5381       -40.4626       0.660103      0.1986958
      3016.5000         0.5931         12.871       162.1243         44.288       61.36512         0.2923      -172.5647       -40.4892      0.6035133      0.1981416
      3017.0000         0.6067        12.9438       162.6831        43.5383        60.0042         0.2925      -172.7261       -40.6506      0.5745574      0.1947792
      3017.5000          0.614        12.9637       163.1941        44.2701       61.29203         0.2782      -173.1035        -41.028      0.6019581      0.1869167
      3018.0000         0.6108        12.9742       167.6279        44.6794       62.00324         0.2662      -173.6023       -41.5268      0.6170903       0.176525
      3018.5000         0.5919        12.9492       168.4255        44.1923        61.1118         0.2586       -174.019       -41.9435      0.5981234      0.1678437
      3019.0000           0.56        12.8829       168.3936        43.7455       60.29239         0.2539       -174.365       -42.2895      0.5806891      0.1606354
      3019.5000         0.5333        12.7834       167.4951        43.4802        59.7975         0.2511      -174.0928       -42.0173      0.5701596      0.1663063
      3020.0000         0.5137        12.7139       164.7148        43.9435       60.60527         0.2484       -173.614       -41.5385      0.5873462      0.1762812
      3020.5000         0.4997        12.6711       162.7893        42.8952       58.71045         0.2458      -172.9182       -40.8427      0.5470307      0.1907771
      3021.0000         0.4987        12.7082       161.8354         41.493       56.18289         0.2431      -172.3516       -40.2761       0.493253      0.2025812
      3021.5000         0.4985        12.8147       160.9548        41.9753       57.02461         0.2401      -171.8857       -39.8102       0.511162      0.2122875
      3022.0000         0.4975         12.933       161.0786        43.4766       59.68807         0.2423      -171.5264       -39.4509      0.5678313      0.2197729
      3022.5000         0.4952        12.8991       161.8335        43.7761       60.20298         0.2523      -171.2488       -39.1733      0.5787867      0.2255562
      3023.0000         0.4934        12.8428       162.3792         43.202       59.15599         0.2558      -171.0042       -38.9287      0.5565104      0.2306521
      3023.5000         0.4903        12.9353       162.6772        42.4521       57.79469         0.2549      -170.7981       -38.7226      0.5275466      0.2349458
      3024.0000         0.4852        13.1198       162.5952        42.0231       57.00711          0.254      -170.5239       -38.4484      0.5107895      0.2406584
      3024.5000         0.4816        12.9819       161.6672        41.7557       56.50846         0.2513       -170.175       -38.0995      0.5001799      0.2479271
      3025.0000         0.4794        12.8116       160.7729        41.2373       55.56104         0.2486      -169.9409       -37.8654      0.4800222      0.2528042
      3025.5000          0.478        12.7481       160.2004        40.9281       54.98766         0.2459      -169.7871       -37.7116      0.4678226      0.2560083
      3026.0000         0.4744        12.7289       159.9229        41.9386       56.77378         0.2432      -169.7004       -37.6249      0.5058251      0.2578146
