#------------------------------------------------------------------------------
# Created by    : vladimir.rabinovich
# Created on    : 09/19/2023 17:20:13
#------------------------------------------------------------------------------
~Version Information Section
VERS.           2.0     :   CWLS log ASCII Standard - VERSION 2.0
WRAP.           NO      :   One line per depth step
~Well Information Section
#MNEM       .UNIT                                         VALUE :DESCRIPTION
#------------------------------------------------------------------------------
STRT        .FT                                             608 :START DEPTH
STOP        .FT                                            9135 :STOP DEPTH
STEP        .FT                                             0.5 :STEP      
NULL        .                                           -999.25 :NULL      
COMP        .                             PHILLIPS PETROLEUM CO :COMPANY   
WELL        .                                OCS 00757 ST00BP00 :WELL      
FLD         .                           WEST CAMERON BLOCK 0118 :FIELD     
LOC         .                                                   :LOCATION  
CNTY        .                                      WEST CAMERON :LOCATION  
STAT        .                                         LOUISIANA :STATE     
CTRY        .                                     UNITED STATES :COUNTRY   
SRVC        .                                                   :SERVICE COMPANY
DATE        .                             9/13/2023 11:18:18 AM :LOG DATE  
API         .                                    17700400630000 :API NUMBER
UWI         .                                    17700400630000 :UNIQUE WELL ID
XCOORD      .                                  1437747.16229911 :SURFACE X 
YCOORD      .                                  10702102.5427903 :SURFACE Y 
LAT         .                                         29.487661 :LATITUDE  
LON         .                                       -93.6372228 :LONGITUDE 
ELEV        .FT                                              84 :ELEVATION VALUE
ELEV_TYPE   .                                                KB :ELEVATION REFERENCE TYPE
~Curve Information Section
#MNEM       .UNIT                                      API CODE :CURVE DESCRIPTION
#------------------------------------------------------------------------------
DEPT        .FT                                                 :DEPTH     
ASFL        .OHMM                                               :          
ASN         .OHMM                                               :          
CALI        .IN                                                 :          
DRHO        .G/CC                                               :          
GR          .GAPI                                               :          
GR_NORM     .GAPI                                               :GammaRay Normalized
ILD         .OHMM                                               :          
RHOB        .G/CC                                               :          
SP          .MV                                                 :          
SP_NORM     .MV                                                 :SP Normalized
VSH_GR      .V/V                                                :Volume of Shale from GR
VSH_SP      .V/V                                                :Volume of Shale from SP
~A        DEPTH           ASFL            ASN           CALI           DRHO             GR        GR_NORM            ILD           RHOB             SP        SP_NORM         VSH_GR         VSH_SP
# ...
      4380.0000        -999.25         1.1054        11.1748         0.0249       159.9292        73.9013         0.9396         2.1291      -121.2295        -2.4629      0.8702404       0.991266
      4380.5000        -999.25         1.1496        11.1272         0.0223       157.7207       72.69373         0.9622         2.1402       -121.757        -3.0054      0.8445473      0.9810302
      4381.0000        -999.25         1.1718        11.1689         0.0197       157.6614       72.65416         0.9797         2.1499      -122.0865        -3.3498      0.8437055      0.9745321
      4381.5000        -999.25         1.1646        11.2106         0.0176       158.0159       72.83948         0.9962         2.1595       -122.109        -3.3873      0.8476484      0.9738245
      4382.0000        -999.25         1.1533        11.2354         0.0178       160.4324       74.14541         1.0027          2.166      -121.9261        -3.2194      0.8754342      0.9769924
      4382.5000        -999.25         1.1429        11.2742         0.0207       165.9988       77.16313         1.0093         2.1724      -121.6478        -2.9561      0.9396411      0.9819604
      4383.0000        -999.25         1.1325        11.3597         0.0245       170.6128       79.66337         1.0024         2.1654      -121.2748        -2.5981      0.9928376      0.9887151
      4383.5000        -999.25         1.1298        11.5748         0.0276       171.7227       80.25922          0.991         2.1546      -120.9021        -2.2403              1      0.9954661
      4384.0000        -999.25          1.129        12.0643         0.0317       169.9692       79.29892         0.9791         2.1647       -120.623        -1.9762      0.9850834              1
      4384.5000        -999.25         1.1275        13.0712         0.0263       166.8354       77.58855          0.967         2.1708      -120.3801        -1.7483      0.9486925              1
      4385.0000        -999.25          1.121        12.7331         0.0179       166.6409        77.4754         0.9567         2.1607       -120.137        -1.5201      0.9462852              1
      4385.5000        -999.25         1.1128        12.4291          0.011       168.9951       78.74752         0.9479         2.1502      -119.8906        -1.2887      0.9733515              1
      4386.0000        -999.25          1.104        12.3496         0.0108       171.4124       80.05389         0.9395         2.1419      -119.6444        -1.0575              1              1
      4386.5000        -999.25         1.0963        12.1564         0.0131       172.8372       80.82093         0.9319         2.1354      -119.3708        -0.7989              1              1
      4387.0000        -999.25         1.0956        11.9813         0.0178       169.7654       79.14414         0.9244         2.1293      -119.0717        -0.5147      0.9817902              1
      4387.5000        -999.25         1.0948        11.9443         0.0279       166.4587       77.33975          0.921         2.1232      -118.7722        -0.2302       0.943399              1
      4388.0000        -999.25         1.1015         11.987         0.0397       165.3921       76.75282         0.9202         2.1351      -118.4171         0.1099      0.9309109              1
      4388.5000        -999.25         1.1101        12.0354         0.0487       166.9482       77.59116         0.9308         2.1578       -118.053          0.459       0.948748              1
      4389.0000        -999.25         1.1184        11.9614         0.0484       167.5706       77.92201         0.9431         2.1731      -117.7548         0.7422      0.9557875              1
      4389.5000        -999.25         1.1267        11.8871          0.031       167.5215       77.88799         0.9541         2.1691       -117.527         0.9551      0.9550637              1
      4390.0000        -999.25         1.1338         11.835         0.0193       166.8979       77.54181         0.9615         2.1632      -117.6635         0.8036      0.9476981              1
      4390.5000        -999.25         1.1279        11.7852         0.0201       166.1047       77.10335         0.9708         2.1658      -117.8763         0.5758      0.9383691              1
      4391.0000        -999.25         1.1157        11.7515         0.0209       166.9482       77.55442         0.9801         2.1646      -118.1157         0.3214      0.9479664              1
      4391.5000        -999.25          1.104        11.7131         0.0219       172.5657       80.59996         0.9816         2.1536      -117.9531         0.4691              1              1
      4392.0000        -999.25          1.094        11.7149          0.023       176.2056       82.57076         0.9809         2.1411      -117.6294         0.7778              1              1
      4392.5000        -999.25         1.0928        11.7168         0.0196       178.1079       83.59724         0.9724         2.1314      -117.4731         0.9191              1              1
      4393.0000        -999.25         1.0947        11.7913         0.0191       178.2844       83.68583          0.964         2.1363      -117.3574         1.0198              1              1
      4393.5000        -999.25         1.0967        11.8478         0.0178       178.2458       83.65756          0.947          2.134      -118.6339        -0.2723              1              1
      4394.0000        -999.25         1.0983          11.87         0.0142       177.4436       83.21422         0.9283         2.1284      -120.1766        -1.8318              1              1
      4394.5000        -999.25            1.1        11.8335         0.0065        174.634       81.68002         0.9098         2.1237      -121.6306        -3.3026              1      0.9754226
      4395.0000        -999.25         1.0967        11.7704         -0.003       171.5312        79.9864         0.8914         2.1201      -122.0819        -3.7707      0.9997106      0.9665906
      4395.5000        -999.25         1.0868        11.6941         0.0013       168.9565       78.57982         0.8723         2.1167      -121.7865        -3.4921      0.9697834      0.9718472
      4396.0000        -999.25         1.0698        11.6185         0.0058       173.9766       81.30069         0.8529         2.1095      -121.1655         -2.888              1      0.9832453
      4396.5000        -999.25         1.0504        11.5523         0.0089       177.2703       83.08335         0.8325         2.0998      -120.6277         -2.367              1      0.9930755
      4397.0000        -999.25         1.0372        11.6575         0.0096       176.7891       82.81454         0.8105         2.0927      -120.1396        -1.8957              1              1
      4397.5000        -999.25         1.0261        11.7142         0.0106       175.0618        81.8685           0.79         2.0871      -119.6206        -1.3935              1              1
      4398.0000        -999.25         1.0226        11.7173         0.0122       172.8774       80.67398         0.7746         2.0836      -119.0981        -0.8879              1              1
      4398.5000        -999.25         1.0226        11.6847          0.018       170.3657       79.30164         0.7617         2.0885      -118.7487        -0.5553      0.9851413              1
      4399.0000        -999.25         1.0253        11.6486          0.028        168.363       78.20592         0.7534         2.1042      -118.4949        -0.3183      0.9618281              1
      4399.5000        -999.25          1.028        11.6536         0.0353       167.9724       77.98636         0.7508         2.1152      -118.3043        -0.1445      0.9571565              1
      4400.0000        -999.25         1.0305        11.8143         0.0374       169.4927       78.80524         0.7502         2.1234       -118.175        -0.0321      0.9745795              1
