#------------------------------------------------------------------------------
# Created by    : vladimir.rabinovich
# Created on    : 09/19/2023 17:20:59
#------------------------------------------------------------------------------
~Version Information Section
VERS.           2.0     :   CWLS log ASCII Standard - VERSION 2.0
WRAP.           NO      :   One line per depth step
~Well Information Section
#MNEM       .UNIT                                         VALUE :DESCRIPTION
#------------------------------------------------------------------------------
STRT        .FT                                            4010 :START DEPTH
STOP        .FT                                           10351 :STOP DEPTH
STEP        .FT                                             0.5 :STEP      
NULL        .                                           -999.25 :NULL      
COMP        .                         TALOS ENERGY VENTURES LLC :COMPANY   
WELL        .                               OCS G13557 ST00BP00 :WELL      
FLD         .                           WEST CAMERON BLOCK 0118 :FIELD     
LOC         .                                                   :LOCATION  
CNTY        .                                      WEST CAMERON :LOCATION  
STAT        .                                         LOUISIANA :STATE     
CTRY        .                                     UNITED STATES :COUNTRY   
SRVC        .                                                   :SERVICE COMPANY
DATE        .                             9/13/2023 11:19:21 AM :LOG DATE  
API         .                                    17700409470000 :API NUMBER
UWI         .                                    17700409470000 :UNIQUE WELL ID
XCOORD      .                                  1434760.35260149 :SURFACE X 
YCOORD      .                                  10716448.9068769 :SURFACE Y 
LAT         .                                        29.5270802 :LATITUDE  
LON         .                                       -93.6468641 :LONGITUDE 
ELEV        .FT                                             100 :ELEVATION VALUE
ELEV_TYPE   .                                                KB :ELEVATION REFERENCE TYPE
~Curve Information Section
#MNEM       .UNIT                                      API CODE :CURVE DESCRIPTION
#------------------------------------------------------------------------------
DEPT        .FT                                                 :DEPTH     
AT10        .OHMM                                               :          
AT20        .OHMM                                               :          
AT30        .OHMM                                               :          
AT60        .OHMM                                               :          
AT90        .OHMM                                               :          
CALI        .IN                                                 :          
DPHI        .%                                                  :          
DRHO        .G/C3                                               :          
DTLF        .US/F                                               :          
DTLN        .US/F                                               :          
GR          .GAPI                                               :          
GR_NORM     .GAPI                                               :GammaRay Normalized
NPOR        .%                                                  :          
RHOB        .G/C3                                               :          
SP          .MV                                                 :          
SP_NORM     .MV                                                 :SP Normalized
TENS        .LBF                                                :          
VSH_GR      .V/V                                                :Volume of Shale from GR
VSH_SP      .V/V                                                :Volume of Shale from SP
~A        DEPTH           AT10           AT20           AT30           AT60           AT90           CALI           DPHI           DRHO           DTLF           DTLN             GR        GR_NORM           NPOR           RHOB             SP        SP_NORM           TENS         VSH_GR         VSH_SP
# ...
      6548.0000         0.4148         0.2414          0.217         0.1972         0.1995         9.4888        30.6248        -0.0067       109.8999            110        43.9589       39.31116        32.0507         2.1447        -999.25        -999.25           2360        0.13428        -999.25
      6548.5000         0.3895         0.2309         0.2101         0.1955         0.1982         9.4949        30.7745        -0.0077          109.2          109.6        45.7649        41.0088        31.7335         2.1422        -999.25        -999.25           2360         0.1704        -999.25
      6549.0000         0.3618         0.2202         0.2015          0.192         0.1957         9.4838        30.9204        -0.0114            109       108.8999        45.0862       40.37082        32.5326         2.1398        -999.25        -999.25           2385       0.156826        -999.25
      6549.5000         0.3464         0.2143         0.1955         0.1886         0.1931         9.4949        30.7319        -0.0117       108.8999          109.5        40.3102       35.88138         32.866         2.1429        -999.25        -999.25           2385       0.061306        -999.25
      6550.0000         0.3455          0.214          0.194         0.1868          0.192         9.4794        30.8855        -0.0112          109.2       110.2999        40.8559       36.39434        32.4529         2.1404        -999.25        -999.25           2385     0.07222001        -999.25
      6550.5000         0.3583         0.2197         0.1977         0.1881         0.1932         9.5059        31.3003        -0.0122            110            110        43.8254       39.18567        32.8344         2.1335        -999.25        -999.25           2385      0.1316101        -999.25
      6551.0000         0.3759         0.2275          0.204         0.1911          0.196         9.4904        31.8049        -0.0132            111       110.8999        45.4056       40.67106        33.6418         2.1252        -999.25        -999.25           2340       0.163214        -999.25
      6551.5000         0.3803         0.2304         0.2074         0.1925         0.1973         9.4809        32.5539        -0.0151          111.7          111.7        46.3712       41.57872        33.9307         2.1129        -999.25        -999.25           2340       0.182526        -999.25
      6552.0000         0.3677         0.2273         0.2061         0.1915         0.1963         9.4949        32.5715        -0.0155          112.1          111.6        49.6103       44.62347        34.2003         2.1126        -999.25        -999.25           2340       0.247308        -999.25
      6552.5000         0.3483         0.2213         0.2026         0.1898         0.1948         9.4907        32.4691        -0.0157          111.5            112        48.0567       43.16309        35.0436         2.1143        -999.25        -999.25           2340       0.216236        -999.25
      6553.0000         0.3264         0.2138          0.198         0.1882         0.1932         9.4904        31.8434         -0.016          110.6          112.1        48.7352       43.80088        34.9303         2.1246        -999.25        -999.25           2415       0.229806        -999.25
      6553.5000         0.3044         0.2057         0.1923         0.1858          0.191         9.4794        30.9639         -0.014          110.5          111.1         44.336       39.66563        34.4467         2.1391        -999.25        -999.25           2415       0.141822        -999.25
      6554.0000          0.286         0.1984          0.186         0.1827         0.1879         9.5028        29.7794         -0.011       107.7999       108.8999        39.8912       35.48752         33.838         2.1586        -999.25        -999.25           2415       0.052926        -999.25
      6554.5000         0.2735          0.193         0.1812         0.1802         0.1853         9.4949        29.6709        -0.0122       106.7999          107.5        37.4033        33.1489        33.7552         2.1604        -999.25        -999.25           2400    0.003167984        -999.25
      6555.0000         0.2676         0.1901         0.1791         0.1795         0.1844          9.475        29.5939        -0.0118          107.7       106.8999        38.0535       33.76008        33.6052         2.1617        -999.25        -999.25           2400     0.01617196        -999.25
      6555.5000          0.267         0.1896         0.1788         0.1795         0.1842         9.5015        29.8375        -0.0119          108.1       108.2999        41.9527       37.42533        33.6944         2.1577        -999.25        -999.25           2400     0.09415606        -999.25
      6556.0000         0.2754         0.1941         0.1812         0.1807         0.1851         9.4901         30.476        -0.0117       109.3999          109.5        44.6371       39.94867        33.4645         2.1472        -999.25        -999.25           2400       0.147844        -999.25
      6556.5000         0.3011         0.2069         0.1903         0.1862           0.19         9.4794        31.1144         -0.014       109.8999            110        45.1178       40.40052        33.1194         2.1366        -999.25        -999.25           2375       0.157458        -999.25
      6557.0000         0.3421          0.225         0.2044         0.1941          0.197         9.5015        31.6342        -0.0161          110.2            111        44.3306       39.66056        32.1169          2.128        -999.25        -999.25           2375      0.1417141        -999.25
      6557.5000         0.3801         0.2401         0.2165         0.1991         0.2015         9.4904        31.8424        -0.0209       110.3999          110.1        42.2313       37.68722        31.4815         2.1246        -999.25        -999.25           2375     0.09972811        -999.25
      6558.0000         0.3943         0.2466          0.222         0.2005         0.2031         9.4826        31.7833        -0.0196            110       110.2999         42.428       37.87212        30.8443         2.1256        -999.25        -999.25           2375       0.103662        -999.25
      6558.5000         0.3785         0.2423         0.2193         0.1996         0.2027         9.4904        31.5488        -0.0203       109.3999            110        42.6299        38.0619        30.9461         2.1295        -999.25        -999.25           2395      0.1076999        -999.25
      6559.0000         0.3463         0.2297         0.2104         0.1957         0.1995         9.5015        31.5799        -0.0219       109.3999          110.2        39.5048       35.12431        30.5784         2.1289        -999.25        -999.25           2395     0.04519799        -999.25
      6559.5000         0.3159         0.2156         0.1999         0.1895         0.1941         9.4904        31.6248         -0.023       109.7999          110.2        36.1651       31.98499        31.4275         2.1282        -999.25        -999.25           2395              0        -999.25
      6560.0000         0.2947          0.205         0.1913          0.184          0.189         9.4826        31.6504        -0.0204            110       110.3999        37.5221       33.26057        32.1518         2.1278        -999.25        -999.25           2395    0.005544054        -999.25
      6560.5000         0.2817         0.1984         0.1857         0.1804         0.1854         9.4904        31.4203        -0.0216          110.5            111        39.8118       35.41288        32.5807         2.1316        -999.25        -999.25           2365     0.05133795        -999.25
      6561.0000         0.2741         0.1945         0.1823         0.1781         0.1829         9.5015        31.0819        -0.0167          110.5          111.1        40.9448       36.47791        33.0968         2.1372        -999.25        -999.25           2365     0.07399806        -999.25
