#------------------------------------------------------------------------------
# Created by    : vladimir.rabinovich
# Created on    : 09/19/2023 17:22:20
#------------------------------------------------------------------------------
~Version Information Section
VERS.           2.0     :   CWLS log ASCII Standard - VERSION 2.0
WRAP.           NO      :   One line per depth step
~Well Information Section
#MNEM       .UNIT                                         VALUE :DESCRIPTION
#------------------------------------------------------------------------------
STRT        .FT                                            3394 :START DEPTH
STOP        .FT                                            9102 :STOP DEPTH
STEP        .FT                                             0.5 :STEP      
NULL        .                                           -999.25 :NULL      
COMP        .                               TALOS PETROLEUM LLC :COMPANY   
WELL        .                                OCS 00299 ST00BP02 :WELL      
FLD         .                           WEST CAMERON BLOCK 0045 :FIELD     
LOC         .                                                   :LOCATION  
CNTY        .                                      WEST CAMERON :LOCATION  
STAT        .                                         LOUISIANA :STATE     
CTRY        .                                     UNITED STATES :COUNTRY   
SRVC        .                                                   :SERVICE COMPANY
DATE        .                             9/13/2023 11:19:21 AM :LOG DATE  
API         .                                    17700408910000 :API NUMBER
UWI         .                                    17700408910000 :UNIQUE WELL ID
XCOORD      .                                  1447531.51187247 :SURFACE X 
YCOORD      .                                  10768708.3799417 :SURFACE Y 
LAT         .                                         29.671026 :LATITUDE  
LON         .                                        -93.607557 :LONGITUDE 
ELEV        .FT                                              95 :ELEVATION VALUE
ELEV_TYPE   .                                                KB :ELEVATION REFERENCE TYPE
~Curve Information Section
#MNEM       .UNIT                                      API CODE :CURVE DESCRIPTION
#------------------------------------------------------------------------------
DEPT        .FT                                                 :DEPTH     
CALI        .IN                                                 :          
DPHI        .V/V                                                :          
DRHO        .G/C3                                               :          
GR          .GAPI                                               :          
GR_NORM     .GAPI                                               :GammaRay Normalized
IDPH        .OHMM                                               :          
IMPH        .OHMM                                               :          
NPOR        .V/V                                                :          
SFLU        .OHMM                                               :          
SP          .MV                                                 :          
SP_NORM     .MV                                                 :SP Normalized
TENS        .LBS                                                :          
VSH_GR      .V/V                                                :Volume of Shale from GR
VSH_SP      .V/V                                                :Volume of Shale from SP
~A        DEPTH           CALI           DPHI           DRHO             GR        GR_NORM           IDPH           IMPH           NPOR           SFLU             SP        SP_NORM           TENS         VSH_GR         VSH_SP
# ...
      8344.0000          14.24         0.2796              0           66.6        68.6764         0.5378         0.6335         0.3852         0.5733          -20.7       -21.8967           5280      0.7590723      0.7567033
      8344.5000          14.12         0.2628         -0.001           61.8       61.27309         0.5046         0.5892          0.306         0.7929          -27.3       -28.5152           5240      0.6015552      0.6831645
      8345.0000          14.24         0.2508          0.002           55.4       51.40243         0.4954         0.5629         0.2508         1.0094          -33.3       -34.5337           5180       0.391541      0.6162922
      8345.5000          14.44         0.2412           0.01           53.8       48.93373         0.5046         0.5527         0.2388         0.9159          -36.9       -38.1521           5180      0.3390156      0.5760878
      8346.0000          14.64         0.2304          0.019             56       52.32492         0.5233         0.5629           0.27         0.8159          -38.7       -39.9706           5180      0.4111686      0.5558822
      8346.5000             15         0.2148          0.019           60.8       59.72549         0.5477         0.5892         0.3156         0.6751          -34.2       -35.4891           5200      0.5686275      0.6056767
      8347.0000          15.32         0.2064          0.015           64.8       65.89241         0.5733         0.6222          0.342          0.611          -27.3       -28.6076           5220      0.6998385      0.6821378
      8347.5000          15.44          0.198          0.007           64.6        65.5826            0.6         0.6751         0.3204         0.6165          -20.4       -21.7261           5260      0.6932469      0.7585989
      8348.0000          15.44         0.1944          0.001           64.2       64.96439         0.6335         0.7254         0.2628         0.6812       -13.1633       -14.5079           5300      0.6800935      0.8388011
      8348.5000          15.48         0.1932         -0.001           63.8       64.34621         0.6751         0.7929           0.24         0.8402       -10.7143       -12.0773           5340      0.6669407      0.8658078
      8349.0000          15.52         0.1944         -0.001             64       64.65324         0.7189            0.8         0.2424         0.9322        -7.6531        -9.0346           5400      0.6734731      0.8996155
      8349.5000          15.56          0.198         -0.001           65.2       66.50232         0.7517            0.8          0.258          0.974        -8.5714        -9.9714           5400      0.7128153      0.8892066
      8350.0000          15.64          0.204         -0.002           69.8       73.59451         0.7789            0.8         0.2832          0.957        -9.4898       -10.9083           5380      0.8637129      0.8787966
      8350.5000           15.6         0.2112         -0.003           77.4       85.31287         0.7789         0.7929         0.3432         0.8485        -9.4898       -10.9268           5340              1      0.8785911
      8351.0000          15.48         0.2112         -0.002           78.6       87.16198         0.7789         0.7929         0.3444         0.7584        -8.2653        -9.7207           5340              1      0.8919922
      8351.5000          15.28         0.2052          0.001             76       83.15121         0.7789         0.7789         0.3288         0.6812        -7.3469        -8.8208           5320              1      0.9019911
      8352.0000          15.28         0.1944          0.005           73.2       78.83203         0.8079         0.7789         0.2916         0.6751        -7.0408        -8.5332           5280      0.9751496      0.9051867
      8352.5000          15.44         0.1836          0.007           72.6        77.9054         0.8402         0.7929          0.276         0.7063        -7.6531         -9.164           5240      0.9554341      0.8981778
      8353.0000          15.72         0.1788          0.009           72.2        77.2872         0.8485         0.8079         0.2664         0.7584        -7.9592        -9.4886           5200      0.9422809      0.8945711
      8353.5000          15.72         0.1776          0.009           72.4       77.59423         0.8569         0.8239         0.2688          0.832        -8.2653        -9.8131           5180      0.9488134      0.8909656
      8354.0000             16           0.18          0.007           72.4       77.59285         0.8485         0.8402         0.2796            0.9        -8.5714       -10.1377           5180      0.9487841      0.8873589
      8354.5000          16.28         0.1848          0.005             72       76.97464         0.8485          0.832         0.2928         0.8239        -8.8776       -10.4624           5180      0.9356306      0.8837511
      8355.0000          16.56         0.1884          0.003           71.8       76.66486         0.8485         0.8159         0.3048         0.7652        -8.8776       -10.4809           5180      0.9290395      0.8835456
      8355.5000           16.6          0.192          0.004           72.8       78.20554         0.8159            0.8         0.3144         0.7189        -7.6531        -9.2749           5200      0.9618201      0.8969455
      8356.0000           16.6         0.1944          0.005           72.8       78.20416         0.7929         0.7859         0.3216            0.7        -7.0408         -8.681           5240      0.9617907      0.9035444
      8356.5000           16.6         0.1992          0.007             71       75.42706         0.7789          0.772         0.3108         0.7789        -6.7347        -8.3934           5280      0.9027035        0.90674
      8357.0000           16.6         0.2064          0.009           72.4       77.58456         0.7859         0.7584         0.2988            0.8        -6.7347        -8.4119           5300      0.9486077      0.9065344
      8357.5000          16.64         0.2172          0.012           75.6       82.51782         0.7517         0.7319          0.318          0.745        -6.7347        -8.4304           5340              1      0.9063289
      8358.0000          16.56         0.2256          0.015           75.6       82.51645         0.7189            0.7          0.354         0.6874        -7.0408         -8.755           5380              1      0.9027222
      8358.5000          16.52         0.2316          0.016           74.6         80.973         0.6812          0.669         0.3564         0.6393        -7.3469        -9.0795           5360              1      0.8991166
      8359.0000          16.48         0.2376          0.015           75.4       82.20528         0.6569         0.6335         0.3516            0.6        -7.6531        -9.4042           5340              1      0.8955089
      8359.5000          16.44         0.2448          0.012             77       84.67122         0.6335         0.6055         0.3564         0.5838        -7.6531        -9.4227           5280              1      0.8953033
      8360.0000          16.44         0.2472          0.013           73.8       79.73519         0.6278            0.6         0.3564         0.5629        -7.6531        -9.4412           5280      0.9943658      0.8950978
      8360.5000          16.36         0.2448          0.017           71.6       76.34126         0.6167            0.6         0.3433         0.5378        -7.3469        -9.1535           5280      0.9221544      0.8982944
      8361.0000          16.36         0.2364          0.024           72.4       77.57354         0.6285            0.6         0.3206         0.5527        -6.7347        -8.5597           5320      0.9483732      0.9048922
      8361.5000          16.32         0.2268          0.032           73.4       79.11423          0.647         0.6409         0.3085          0.647        -6.4286        -8.2721           5360      0.9811538      0.9080878
