#------------------------------------------------------------------------------
# Created by    : vladimir.rabinovich
# Created on    : 09/19/2023 17:22:04
#------------------------------------------------------------------------------
~Version Information Section
VERS.           2.0     :   CWLS log ASCII Standard - VERSION 2.0
WRAP.           NO      :   One line per depth step
~Well Information Section
#MNEM       .UNIT                                         VALUE :DESCRIPTION
#------------------------------------------------------------------------------
STRT        .FT                                           911.5 :START DEPTH
STOP        .FT                                           12432 :STOP DEPTH
STEP        .FT                                             0.5 :STEP      
NULL        .                                           -999.25 :NULL      
COMP        .                                    EXXON CO U S A :COMPANY   
WELL        .                               OCS G03260 ST00BP00 :WELL      
FLD         .                                           WILDCAT :FIELD     
LOC         .                                                   :LOCATION  
CNTY        .                                      WEST CAMERON :LOCATION  
STAT        .                                         LOUISIANA :STATE     
CTRY        .                                     UNITED STATES :COUNTRY   
SRVC        .                                                   :SERVICE COMPANY
DATE        .                             9/13/2023 11:18:18 AM :LOG DATE  
API         .                                    17700402650000 :API NUMBER
UWI         .                                    17700402650000 :UNIQUE WELL ID
XCOORD      .                                  1465533.33943019 :SURFACE X 
YCOORD      .                                  10722576.3450242 :SURFACE Y 
LAT         .                                        29.5443718 :LATITUDE  
LON         .                                       -93.5501671 :LONGITUDE 
ELEV        .FT                                              99 :ELEVATION VALUE
ELEV_TYPE   .                                                KB :ELEVATION REFERENCE TYPE
~Curve Information Section
#MNEM       .UNIT                                      API CODE :CURVE DESCRIPTION
#------------------------------------------------------------------------------
DEPT        .FT                                                 :DEPTH     
CALI        .IN                                                 :          
DRHO        .G/CC                                               :          
GR          .GAPI                                               :          
GR_NORM     .GAPI                                               :GammaRay Normalized
ILD         .OHMM                                               :          
RHOB        .G/CC                                               :          
VSH_GR      .V/V                                                :Volume of Shale from GR
~A        DEPTH           CALI           DRHO             GR        GR_NORM            ILD           RHOB         VSH_GR
# ...
     11564.5000         7.9846        -0.0239        75.7317       81.04086         0.5352          2.327              1
     11565.0000          7.975        -0.0209        74.2953       79.33953         0.5466          2.327      0.9859475
     11565.5000         7.9655        -0.0078        74.3911       79.44846          0.558         2.3465       0.988265
     11566.0000          7.975        -0.0054        74.6787       79.78397         0.5693         2.3726      0.9954037
     11566.5000         8.0517        -0.0112        74.8711        80.0069         0.5807         2.3862              1
     11567.0000         7.9366        -0.0184        74.5829       79.66218         0.5941          2.378      0.9928123
     11567.5000         7.7355        -0.0107        73.6241       78.52509         0.6085          2.395      0.9686188
     11568.0000         7.5053        -0.0068        72.8566       77.61411         0.6228         2.4072      0.9492365
     11568.5000         7.3807        -0.0101        72.4746       77.15858         0.6372         2.4067      0.9395444
     11569.0000         7.4477        -0.0086        74.0065       78.96397         0.6498          2.399      0.9779567
     11569.5000         7.5435        -0.0159         75.734       81.00056         0.6621         2.3831              1
     11570.0000         7.6586         -0.027        76.3087       81.67514         0.6485         2.3517              1
     11570.5000         7.8022        -0.0308        76.5011       81.89818         0.6226         2.3266              1
     11571.0000         7.8696        -0.0187        76.9799       82.45947         0.5968         2.3281              1
     11571.5000         7.8313         -0.008        76.5004       81.88873         0.5709         2.3267              1
     11572.0000         7.8044        -0.0159        77.3834       82.92767         0.5449         2.3115              1
     11572.5000          7.805         -0.014        77.3889       82.92978          0.519         2.3037              1
     11573.0000         7.7766         -0.002        76.4337       81.79707         0.5011         2.3211              1
     11573.5000         7.7579        -0.0054        75.0009       80.10001         0.4962         2.3312              1
     11574.0000         7.7681         -0.017        73.2776       78.05984         0.4914         2.3191      0.9587201
     11574.5000         7.7876        -0.0209        71.5586        76.0248         0.4865         2.3138      0.9154212
     11575.0000         7.7881        -0.0204        70.3168       74.55338         0.4816         2.3205      0.8841144
     11575.5000         7.7407        -0.0108        69.5554        73.6496         0.4768         2.3292      0.8648852
     11576.0000         7.7123        -0.0011        68.4072       72.28877         0.4892         2.3369      0.8359314
     11576.5000         7.6746         -0.004        67.0717       70.70677         0.5016         2.3437      0.8022717
     11577.0000         7.7037        -0.0283        65.7327       69.12052         0.5141          2.317      0.7685217
     11577.5000         7.7137        -0.0254        63.8205       66.85722         0.5265         2.3064      0.7203663
     11578.0000         7.8199        -0.0201        61.0446       63.57354         0.5389          2.316       0.650501
     11578.5000         7.8588        -0.0158        57.5027       59.38482         0.5668         2.3392      0.5613791
     11579.0000         7.0235          -0.01        53.9589       55.19395         0.5953         2.3595      0.4722118
     11579.5000          6.757        -0.0042        52.6217       53.60983         0.6238         2.3667      0.4385071
     11580.0000          6.815        -0.0115        56.0802       57.69141         0.6522         2.3851      0.5253491
     11580.5000         6.9497        -0.0163        61.0707       63.58288         0.6874         2.4093      0.6506996
     11581.0000         6.8831        -0.0154         66.255       69.70319         0.7289         2.3986      0.7809188
     11581.5000         6.8166        -0.0135        69.8997       74.00474         0.7705         2.3691      0.8724412
     11582.0000         6.9838        -0.0115        71.9541       76.42741         0.8053         2.3536      0.9239875
     11582.5000         7.1552        -0.0047        72.2332       76.75288          0.819         2.3608      0.9309123
     11583.0000         7.3175         0.0025        72.4146       76.96294         0.7897         2.3632      0.9353817
     11583.5000         7.4891         0.0151        73.7501        78.5363         0.7605         2.3835      0.9688575
     11584.0000         7.5169         0.0098        74.6969        79.6506         0.7311         2.3897      0.9925659
     11584.5000          7.535         0.0064        75.1665         80.201         0.7018         2.3863              1
     11585.0000         7.6299         0.0064        75.5414       80.63966         0.6725         2.3873              1
     11585.5000         7.8017        -0.0105        76.0109       81.19006         0.6441         2.3693              1
     11586.0000         7.9348        -0.0139        76.2876       81.51257         0.6165         2.3514              1
     11586.5000         7.9913          -0.01        75.9915       81.15852         0.5888         2.3785              1
     11587.0000         8.1055        -0.0149        76.2684       81.48128         0.5612         2.3833              1
     11587.5000         8.0086        -0.0129        77.3131       82.71122         0.5336          2.378              1
     11588.0000         8.1323        -0.0086        77.9757       83.48964         0.5059          2.363              1
     11588.5000         8.2272         -0.012        77.9678       83.47605         0.4916         2.3412              1
     11589.0000         8.2456         0.0025        77.4774       82.89244         0.4853         2.3615              1
     11589.5000         8.2349          0.004        77.1804        82.5372         0.4791         2.3813              1
     11590.0000         8.2052        -0.0023        77.4583       82.86125         0.4728         2.3749              1
     11590.5000         8.1179        -0.0033        77.7362       83.18518         0.4665         2.3744              1
     11591.0000         7.9635        -0.0037        77.5367       82.94525         0.4714         2.3734              1
     11591.5000         7.9721        -0.0071        76.3748       81.56834         0.4783          2.385              1
     11592.0000         8.0421         -0.011         76.021         81.146         0.4853         2.3819              1
     11592.5000         8.0998        -0.0154        76.1158       81.25374         0.4922         2.3747              1
     11593.0000         8.1189        -0.0178        76.5004       81.70373         0.4991         2.3694              1
     11593.5000         8.1285        -0.0129        75.9252       81.01994          0.506         2.3714              1
     11594.0000         8.1381        -0.0071        75.8281       80.90097          0.513         2.3758              1
     11594.5000         8.0901        -0.0067        76.3082       81.46378         0.5199         2.3749              1
     11595.0000         8.0806        -0.0091        76.7882       82.02661         0.5268         2.3783              1
     11595.5000         8.0902          0.005        76.6921        81.9087         0.5328         2.3895              1
     11596.0000         8.0326        -0.0023        76.0208       81.11138         0.5388         2.3891              1
     11596.5000         8.0805        -0.0086        75.1581       80.08783         0.5448         2.3843              1
     11597.0000         8.1092         -0.012          75.35       80.31028         0.5508         2.3867              1
     11597.5000         7.9943        -0.0139        76.5016       81.66652         0.5568         2.3848              1
