#------------------------------------------------------------------------------
# Created by    : vladimir.rabinovich
# Created on    : 09/19/2023 17:22:20
#------------------------------------------------------------------------------
~Version Information Section
VERS.           2.0     :   CWLS log ASCII Standard - VERSION 2.0
WRAP.           NO      :   One line per depth step
~Well Information Section
#MNEM       .UNIT                                         VALUE :DESCRIPTION
#------------------------------------------------------------------------------
STRT        .FT                                            3394 :START DEPTH
STOP        .FT                                            9102 :STOP DEPTH
STEP        .FT                                             0.5 :STEP      
NULL        .                                           -999.25 :NULL      
COMP        .                               TALOS PETROLEUM LLC :COMPANY   
WELL        .                                OCS 00299 ST00BP02 :WELL      
FLD         .                           WEST CAMERON BLOCK 0045 :FIELD     
LOC         .                                                   :LOCATION  
CNTY        .                                      WEST CAMERON :LOCATION  
STAT        .                                         LOUISIANA :STATE     
CTRY        .                                     UNITED STATES :COUNTRY   
SRVC        .                                                   :SERVICE COMPANY
DATE        .                             9/13/2023 11:19:21 AM :LOG DATE  
API         .                                    17700408910000 :API NUMBER
UWI         .                                    17700408910000 :UNIQUE WELL ID
XCOORD      .                                  1447531.51187247 :SURFACE X 
YCOORD      .                                  10768708.3799417 :SURFACE Y 
LAT         .                                         29.671026 :LATITUDE  
LON         .                                        -93.607557 :LONGITUDE 
ELEV        .FT                                              95 :ELEVATION VALUE
ELEV_TYPE   .                                                KB :ELEVATION REFERENCE TYPE
~Curve Information Section
#MNEM       .UNIT                                      API CODE :CURVE DESCRIPTION
#------------------------------------------------------------------------------
DEPT        .FT                                                 :DEPTH     
CALI        .IN                                                 :          
DPHI        .V/V                                                :          
DRHO        .G/C3                                               :          
GR          .GAPI                                               :          
GR_NORM     .GAPI                                               :GammaRay Normalized
IDPH        .OHMM                                               :          
IMPH        .OHMM                                               :          
NPOR        .V/V                                                :          
SFLU        .OHMM                                               :          
SP          .MV                                                 :          
SP_NORM     .MV                                                 :SP Normalized
TENS        .LBS                                                :          
VSH_GR      .V/V                                                :Volume of Shale from GR
VSH_SP      .V/V                                                :Volume of Shale from SP
~A        DEPTH           CALI           DPHI           DRHO             GR        GR_NORM           IDPH           IMPH           NPOR           SFLU             SP        SP_NORM           TENS         VSH_GR         VSH_SP
# ...
      6850.0000          13.36         0.3024         -0.033           39.4       34.52705         0.2094         0.2296         0.2436         0.5838            -99        -93.642           4160     0.03249051              0
      6850.5000          13.32          0.306        -0.0351             39       33.87397         0.2094         0.2318         0.2496         0.5785            -99       -93.6432           4160     0.01859519              0
      6851.0000          13.24         0.3133        -0.0373           38.6       33.22088         0.2094         0.2318          0.258         0.5527          -98.7       -93.3445           4160    0.004699545              0
      6851.5000           13.2          0.317        -0.0385             38       32.23971         0.2094         0.2318         0.2664         0.5378          -98.7       -93.3457           4180              0              0
      6852.0000          13.24         0.3183        -0.0367             37       30.60231         0.2094         0.2296         0.2736         0.5329          -98.4       -93.0469           4140              0              0
      6852.5000          13.28         0.3196        -0.0357           36.2       29.29302         0.2094         0.2275         0.2784         0.5046          -98.4       -93.0481           4140              0              0
      6853.0000          13.28         0.3196        -0.0337           36.2       29.29614         0.2094         0.2255         0.2856         0.4773          -98.7       -93.3494           4120              0              0
      6853.5000           13.2         0.3208        -0.0337           37.6       31.59597         0.2094         0.2255         0.2952         0.4309          -98.7       -93.3506           4120              0              0
      6854.0000          13.12         0.3245        -0.0327             39        33.8958         0.2114         0.2255         0.3061         0.3819          -98.7       -93.3518           4120     0.01905953              0
      6854.5000          13.08         0.3245        -0.0327           39.6       34.88322         0.2133         0.2234         0.3037          0.348          -98.4        -93.053           4120     0.04006844              0
      6855.0000           13.2         0.3208        -0.0337             39       33.90203         0.2153         0.2255         0.2988         0.3322          -98.1       -92.7543           4140     0.01919207              0
      6855.5000           13.2         0.3196        -0.0337           37.4       31.28035         0.2173         0.2296         0.3012         0.3416          -97.8       -92.4555           4140              0              0
      6856.0000           13.2         0.3208        -0.0347           38.4       32.92396         0.2193         0.2361         0.3135         0.3926          -97.8       -92.4567           4140              0              0
      6856.5000          13.24          0.322        -0.0367             40       35.55188         0.2213         0.2405         0.3331         0.4556          -97.8       -92.4579           4140      0.0542954              0
      6857.0000          13.32         0.3245        -0.0388        42.0408       38.90295         0.2296         0.2472         0.3306         0.5477          -97.2       -91.8592           4140      0.1255946              0
      6857.5000          13.36         0.3245        -0.0418        43.2653       40.91486         0.2339         0.2589         0.3061          0.611          -96.9       -91.5604           4140      0.1684012              0
      6858.0000          13.44         0.3233        -0.0408        40.2041       35.89607         0.2361         0.2661         0.2964          0.669          -97.5       -92.1616           4140     0.06161856              0
      6858.5000          13.44         0.3222        -0.0408             38       32.28335         0.2383         0.2637          0.299         0.6569          -98.4       -93.0628       4140.421              0              0
      6859.0000          13.36         0.3236        -0.0389           36.8       30.31787         0.2383         0.2589         0.3138         0.5946          -99.3       -93.9641       4141.129              0              0
      6859.5000          13.28          0.325        -0.0359           39.4       34.58629         0.2383         0.2565         0.3407         0.5527          -99.9       -94.5653       4121.581     0.03375082              0
      6860.0000          13.24         0.3275         -0.036        41.2245       37.58251         0.2361         0.2565         0.3516         0.5378          -99.9       -94.5665       4101.833     0.09750025              0
      6860.5000          13.16           0.33         -0.034        42.0408       38.92477         0.2361         0.2541         0.3492         0.5527          -99.9       -94.5677       4102.041       0.126059              0
      6861.0000          13.12         0.3312         -0.033        42.6531       39.93237         0.2361         0.2565         0.3408         0.5946          -99.6        -94.269       4102.041      0.1474973              0
      6861.5000          13.08         0.3312         -0.031        43.4694       41.27463         0.2339         0.2589         0.3324         0.5733          -99.6       -94.2702       4122.449       0.176056              0
      6862.0000          13.04         0.3276         -0.029         45.102       43.95603         0.2339         0.2589         0.3228         0.5186          -99.3       -93.9714       4163.265      0.2331071              0
      6862.5000             13         0.3252         -0.027        46.5306       46.30277         0.2318         0.2589         0.3144         0.4556          -98.7       -93.3726       4183.673      0.2830377              0
      6863.0000             13         0.3204         -0.025        45.9184       45.30157         0.2318         0.2589         0.3072            0.4          -98.4       -93.0739       4204.082      0.2617356              0
      6863.5000             13         0.3204         -0.024        45.9184       45.30469         0.2318         0.2565         0.3108          0.389          -98.1       -92.7751        4224.49      0.2618019              0
      6864.0000          12.96         0.3192         -0.024        45.5102       44.63816         0.2361         0.2613         0.3156          0.419          -98.4       -93.0763        4224.49      0.2476205              0
      6864.5000          12.92         0.3216         -0.025        47.9592       48.65889         0.2405         0.2686         0.3192         0.4862          -98.4       -93.0775        4224.49      0.3331678              0
      6865.0000          12.88         0.3252         -0.028           50.2       52.33804         0.2449         0.2761         0.3192         0.5946          -97.8       -92.4788       4204.082      0.4114476              0
      6865.5000          12.88         0.3312         -0.032           50.2       52.34115         0.2495         0.2891         0.3072         0.5681          -96.9         -91.58       4204.082      0.4115139              0
      6866.0000          12.92         0.3348         -0.032        48.1633       49.00306         0.2541            0.3         0.3216         0.3646          -95.7       -90.3812       4163.265      0.3404905              0
      6866.5000             13         0.3348         -0.031        46.3265        45.9929         0.2613            0.3         0.3456         0.3513          -95.4       -90.0824       4142.857      0.2764447              0
      6867.0000          13.04         0.3324         -0.031        45.7143        44.9917         0.2637            0.3         0.3564          0.439          -95.4       -90.0836       4102.041      0.2551425              0
      6867.5000          13.04         0.3324         -0.032        45.3061       44.32515         0.2637         0.2972         0.3552         0.5477          -96.3       -90.9849       4081.633      0.2409606              0
