#------------------------------------------------------------------------------
# Created by    : vladimir.rabinovich
# Created on    : 09/19/2023 17:20:42
#------------------------------------------------------------------------------
~Version Information Section
VERS.           2.0     :   CWLS log ASCII Standard - VERSION 2.0
WRAP.           NO      :   One line per depth step
~Well Information Section
#MNEM       .UNIT                                         VALUE :DESCRIPTION
#------------------------------------------------------------------------------
STRT        .FT                                             202 :START DEPTH
STOP        .FT                                            9625 :STOP DEPTH
STEP        .FT                                             0.5 :STEP      
NULL        .                                           -999.25 :NULL      
COMP        .                           GENERAL AMERICAN OIL CO :COMPANY   
WELL        .                               OCS G01862 ST00BP00 :WELL      
FLD         .                           WEST CAMERON BLOCK 0045 :FIELD     
LOC         .                                                   :LOCATION  
CNTY        .                                      WEST CAMERON :LOCATION  
STAT        .                                         LOUISIANA :STATE     
CTRY        .                                     UNITED STATES :COUNTRY   
SRVC        .                                                   :SERVICE COMPANY
DATE        .                             9/13/2023 11:18:18 AM :LOG DATE  
API         .                                    17700004050000 :API NUMBER
UWI         .                                    17700004050000 :UNIQUE WELL ID
XCOORD      .                                  1441793.49938464 :SURFACE X 
YCOORD      .                                  10754125.7201806 :SURFACE Y 
LAT         .                                        29.6308281 :LATITUDE  
LON         .                                       -93.6253819 :LONGITUDE 
ELEV        .FT                                              70 :ELEVATION VALUE
ELEV_TYPE   .                                                KB :ELEVATION REFERENCE TYPE
~Curve Information Section
#MNEM       .UNIT                                      API CODE :CURVE DESCRIPTION
#------------------------------------------------------------------------------
DEPT        .FT                                                 :DEPTH     
ASN         .OHMM                                               :          
CALI        .IN                                                 :          
CALI_1      .IN                                                 :          
DRHO        .G/C3                                               :          
DT          .US/F                                               :          
GR          .GAPI                                               :          
GR_NORM     .GAPI                                               :GammaRay Normalized
ILD         .OHMM                                               :          
RHOB        .G/C3                                               :          
SP          .MV                                                 :          
SP_NORM     .MV                                                 :SP Normalized
VSH_GR      .V/V                                                :Volume of Shale from GR
VSH_SP      .V/V                                                :Volume of Shale from SP
~A        DEPTH            ASN           CALI         CALI_1           DRHO             DT             GR        GR_NORM            ILD           RHOB             SP        SP_NORM         VSH_GR         VSH_SP
# ...
      9607.0000         1.0787        10.9202        10.9721         0.1123       102.3667        86.4905       76.50291         1.1192         2.3575       -43.7736        -2.9573      0.9255939        0.97355
      9607.5000         1.0862        10.9707         11.021         0.1051       101.4088        82.4586       71.50557         1.1278         2.3436       -43.2589        -2.4426      0.8192675      0.9805054
      9608.0000         1.0741        11.0611        11.0586          0.137        98.9506        83.8274       73.20213         1.1245         2.3412       -42.9211        -2.1048      0.8553646      0.9850703
      9608.5000         1.0333        11.1726        11.0807         0.1423        97.5281        87.3467       77.56413         1.1111         2.3275       -42.7133         -1.897       0.948173      0.9878784
      9609.0000          1.023        11.2877        11.0447         0.1137        98.6705         89.996       80.84781         1.0983         2.2949        -42.647        -1.8307              1      0.9887743
      9609.5000         1.0298        11.2759        10.9722         0.0996        100.311        90.6086        81.6071         1.0843         2.2973       -42.7157        -1.8994              1       0.987846
      9610.0000         1.0347        11.1687        10.9338         0.0854       101.5315        89.1024       79.74024         1.0584         2.3479       -42.8528        -2.0365      0.9944732      0.9859933
      9610.5000         0.9984        11.0934        10.9764         0.1043       102.1901        86.7301       76.79988         1.0324         2.3731       -43.2617        -2.4454      0.9319124      0.9804676
      9611.0000         0.9349        11.0636        11.0517         0.1433        99.8328        87.4017       77.63231         1.0096         2.3769       -43.3005        -2.4842      0.9496236      0.9799432
      9611.5000         0.9019        11.0784        11.0903         0.1558        97.5826        88.9227        79.5175         0.9885         2.3504       -42.7932        -1.9769      0.9897341      0.9867986
      9612.0000          0.889         11.228        11.1635         0.1613        97.6396        87.0875       77.24287          0.979         2.3252       -42.2009        -1.3846      0.9413376      0.9948027
      9612.5000         0.8974        11.4552        11.3563         0.1723       100.7249        82.2799       71.28407         0.9801          2.295       -42.0301        -1.2138      0.8145548      0.9971108
      9613.0000         0.9247        11.6714        11.4155         0.1429       107.0045        77.9397       65.90462         0.9843         2.2687        -42.135        -1.3187      0.7000984      0.9956933
      9613.5000         0.9305         11.627        11.4063          0.135       108.7615        77.4579       65.30744         0.9947          2.258       -42.4406        -1.6243      0.6873924      0.9915635
      9614.0000         0.9201         11.683        11.4106         0.1502       108.9535        77.6577       65.55508         1.0042         2.2599       -42.4821        -1.6658      0.6926612      0.9910027
      9614.5000          0.911        11.7469        11.3642          0.157       107.5596        78.3011       66.35255         1.0106         2.2486        -42.473        -1.6567      0.7096286      0.9911257
      9615.0000         0.9173        11.6169        11.2522         0.1323       107.0819        80.2532       68.77209         1.0169         2.2254       -42.5305        -1.7142      0.7611082      0.9903486
      9615.5000           0.93        11.4539        11.1448         0.0991       106.9401         80.226       68.73838         1.0261         2.2109        -42.588        -1.7717      0.7603911      0.9895716
      9616.0000         0.9486        11.5574        11.1498         0.0013       105.2921        80.2615       68.78237         1.0355         2.1841       -42.5548        -1.7385       0.761327      0.9900203
      9616.5000         0.9582        11.5514        -999.25        -999.25       104.4904        -999.25        -999.25         1.0439        -999.25        -42.625        -1.8087        -999.25      0.9890716
      9617.0000         0.9468        11.5461        -999.25        -999.25        104.063        -999.25        -999.25         1.0511        -999.25       -43.3134        -2.4971        -999.25      0.9797689
      9617.5000         0.9365        -999.25        -999.25        -999.25        -999.25        -999.25        -999.25         1.0583        -999.25       -44.1174        -3.3011        -999.25      0.9689041
      9618.0000          0.943        -999.25        -999.25        -999.25        -999.25        -999.25        -999.25          1.059        -999.25       -44.5952        -3.7789        -999.25      0.9624473
      9618.5000         0.9716        -999.25        -999.25        -999.25        -999.25        -999.25        -999.25         1.0569        -999.25       -44.9227        -4.1064        -999.25      0.9580216
      9619.0000         0.9855        -999.25        -999.25        -999.25        -999.25        -999.25        -999.25         1.0548        -999.25       -45.0822        -4.2659        -999.25      0.9558662
      9619.5000         0.9817        -999.25        -999.25        -999.25        -999.25        -999.25        -999.25         1.0541        -999.25       -44.6469        -3.8306        -999.25      0.9617487
      9620.0000         0.9707        -999.25        -999.25        -999.25        -999.25        -999.25        -999.25         1.0544        -999.25       -43.7644        -2.9481        -999.25      0.9736743
      9620.5000         0.9589        -999.25        -999.25        -999.25        -999.25        -999.25        -999.25         1.0546        -999.25       -42.9078        -2.0915        -999.25        0.98525
      9621.0000         0.9532        -999.25        -999.25        -999.25        -999.25        -999.25        -999.25         1.0644        -999.25       -42.3519        -1.5356        -999.25      0.9927621
      9621.5000         0.9501        -999.25        -999.25        -999.25        -999.25        -999.25        -999.25         1.0797        -999.25       -42.2147        -1.3984        -999.25      0.9946162
      9622.0000         0.9532        -999.25        -999.25        -999.25        -999.25        -999.25        -999.25          1.095        -999.25       -42.0299        -1.2136        -999.25      0.9971135
      9622.5000         0.9527        -999.25        -999.25        -999.25        -999.25        -999.25        -999.25         1.0392        -999.25       -42.7156        -1.8993        -999.25      0.9878473
      9623.0000         0.9326        -999.25        -999.25        -999.25        -999.25        -999.25        -999.25         1.0292        -999.25       -43.3393         -2.523        -999.25      0.9794189
      9623.5000         0.8884        -999.25        -999.25        -999.25        -999.25        -999.25        -999.25         1.0344        -999.25       -43.5121        -2.6958        -999.25      0.9770838
      9624.0000         0.8292        -999.25        -999.25        -999.25        -999.25        -999.25        -999.25         1.0317        -999.25       -43.4458        -2.6295        -999.25      0.9779797
      9624.5000         0.7802        -999.25        -999.25        -999.25        -999.25        -999.25        -999.25          1.029        -999.25       -43.4309        -2.6146        -999.25      0.9781811
      9625.0000          0.743        -999.25        -999.25        -999.25        -999.25        -999.25        -999.25         1.0262        -999.25       -43.3614        -2.5451        -999.25      0.9791203
