#------------------------------------------------------------------------------
# Created by    : vladimir.rabinovich
# Created on    : 09/19/2023 17:20:42
#------------------------------------------------------------------------------
~Version Information Section
VERS.           2.0     :   CWLS log ASCII Standard - VERSION 2.0
WRAP.           NO      :   One line per depth step
~Well Information Section
#MNEM       .UNIT                                         VALUE :DESCRIPTION
#------------------------------------------------------------------------------
STRT        .FT                                             202 :START DEPTH
STOP        .FT                                            9625 :STOP DEPTH
STEP        .FT                                             0.5 :STEP      
NULL        .                                           -999.25 :NULL      
COMP        .                           GENERAL AMERICAN OIL CO :COMPANY   
WELL        .                               OCS G01862 ST00BP00 :WELL      
FLD         .                           WEST CAMERON BLOCK 0045 :FIELD     
LOC         .                                                   :LOCATION  
CNTY        .                                      WEST CAMERON :LOCATION  
STAT        .                                         LOUISIANA :STATE     
CTRY        .                                     UNITED STATES :COUNTRY   
SRVC        .                                                   :SERVICE COMPANY
DATE        .                             9/13/2023 11:18:18 AM :LOG DATE  
API         .                                    17700004050000 :API NUMBER
UWI         .                                    17700004050000 :UNIQUE WELL ID
XCOORD      .                                  1441793.49938464 :SURFACE X 
YCOORD      .                                  10754125.7201806 :SURFACE Y 
LAT         .                                        29.6308281 :LATITUDE  
LON         .                                       -93.6253819 :LONGITUDE 
ELEV        .FT                                              70 :ELEVATION VALUE
ELEV_TYPE   .                                                KB :ELEVATION REFERENCE TYPE
~Curve Information Section
#MNEM       .UNIT                                      API CODE :CURVE DESCRIPTION
#------------------------------------------------------------------------------
DEPT        .FT                                                 :DEPTH     
ASN         .OHMM                                               :          
CALI        .IN                                                 :          
CALI_1      .IN                                                 :          
DRHO        .G/C3                                               :          
DT          .US/F                                               :          
GR          .GAPI                                               :          
GR_NORM     .GAPI                                               :GammaRay Normalized
ILD         .OHMM                                               :          
RHOB        .G/C3                                               :          
SP          .MV                                                 :          
SP_NORM     .MV                                                 :SP Normalized
VSH_GR      .V/V                                                :Volume of Shale from GR
VSH_SP      .V/V                                                :Volume of Shale from SP
~A        DEPTH            ASN           CALI         CALI_1           DRHO             DT             GR        GR_NORM            ILD           RHOB             SP        SP_NORM         VSH_GR         VSH_SP
# ...
      8714.0000         0.6976        -999.25        11.4971         0.1304        -999.25        74.9056       68.02953           0.49         2.2874       -93.1294       -44.3486      0.7453092      0.4839453
      8714.5000         0.7353        -999.25        11.5029         0.0979        -999.25        74.6257       67.67913         0.4924         2.2174       -92.9651       -44.1901      0.7378538      0.4858321
      8715.0000         0.7137        -999.25        11.5117         0.0668        -999.25          69.62       61.47146         0.5045         2.2412       -89.1553        -40.386      0.6057757       0.531119
      8715.5000         0.6924        -999.25        11.4314         0.1334        -999.25        67.4639       58.79561         0.5322         2.2642       -83.2159       -34.4523      0.5488427      0.6017583
      8716.0000         0.6824        -999.25        11.3703         0.1155        -999.25        67.6531       59.02677         0.5563          2.275       -78.2994       -29.5416      0.5537611      0.6602191
      8716.5000         0.6843        -999.25        11.5718         0.0739        -999.25        69.1825       60.91892         0.5756         2.2592       -77.3542       -28.6021      0.5940195      0.6714036
      8717.0000         0.6841        -999.25        11.6914         0.0514        -999.25        69.0918       60.80303         0.5969         2.2468       -76.5115       -27.7652      0.5915538      0.6813667
      8717.5000         0.6812        -999.25        11.6199         0.0465        -999.25        71.4331       63.70161         0.6188         2.2426       -75.2367       -26.4961      0.6532257       0.696475
      8718.0000         0.6439        -999.25        11.5308         0.0853        -999.25        73.6699       66.47054         0.6413         2.2538       -72.5793       -23.8444      0.7121391      0.7280428
      8718.5000         0.6297        -999.25        11.5568         0.0884        -999.25        73.1871        65.8688         0.6576         2.2795       -66.3331        -17.604      0.6993361      0.8023334
      8719.0000         0.6385        -999.25         11.644         0.0429        -999.25        77.7791       71.55688         0.6739         2.2594       -56.6828        -7.9594      0.8203592        0.91715
      8719.5000         0.6508        -999.25        11.6673         0.0432        -999.25        80.5579       74.99773         0.6856         2.3038       -51.4813        -2.7637      0.8935686      0.9790035
      8720.0000         0.6461        -999.25         11.603         0.0638        -999.25        82.2784       77.12672         0.6945         2.3504       -48.4971         0.2148      0.9388665              1
      8720.5000         0.6457        -999.25        11.5513         0.0582        -999.25        81.1451       75.71859         0.7034         2.3366       -47.0789         1.6273      0.9089062              1
      8721.0000         0.6546        -999.25        11.5052         0.0717        -999.25        80.1284       74.45509         0.7145         2.3367       -46.3566         2.3438      0.8820231              1
      8721.5000         0.6693        -999.25        11.4672         0.0809        -999.25        81.9453       76.70358         0.7256         2.3542       -45.6663         3.0284      0.9298635              1
      8722.0000         0.6814        -999.25        11.4199         0.0668        -999.25        85.5282       81.14095         0.7376          2.348       -45.0435         3.6454              1              1
      8722.5000         0.6931        -999.25        11.3673         0.0567        -999.25        86.8757       82.80775         0.7517         2.3386       -44.7697         3.9135              1              1
      8723.0000         0.7027        -999.25        11.3553         0.0784        -999.25         87.286       83.31283         0.7659         2.3511       -45.0654         3.6121              1              1
      8723.5000         0.7172        -999.25        11.3692         0.0843        -999.25        87.1821       83.18071         0.7835         2.3622          -46.3         2.3717              1              1
      8724.0000         0.7494        -999.25        11.4463         0.0657        -999.25        86.1924       81.95055         0.8038         2.3404       -48.5117         0.1543              1              1
      8724.5000         0.7819        -999.25        11.4969          0.044        -999.25        84.8177       80.24332         0.8201         2.3023       -51.4193        -2.7591              1      0.9790583
      8725.0000          0.808        -999.25        11.5115          0.029        -999.25        85.8337       81.49915         0.8309         2.2758       -55.2217        -6.5672              1      0.9337238
      8725.5000         0.8281        -999.25        11.4578         0.0389        -999.25        86.3757       82.16746         0.8388         2.2735       -56.8088          -8.16              1      0.9147619
      8726.0000         0.8391        -999.25        11.3531         0.0574        -999.25        84.3221       79.61877         0.8369         2.2864       -57.6407        -8.9977      0.9918886      0.9047893
      8726.5000          0.823        -999.25        11.4356         0.0716        -999.25        82.1621       76.93809         0.8367         2.3089       -56.1531        -7.5158      0.9348529      0.9224309
      8727.0000         0.7839        -999.25        11.5689          0.085        -999.25        77.5426       71.20909         0.8373         2.3286       -54.3179        -5.6864      0.8129594      0.9442095
      8727.5000         0.7336        -999.25        11.5894         0.0883        -999.25         77.042       70.58515         0.8354         2.3465       -54.2556        -5.6298      0.7996841      0.9448833
      8728.0000         0.7078        -999.25         11.603         0.0591        -999.25        79.0699       73.09518         0.8344         2.3388       -53.3478        -4.7277      0.8530889      0.9556226
      8728.5000         0.7294        -999.25         11.591         0.0524        -999.25        79.8839       74.10074         0.8365         2.2987       -51.0942        -2.4799      0.8744838      0.9823821
      8729.0000         0.7608        -999.25        11.5117         0.0546        -999.25         79.338       73.42064         0.8398         2.2797       -50.8343        -2.2257      0.8600136      0.9854083
      8729.5000          0.787        -999.25        11.2222         0.0557        -999.25        80.9008       75.35432         0.8496          2.272       -50.8152        -2.2124      0.9011557      0.9855667
      8730.0000         0.7996        -999.25        11.0954         0.0648        -999.25        80.7708       75.18971         0.8593         2.2681       -50.7943        -2.1972      0.8976535      0.9857476
      8730.5000         0.7987        -999.25        11.2501         0.0987        -999.25        77.5978       71.25346         0.8685          2.279       -50.6325        -2.0411      0.8139035      0.9876059
      8731.0000         0.7983        -999.25        11.5184         0.0921        -999.25        76.0413        69.3209         0.8775         2.3169        -50.407        -1.8214      0.7727851      0.9902214
      8731.5000         0.7998        -999.25        11.6348         0.0681        -999.25        77.1799       70.72868         0.8866         2.3148       -50.1066        -1.5267      0.8027378      0.9937298
      8732.0000         0.8062        -999.25        11.5782         0.0605        -999.25        80.6169       74.98534         0.8962         2.2942       -49.6924        -1.1183       0.893305      0.9985917
      8732.5000         0.8146        -999.25        11.5071         0.0561        -999.25        80.7495       75.14622          0.906         2.2818       -49.3863        -0.8179       0.896728              1
