#------------------------------------------------------------------------------
# Created by    : vladimir.rabinovich
# Created on    : 09/19/2023 17:21:07
#------------------------------------------------------------------------------
~Version Information Section
VERS.           2.0     :   CWLS log ASCII Standard - VERSION 2.0
WRAP.           NO      :   One line per depth step
~Well Information Section
#MNEM       .UNIT                                         VALUE :DESCRIPTION
#------------------------------------------------------------------------------
STRT        .FT                                            3871 :START DEPTH
STOP        .FT                                           10481 :STOP DEPTH
STEP        .FT                                             0.5 :STEP      
NULL        .                                           -999.25 :NULL      
COMP        .                               TALOS PETROLEUM LLC :COMPANY   
WELL        .                                OCS 00300 ST00BP00 :WELL      
FLD         .                           WEST CAMERON BLOCK 0045 :FIELD     
LOC         .                                                   :LOCATION  
CNTY        .                                      WEST CAMERON :LOCATION  
STAT        .                                         LOUISIANA :STATE     
CTRY        .                                     UNITED STATES :COUNTRY   
SRVC        .                                                   :SERVICE COMPANY
DATE        .                             9/13/2023 11:18:36 AM :LOG DATE  
API         .                                    17700410010000 :API NUMBER
UWI         .                                    17700410010000 :UNIQUE WELL ID
XCOORD      .                                  1453780.44334001 :SURFACE X 
YCOORD      .                                   10773222.791693 :SURFACE Y 
LAT         .                                         29.683533 :LATITUDE  
LON         .                                        -93.587947 :LONGITUDE 
ELEV        .FT                                              92 :ELEVATION VALUE
ELEV_TYPE   .                                                KB :ELEVATION REFERENCE TYPE
~Curve Information Section
#MNEM       .UNIT                                      API CODE :CURVE DESCRIPTION
#------------------------------------------------------------------------------
DEPT        .FT                                                 :DEPTH     
ATR         .OHMM                                               :          
CATR        .MMHO                                               :          
DCAL        .IN                                                 :          
DRHB        .G/C3                                               :          
GR          .GAPI                                               :          
GR_NORM     .GAPI                                               :GammaRay Normalized
PSR         .OHMM                                               :          
RHOB        .G/C3                                               :          
ROP5        .F/HR                                               :          
TNPH        .%                                                  :          
VSH_GR      .V/V                                                :Volume of Shale from GR
~A        DEPTH            ATR           CATR           DCAL           DRHB             GR        GR_NORM            PSR           RHOB           ROP5           TNPH         VSH_GR
# ...
      6571.0000           0.58       1724.137           0.35           0.15          94.37       86.32243           0.58           2.31          166.7             45              1
      6571.5000           0.57       1754.385            0.4           0.16        91.9099       83.68442           0.56           2.29         148.75             45              1
      6572.0000           0.56       1785.713           0.43           0.18          90.24       81.89395           0.52           2.32         143.99             43              1
      6572.5000           0.57       1754.385           0.48           0.16        88.6499       80.18894           0.55           2.31         143.99             43              1
      6573.0000           0.58       1724.137           0.45           0.14        91.0299       82.74236           0.57           2.33       138.4399             42              1
      6573.5000            0.6       1666.666           0.41            0.1        93.3199       85.19909           0.57           2.32         116.11             41              1
      6574.0000            0.6       1666.666           0.33            0.1         100.25       92.63271            0.6           2.34         116.11             42              1
      6574.5000            0.6       1666.666           0.23           0.12          102.1       94.61751           0.61           2.37          112.5             41              1
      6575.0000            0.6       1666.666           0.26           0.15       102.3199       94.85402           0.59           2.39         111.11             42              1
      6575.5000           0.59       1694.914           0.29           0.12       100.5099       92.91319           0.57           2.37         109.75             44              1
      6576.0000           0.58       1724.137           0.37           0.11         100.86       92.75774           0.57           2.35         111.11             47              1
      6576.5000           0.58       1724.137           0.39           0.13       101.0399        92.9436           0.56           2.33       107.1499             44              1
      6577.0000           0.56       1785.713           0.37           0.13       100.4199       92.30571           0.55           2.34         103.45             44              1
      6577.5000           0.56       1785.713           0.35           0.12       100.8199       92.71827           0.54           2.35         103.45             44              1
      6578.0000           0.56       1785.713           0.35           0.11         102.98       94.94305           0.54           2.33         103.45             48              1
      6578.5000           0.55       1818.182           0.42           0.11         103.46       95.43777           0.54           2.32       100.5599             47              1
      6579.0000           0.55       1818.182           0.45           0.09       103.5099       95.48978           0.53           2.32          113.2             48              1
      6579.5000           0.55       1818.182           0.45           0.05         101.21       93.12224           0.53           2.31       117.6299             48              1
      6580.0000           0.54       1851.852           0.44           0.09         100.86       92.76236           0.51           2.32       119.1899             48              1
      6580.5000           0.53       1886.793           0.39           0.14          98.83       90.67265            0.5           2.32         119.98             45              1
      6581.0000           0.54       1851.852            0.4           0.15        97.7799       89.59202           0.49           2.34       123.2699             45              1
      6581.5000           0.55       1818.182            0.4           0.14          92.35        84.0016           0.53           2.33       127.6499             47              1
      6582.0000           0.58       1724.137           0.47           0.11        92.0399       83.68292           0.58           2.32       134.2998             52              1
      6582.5000           0.59       1694.914           0.53           0.13        94.5499       86.26791           0.59           2.31          139.5             49              1
      6583.0000            0.6       1666.666           0.51           0.15          99.85       91.72582           0.59           2.31       140.5898             46              1
      6583.5000            0.6       1666.666           0.53           0.15        99.0099       90.86142            0.6           2.31       145.1299             43              1
      6584.0000            0.6       1666.666           0.54           0.14          98.22        90.0487           0.59            2.3       140.5999             44              1
      6584.5000            0.6       1666.666           0.59           0.15           97.6        89.4108           0.57           2.29       140.5999             44              1
      6585.0000           0.59       1694.914           0.55           0.17        99.1899        91.0485           0.58           2.29       135.3098             43              1
      6585.5000           0.59       1694.914           0.47           0.15           98.7       90.54462           0.55           2.29       135.3098             45              1
      6586.0000           0.62       1612.902           0.46           0.15          96.45        88.2284           0.59           2.31       131.3699             48              1
      6586.5000           0.63       1587.301           0.53           0.14        95.5299       87.28162           0.63           2.32       127.6399             47              1
      6587.0000           0.65       1538.461           0.58           0.17        94.5599       86.28338           0.64           2.33       122.4299             44              1
      6587.5000           0.64         1562.5           0.61           0.15        97.5099       89.32139           0.63           2.33       118.4099             42              1
      6588.0000           0.64         1562.5           0.58           0.17          99.23       91.09312           0.63           2.33       118.4099             42              1
      6588.5000           0.64         1562.5           0.68           0.22         101.22       93.14283           0.62           2.34         116.11             42              1
      6589.0000           0.64         1562.5           0.73           0.18        97.4199       89.23043           0.63           2.33       118.3999             41              1
      6589.5000           0.64         1562.5           0.76           0.15           92.7       84.37109           0.63           2.32       114.6299             42              1
      6590.0000           0.64         1562.5            0.7           0.13          89.35       80.92223           0.64           2.32       113.9099             44              1
      6590.5000           0.61       1639.344           0.62           0.14          91.47        83.1058           0.59           2.32       110.4099             47              1
      6591.0000           0.63       1587.301           0.61           0.16        94.5099       86.23653           0.63           2.31       104.0299             45              1
      6591.5000           0.63       1587.301           0.64           0.16          96.85       88.64646           0.63           2.31       104.6299             44              1
      6592.0000           0.64         1562.5           0.64           0.14          96.59       88.37943           0.62           2.31         105.87             44              1
      6592.5000           0.64         1562.5           0.62           0.15        95.0399       86.78394           0.62           2.32         105.25             43              1
      6593.0000           0.65       1538.461           0.57           0.15          93.24       84.93107           0.62           2.33         106.48             45              1
