#------------------------------------------------------------------------------
# Created by    : vladimir.rabinovich
# Created on    : 09/19/2023 17:20:59
#------------------------------------------------------------------------------
~Version Information Section
VERS.           2.0     :   CWLS log ASCII Standard - VERSION 2.0
WRAP.           NO      :   One line per depth step
~Well Information Section
#MNEM       .UNIT                                         VALUE :DESCRIPTION
#------------------------------------------------------------------------------
STRT        .FT                                            4010 :START DEPTH
STOP        .FT                                           10351 :STOP DEPTH
STEP        .FT                                             0.5 :STEP      
NULL        .                                           -999.25 :NULL      
COMP        .                         TALOS ENERGY VENTURES LLC :COMPANY   
WELL        .                               OCS G13557 ST00BP00 :WELL      
FLD         .                           WEST CAMERON BLOCK 0118 :FIELD     
LOC         .                                                   :LOCATION  
CNTY        .                                      WEST CAMERON :LOCATION  
STAT        .                                         LOUISIANA :STATE     
CTRY        .                                     UNITED STATES :COUNTRY   
SRVC        .                                                   :SERVICE COMPANY
DATE        .                             9/13/2023 11:19:21 AM :LOG DATE  
API         .                                    17700409470000 :API NUMBER
UWI         .                                    17700409470000 :UNIQUE WELL ID
XCOORD      .                                  1434760.35260149 :SURFACE X 
YCOORD      .                                  10716448.9068769 :SURFACE Y 
LAT         .                                        29.5270802 :LATITUDE  
LON         .                                       -93.6468641 :LONGITUDE 
ELEV        .FT                                             100 :ELEVATION VALUE
ELEV_TYPE   .                                                KB :ELEVATION REFERENCE TYPE
~Curve Information Section
#MNEM       .UNIT                                      API CODE :CURVE DESCRIPTION
#------------------------------------------------------------------------------
DEPT        .FT                                                 :DEPTH     
AT10        .OHMM                                               :          
AT20        .OHMM                                               :          
AT30        .OHMM                                               :          
AT60        .OHMM                                               :          
AT90        .OHMM                                               :          
CALI        .IN                                                 :          
DPHI        .%                                                  :          
DRHO        .G/C3                                               :          
DTLF        .US/F                                               :          
DTLN        .US/F                                               :          
GR          .GAPI                                               :          
GR_NORM     .GAPI                                               :GammaRay Normalized
NPOR        .%                                                  :          
RHOB        .G/C3                                               :          
SP          .MV                                                 :          
SP_NORM     .MV                                                 :SP Normalized
TENS        .LBF                                                :          
VSH_GR      .V/V                                                :Volume of Shale from GR
VSH_SP      .V/V                                                :Volume of Shale from SP
~A        DEPTH           AT10           AT20           AT30           AT60           AT90           CALI           DPHI           DRHO           DTLF           DTLN             GR        GR_NORM           NPOR           RHOB             SP        SP_NORM           TENS         VSH_GR         VSH_SP
# ...
      9923.0000         0.6823         0.6878         0.6559         0.6401         0.6463         7.8014        17.9684        -0.0133        -999.25        -999.25        68.1622        70.6494        41.6169          2.354           1.25         0.2965           3915       0.801051              1
      9923.5000         0.6857          0.693         0.6587         0.6399         0.6464         7.9839        19.7864        -0.0226        -999.25        -999.25        69.5145        72.0181         45.296          2.324         1.1875         0.2071           3960      0.8301723              1
      9924.0000         0.6819         0.6882         0.6582         0.6355         0.6424         8.1844        20.1129         -0.025        -999.25        -999.25        75.9858        78.5057         43.963          2.318         0.6875        -0.3198           3960      0.9682063        0.99508
      9924.5000         0.6826         0.6867         0.6637         0.6377         0.6448         8.0424         20.657        -0.0271        -999.25        -999.25        83.0945        85.6308        38.3669          2.309         0.3125        -0.7217           3925              1      0.9888969
      9925.0000         0.6901         0.6961         0.6721         0.6474         0.6544         8.1498        19.9645        -0.0243        -999.25        -999.25         86.818        89.3706         37.055          2.321         0.3125        -0.7486           3925              1      0.9884831
      9925.5000         0.6828         0.6938         0.6657         0.6545         0.6613         8.2972        20.3837        -0.0291        -999.25        -999.25        87.2759        89.8449         40.165          2.314            0.5         -0.588           3895              1      0.9909539
      9926.0000         0.6567         0.6633         0.6442         0.6481         0.6549         8.2706        19.3184        -0.0228        -999.25        -999.25        86.8679        89.4533         43.066          2.331          0.625        -0.4899           3895              1      0.9924631
      9926.5000         0.6452         0.6452         0.6297         0.6267         0.6337         7.9534        18.9847        -0.0232        -999.25        -999.25         84.119        86.7207         44.949          2.337         0.6875        -0.4543           3935              1      0.9930108
      9927.0000          0.648         0.6501         0.6257         0.6023         0.6095         7.8221        17.7932        -0.0207        -999.25        -999.25        81.2803        83.8984         41.149          2.356        -0.0625        -1.2312           3935              1      0.9810585
      9927.5000         0.6457         0.6446         0.6209         0.5939          0.601         7.7036        17.4111        -0.0182        -999.25        -999.25        79.9692        82.6036         44.332          2.363         1.4375         0.2419           3850              1              1
      9928.0000         0.6576         0.6521         0.6277          0.607         0.6139          7.622        17.3159        -0.0133        -999.25        -999.25         77.593        80.2438         42.457          2.364            0.5        -0.7225           3850              1      0.9888846
      9928.5000         0.6802         0.6731         0.6419         0.6211          0.628         7.5656        17.2361        -0.0114        -999.25        -999.25        82.5017        85.1689         45.541          2.366              1        -0.2494           3900              1      0.9961631
      9929.0000          0.684         0.6742          0.644         0.6208         0.6279         7.6372         17.343        -0.0106        -999.25        -999.25        81.9883        84.6718        40.4579          2.364              1        -0.2763           3900              1      0.9957492
      9929.5000         0.6705         0.6596          0.635         0.6145         0.6216         7.7376        17.9481        -0.0098        -999.25        -999.25        82.7682        85.4681           43.2          2.354         1.0625        -0.2407           3890              1      0.9962969
      9930.0000         0.6544         0.6456         0.6237         0.6065         0.6134         7.9795        17.9679        -0.0073        -999.25        -999.25        77.9108        80.6271         41.535          2.354         0.8125        -0.5176           3890              1      0.9920369
      9930.5000         0.6438         0.6358         0.6175         0.5999          0.607         8.1696        18.7118        -0.0094        -999.25        -999.25        78.2622        80.9948         39.931          2.341          1.125         -0.232           3910              1      0.9964308
      9931.0000         0.6492         0.6363         0.6259         0.6077         0.6149         8.1777        18.6547        -0.0108        -999.25        -999.25        76.6913        79.4403         42.627          2.342         1.1875        -0.1964           3910      0.9880915      0.9969785
      9931.5000         0.6747         0.6606         0.6486         0.6315         0.6385         8.0784        18.9545        -0.0091        -999.25        -999.25        74.6085        77.3738         42.399          2.337         0.6875        -0.7233           3900      0.9441234      0.9888723
      9932.0000         0.7026          0.698          0.669          0.651         0.6578          7.944        18.2122        -0.0079        -999.25        -999.25        73.8792        76.6609         40.329          2.349         0.4375        -1.0002           3900      0.9289553      0.9846123
      9932.5000         0.7094         0.7104         0.6722         0.6515         0.6582         8.0168        18.0074        -0.0082        -999.25        -999.25        74.2445        77.0426         41.343          2.353         0.4375        -1.0271           4030      0.9370766      0.9841985
      9933.0000         0.6963         0.6944         0.6613         0.6402         0.6469         8.2076        18.4498        -0.0105        -999.25        -999.25        74.6218        77.4362        37.0959          2.346          0.875        -0.6165           4030      0.9454511      0.9905154
      9933.5000         0.6757         0.6703         0.6458         0.6266         0.6334         8.1864        18.8904         -0.013        -999.25        -999.25        73.9432         76.774         31.523          2.338         0.6875        -0.8309           3945      0.9313617      0.9872169
      9934.0000         0.6564         0.6502         0.6313         0.6134         0.6202         8.3072        19.1612        -0.0166        -999.25        -999.25        77.0968         79.944         30.761          2.334              1        -0.5453           3945      0.9988085      0.9916108
      9934.5000         0.6425          0.639         0.6183         0.6019         0.6088         8.1252        18.0964        -0.0125        -999.25        -999.25        76.9391        79.8026         32.959          2.351           1.25        -0.3222           3905         0.9958      0.9950431
      9935.0000         0.6315         0.6319         0.6084         0.5964         0.6033         7.9745         18.222        -0.0141        -999.25        -999.25        80.8226        83.7025         32.261          2.349         1.3125        -0.2866           3905              1      0.9955907
      9935.5000         0.6324           0.63          0.613          0.603         0.6098         7.9788        17.3251         -0.011        -999.25        -999.25        81.4453        84.3415         30.344          2.364         1.6875         0.0615           3875              1              1
      9936.0000         0.6696         0.6633         0.6443         0.6246         0.6311         7.8788        16.4596        -0.0058        -999.25        -999.25        87.2754         90.188         32.679          2.378           1.75         0.0971           3875              1              1
