#------------------------------------------------------------------------------
# Created by    : vladimir.rabinovich
# Created on    : 09/19/2023 17:20:59
#------------------------------------------------------------------------------
~Version Information Section
VERS.           2.0     :   CWLS log ASCII Standard - VERSION 2.0
WRAP.           NO      :   One line per depth step
~Well Information Section
#MNEM       .UNIT                                         VALUE :DESCRIPTION
#------------------------------------------------------------------------------
STRT        .FT                                            4010 :START DEPTH
STOP        .FT                                           10351 :STOP DEPTH
STEP        .FT                                             0.5 :STEP      
NULL        .                                           -999.25 :NULL      
COMP        .                         TALOS ENERGY VENTURES LLC :COMPANY   
WELL        .                               OCS G13557 ST00BP00 :WELL      
FLD         .                           WEST CAMERON BLOCK 0118 :FIELD     
LOC         .                                                   :LOCATION  
CNTY        .                                      WEST CAMERON :LOCATION  
STAT        .                                         LOUISIANA :STATE     
CTRY        .                                     UNITED STATES :COUNTRY   
SRVC        .                                                   :SERVICE COMPANY
DATE        .                             9/13/2023 11:19:21 AM :LOG DATE  
API         .                                    17700409470000 :API NUMBER
UWI         .                                    17700409470000 :UNIQUE WELL ID
XCOORD      .                                  1434760.35260149 :SURFACE X 
YCOORD      .                                  10716448.9068769 :SURFACE Y 
LAT         .                                        29.5270802 :LATITUDE  
LON         .                                       -93.6468641 :LONGITUDE 
ELEV        .FT                                             100 :ELEVATION VALUE
ELEV_TYPE   .                                                KB :ELEVATION REFERENCE TYPE
~Curve Information Section
#MNEM       .UNIT                                      API CODE :CURVE DESCRIPTION
#------------------------------------------------------------------------------
DEPT        .FT                                                 :DEPTH     
AT10        .OHMM                                               :          
AT20        .OHMM                                               :          
AT30        .OHMM                                               :          
AT60        .OHMM                                               :          
AT90        .OHMM                                               :          
CALI        .IN                                                 :          
DPHI        .%                                                  :          
DRHO        .G/C3                                               :          
DTLF        .US/F                                               :          
DTLN        .US/F                                               :          
GR          .GAPI                                               :          
GR_NORM     .GAPI                                               :GammaRay Normalized
NPOR        .%                                                  :          
RHOB        .G/C3                                               :          
SP          .MV                                                 :          
SP_NORM     .MV                                                 :SP Normalized
TENS        .LBF                                                :          
VSH_GR      .V/V                                                :Volume of Shale from GR
VSH_SP      .V/V                                                :Volume of Shale from SP
~A        DEPTH           AT10           AT20           AT30           AT60           AT90           CALI           DPHI           DRHO           DTLF           DTLN             GR        GR_NORM           NPOR           RHOB             SP        SP_NORM           TENS         VSH_GR         VSH_SP
# ...
      8235.5000         0.2019         0.1853         0.1807         0.1823         0.1837         9.7677        28.9571        -0.0145          105.1          104.2        46.2018        41.1264        34.7285         2.1722        -999.25        -999.25           3040      0.1729021        -999.25
      8236.0000          0.217          0.199         0.1882           0.19         0.1903         9.7666        28.3333        -0.0136          104.6            105        49.3014        44.2267        34.5918         2.1825        -999.25        -999.25           3040       0.238866        -999.25
      8236.5000         0.2522         0.2218         0.2076         0.2047         0.2027         9.7666          28.25        -0.0126       103.7999          105.2        48.9639        43.8899        33.9889         2.1839        -999.25        -999.25           3040         0.2317        -999.25
      8237.0000         0.2987         0.2473         0.2325         0.2167         0.2126         9.7633        28.2965        -0.0139          102.2       104.2999        47.1501        42.0768        33.2538         2.1831        -999.25        -999.25           3050      0.1931234        -999.25
      8237.5000         0.3065         0.2493         0.2382         0.2131         0.2098         9.7666         28.588        -0.0154       100.7999       103.7999        43.0715         37.999        33.0997         2.1783        -999.25        -999.25           3050      0.1063617        -999.25
      8238.0000         0.2672         0.2258         0.2193         0.1991         0.1985         9.7615        29.6629        -0.0214            109          101.6        44.3669        39.2951        32.7677         2.1606        -999.25        -999.25           3050      0.1339383        -999.25
      8238.5000         0.2306         0.2075         0.1991         0.1892         0.1904         9.7633        30.4509        -0.0227           97.2        99.8999        43.3306        38.2595        32.4913         2.1476        -999.25        -999.25           3050      0.1119042        -999.25
      8239.0000          0.214         0.1972         0.1908          0.189         0.1909         9.7666        30.5745        -0.0225        98.2999       100.8999        45.1432        40.0728        31.8447         2.1455        -999.25        -999.25           3085      0.1504851        -999.25
      8239.5000         0.2077         0.1914         0.1893          0.193          0.195         9.7666        30.2924        -0.0192        99.2999            101        42.5795        37.5098        31.1732         2.1502        -999.25        -999.25           3085     0.09595319        -999.25
      8240.0000         0.2035         0.1895          0.187         0.1947         0.1972         9.7749        29.9114        -0.0195        98.8999          101.7        45.1293        40.0604        31.2056         2.1565        -999.25        -999.25           3085      0.1502212        -999.25
      8240.5000         0.2045         0.1902          0.186          0.197         0.1997         9.7666        29.5492        -0.0195           97.7             94        44.0366        38.9684         31.296         2.1624        -999.25        -999.25           3085      0.1269872        -999.25
      8241.0000         0.2178         0.1994          0.191          0.203         0.2052         9.7666        28.5807        -0.0196           97.6        91.8999        45.0458        39.9783        31.0584         2.1784        -999.25        -999.25           3045      0.1484744        -999.25
      8241.5000         0.2473         0.2146          0.203         0.2105         0.2119         9.7633        27.2478        -0.0153          102.6           90.6        43.0065        37.9397        31.9755         2.2004        -999.25        -999.25           3045         0.1051        -999.25
      8242.0000         0.2874         0.2298         0.2173         0.2161         0.2171         9.7717         26.126        -0.0094            102           90.7        44.5611         39.495        32.8484         2.2189        -999.25        -999.25           3045      0.1381915        -999.25
      8242.5000         0.3374         0.2524         0.2352         0.2272         0.2272         9.7633        25.7414        -0.0079       100.8999           89.1        49.2249        44.1596        32.1073         2.2253        -999.25        -999.25           3045      0.2374383        -999.25
      8243.0000         0.4186         0.2897         0.2683         0.2548         0.2515         9.7666        25.6115        -0.0102           99.2        89.2999        50.3578        45.2932        31.6595         2.2274        -999.25        -999.25           3010      0.2615575        -999.25
      8243.5000         0.5156         0.3253          0.306         0.2838         0.2767         9.7585        26.2166        -0.0099        98.2999        97.7999        50.3578        45.2939        31.7522         2.2174        -999.25        -999.25           3010      0.2615723        -999.25
      8244.0000         0.5234         0.3221         0.3085         0.2842         0.2781         9.7722        27.2132        -0.0129           99.1        98.2999        47.8348        42.7716        31.7753          2.201        -999.25        -999.25           3010      0.2079064        -999.25
      8244.5000         0.4529         0.2927         0.2832         0.2688         0.2661         9.7666         28.195        -0.0129          100.2            100        49.8741        44.8117        31.7459         2.1848        -999.25        -999.25           3010      0.2513127        -999.25
      8245.0000         0.4007         0.2723         0.2655          0.261         0.2599         9.7666        28.9314        -0.0163          100.7          100.5        52.4651        47.4034        32.7133         2.1726        -999.25        -999.25           3040      0.3064553        -999.25
      8245.5000          0.376         0.2632         0.2589         0.2586         0.2578         9.7633        29.5608        -0.0193          100.6          101.1        56.3426        51.2816        33.0374         2.1623        -999.25        -999.25           3040      0.3889702        -999.25
      8246.0000         0.3571          0.256         0.2518         0.2505         0.2504         9.7717        29.3382        -0.0192           99.1          101.7        53.4371        48.3768        33.4929         2.1659        -999.25        -999.25           3040       0.327166        -999.25
      8246.5000         0.3357         0.2482         0.2397         0.2344         0.2355         9.7971        29.4502          -0.02           98.7          100.7        50.8461        45.7865         33.524         2.1641        -999.25        -999.25           3040      0.2720532        -999.25
      8247.0000         0.3136         0.2408          0.227         0.2166         0.2189         9.8104        29.3779        -0.0219        98.2999          100.7        48.7698         43.711        33.5815         2.1653        -999.25        -999.25           3040      0.2278936        -999.25
      8247.5000         0.2915         0.2298         0.2175         0.2029         0.2061         9.8021        29.0889        -0.0172           98.5           90.2        50.0652        45.0071         33.282           2.17        -999.25        -999.25           3015      0.2554702        -999.25
      8248.0000          0.265         0.2148          0.208         0.1946          0.198         9.8072        29.1718        -0.0186        87.3999           89.6         51.879        46.8216        33.4576         2.1687        -999.25        -999.25           3015      0.2940766        -999.25
      8248.5000         0.2367         0.2045         0.1958         0.1905         0.1939         9.8032        29.3372        -0.0167           86.2           88.6        52.1056        47.0489        33.9269         2.1659        -999.25        -999.25           3015      0.2989128        -999.25
