#------------------------------------------------------------------------------
# Created by    : vladimir.rabinovich
# Created on    : 09/19/2023 17:22:23
#------------------------------------------------------------------------------
~Version Information Section
VERS.           2.0     :   CWLS log ASCII Standard - VERSION 2.0
WRAP.           NO      :   One line per depth step
~Well Information Section
#MNEM       .UNIT                                         VALUE :DESCRIPTION
#------------------------------------------------------------------------------
STRT        .FT                                            4000 :START DEPTH
STOP        .FT                                           10100 :STOP DEPTH
STEP        .FT                                             0.5 :STEP      
NULL        .                                           -999.25 :NULL      
COMP        .                         TALOS ENERGY VENTURES LLC :COMPANY   
WELL        .                               OCS G13557 ST00BP00 :WELL      
FLD         .                           WEST CAMERON BLOCK 0118 :FIELD     
LOC         .                                                   :LOCATION  
CNTY        .                                      WEST CAMERON :LOCATION  
STAT        .                                         LOUISIANA :STATE     
CTRY        .                                     UNITED STATES :COUNTRY   
SRVC        .                                                   :SERVICE COMPANY
DATE        .                             9/13/2023 11:19:21 AM :LOG DATE  
API         .                                    17700409600000 :API NUMBER
UWI         .                                    17700409600000 :UNIQUE WELL ID
XCOORD      .                                  1437367.94342701 :SURFACE X 
YCOORD      .                                  10730631.2479363 :SURFACE Y 
LAT         .                                         29.566133 :LATITUDE  
LON         .                                        -93.638908 :LONGITUDE 
ELEV        .FT                                              97 :ELEVATION VALUE
ELEV_TYPE   .                                                KB :ELEVATION REFERENCE TYPE
~Curve Information Section
#MNEM       .UNIT                                      API CODE :CURVE DESCRIPTION
#------------------------------------------------------------------------------
DEPT        .FT                                                 :DEPTH     
CALX        .IN                                                 :          
CNC         .%                                                  :          
CSAX        .MMHO                                               :          
GR          .API                                                :          
GR_NORM     .GAPI                                               :GammaRay Normalized
GRAX        .GAPI                                               :          
PORZ        .%                                                  :          
RIPD        .OHMM                                               :          
RIPM        .OHMM                                               :          
ROPS        .M/MIN                                              :          
RSAX        .OHMM                                               :          
RSFL        .OHMM                                               :          
RSTX        .MINS                                               :          
RWAZ        .OHMM                                               :          
SP          .MV                                                 :          
SP_NORM     .MV                                                 :SP Normalized
TEN         .LBF                                                :          
VSH_GR      .V/V                                                :Volume of Shale from GR
VSH_SP      .V/V                                                :Volume of Shale from SP
ZCOR        .G/C3                                               :          
~A        DEPTH           CALX            CNC           CSAX             GR        GR_NORM           GRAX           PORZ           RIPD           RIPM           ROPS           RSAX           RSFL           RSTX           RWAZ             SP        SP_NORM            TEN         VSH_GR         VSH_SP           ZCOR
# ...
      5209.0000         13.669         43.339        -999.25         70.011       72.98468        -999.25         30.345          0.518          0.521        -999.25        -999.25          0.726        -999.25          0.064         -6.518        -0.9535       -32.7029      0.8507379              1          0.072
      5209.5000         13.349        41.9109        -999.25         69.021       71.71233        -999.25         29.917          0.511          0.518        -999.25        -999.25          0.718        -999.25          0.062         -6.142        -0.5787        -31.935      0.8236665              1          0.078
      5210.0000         13.047         43.908        -999.25         69.823       72.73518        -999.25         28.472           0.51          0.518        -999.25        -999.25          0.697        -999.25          0.055         -6.031        -0.4688        -27.363      0.8454293              1          0.075
      5210.5000         12.751          47.86        -999.25        72.6639       76.36951        -999.25         26.399          0.512          0.518        -999.25        -999.25           0.67        -999.25          0.047         -6.573         -1.012        -26.851      0.9227556              1          0.061
      5211.0000         12.474         49.805        -999.25         74.053       78.14435        -999.25         24.438          0.517          0.519        -999.25        -999.25          0.643        -999.25           0.04         -7.572        -2.0122        -30.334      0.9605181      0.9998351          0.046
      5211.5000         12.376        49.7079        -999.25        73.7159       77.70823        -999.25         23.442          0.527          0.527        -999.25        -999.25          0.622        -999.25          0.038         -8.252        -2.6933        -29.757      0.9512389      0.9906311          0.042
      5212.0000         12.394         50.167        -999.25        73.8619       77.89087        -999.25         23.444          0.548          0.547        -999.25        -999.25          0.623        -999.25          0.039         -8.811        -3.2535         -26.16      0.9551249      0.9830608           0.05
      5212.5000         12.229         50.322        -999.25         73.397       77.29106        -999.25         23.395          0.563           0.58        -999.25        -999.25          0.673        -999.25           0.04        -10.775        -5.2187        -25.355       0.942363       0.956504           0.06
      5213.0000         11.922         47.502        -999.25        69.8719       72.77168        -999.25          22.92          0.568          0.588        -999.25        -999.25          0.793        -999.25          0.039        -14.214        -8.6588        -21.727       0.846206      0.9100162          0.058
      5213.5000          11.75        43.9109        -999.25         65.438       67.08829        -999.25         23.243          0.585          0.587        -999.25        -999.25          0.948        -999.25          0.041        -16.802        -11.248        -16.283      0.7252828       0.875027          0.049
      5214.0000          11.92        42.5649        -999.25          62.42       63.21842        -999.25         25.516          0.618          0.593        -999.25        -999.25          1.019        -999.25          0.053        -16.673       -11.1202        -20.331      0.6429451       0.876754          0.058
      5214.5000          12.51         43.226        -999.25        61.1769       61.62187        -999.25         28.712          0.626          0.601        -999.25        -999.25          0.972        -999.25          0.069        -14.584        -9.0323        -28.369       0.608976      0.9049689          0.083
      5215.0000         13.251         43.444        -999.25         61.301       61.77648        -999.25         30.607          0.638          0.602        -999.25        -999.25          0.894        -999.25          0.081        -12.297        -6.7465        -29.328      0.6122655      0.9358581          0.097
      5215.5000         13.538         41.506        -999.25         63.621       64.74363        -999.25          30.19          0.637          0.597        -999.25        -999.25          0.825        -999.25          0.078        -10.514        -4.9647        -29.833      0.6753964      0.9599365          0.084
      5216.0000         13.295         38.357        -999.25        67.3719        69.5435        -999.25         28.364          0.634          0.594        -999.25        -999.25          0.771        -999.25          0.068         -8.897        -3.3488        -31.062      0.7775213       0.981773          0.069
      5216.5000         13.075         36.937        -999.25         70.731       73.84156        -999.25         26.587           0.63          0.594        -999.25        -999.25          0.733        -999.25          0.059         -7.302         -1.755        -26.753      0.8689694              1          0.071
      5217.0000         13.107         39.629        -999.25        73.1169       76.89313        -999.25         25.438          0.622           0.59        -999.25        -999.25          0.715        -999.25          0.053         -6.037        -0.4912        -22.304      0.9338963              1          0.071
      5217.5000         13.091         46.217        -999.25        75.3109       79.69888        -999.25         24.837          0.615          0.583        -999.25        -999.25          0.722        -999.25           0.05         -5.269         0.2756        -16.881      0.9935933              1          0.059
      5218.0000         12.916         51.223        -999.25        76.8159       81.62216        -999.25         24.646          0.593           0.58        -999.25        -999.25          0.747        -999.25          0.047         -4.862         0.6815         -1.664              1              1          0.048
      5218.5000         12.804           49.4        -999.25         77.094         81.974        -999.25         24.711           0.59          0.568        -999.25        -999.25          0.772        -999.25          0.047         -4.562         0.9803          6.845              1              1          0.041
      5219.0000         12.792         45.478        -999.25         76.653       81.40481        -999.25         24.946          0.572          0.553        -999.25        -999.25          0.778        -999.25          0.047         -4.217         1.3241         -2.402              1              1           0.03
      5219.5000         12.842          43.59        -999.25        76.2069       80.82908        -999.25          25.25          0.559          0.531        -999.25        -999.25          0.757        -999.25          0.047         -3.789          1.751         -3.579              1              1          0.025
      5220.0000         12.992         44.099        -999.25         76.543       87.59035        -999.25         25.318          0.552          0.523        -999.25        -999.25          0.716        -999.25          0.047         -3.256         2.2828          10.01              1              1          0.032
      5220.5000         13.126         46.364        -999.25         77.464       88.91089        -999.25         25.047          0.543          0.517        -999.25        -999.25          0.669        -999.25          0.045         -2.754         2.7836         10.502              1              1          0.043
      5221.0000         13.139         49.131        -999.25        77.2319       88.57198        -999.25         24.828          0.537          0.513        -999.25        -999.25          0.634        -999.25          0.043         -2.594         2.9425         -9.539              1              1           0.05
      5221.5000         13.142         51.422        -999.25        75.5099        86.0889        -999.25          24.88          0.538          0.519        -999.25        -999.25          0.622        -999.25          0.044         -2.953         2.5823        -30.669              1              1          0.052
