#------------------------------------------------------------------------------
# Created by    : vladimir.rabinovich
# Created on    : 09/19/2023 17:20:13
#------------------------------------------------------------------------------
~Version Information Section
VERS.           2.0     :   CWLS log ASCII Standard - VERSION 2.0
WRAP.           NO      :   One line per depth step
~Well Information Section
#MNEM       .UNIT                                         VALUE :DESCRIPTION
#------------------------------------------------------------------------------
STRT        .FT                                             608 :START DEPTH
STOP        .FT                                            9135 :STOP DEPTH
STEP        .FT                                             0.5 :STEP      
NULL        .                                           -999.25 :NULL      
COMP        .                             PHILLIPS PETROLEUM CO :COMPANY   
WELL        .                                OCS 00757 ST00BP00 :WELL      
FLD         .                           WEST CAMERON BLOCK 0118 :FIELD     
LOC         .                                                   :LOCATION  
CNTY        .                                      WEST CAMERON :LOCATION  
STAT        .                                         LOUISIANA :STATE     
CTRY        .                                     UNITED STATES :COUNTRY   
SRVC        .                                                   :SERVICE COMPANY
DATE        .                             9/13/2023 11:18:18 AM :LOG DATE  
API         .                                    17700400630000 :API NUMBER
UWI         .                                    17700400630000 :UNIQUE WELL ID
XCOORD      .                                  1437747.16229911 :SURFACE X 
YCOORD      .                                  10702102.5427903 :SURFACE Y 
LAT         .                                         29.487661 :LATITUDE  
LON         .                                       -93.6372228 :LONGITUDE 
ELEV        .FT                                              84 :ELEVATION VALUE
ELEV_TYPE   .                                                KB :ELEVATION REFERENCE TYPE
~Curve Information Section
#MNEM       .UNIT                                      API CODE :CURVE DESCRIPTION
#------------------------------------------------------------------------------
DEPT        .FT                                                 :DEPTH     
ASFL        .OHMM                                               :          
ASN         .OHMM                                               :          
CALI        .IN                                                 :          
DRHO        .G/CC                                               :          
GR          .GAPI                                               :          
GR_NORM     .GAPI                                               :GammaRay Normalized
ILD         .OHMM                                               :          
RHOB        .G/CC                                               :          
SP          .MV                                                 :          
SP_NORM     .MV                                                 :SP Normalized
VSH_GR      .V/V                                                :Volume of Shale from GR
VSH_SP      .V/V                                                :Volume of Shale from SP
~A        DEPTH           ASFL            ASN           CALI           DRHO             GR        GR_NORM            ILD           RHOB             SP        SP_NORM         VSH_GR         VSH_SP
# ...
      9115.5000         0.7561        -999.25        11.9017          0.031       146.4182       82.27251         0.5375         2.2605       -98.7367       -23.2902              1      0.7552851
      9116.0000         0.7405        -999.25        11.8543         0.0271        144.989       81.51591         0.5354         2.2403       -99.4019       -23.4572              1      0.7533655
      9116.5000         0.7237        -999.25         11.698         0.0209        139.144        78.3595         0.5133         2.2297       -99.8446       -23.4016      0.9650957      0.7540046
      9117.0000         0.6917        -999.25        11.4766         0.0146       132.7461       74.90266         0.4853         2.2512      -100.4449       -23.5037      0.8915461       0.752831
      9117.5000         0.6646        -999.25        11.5768         0.0066       126.5952       71.57996          0.454         2.2627      -101.0254       -23.5859      0.8208503      0.7518862
      9118.0000         0.6245        -999.25        11.7478        -0.0016       115.2606       65.44019         0.4208         2.2403      -101.5948       -23.6571      0.6902167      0.7510678
      9118.5000         0.5787        -999.25        11.7917        -0.0099        106.661       60.78677         0.3928          2.189      -100.8364       -22.4004      0.5912078      0.7655126
      9119.0000         0.5512        -999.25        11.8077        -0.0179       102.0897       58.32251         0.3836         2.1315       -99.4988       -20.5645      0.5387767       0.786615
      9119.5000          0.538        -999.25        11.8366        -0.0257        99.1376       56.73832         0.3743          2.082       -98.3785        -18.946      0.5050706      0.8052184
      9120.0000         0.5413        -999.25        12.0036        -0.0354         96.657       55.41033         0.3896         1.9799        -97.399       -17.4682      0.4768155      0.8222046
      9120.5000         0.5631        -999.25        12.8571        -0.0444          95.45       54.77448         0.4052         1.9535       -95.8513       -15.4223      0.4632869      0.8457207
      9121.0000         0.5876        -999.25        13.6105        -0.0443        95.7659       54.96621         0.4243         1.9285       -93.0254       -12.0981      0.4673662      0.8839299
      9121.5000         0.6105        -999.25        14.0953        -0.0308        96.6915       55.48935         0.4445         2.0038       -90.2487        -8.8232      0.4784968      0.9215724
      9122.0000         0.6291        -999.25        13.5266        -0.0169        98.0269       56.23519         0.4714         2.1348       -88.1292        -6.2054      0.4943658      0.9516621
      9122.5000         0.6407        -999.25        12.6607         -0.008        99.4882       57.04951         0.5018         2.1709       -86.7655        -4.3435      0.5116916      0.9730632
      9123.0000         0.6452        -999.25        12.9539        -0.0038       101.1123       57.95219         0.5228         2.1192       -86.3876        -3.4673      0.5308977      0.9831345
      9123.5000         0.6418        -999.25         13.808        -0.0029       102.7365       58.85498         0.5257         2.1173       -86.6683        -3.2497       0.550106      0.9856356
      9124.0000         0.6381        -999.25         14.348         -0.006       104.2717       59.70941         0.5286         2.1266       -87.0731        -3.1563      0.5682853      0.9867092
      9124.5000         0.6346        -999.25        14.2095        -0.0119       105.7749       60.54644         0.5154         2.1362       -87.7339        -3.3188      0.5860946      0.9848414
      9125.0000         0.6312        -999.25        14.0489        -0.0186       105.7601       60.55851         0.4967         2.1222       -89.3618        -4.4485      0.5863513      0.9718563
      9125.5000         0.6287        -999.25        14.2868        -0.0262       105.3861       60.36623         0.4779         2.0799       -90.6366         -5.225      0.5822603       0.962931
      9126.0000         0.6273        -999.25        15.1191        -0.0337       104.4469       59.85582         0.4668         1.9998       -91.6469        -5.7371      0.5714004      0.9570448
      9126.5000          0.626        -999.25        15.6388         -0.028        103.509       59.34606         0.4609         2.0223       -92.5844        -6.1763      0.5605544      0.9519966
      9127.0000         0.6236        -999.25         15.465        -0.0228       103.4794       59.32997         0.4549          2.032       -94.0035        -7.0972      0.5602121      0.9414115
      9127.5000          0.621        -999.25        15.2157        -0.0233       103.8768       59.54594         0.4522         2.0054         -95.97        -8.5654      0.5648072      0.9245356
      9128.0000         0.6187        -999.25        16.1137        -0.0266       106.9868        61.2361         0.4498         1.9727       -97.9536       -10.0507       0.600768      0.9074632
      9128.5000         0.6176        -999.25        15.8713        -0.0305       109.7267       62.72517         0.4478         1.9616       -99.4111         -11.01      0.6324504      0.8964368
      9129.0000         0.6166        -999.25         14.895         -0.026       111.6884       63.79122         0.4459         1.9667      -100.2782       -11.3788      0.6551324      0.8921977
      9129.5000         0.6154        -999.25        14.3421        -0.0228       111.3435       63.60383         0.4402         2.0056       -101.007       -11.6094      0.6511453      0.8895471
      9130.0000         0.6135        -999.25        13.7201        -0.0236       109.2799       62.48235         0.4293         2.0459      -101.5066       -11.7107       0.627284      0.8883827
      9130.5000        -999.25        -999.25        13.5414        -0.0275       107.7731       61.66347        -999.25         2.0186        -999.25        -999.25      0.6098611        -999.25
      9131.0000        -999.25        -999.25        13.6974        -0.0313       107.0955       61.29522        -999.25         1.9851        -999.25        -999.25      0.6020259        -999.25
      9131.5000        -999.25        -999.25        13.0605        -0.0339       106.7382       61.10099        -999.25         1.9725        -999.25        -999.25      0.5978935        -999.25
      9132.0000        -999.25        -999.25        12.8759        -0.0343       106.9717       61.22794        -999.25         1.9624        -999.25        -999.25      0.6005945        -999.25
      9132.5000        -999.25        -999.25        13.2797        -0.0282        107.205       61.35468        -999.25          1.972        -999.25        -999.25       0.603291        -999.25
      9133.0000        -999.25        -999.25        12.8295        -0.0192       107.0532       61.27219        -999.25         2.0377        -999.25        -999.25      0.6015359        -999.25
      9133.5000        -999.25        -999.25        11.5558        -0.0128       106.8496       61.16154        -999.25         2.0714        -999.25        -999.25      0.5991817        -999.25
      9134.0000        -999.25        -999.25        10.5369        -0.0194       105.4935       60.42461        -999.25         2.0258        -999.25        -999.25      0.5835022        -999.25
      9134.5000        -999.25        -999.25         10.607        -0.0315       103.6521       59.42388        -999.25         1.9987        -999.25        -999.25      0.5622101        -999.25
      9135.0000        -999.25        -999.25        10.7749        -0.0478       102.8167       58.96988        -999.25         1.9786        -999.25        -999.25      0.5525506        -999.25
