#------------------------------------------------------------------------------
# Created by    : vladimir.rabinovich
# Created on    : 09/19/2023 17:22:20
#------------------------------------------------------------------------------
~Version Information Section
VERS.           2.0     :   CWLS log ASCII Standard - VERSION 2.0
WRAP.           NO      :   One line per depth step
~Well Information Section
#MNEM       .UNIT                                         VALUE :DESCRIPTION
#------------------------------------------------------------------------------
STRT        .FT                                            3394 :START DEPTH
STOP        .FT                                            9102 :STOP DEPTH
STEP        .FT                                             0.5 :STEP      
NULL        .                                           -999.25 :NULL      
COMP        .                               TALOS PETROLEUM LLC :COMPANY   
WELL        .                                OCS 00299 ST00BP02 :WELL      
FLD         .                           WEST CAMERON BLOCK 0045 :FIELD     
LOC         .                                                   :LOCATION  
CNTY        .                                      WEST CAMERON :LOCATION  
STAT        .                                         LOUISIANA :STATE     
CTRY        .                                     UNITED STATES :COUNTRY   
SRVC        .                                                   :SERVICE COMPANY
DATE        .                             9/13/2023 11:19:21 AM :LOG DATE  
API         .                                    17700408910000 :API NUMBER
UWI         .                                    17700408910000 :UNIQUE WELL ID
XCOORD      .                                  1447531.51187247 :SURFACE X 
YCOORD      .                                  10768708.3799417 :SURFACE Y 
LAT         .                                         29.671026 :LATITUDE  
LON         .                                        -93.607557 :LONGITUDE 
ELEV        .FT                                              95 :ELEVATION VALUE
ELEV_TYPE   .                                                KB :ELEVATION REFERENCE TYPE
~Curve Information Section
#MNEM       .UNIT                                      API CODE :CURVE DESCRIPTION
#------------------------------------------------------------------------------
DEPT        .FT                                                 :DEPTH     
CALI        .IN                                                 :          
DPHI        .V/V                                                :          
DRHO        .G/C3                                               :          
GR          .GAPI                                               :          
GR_NORM     .GAPI                                               :GammaRay Normalized
IDPH        .OHMM                                               :          
IMPH        .OHMM                                               :          
NPOR        .V/V                                                :          
SFLU        .OHMM                                               :          
SP          .MV                                                 :          
SP_NORM     .MV                                                 :SP Normalized
TENS        .LBS                                                :          
VSH_GR      .V/V                                                :Volume of Shale from GR
VSH_SP      .V/V                                                :Volume of Shale from SP
~A        DEPTH           CALI           DPHI           DRHO             GR        GR_NORM           IDPH           IMPH           NPOR           SFLU             SP        SP_NORM           TENS         VSH_GR         VSH_SP
# ...
      4600.0000          18.76         0.4344         -0.026          37.82       49.71369         0.3926         0.5477         0.4092          1.057        -77.749       -57.9992           2960      0.3556104      0.2820615
      4600.5000           19.4         0.4704        -0.0291           37.2       48.71429         0.3926         0.5527         0.4441         1.0377       -81.7561       -62.0204           2960      0.3343466      0.2305077
      4601.0000          20.08          0.498        -0.0323           35.4       45.85653         0.3926         0.5578         0.4633         1.0281       -85.1433       -65.4217           2960      0.2735431      0.1869013
      4601.5000           20.8         0.5076        -0.0365           34.6       44.57364         0.3926         0.5629         0.4539         1.0187       -87.2815       -67.5741           2960      0.2462476      0.1593065
      4602.0000           21.4         0.5196        -0.0407             35       45.18062         0.3926         0.5681         0.4364         1.0093       -88.4971       -68.8038           2960      0.2591622       0.143541
      4602.5000          21.84         0.5088        -0.0439           35.6       46.10258         0.3926         0.5785         0.4188         1.0093          -89.7       -70.0208           2960      0.2787782      0.1279385
      4603.0000          22.28         0.4896        -0.0429           36.4       47.33952            0.4         0.5892         0.4271              1          -90.3       -70.6349           2920      0.3050961      0.1200653
      4603.5000           22.2         0.4588        -0.0408           36.4       47.31654         0.4037         0.5946           0.44         0.9905          -90.9        -71.249           2920      0.3046073      0.1121923
      4604.0000           21.2         0.3972        -0.0367           35.4       45.71869         0.4075         0.5946         0.4341              1          -91.5       -71.8631           2920      0.2706104      0.1043193
      4604.5000          20.92           0.39        -0.0418             33       41.91599         0.4113         0.6058         0.3984         1.0093          -91.5       -71.8773           2920      0.1897019      0.1041372
      4605.0000          21.44         0.4235         -0.055             33       41.89301         0.4152         0.6176         0.3984         0.9905          -91.8       -72.1914           2920       0.189213      0.1001103
      4605.5000          21.76         0.4884         -0.068           33.2       42.18502          0.419         0.6236           0.44         0.9624          -92.7       -73.1055           2920       0.195426     0.08839104
      4606.0000          21.64          0.564         -0.081           33.6         42.792          0.419         0.6296         0.5016         0.9352          -92.7       -73.1196           2920      0.2083403     0.08821028
      4606.5000          21.32         0.5832         -0.088           33.6       42.76903          0.419         0.6296         0.5016         0.9174          -92.4       -72.8338           2920      0.2078516     0.09187435
      4607.0000           20.8         0.5688         -0.081             34       43.37601         0.4152         0.6296          0.498         0.9087          -92.7       -73.1479           2940      0.2207662     0.08784739
      4607.5000          20.48          0.534         -0.067           33.4        42.4081         0.4113         0.6236         0.4647         0.9174          -92.7        -73.162           2940      0.2001724     0.08766663
      4608.0000          20.48         0.4836         -0.052           32.2       40.49527         0.4075         0.6117         0.4306         0.9262            -93       -73.4761           2940      0.1594739     0.08363978
      4608.5000          21.08           0.42        -0.0368           30.6       37.95248         0.4075         0.5946         0.4068         0.9087          -92.7       -73.1902           2940      0.1053719     0.08730512
      4609.0000           22.2         0.3624        -0.0247           29.8        36.6696         0.4075         0.5838         0.3972         0.8919          -92.7       -73.2043           2940     0.07807662     0.08712436
      4609.5000          22.48         0.3467        -0.0147           30.8       38.22151         0.4075         0.5785           0.39         0.8759          -92.7       -73.2185           2940       0.111096     0.08694233
      4610.0000           21.8         0.3396        -0.0139           32.8       41.34831         0.4075         0.5838         0.3828         0.8838          -92.7       -73.2326           2940      0.1776237     0.08676157
      4610.5000         21.074          0.348         -0.017           34.2       43.53017         0.4075         0.5892         0.3792         0.8919          -92.4       -72.9467           2940      0.2240463     0.09042691
      4611.0000         20.104         0.3744         -0.026           34.6       44.13715         0.4075         0.5946         0.3648         0.9087          -92.1       -72.6608           2920      0.2369606     0.09409235
      4611.5000        19.5711         0.4271         -0.041           33.4       42.22431         0.4113         0.5946         0.3468         0.9087          -92.1       -72.6749           2920       0.196262     0.09391159
      4612.0000        19.5632          0.528         -0.067             32       39.99651         0.4075         0.5946           0.36            0.9          -92.1       -72.6891           2920      0.1488619     0.09372946
      4612.5000          19.96          0.552         -0.079           31.6       39.34357         0.4075            0.6         0.4341         0.8838          -92.1       -72.7032           2920      0.1349697      0.0935487
      4613.0000             21         0.5316         -0.074           33.4        42.1554         0.4075         0.5892         0.4541         0.8838          -92.1       -72.7173           2920      0.1947957     0.09336794
      4613.5000          21.68         0.4741         -0.065           34.8       44.33726         0.4075         0.5785         0.4032         0.8838          -92.1       -72.7314           2920      0.2412183     0.09318718
      4614.0000          21.44         0.4188         -0.048           34.6       43.99931         0.4037         0.5681          0.336         0.9087          -92.1       -72.7456           2920      0.2340278     0.09300516
      4614.5000             21          0.408          -0.03           33.6       42.40144         0.4037         0.5578         0.3384            0.9          -92.1       -72.7597           2900      0.2000307      0.0928244
      4615.0000          19.48         0.4612         -0.036           32.4       40.48863            0.4         0.5477           0.39          0.868          -92.1       -72.7738           2900      0.1593325     0.09264354
      4615.5000          18.72          0.498         -0.043           31.2       38.57578            0.4         0.5477         0.4212         0.8295          -92.4       -73.0879           2880      0.1186337     0.08861669
      4616.0000          19.12         0.5316         -0.051           31.4       38.86779         0.3963         0.5477         0.4259         0.8146          -92.4        -73.102           2860      0.1248465     0.08843593
      4616.5000          19.16         0.5556          -0.06           32.4        40.4197         0.3963         0.5527         0.4365            0.8          -92.7       -73.4162           2860      0.1578659     0.08440771
      4617.0000          18.32          0.576         -0.067           33.6       42.28658         0.3963         0.5527         0.4612         0.7859            -93       -73.7303           2860      0.1975869     0.08038076
      4617.5000          17.96         0.5892         -0.074           33.6       42.26361         0.3926         0.5578         0.4824          0.772          -93.3       -74.0444           2860      0.1970981      0.0763538
