#------------------------------------------------------------------------------
# Created by    : vladimir.rabinovich
# Created on    : 09/19/2023 17:20:42
#------------------------------------------------------------------------------
~Version Information Section
VERS.           2.0     :   CWLS log ASCII Standard - VERSION 2.0
WRAP.           NO      :   One line per depth step
~Well Information Section
#MNEM       .UNIT                                         VALUE :DESCRIPTION
#------------------------------------------------------------------------------
STRT        .FT                                             202 :START DEPTH
STOP        .FT                                            9625 :STOP DEPTH
STEP        .FT                                             0.5 :STEP      
NULL        .                                           -999.25 :NULL      
COMP        .                           GENERAL AMERICAN OIL CO :COMPANY   
WELL        .                               OCS G01862 ST00BP00 :WELL      
FLD         .                           WEST CAMERON BLOCK 0045 :FIELD     
LOC         .                                                   :LOCATION  
CNTY        .                                      WEST CAMERON :LOCATION  
STAT        .                                         LOUISIANA :STATE     
CTRY        .                                     UNITED STATES :COUNTRY   
SRVC        .                                                   :SERVICE COMPANY
DATE        .                             9/13/2023 11:18:18 AM :LOG DATE  
API         .                                    17700004050000 :API NUMBER
UWI         .                                    17700004050000 :UNIQUE WELL ID
XCOORD      .                                  1441793.49938464 :SURFACE X 
YCOORD      .                                  10754125.7201806 :SURFACE Y 
LAT         .                                        29.6308281 :LATITUDE  
LON         .                                       -93.6253819 :LONGITUDE 
ELEV        .FT                                              70 :ELEVATION VALUE
ELEV_TYPE   .                                                KB :ELEVATION REFERENCE TYPE
~Curve Information Section
#MNEM       .UNIT                                      API CODE :CURVE DESCRIPTION
#------------------------------------------------------------------------------
DEPT        .FT                                                 :DEPTH     
ASN         .OHMM                                               :          
CALI        .IN                                                 :          
CALI_1      .IN                                                 :          
DRHO        .G/C3                                               :          
DT          .US/F                                               :          
GR          .GAPI                                               :          
GR_NORM     .GAPI                                               :GammaRay Normalized
ILD         .OHMM                                               :          
RHOB        .G/C3                                               :          
SP          .MV                                                 :          
SP_NORM     .MV                                                 :SP Normalized
VSH_GR      .V/V                                                :Volume of Shale from GR
VSH_SP      .V/V                                                :Volume of Shale from SP
~A        DEPTH            ASN           CALI         CALI_1           DRHO             DT             GR        GR_NORM            ILD           RHOB             SP        SP_NORM         VSH_GR         VSH_SP
# ...
      7441.0000         0.5085        12.2707        12.0879          0.102       110.9445        39.5023       32.00694         0.2998         2.1214      -136.5339       -89.9202              0              0
      7441.5000          0.501        12.2293        12.0344          0.105       110.4686        39.1802       31.61846         0.3063         2.1333      -136.6406       -90.0289              0              0
      7442.0000         0.4895        12.1815        11.9851         0.1209       111.7061        40.5637       33.29982         0.3127         2.1409      -136.3032       -89.6936    0.006379067              0
      7442.5000         0.4761        12.2385        12.0489         0.1405       112.3521        41.6389       34.60702         0.3192         2.1413      -136.3018       -89.6943     0.03419194              0
      7443.0000         0.4634          12.68        12.2123         0.1079       112.3644        41.9135       34.94258         0.3257         2.0956      -136.2903       -89.6848      0.0413316              0
      7443.5000         0.4531        12.5942         12.271         0.0772       112.8798        41.5135       34.45945         0.3231          2.109      -136.2014        -89.598     0.03105204              0
      7444.0000          0.451        12.4846        12.2151         0.0861       111.4734        41.7823       34.78797         0.3202         2.1275      -135.8445       -89.2431     0.03804195              0
      7444.5000         0.4872        12.3819        12.1385         0.0701       109.7478        42.3351        35.4613         0.3173         2.1089      -135.3774       -88.7781     0.05236808              0
      7445.0000         0.5131        12.3461        12.1396         0.0566       110.3146        42.0023        35.0597         0.3144         2.0918      -135.4636       -88.8663     0.04382348              0
      7445.5000         0.5391        12.4553        12.1865          0.056       110.4315        42.3615       35.49794         0.2999         2.0895      -136.2329       -89.6377     0.05314774              0
      7446.0000         0.5471        12.8326        12.3142         0.1115       109.6692        43.7862       37.22931         0.3029         2.0975      -137.2278       -90.6346      0.0899853              0
      7446.5000         0.5228        13.1509         12.469         0.1408       110.4537        44.7526       38.40447          0.306         2.1034      -138.1353       -91.5442      0.1149887              0
      7447.0000         0.5245        13.4188        12.6031         0.1156       111.5068        45.5546       39.38011          0.309         2.0913      -138.7393       -92.1503       0.135747              0
      7447.5000          0.535        13.4855        12.7502         0.1072       111.4551         44.736       38.38905          0.312         2.0689      -138.8867       -92.2997      0.1146607              0
      7448.0000         0.5473        12.7402        12.2315         0.0871       111.4443        44.1627       37.69558         0.3151         2.0841      -139.2971       -92.7122     0.09990603              0
      7448.5000         0.5507        12.2809        12.0492         0.0618       110.3696        44.4687       38.06926         0.3181         2.1075      -139.8638       -93.2809      0.1078567              0
      7449.0000         0.5436        12.5212        12.2046         0.0864       109.0847        45.6104       39.45717         0.3166         2.1288      -140.3667       -93.7859      0.1373866              0
      7449.5000         0.5208        12.6057        12.2873         0.0833       109.7448        45.8953       39.80524          0.312          2.136      -140.6001       -94.0213      0.1447923              0
      7450.0000         0.5003        12.5069         12.137         0.0528       110.2311        45.1913       38.95327         0.3073         2.0715      -139.6392       -93.0625      0.1266653              0
      7450.5000         0.4408        12.1402             12          0.011       110.3201        44.6586       38.30908         0.3027         2.0794      -138.4207        -91.846      0.1129591              0
      7451.0000         0.4043        11.9624        11.9344         0.0091        109.647        45.9061       39.82539          0.298         2.0998      -137.3806        -90.808       0.145221              0
      7451.5000         0.3784        11.9733        11.8937          0.017       108.6594        48.1641       42.56807         0.2934         2.1139      -136.3389       -89.7683      0.2035759              0
      7452.0000         0.3733        12.0589         11.968         0.0369       109.0566        48.3691       42.81916         0.2888         2.1259      -135.2988       -88.7303      0.2089184              0
      7452.5000          0.446        12.2478        12.1042         0.0625        109.673        48.8157       43.36348         0.2873         2.1303      -134.3455        -87.779      0.2204996              0
      7453.0000         0.4947        12.3972         12.196         0.0673       110.4253        49.5134       44.21265          0.308         2.1328      -134.6619       -88.0975      0.2385671              0
      7453.5000         0.5422        12.6879        12.3078         0.0757       110.6707        50.1093       44.93817         0.3384         2.1304      -135.9375       -89.3752      0.2540036              0
      7454.0000          0.602         12.873        12.4846         0.0649       111.3187        51.0879       46.12813         0.3631         2.1198      -137.3623        -90.802      0.2793219              0
      7454.5000         0.6128        12.8847        12.5324         0.0509       112.0538        53.0991       48.57129         0.3705         2.1128      -138.6074       -92.0492       0.331304              0
      7455.0000         0.6121        12.8055        12.5111         0.0578       111.5377        55.1829       51.10255         0.3629         2.1417      -139.2568       -92.7006      0.3851607              0
      7455.5000         0.5995        12.7089        12.3901         0.0895       111.3677         56.491       52.69241         0.3532         2.1621      -139.2324       -92.6783      0.4189874              0
      7456.0000         0.5683        12.7968        12.3825         0.1053       111.3621        54.9674       50.84575         0.3409         2.1721       -138.634       -92.0819      0.3796969              0
      7456.5000         0.5264        12.8484        12.4715         0.0876       110.4082        54.3796       50.13469         0.3247         2.1565      -136.3113       -89.7613      0.3645678              0
      7457.0000         0.4839        12.8246        12.4765         0.0541       110.4896        54.0333       49.71671         0.3094         2.1205      -134.1355       -87.5875      0.3556747              0
      7457.5000         0.4412        12.7774        12.4161         0.0412       110.4485        52.6233        48.0078         0.3026         2.1169      -131.7573       -85.2114      0.3193148              0
      7458.0000         0.3983         12.836        12.3863         0.0554        110.149        49.6544       44.40696         0.2976          2.137      -131.0957       -84.5518      0.2427013    0.005335671
      7458.5000         0.3954        13.0091        12.4856         0.1056        110.726        47.0028        41.1912         0.2925         2.1447      -131.0413       -84.4995      0.1742809    0.005958376
      7459.0000         0.4181        13.2993        12.7808         0.1263       111.8446        45.6163       39.51093         0.2875         2.1355      -131.6746       -85.1349      0.1385305              0
      7459.5000         0.4349        13.5507        13.0009         0.0938       112.5295        45.3959       39.24575         0.2825          2.093      -133.4839       -86.9462      0.1328884              0
