#------------------------------------------------------------------------------
# Created by    : vladimir.rabinovich
# Created on    : 09/19/2023 17:20:59
#------------------------------------------------------------------------------
~Version Information Section
VERS.           2.0     :   CWLS log ASCII Standard - VERSION 2.0
WRAP.           NO      :   One line per depth step
~Well Information Section
#MNEM       .UNIT                                         VALUE :DESCRIPTION
#------------------------------------------------------------------------------
STRT        .FT                                            4010 :START DEPTH
STOP        .FT                                           10351 :STOP DEPTH
STEP        .FT                                             0.5 :STEP      
NULL        .                                           -999.25 :NULL      
COMP        .                         TALOS ENERGY VENTURES LLC :COMPANY   
WELL        .                               OCS G13557 ST00BP00 :WELL      
FLD         .                           WEST CAMERON BLOCK 0118 :FIELD     
LOC         .                                                   :LOCATION  
CNTY        .                                      WEST CAMERON :LOCATION  
STAT        .                                         LOUISIANA :STATE     
CTRY        .                                     UNITED STATES :COUNTRY   
SRVC        .                                                   :SERVICE COMPANY
DATE        .                             9/13/2023 11:19:21 AM :LOG DATE  
API         .                                    17700409470000 :API NUMBER
UWI         .                                    17700409470000 :UNIQUE WELL ID
XCOORD      .                                  1434760.35260149 :SURFACE X 
YCOORD      .                                  10716448.9068769 :SURFACE Y 
LAT         .                                        29.5270802 :LATITUDE  
LON         .                                       -93.6468641 :LONGITUDE 
ELEV        .FT                                             100 :ELEVATION VALUE
ELEV_TYPE   .                                                KB :ELEVATION REFERENCE TYPE
~Curve Information Section
#MNEM       .UNIT                                      API CODE :CURVE DESCRIPTION
#------------------------------------------------------------------------------
DEPT        .FT                                                 :DEPTH     
AT10        .OHMM                                               :          
AT20        .OHMM                                               :          
AT30        .OHMM                                               :          
AT60        .OHMM                                               :          
AT90        .OHMM                                               :          
CALI        .IN                                                 :          
DPHI        .%                                                  :          
DRHO        .G/C3                                               :          
DTLF        .US/F                                               :          
DTLN        .US/F                                               :          
GR          .GAPI                                               :          
GR_NORM     .GAPI                                               :GammaRay Normalized
NPOR        .%                                                  :          
RHOB        .G/C3                                               :          
SP          .MV                                                 :          
SP_NORM     .MV                                                 :SP Normalized
TENS        .LBF                                                :          
VSH_GR      .V/V                                                :Volume of Shale from GR
VSH_SP      .V/V                                                :Volume of Shale from SP
~A        DEPTH           AT10           AT20           AT30           AT60           AT90           CALI           DPHI           DRHO           DTLF           DTLN             GR        GR_NORM           NPOR           RHOB             SP        SP_NORM           TENS         VSH_GR         VSH_SP
# ...
      8654.0000         0.9632         1.0552         0.9911         0.8832         0.8776        10.4217        24.7536         0.0432        93.3999        93.8999        89.9814        85.5101        34.5312         2.2416        -999.25        -999.25           3240              1        -999.25
      8654.5000         0.9715         1.0635          0.988         0.8836          0.875        10.7507        25.3568         0.0283        93.3999           93.1        85.0691        80.5985         35.438         2.2316        -999.25        -999.25           3200              1        -999.25
      8655.0000         0.9065         0.9627          0.931         0.8529         0.8454         10.921         27.249         0.0161           94.1           96.2        83.9769         79.507        37.1588         2.2004        -999.25        -999.25           3200      0.9895107        -999.25
      8655.5000         0.8048         0.8616         0.8417         0.7848         0.7827        10.9179        28.0292         0.0139           99.7            101        83.4734        79.0042        38.9933         2.1875        -999.25        -999.25           3200      0.9788129        -999.25
      8656.0000         0.7163         0.7812         0.7556          0.708         0.7112        10.8821         27.663         0.0137           99.7            102        84.2489        79.7805        40.4341         2.1936        -999.25        -999.25           3200      0.9953299        -999.25
      8656.5000         0.6489         0.6954         0.6887         0.6466         0.6534        10.4382        26.8032         0.0083            104            105        88.1444        83.6767        39.6381         2.2078        -999.25        -999.25           3175              1        -999.25
      8657.0000         0.6007         0.6331         0.6419         0.6059         0.6144         10.104        26.2702        -0.0007            107          106.7        93.2275        88.7605        37.1313         2.2165        -999.25        -999.25           3175              1        -999.25
      8657.5000          0.582         0.6199         0.6164         0.5856         0.5948          9.885        24.3105        -0.0046       110.8999            109        94.7788        90.3125        34.3934         2.2489        -999.25        -999.25           3175              1        -999.25
      8658.0000         0.5913         0.6198         0.6127         0.5862         0.5953         9.8729        21.0837        -0.0027          107.5       105.2999        93.4219        88.9564        32.8404         2.3021        -999.25        -999.25           3175              1        -999.25
      8658.5000         0.6229         0.6366         0.6318         0.6114         0.6189         9.8901        19.1251        -0.0035          104.1       105.7999        86.9718         82.507        32.2975         2.3344        -999.25        -999.25           3195              1        -999.25
      8659.0000         0.6933         0.7079         0.6757         0.6616         0.6663          9.885        18.3069        -0.0029          105.1            101         82.318        77.8539        33.2087         2.3479        -999.25        -999.25           3195      0.9543383        -999.25
      8659.5000         0.7725         0.7739         0.7192         0.7008         0.7031         9.8905         17.932        -0.0022       101.7999       101.8999        84.9718        80.5084        35.7108         2.3541        -999.25        -999.25           3195              1        -999.25
      8660.0000         0.7496         0.7326         0.7135         0.6828         0.6864         9.8901        18.6864         -0.005       103.8999          104.5        91.2336         86.771        38.0145         2.3417        -999.25        -999.25           3195              1        -999.25
      8660.5000         0.6754         0.6841          0.673         0.6422         0.6485         9.9303        19.3752        -0.0041          106.5       105.8999        97.4388        92.9769         39.113         2.3303        -999.25        -999.25           3195              1        -999.25
      8661.0000         0.6377         0.6611         0.6452         0.6246          0.632         10.042        19.7891        -0.0019       105.7999       108.3999        94.4495        89.9883        40.2335         2.3235        -999.25        -999.25           3195              1        -999.25
      8661.5000         0.6271         0.6541         0.6367         0.6233          0.631         10.042        20.1945        -0.0047            108       109.7999        91.7994        87.3389        40.7074         2.3168        -999.25        -999.25           3195              1        -999.25
      8662.0000         0.6236         0.6377         0.6334         0.6194         0.6274         10.032        20.1321         -0.002       107.8999       107.7999        91.0238         86.564        41.2762         2.3178        -999.25        -999.25           3195              1        -999.25
      8662.5000         0.6163         0.6288         0.6278         0.6109          0.619        10.0558        20.4137        -0.0029       107.7999       108.2999        94.0735        89.6145        41.7974         2.3132        -999.25        -999.25           3215              1        -999.25
      8663.0000         0.6084         0.6398         0.6217         0.6038         0.6119         9.7402         21.243        -0.0075          108.6          108.5        98.2015       91.95829        41.8321         2.2995        -999.25        -999.25           3215              1        -999.25
      8663.5000         0.6028         0.6341         0.6182         0.6007         0.6088         9.7322        21.0229        -0.0039       109.2999          110.2       103.7505       96.38339        40.7957         2.3031        -999.25        -999.25           3215              1        -999.25
      8664.0000         0.5993         0.6324         0.6169         0.6007         0.6087         9.6919        21.0276        -0.0029       109.8999          109.2       100.3656       93.68497        40.2202          2.303        -999.25        -999.25           3215              1        -999.25
      8664.5000         0.5998         0.6372         0.6177         0.6046         0.6123         9.7311        21.2267         -0.003          108.7          109.7       102.6875       95.53692        39.0655         2.2998        -999.25        -999.25           3210              1        -999.25
      8665.0000         0.6016         0.6307         0.6211         0.6127         0.6198         9.7093        20.3946        -0.0003       109.3999          109.1        97.2594        91.2094        38.1537         2.3135        -999.25        -999.25           3210              1        -999.25
      8665.5000          0.603         0.6268         0.6267         0.6214         0.6277          9.718        20.2471        -0.0046       107.8999          109.7        96.4237       90.54361        37.6562         2.3159        -999.25        -999.25           3210              1        -999.25
      8666.0000         0.6078         0.6444          0.635         0.6283         0.6339         9.7252        20.0171        -0.0044       108.8999       109.3999        96.3458       90.48205        37.7585         2.3197        -999.25        -999.25           3210              1        -999.25
      8666.5000         0.6201         0.6549         0.6481         0.6359         0.6407         9.8918        19.5322        -0.0036       107.8999          107.5       100.4169       93.72874        36.9006         2.3277        -999.25        -999.25           3175              1        -999.25
      8667.0000         0.6406         0.6837         0.6659         0.6469         0.6508         9.9154        19.4877         -0.008            107            108        107.975       99.75592        36.4994         2.3284        -999.25        -999.25           3175              1        -999.25
