#------------------------------------------------------------------------------
# Created by    : vladimir.rabinovich
# Created on    : 09/19/2023 17:22:20
#------------------------------------------------------------------------------
~Version Information Section
VERS.           2.0     :   CWLS log ASCII Standard - VERSION 2.0
WRAP.           NO      :   One line per depth step
~Well Information Section
#MNEM       .UNIT                                         VALUE :DESCRIPTION
#------------------------------------------------------------------------------
STRT        .FT                                            3394 :START DEPTH
STOP        .FT                                            9102 :STOP DEPTH
STEP        .FT                                             0.5 :STEP      
NULL        .                                           -999.25 :NULL      
COMP        .                               TALOS PETROLEUM LLC :COMPANY   
WELL        .                                OCS 00299 ST00BP02 :WELL      
FLD         .                           WEST CAMERON BLOCK 0045 :FIELD     
LOC         .                                                   :LOCATION  
CNTY        .                                      WEST CAMERON :LOCATION  
STAT        .                                         LOUISIANA :STATE     
CTRY        .                                     UNITED STATES :COUNTRY   
SRVC        .                                                   :SERVICE COMPANY
DATE        .                             9/13/2023 11:19:21 AM :LOG DATE  
API         .                                    17700408910000 :API NUMBER
UWI         .                                    17700408910000 :UNIQUE WELL ID
XCOORD      .                                  1447531.51187247 :SURFACE X 
YCOORD      .                                  10768708.3799417 :SURFACE Y 
LAT         .                                         29.671026 :LATITUDE  
LON         .                                        -93.607557 :LONGITUDE 
ELEV        .FT                                              95 :ELEVATION VALUE
ELEV_TYPE   .                                                KB :ELEVATION REFERENCE TYPE
~Curve Information Section
#MNEM       .UNIT                                      API CODE :CURVE DESCRIPTION
#------------------------------------------------------------------------------
DEPT        .FT                                                 :DEPTH     
CALI        .IN                                                 :          
DPHI        .V/V                                                :          
DRHO        .G/C3                                               :          
GR          .GAPI                                               :          
GR_NORM     .GAPI                                               :GammaRay Normalized
IDPH        .OHMM                                               :          
IMPH        .OHMM                                               :          
NPOR        .V/V                                                :          
SFLU        .OHMM                                               :          
SP          .MV                                                 :          
SP_NORM     .MV                                                 :SP Normalized
TENS        .LBS                                                :          
VSH_GR      .V/V                                                :Volume of Shale from GR
VSH_SP      .V/V                                                :Volume of Shale from SP
~A        DEPTH           CALI           DPHI           DRHO             GR        GR_NORM           IDPH           IMPH           NPOR           SFLU             SP        SP_NORM           TENS         VSH_GR         VSH_SP
# ...
      7966.0000         15.436         0.2868         -0.014           46.8       43.93689         0.2787         0.3416         0.2784            0.5          -82.5        -79.875       4979.592      0.2326998         0.1125
      7966.5000          15.52         0.2988         -0.017           45.4       42.02806         0.2918         0.3448          0.264         0.5046          -77.4       -74.7763           5000      0.1920864      0.1691522
      7967.0000           15.6         0.3024         -0.017           41.4       36.57654         0.2891         0.3353         0.2496         0.4349       -74.3878       -71.7653           5020     0.07609664      0.2026078
      7967.5000           15.6         0.3048         -0.016           38.6       32.76011         0.2736         0.3085         0.2592         0.3292       -74.0816       -71.4603           5020              0      0.2059967
      7968.0000          15.64         0.3072         -0.015           38.8       33.03141         0.2565         0.2839         0.2652         0.2736       -73.1633       -70.5432           5020   0.0006682213      0.2161867
      7968.5000          15.76         0.3096         -0.014           39.6       34.12024         0.2383         0.2589         0.2592         0.2339       -72.2449       -69.6261           5020     0.02383488      0.2263767
      7969.0000          15.92         0.3132         -0.013           38.6       32.75645         0.2255         0.2449         0.2556         0.2275       -71.6327       -69.0151           5040              0      0.2331656
      7969.5000          16.12         0.3132         -0.011           36.8        30.3026         0.2193         0.2318         0.2532         0.2427       -71.3265       -68.7101           5040              0      0.2365545
      7970.0000          16.28          0.312         -0.009           37.4       31.11893         0.2133         0.2255         0.2448         0.2472       -70.7143       -68.0991           5040              0      0.2433434
      7970.5000          16.36         0.3084         -0.009           39.4       33.84286         0.2056         0.2153           0.24         0.2318        -70.117       -67.5031           5000     0.01793322      0.2499656
      7971.0000          16.36         0.3084         -0.009           41.6       36.83929         0.2056         0.2133         0.2568         0.2234       -68.9271       -66.3144           5000     0.08168712      0.2631733
      7971.5000          16.28          0.312         -0.012           41.8        37.1106         0.2019         0.2133          0.282         0.2173        -67.145       -64.5335       4959.184     0.08745965      0.2829611
      7972.0000          16.28         0.3144         -0.016           40.4       35.20178         0.2019         0.2114         0.2976         0.2193       -66.8838       -64.2735       4918.367     0.04684643        0.28585
      7972.5000          16.44         0.3156         -0.021             40       34.65553         0.2019         0.2094         0.2964         0.2275            -69        -66.391       4918.367      0.0352241      0.2623222
      7973.0000          16.68         0.3168         -0.026           40.4       35.19934         0.2019         0.2094         0.2904         0.2153          -69.9       -67.2922       4918.367     0.04679449      0.2523089
      7973.5000          17.08          0.318          -0.03           41.2       36.28819         0.2019         0.2094         0.2808          0.191          -69.9       -67.2934       4918.367     0.06996138      0.2522955
      7974.0000          17.52          0.318         -0.033           40.6       35.46941         0.2019         0.2114         0.2664         0.1892          -69.9       -67.2946       4918.367     0.05254072      0.2522822
      7974.5000          17.96         0.3192         -0.036           40.2       34.92317         0.2019         0.2153         0.2628         0.2019          -70.5       -67.8959       4918.367     0.04091855      0.2456011
      7975.0000          18.32         0.3192         -0.038           41.2       36.28452         0.2019         0.2173          0.264         0.2296          -71.4       -68.7971       4938.775     0.06988347      0.2355878
      7975.5000          18.72          0.318         -0.036           42.4        37.9184         0.2019         0.2193          0.264         0.2813          -74.4       -71.7983       4959.184      0.1046468      0.2022411
      7976.0000          18.92         0.3168         -0.035           43.8       39.82479         0.2037         0.2234         0.2652         0.2945          -76.2       -73.5995       4979.592      0.1452083      0.1822277
      7976.5000          19.28         0.3192         -0.032           45.6        42.2762         0.2056         0.2275         0.2688         0.2613          -77.1       -74.5007       4979.592       0.197366      0.1722144
      7977.0000          19.52         0.3204          -0.03           45.2       41.72995         0.2094         0.2275         0.2652         0.2449          -77.4        -74.802       4959.184      0.1857435      0.1688666
      7977.5000          19.76         0.3228         -0.032           44.2       40.36616         0.2094         0.2275         0.2412         0.2427          -77.7       -75.1032       4938.775      0.1567268        0.16552
      7978.0000          19.96         0.3228         -0.036             43       38.72985         0.2114         0.2255          0.234         0.2361          -77.7       -75.1044       4897.959      0.1219118      0.1655067
      7978.5000          20.12         0.3216         -0.038           43.4       39.27366         0.2153         0.2255         0.2496         0.2213          -77.4       -74.8056       4857.143      0.1334822      0.1688266
      7979.0000          20.24         0.3204         -0.037           43.6       39.54495         0.2213         0.2275          0.264         0.2133          -76.8       -74.2069       4857.143      0.1392542      0.1754789
      7979.5000          20.36         0.3192         -0.035           42.8       38.45367         0.2255         0.2318         0.2652         0.2173            -75       -72.4081       4857.143      0.1160356      0.1954656
      7980.0000          20.52         0.3156         -0.032           41.4       36.54486         0.2318         0.2405          0.264         0.2275          -73.8       -71.2093       4857.143     0.07542249      0.2087856
      7980.5000          20.68          0.312         -0.027           42.2       37.63369         0.2449         0.2495         0.2688         0.2383          -73.5       -70.9105       4857.143     0.09858923      0.2121056
      7981.0000          21.16         0.3084         -0.019           45.2        41.7202         0.2613         0.2637         0.2736         0.2518          -67.2       -64.6118       4857.143      0.1855361      0.2820911
      7981.5000          21.96         0.3024         -0.007           49.8       47.98682         0.2761         0.2839         0.2712         0.2661          -55.5        -52.913       4877.551      0.3188686      0.4120778
      7982.0000          22.28         0.2832          0.002             57       57.79616         0.3448         0.3261         0.3012         0.3085          -41.4       -38.8142       4897.959      0.5275779      0.5687311
      7982.5000          21.84         0.2568           0.02             62       64.60783            0.4         0.3748         0.3432         0.3612          -26.4       -23.8154       4897.959      0.6725069      0.7353845
      7983.0000          20.72           0.24          0.025             64       67.33174         0.4472         0.4309         0.3672         0.4229       -14.6939       -12.1106       4918.367      0.7304626      0.8654377
      7983.5000        19.1429         0.2316          0.016           64.6       68.14807         0.4954         0.4954         0.3732         0.4908       -10.7143        -8.1322       4918.367      0.7478313      0.9096422
