#------------------------------------------------------------------------------
# Created by    : vladimir.rabinovich
# Created on    : 09/19/2023 17:20:13
#------------------------------------------------------------------------------
~Version Information Section
VERS.           2.0     :   CWLS log ASCII Standard - VERSION 2.0
WRAP.           NO      :   One line per depth step
~Well Information Section
#MNEM       .UNIT                                         VALUE :DESCRIPTION
#------------------------------------------------------------------------------
STRT        .FT                                             608 :START DEPTH
STOP        .FT                                            9135 :STOP DEPTH
STEP        .FT                                             0.5 :STEP      
NULL        .                                           -999.25 :NULL      
COMP        .                             PHILLIPS PETROLEUM CO :COMPANY   
WELL        .                                OCS 00757 ST00BP00 :WELL      
FLD         .                           WEST CAMERON BLOCK 0118 :FIELD     
LOC         .                                                   :LOCATION  
CNTY        .                                      WEST CAMERON :LOCATION  
STAT        .                                         LOUISIANA :STATE     
CTRY        .                                     UNITED STATES :COUNTRY   
SRVC        .                                                   :SERVICE COMPANY
DATE        .                             9/13/2023 11:18:18 AM :LOG DATE  
API         .                                    17700400630000 :API NUMBER
UWI         .                                    17700400630000 :UNIQUE WELL ID
XCOORD      .                                  1437747.16229911 :SURFACE X 
YCOORD      .                                  10702102.5427903 :SURFACE Y 
LAT         .                                         29.487661 :LATITUDE  
LON         .                                       -93.6372228 :LONGITUDE 
ELEV        .FT                                              84 :ELEVATION VALUE
ELEV_TYPE   .                                                KB :ELEVATION REFERENCE TYPE
~Curve Information Section
#MNEM       .UNIT                                      API CODE :CURVE DESCRIPTION
#------------------------------------------------------------------------------
DEPT        .FT                                                 :DEPTH     
ASFL        .OHMM                                               :          
ASN         .OHMM                                               :          
CALI        .IN                                                 :          
DRHO        .G/CC                                               :          
GR          .GAPI                                               :          
GR_NORM     .GAPI                                               :GammaRay Normalized
ILD         .OHMM                                               :          
RHOB        .G/CC                                               :          
SP          .MV                                                 :          
SP_NORM     .MV                                                 :SP Normalized
VSH_GR      .V/V                                                :Volume of Shale from GR
VSH_SP      .V/V                                                :Volume of Shale from SP
~A        DEPTH           ASFL            ASN           CALI           DRHO             GR        GR_NORM            ILD           RHOB             SP        SP_NORM         VSH_GR         VSH_SP
# ...
      8029.0000        -999.25         1.0239        10.9384         0.0215        145.113        68.1903         0.8463         2.3319       -62.7869        -8.5264      0.7487298      0.9249839
      8029.5000        -999.25         0.9862        10.8862         0.0152       146.4016       68.89191         0.8152         2.3407       -62.3342        -8.0886      0.7636576      0.9300161
      8030.0000        -999.25         0.9616        10.7939         0.0124       147.4211       69.44722         0.7896         2.3194        -61.882        -7.6513      0.7754728      0.9350425
      8030.5000        -999.25         0.9406        10.6824         0.0121       148.7878       70.19131         0.7639         2.2995       -61.3842        -7.1684      0.7913046      0.9405931
      8031.0000        -999.25         0.9227        10.5893         0.0122       152.5664       72.24613           0.74         2.2893       -60.7045        -6.5036      0.8350241      0.9482345
      8031.5000        -999.25         0.9072        10.5139          0.014       158.7444       75.60493         0.7198         2.2872       -60.0247        -5.8387      0.9064878       0.955877
      8032.0000        -999.25         0.8944        10.4702         0.0109       162.1548       77.45963         0.6995         2.2773        -59.345        -5.1739      0.9459496      0.9635184
      8032.5000        -999.25         0.8818        10.5526         0.0044       162.8301         77.828         0.6796         2.2582       -58.7485        -4.5923      0.9537871      0.9702035
      8033.0000        -999.25         0.8769        10.5826         -0.002        163.241       78.05255         0.6605         2.2429       -58.1705        -4.0292      0.9585649      0.9766759
      8033.5000        -999.25         0.8721        10.5818        -0.0013       164.0466       78.49166         0.6414         2.2479       -57.5925        -3.4661      0.9679077      0.9831483
      8034.0000        -999.25         0.8679        10.5933          0.003       165.8198       79.45663          0.626         2.2614       -57.2243        -3.1128       0.988439      0.9872092
      8034.5000        -999.25          0.868        10.6229         0.0082       169.1387       81.26168         0.6129          2.274        -57.157        -3.0604              1      0.9878115
      8035.0000        -999.25         0.8681        10.6957         0.0134       170.5781       82.04524         0.6026         2.2861       -57.1356        -3.0539              1      0.9878862
      8035.5000        -999.25         0.8689        10.6897          0.019        171.199       82.38403         0.5957         2.2967       -57.1108         -3.044              1          0.988
      8036.0000        -999.25         0.8699         10.647         0.0245       171.5024       82.55022         0.5998         2.3039       -57.0834        -3.0315              1      0.9881437
      8036.5000        -999.25         0.8709        10.6307         0.0273       171.4866       82.54294         0.6037         2.3086       -57.4063        -3.3693              1      0.9842609
      8037.0000        -999.25         0.8718        10.6287         0.0263       171.7031       82.66184         0.6081         2.2969       -57.7264        -3.7043              1      0.9804103
      8037.5000        -999.25         0.8728        10.6415         0.0236       172.3376       83.00802         0.6149         2.2924       -57.9204        -3.9132              1      0.9780092
      8038.0000        -999.25         0.8769        10.6543         0.0258       173.1768       83.46539         0.6237         2.2905       -58.1014        -4.1091              1      0.9757575
      8038.5000        -999.25         0.8918        10.6662         0.0298        172.946       83.34127         0.6417         2.2865       -58.1208        -4.1435              1      0.9753621
      8039.0000        -999.25         0.9171        10.6779         0.0359       170.6067       82.07131         0.6596         2.2971       -58.1401        -4.1777              1       0.974969
      8039.5000        -999.25         0.9434        10.6849         0.0438        169.481       81.46091         0.6827         2.3093        -58.109        -4.1615              1      0.9751552
      8040.0000        -999.25         0.9647        10.6877         0.0455       171.2937       82.44729          0.708         2.3226       -58.0139        -4.0813              1       0.976077
      8040.5000        -999.25         0.9832        10.6882         0.0589       174.6248       84.25896         0.7332         2.3414       -57.9187         -4.001              1          0.977
      8041.0000        -999.25         0.9947        10.6839         0.0542       178.7124        86.4817         0.7536         2.3413        -57.847        -3.9442              1      0.9776528
      8041.5000        -999.25         0.9992        10.6783          0.049       179.9387        87.1494          0.774          2.334       -57.7864        -3.8985              1      0.9781781
      8042.0000        -999.25         1.0063        10.6582         0.0438       176.9924       85.54956         0.7943         2.3274       -57.7258        -3.8528              1      0.9787034
      8042.5000        -999.25          1.004         10.638         0.0403       173.7896       83.81028         0.8038         2.3227       -57.7479        -3.8898              1      0.9782782
      8043.0000        -999.25         1.0008        10.6144         0.0368       172.1128       82.90031         0.8089           2.32       -57.8021        -3.9589              1      0.9774839
      8043.5000        -999.25         0.9972        10.5888         0.0383       172.4402       83.07954         0.8114         2.3291       -57.8405        -4.0122              1      0.9768713
      8044.0000        -999.25         0.9937         10.599          0.049        173.918       83.88397         0.8004         2.3377       -57.8598        -4.0464              1      0.9764782
      8044.5000        -999.25          0.994        10.6221         0.0531       173.6323       83.73006         0.7963         2.3366       -58.0228        -4.2243              1      0.9744334
      8045.0000        -999.25         0.9967        10.6495         0.0463       173.3303       83.56725         0.7975         2.3262        -58.251        -4.4674              1      0.9716391
      8045.5000        -999.25         0.9994        10.6934         0.0408       173.1038       83.44551         0.8056         2.3247       -58.6874        -4.9187              1      0.9664517
      8046.0000        -999.25         1.0123          10.77          0.037       173.3298       83.56963         0.8147         2.3302       -59.1531        -5.3993              1      0.9609276
      8046.5000        -999.25         1.0263        10.7432         0.0314       175.0845       84.52449         0.8235         2.3216       -59.4415        -5.7026              1      0.9574414
      8047.0000        -999.25         1.0407        10.7009          0.025       176.5029       85.29663         0.8319         2.3078       -59.6941        -5.9701              1      0.9543667
      8047.5000        -999.25         1.0553        10.6663         0.0199       177.2395       85.69826         0.8404         2.3032       -59.4165        -5.7074              1      0.9573862
      8048.0000        -999.25           1.07        10.6523         0.0217        171.427       82.54076         0.8483         2.3116       -59.1393        -5.4451              1      0.9604012
      8048.5000        -999.25         1.0846        10.6493         0.0283       163.9194         78.462         0.8548         2.3198       -58.8256        -5.1464      0.9672766      0.9638345
      8049.0000        -999.25         1.0935        10.6632         0.0366       160.9785        76.8651         0.8613         2.3249       -58.2877        -4.6234      0.9333001       0.969846
