#------------------------------------------------------------------------------
# Created by    : vladimir.rabinovich
# Created on    : 09/19/2023 17:20:42
#------------------------------------------------------------------------------
~Version Information Section
VERS.           2.0     :   CWLS log ASCII Standard - VERSION 2.0
WRAP.           NO      :   One line per depth step
~Well Information Section
#MNEM       .UNIT                                         VALUE :DESCRIPTION
#------------------------------------------------------------------------------
STRT        .FT                                             202 :START DEPTH
STOP        .FT                                            9625 :STOP DEPTH
STEP        .FT                                             0.5 :STEP      
NULL        .                                           -999.25 :NULL      
COMP        .                           GENERAL AMERICAN OIL CO :COMPANY   
WELL        .                               OCS G01862 ST00BP00 :WELL      
FLD         .                           WEST CAMERON BLOCK 0045 :FIELD     
LOC         .                                                   :LOCATION  
CNTY        .                                      WEST CAMERON :LOCATION  
STAT        .                                         LOUISIANA :STATE     
CTRY        .                                     UNITED STATES :COUNTRY   
SRVC        .                                                   :SERVICE COMPANY
DATE        .                             9/13/2023 11:18:18 AM :LOG DATE  
API         .                                    17700004050000 :API NUMBER
UWI         .                                    17700004050000 :UNIQUE WELL ID
XCOORD      .                                  1441793.49938464 :SURFACE X 
YCOORD      .                                  10754125.7201806 :SURFACE Y 
LAT         .                                        29.6308281 :LATITUDE  
LON         .                                       -93.6253819 :LONGITUDE 
ELEV        .FT                                              70 :ELEVATION VALUE
ELEV_TYPE   .                                                KB :ELEVATION REFERENCE TYPE
~Curve Information Section
#MNEM       .UNIT                                      API CODE :CURVE DESCRIPTION
#------------------------------------------------------------------------------
DEPT        .FT                                                 :DEPTH     
ASN         .OHMM                                               :          
CALI        .IN                                                 :          
CALI_1      .IN                                                 :          
DRHO        .G/C3                                               :          
DT          .US/F                                               :          
GR          .GAPI                                               :          
GR_NORM     .GAPI                                               :GammaRay Normalized
ILD         .OHMM                                               :          
RHOB        .G/C3                                               :          
SP          .MV                                                 :          
SP_NORM     .MV                                                 :SP Normalized
VSH_GR      .V/V                                                :Volume of Shale from GR
VSH_SP      .V/V                                                :Volume of Shale from SP
~A        DEPTH            ASN           CALI         CALI_1           DRHO             DT             GR        GR_NORM            ILD           RHOB             SP        SP_NORM         VSH_GR         VSH_SP
# ...
      1988.0000         0.6244        -999.25        -999.25        -999.25        -999.25        -999.25        -999.25         0.6152        -999.25       -66.9381        -1.2561        -999.25      0.9962884
      1988.5000         0.6224        -999.25        -999.25        -999.25        -999.25        -999.25        -999.25         0.6091        -999.25        -65.168         0.4724        -999.25              1
      1989.0000         0.6211        -999.25        -999.25        -999.25        -999.25        -999.25        -999.25         0.6123        -999.25         -64.17         1.4287        -999.25              1
      1989.5000         0.6247        -999.25        -999.25        -999.25        -999.25        -999.25        -999.25         0.6155        -999.25       -63.5807         1.9764        -999.25              1
      1990.0000         0.6299        -999.25        -999.25        -999.25        -999.25        -999.25        -999.25         0.6272        -999.25       -63.2563         2.2591        -999.25              1
      1990.5000         0.6314        -999.25        -999.25        -999.25        -999.25        -999.25        -999.25         0.6405        -999.25       -63.0759         2.3979        -999.25              1
      1991.0000         0.6387        -999.25        -999.25        -999.25        -999.25        -999.25        -999.25         0.6537        -999.25       -63.1757         2.2565        -999.25              1
      1991.5000          0.639        -999.25        -999.25        -999.25        -999.25        -999.25        -999.25         0.6772        -999.25       -63.3519         2.0387        -999.25              1
      1992.0000         0.6355        -999.25         7.1756         0.0577        -999.25         83.134       97.80375         0.7035         2.0348       -63.9308         1.4181              1              1
      1992.5000          0.632        -999.25         7.1439         0.0644        -999.25        82.3801         96.829         0.7298         2.0389       -64.5946         0.7127              1              1
      1993.0000         0.6285        -999.25         7.1134         0.0674        -999.25        81.1787       95.27589         0.7496         2.0475       -65.4969        -0.1908              1              1
      1993.5000         0.6352        -999.25         7.0971         0.0734        -999.25         77.804       90.91324         0.7652         2.0904       -66.6678        -1.3617              1       0.994758
      1994.0000         0.6434        -999.25          7.093         0.0846        -999.25        73.7637       85.69011         0.7807         2.1192       -68.2494        -2.9433              1      0.9718362
      1994.5000         0.6545        -999.25         7.1082         0.0665        -999.25        69.5355       80.22331         0.7451         2.1176       -71.1818        -5.8757              1      0.9293377
      1995.0000         0.6592        -999.25         7.1411         0.0581        -999.25         63.571       72.51151         0.6914         2.1135       -73.9517        -8.6456      0.8406703      0.8891942
      1995.5000         0.6624        -999.25         7.1906         0.0867        -999.25        61.2866       69.55717          0.632         2.1182            -76       -10.6939      0.7778121      0.8595087
      1996.0000         0.6628        -999.25         7.2552         0.0819        -999.25        57.3794       64.50496         0.5701         2.1017       -79.3541        -14.048      0.6703183      0.8108985
      1996.5000         0.6551        -999.25         7.2223         0.0839        -999.25        53.7629       59.82855         0.5157         2.0599       -81.1475       -15.8414      0.5708203      0.7849072
      1997.0000          0.635        -999.25         7.1837         0.1735        -999.25        51.0361        56.3023         0.4778          2.034       -82.4865       -17.1804      0.4957936      0.7655014
      1997.5000          0.618        -999.25         7.1921         0.1604        -999.25        47.9217       52.27497         0.4399         2.0405       -86.4137       -21.1076      0.4101059      0.7085855
      1998.0000         0.6187        -999.25          7.207         0.1286        -999.25        45.3622         48.965         0.4174         1.9478       -99.3192       -34.0131      0.3396809      0.5215493
      1998.5000         0.5944        -999.25         7.1903         0.1261        -999.25        43.6174       46.70811         0.3958         1.8715       -103.743       -38.4369       0.291662      0.4574362
      1999.0000         0.5384        -999.25         7.1507         0.1579        -999.25        44.2641       47.54296         0.3753         1.8452      -104.0056       -38.6995      0.3094248      0.4536304
      1999.5000         0.5197        -999.25         7.1283         0.1342        -999.25        45.3921       49.00004         0.3652         1.8348      -103.8917       -38.5856      0.3404264      0.4552811
      2000.0000          0.547        14.2118         7.2106         0.1051       157.0056        47.0016       51.07956         0.3551          1.891       -103.103       -37.7969      0.3846716      0.4667116
      2000.5000         0.5585        14.9856           7.34          0.079       154.9856        49.7881       54.68066         0.3484          1.936       -99.9449       -34.6388      0.4612907      0.5124812
      2001.0000         0.5407        15.3951         7.3625         0.0667       154.6118        52.1886       57.78277         0.3672         1.9528       -96.6522       -31.3461       0.527293      0.5602015
      2001.5000         0.5393        14.8197         7.1977         0.0679       155.2656         53.554       59.54672         0.3859         2.0218       -94.9799       -29.6738      0.5648238      0.5844377
      2002.0000         0.5589        14.0314         7.0696          0.087       152.3921        52.2135       57.81261          0.411         2.0723       -94.1136       -28.8075      0.5279279      0.5969927
      2002.5000         0.5916        13.9432          7.046         0.0817       148.9346        50.5827       55.70322         0.4505         2.1133       -93.4713       -28.1652      0.4830472      0.6063015
      2003.0000         0.6278        13.6726         7.0549          0.069       149.4004        50.1047       55.08414           0.49         2.1215       -93.4349       -28.1288      0.4698752       0.606829
      2003.5000         0.6653        13.7906         7.0527          0.053       148.5276        50.5051       55.60059         0.5345         2.1246       -93.6543       -28.3482      0.4808635      0.6036493
      2004.0000         0.6876        13.6497         7.0522         0.0361       149.3445        52.1523       57.72885         0.5805         2.1295          -94.4       -29.0939      0.5261457       0.592842
      2004.5000          0.707        13.4616         7.0557         0.0346       147.3289        53.0195       58.84877         0.6265         2.1389       -95.5568       -30.2507      0.5499738      0.5760768
      2005.0000         0.7401        13.4124         7.0591         0.0587       144.4482        54.8483       61.21167         0.6528         2.1489        -97.012       -31.7059      0.6002482       0.554987
      2005.5000         0.7456        13.3862          7.063         0.0688       143.3801         59.149       66.77025         0.6775         2.1571       -97.1139       -31.8078      0.7185159      0.5535101
      2006.0000         0.7296        13.4406         7.0654         0.0692       144.3977        64.1523       73.23713         0.6975         2.1537       -95.8636       -30.5575      0.8561091      0.5716304
      2006.5000         0.6758        13.5527         7.0597         0.0805       153.8633        67.9529       78.14921         0.6918         2.1507         -93.51       -28.2039      0.9606215      0.6057406
