#------------------------------------------------------------------------------
# Created by    : vladimir.rabinovich
# Created on    : 09/19/2023 17:19:27
#------------------------------------------------------------------------------
~Version Information Section
VERS.           2.0     :   CWLS log ASCII Standard - VERSION 2.0
WRAP.           NO      :   One line per depth step
~Well Information Section
#MNEM       .UNIT                                         VALUE :DESCRIPTION
#------------------------------------------------------------------------------
STRT        .FT                                          4322.5 :START DEPTH
STOP        .FT                                            9954 :STOP DEPTH
STEP        .FT                                             0.5 :STEP      
NULL        .                                           -999.25 :NULL      
COMP        .                                ATP OIL & GAS CORP :COMPANY   
WELL        .                               OCS G13829 ST00BP00 :WELL      
FLD         .                           WEST CAMERON BLOCK 0092 :FIELD     
LOC         .                                                   :LOCATION  
CNTY        .                                      WEST CAMERON :LOCATION  
STAT        .                                         LOUISIANA :STATE     
CTRY        .                                     UNITED STATES :COUNTRY   
SRVC        .                                                   :SERVICE COMPANY
DATE        .                             9/13/2023 11:19:21 AM :LOG DATE  
API         .                                    17700409910000 :API NUMBER
UWI         .                                    17700409910000 :UNIQUE WELL ID
XCOORD      .                                  1447604.75856055 :SURFACE X 
YCOORD      .                                  10719416.1500606 :SURFACE Y 
LAT         .                                        29.5354331 :LATITUDE  
LON         .                                       -93.6065144 :LONGITUDE 
ELEV        .FT                                              97 :ELEVATION VALUE
ELEV_TYPE   .                                                KB :ELEVATION REFERENCE TYPE
~Curve Information Section
#MNEM       .UNIT                                      API CODE :CURVE DESCRIPTION
#------------------------------------------------------------------------------
DEPT        .FT                                                 :DEPTH     
AFCO        .MMHO                                               :          
AT10        .OHMM                                               :          
AT20        .OHMM                                               :          
AT30        .OHMM                                               :          
AT60        .OHMM                                               :          
AT90        .OHMM                                               :          
CSAX        .MMHO                                               :          
DCAL        .IN                                                 :          
DPHZ        .%                                                  :          
GR          .GAPI                                               :          
GR_NORM     .GAPI                                               :GammaRay Normalized
GRAX        .GAPI                                               :          
HDRA        .G/C3                                               :          
NPOR        .%                                                  :          
ROPS        .FT/HR                                              :          
RSAX        .OHMM                                               :          
RWA         .OHMM                                               :          
SP          .MV                                                 :          
SP_NORM     .MV                                                 :SP Normalized
TENS        .LBF                                                :          
VSH_SP      .V/V                                                :Volume of Shale from SP
~A        DEPTH           AFCO           AT10           AT20           AT30           AT60           AT90           CSAX           DCAL           DPHZ             GR        GR_NORM           GRAX           HDRA           NPOR           ROPS           RSAX            RWA             SP        SP_NORM           TENS         VSH_SP
# ...
      5210.0000       3612.496         0.6478         0.3998         0.3364         0.2999         0.2806        -999.25         0.4293          27.65        54.9285       40.21305        -999.25         0.0223        31.7799        -999.25        -999.25         0.0267      -123.0625       -69.5517           2132    0.006592695
      5210.5000       3775.813         0.3745         0.2796         0.2661         0.2412         0.2285        -999.25         0.3808          29.83        56.6296       41.72802        -999.25         0.0033          30.09        -999.25        -999.25         0.0302      -127.5625       -74.0585           2152              0
      5211.0000        3861.98         0.2887         0.2181          0.213         0.1945         0.1865        -999.25         0.3566          31.11        58.6274       43.51074        -999.25        -0.0004          38.79        -999.25        -999.25         0.0324        -126.25       -72.7529           2165              0
      5211.5000       3806.711         0.3107         0.2316           0.23         0.2062         0.1973        -999.25         0.3566          31.93        57.5818       42.54539        -999.25         0.0013        39.9599        -999.25        -999.25         0.0348       -122.625       -69.1347           2137     0.01272504
      5212.0000         3737.5          0.467         0.3155         0.3029          0.268         0.2537        -999.25         0.3323          31.56         61.886       46.41086        -999.25         0.0049          37.91        -999.25        -999.25         0.0346      -116.0625        -62.579           2136      0.1091324
      5212.5000       3581.074         0.7203         0.4144         0.3915         0.3388         0.3178        -999.25          0.308        30.9099         60.576       45.20677        -999.25         0.0066          35.64        -999.25        -999.25         0.0345       -113.625       -60.1483           2121      0.1448779
      5213.0000       3641.055         0.7212         0.4236         0.4064         0.3537         0.3316        -999.25         0.2959          30.84        60.1166       44.77081        -999.25         0.0058          33.64        -999.25        -999.25         0.0339      -116.8125       -63.3426           2107     0.09790292
      5213.5000       3849.031         0.4653         0.3237         0.3103         0.2764         0.2636        -999.25         0.2838           31.8          55.39       40.48166        -999.25         0.0032        30.5999        -999.25        -999.25         0.0345       -119.875       -66.4119           2156     0.05276613
      5214.0000       4017.734         0.3157         0.2432         0.2403         0.2345         0.2262        -999.25          0.308          32.83        56.5364       41.49565        -999.25         0.0012          32.22        -999.25        -999.25         0.0356        -120.25       -66.7937           2111     0.04715145
      5214.5000       4239.945         0.2641         0.2124         0.2101         0.2086         0.2025        -999.25         0.3323          33.66        54.4078       39.55231        -999.25        -0.0005          35.53        -999.25        -999.25         0.0357      -119.5625       -66.1131           2124     0.05716032
      5215.0000       4255.555         0.2568         0.2093         0.2068          0.218         0.2126        -999.25         0.3323        33.8799         57.783       42.57885        -999.25        -0.0011           34.7        -999.25        -999.25         0.0363      -118.3125       -64.8699           2120      0.0754426
      5215.5000       3993.309         0.2679         0.2172         0.2185         0.2362         0.2302        -999.25         0.3808          34.62        55.3266       40.33971        -999.25        -0.0014        32.3499        -999.25        -999.25         0.0405      -113.5625       -60.1267           2114      0.1451956
      5216.0000       3542.617         0.3167         0.2513         0.2535          0.278         0.2699        -999.25         0.4051          34.08        62.5085        46.8036        -999.25          0.006        35.6299        -999.25        -999.25         0.0441          -98.5        -45.071           2127       0.366603
      5216.5000       3085.254         0.4888         0.3594         0.3464         0.3783         0.3637        -999.25         0.6234          31.46         74.453       57.56807        -999.25         0.0295        38.6899        -999.25        -999.25         0.0425        -74.375       -20.9528           2128      0.7212824
      5217.0000       2609.457         0.7596         0.5074         0.4773         0.5177         0.4926        -999.25         0.9387          26.84        93.3182       74.58176        -999.25         0.0606          41.96        -999.25        -999.25         0.0356        -63.625       -10.2096           2115      0.8792706
      5217.5000       2278.879         0.7817         0.5882         0.5325         0.5828         0.5526        -999.25         0.9993          23.19       100.5785       81.11644        -999.25         0.0815        45.0599        -999.25        -999.25         0.0298       -64.1875       -10.7789           2111      0.8708985
      5218.0000       2146.008         0.7305          0.584         0.5191         0.5175         0.4949        -999.25         1.0357          22.63       103.5646       83.79167        -999.25         0.0799        45.0699        -999.25        -999.25           0.03         -70.25       -16.8482           2097      0.7816441
      5218.5000       2197.703         0.6776         0.5397         0.5069          0.467         0.4499        -999.25         0.8295          24.67        89.4484       71.02391        -999.25         0.0693        39.2499        -999.25        -999.25         0.0353       -82.3125       -28.9175           2107      0.6041544
      5219.0000       2326.625         0.5824         0.4746         0.4577         0.4275         0.4141        -999.25         0.6719        27.3199        83.3561       65.50153        -999.25         0.0591        33.7099        -999.25        -999.25         0.0417          -87.5       -34.1119           2141      0.5277662
      5219.5000       2432.352         0.4695           0.41         0.4179         0.3911         0.3807        -999.25         0.7568          28.29        82.0425       64.29418        -999.25         0.0522          30.97        -999.25        -999.25         0.0431         -72.25       -18.8687           2136      0.7519309
      5220.0000       2553.934         0.4469         0.4061         0.4148         0.3948         0.3854        -999.25         0.7446          27.28        86.2019       68.02879        -999.25         0.0525          40.39        -999.25        -999.25         0.0381       -68.0625        -14.688           2120      0.8134118
      5220.5000       2626.988         0.5248         0.4259         0.4065         0.3761         0.3684        -999.25         0.6234        25.8499        91.0062       72.34586        -999.25         0.0542        47.6199        -999.25        -999.25         0.0331       -79.6875       -26.3198           2106      0.6423559
      5221.0000         2650.5         0.5181         0.4241         0.3921          0.352         0.3461        -999.25         0.7689          27.65        78.7406       61.24909        -999.25         0.0417          38.62        -999.25        -999.25         0.0379        -92.875       -39.5141           2103      0.4483221
      5221.5000       2605.953         0.4337         0.3748         0.3696         0.3523         0.3469        -999.25         0.8174          30.68        75.0397       57.88604        -999.25          0.026          30.46        -999.25        -999.25         0.0483          -89.5       -36.1459           2132      0.4978544
      5222.0000       2483.012         0.4386         0.3686         0.3617         0.3512         0.3466        -999.25         0.9387        31.2599        81.1307       63.36496        -999.25         0.0279        32.3399        -999.25        -999.25         0.0529       -66.3125       -12.9652           2156       0.838747
