#------------------------------------------------------------------------------
# Created by    : vladimir.rabinovich
# Created on    : 09/19/2023 17:22:20
#------------------------------------------------------------------------------
~Version Information Section
VERS.           2.0     :   CWLS log ASCII Standard - VERSION 2.0
WRAP.           NO      :   One line per depth step
~Well Information Section
#MNEM       .UNIT                                         VALUE :DESCRIPTION
#------------------------------------------------------------------------------
STRT        .FT                                            3394 :START DEPTH
STOP        .FT                                            9102 :STOP DEPTH
STEP        .FT                                             0.5 :STEP      
NULL        .                                           -999.25 :NULL      
COMP        .                               TALOS PETROLEUM LLC :COMPANY   
WELL        .                                OCS 00299 ST00BP02 :WELL      
FLD         .                           WEST CAMERON BLOCK 0045 :FIELD     
LOC         .                                                   :LOCATION  
CNTY        .                                      WEST CAMERON :LOCATION  
STAT        .                                         LOUISIANA :STATE     
CTRY        .                                     UNITED STATES :COUNTRY   
SRVC        .                                                   :SERVICE COMPANY
DATE        .                             9/13/2023 11:19:21 AM :LOG DATE  
API         .                                    17700408910000 :API NUMBER
UWI         .                                    17700408910000 :UNIQUE WELL ID
XCOORD      .                                  1447531.51187247 :SURFACE X 
YCOORD      .                                  10768708.3799417 :SURFACE Y 
LAT         .                                         29.671026 :LATITUDE  
LON         .                                        -93.607557 :LONGITUDE 
ELEV        .FT                                              95 :ELEVATION VALUE
ELEV_TYPE   .                                                KB :ELEVATION REFERENCE TYPE
~Curve Information Section
#MNEM       .UNIT                                      API CODE :CURVE DESCRIPTION
#------------------------------------------------------------------------------
DEPT        .FT                                                 :DEPTH     
CALI        .IN                                                 :          
DPHI        .V/V                                                :          
DRHO        .G/C3                                               :          
GR          .GAPI                                               :          
GR_NORM     .GAPI                                               :GammaRay Normalized
IDPH        .OHMM                                               :          
IMPH        .OHMM                                               :          
NPOR        .V/V                                                :          
SFLU        .OHMM                                               :          
SP          .MV                                                 :          
SP_NORM     .MV                                                 :SP Normalized
TENS        .LBS                                                :          
VSH_GR      .V/V                                                :Volume of Shale from GR
VSH_SP      .V/V                                                :Volume of Shale from SP
~A        DEPTH           CALI           DPHI           DRHO             GR        GR_NORM           IDPH           IMPH           NPOR           SFLU             SP        SP_NORM           TENS         VSH_GR         VSH_SP
# ...
      7588.0000          19.12         0.2388        -0.0049           73.4        86.9906         0.6543         0.6357         0.3732         0.5578           -0.3         3.2507           4580              1              1
      7588.5000          18.76         0.2386        -0.0058           75.6       89.98669         0.6543         0.6296         0.3636         0.5838              0         3.5494       4578.736              1              1
      7589.0000          18.44         0.2395        -0.0055           77.6       92.71024         0.6607         0.6357         0.3636         0.5946            0.3         3.8482       4596.774              1              1
      7589.5000          18.56         0.2392        -0.0053           80.2       96.25137         0.6735         0.6543         0.3684         0.5946            0.6          4.147       4614.995              1              1
      7590.0000          18.72         0.2377        -0.0051           80.2       96.24978         0.6866         0.6671         0.3708            0.6            1.2         4.7458       4633.401              1              1
      7590.5000          18.88          0.234         -0.005           78.2       93.52303         0.7063         0.6801         0.3745         0.6117            0.9         4.4445       4612.245              1              1
      7591.0000          18.84          0.234        -0.0061           76.6       91.34134         0.7126         0.6866         0.3736         0.6117            0.6         4.1433       4612.245              1              1
      7591.5000           18.8         0.2364        -0.0081           76.2       90.79473         0.7189         0.6866         0.3691            0.6            0.3         3.8421       4653.061              1              1
      7592.0000          19.04         0.2328        -0.0081           77.2       92.15572         0.7254         0.6801          0.374         0.5838              0         3.5409       4673.469              1              1
      7592.5000          19.44         0.2268        -0.0051             76       90.51905         0.7319         0.6933         0.4153         0.5681           -0.3         3.2396       4673.469              1              1
      7593.0000          19.64         0.2232        -0.0031           73.2       86.70225         0.7319         0.7063          0.432         0.5733           -0.3         3.2384       4714.286              1              1
      7593.5000          19.64         0.2184         -0.001           71.4       84.24802         0.7319         0.7254         0.4141            0.6              0         3.5372       4693.877              1              1
      7594.0000          19.64         0.2148              0           71.8       84.79149          0.745         0.7319         0.3859         0.6357              0          3.536       4653.061              1              1
      7594.5000          19.56         0.2136              0             75       89.15012         0.7584          0.745         0.3765         0.6801            0.3         3.8347       4673.469              1              1
      7595.0000          19.68         0.2136              0           77.8       92.96376         0.7789         0.7584         0.3718         0.6866              0         3.5335       4693.877              1              1
      7595.5000             20          0.216        -0.0031           75.4         89.692         0.7859         0.7652         0.3718         0.6801           -0.3         3.2323       4734.694              1              1
      7596.0000          20.44         0.2172        -0.0041           71.8       84.78513            0.8          0.772         0.3647         0.6866           -0.3         3.2311       4795.918              1              1
      7596.5000          20.92         0.2112        -0.0031           70.4       82.87595            0.8         0.7789         0.3502            0.7           -0.3         3.2299        4775.51              1              1
      7597.0000          21.16         0.2052              0           71.4       84.23695         0.8073         0.7859         0.3392         0.7126           -0.3         3.2286       4734.694              1              1
      7597.5000           21.2         0.1992          0.003           73.6       87.23302         0.8146         0.7929         0.3306         0.7063           -0.6         2.9274       4755.102              1              1
      7598.0000          21.32          0.198          0.006             75       89.13904         0.8146         0.8073         0.3282            0.7           -0.3         3.2262       4755.102              1              1
      7598.5000          21.52         0.2005         0.0089             73       86.41232          0.822         0.8073         0.3282         0.7126              0          3.525       4755.797              1              1
      7599.0000          21.64          0.203         0.0106             71       83.68558         0.8295         0.8073         0.3284         0.7063            0.3         3.8237       4757.049              1              1
      7599.5000          21.72          0.208         0.0114           70.4       82.86646         0.8295         0.8073         0.3286         0.6933              0         3.5225       4758.287              1              1
      7600.0000          21.56         0.2105         0.0121             71       83.68241         0.8295         0.8073         0.3275         0.6801              0         3.5213       4739.472              1              1
      7600.5000          20.96         0.2106          0.013        71.3684        84.1828          0.822         0.8073         0.3299            0.7            0.3         3.8201           4740              1              1
      7601.0000          20.32         0.2094          0.015        71.7158       84.65457          0.822         0.8073         0.3369         0.7063            0.3         3.8188           4740              1              1
      7601.5000          20.44         0.2082          0.013        72.2737       85.41317         0.8146         0.8073         0.3486         0.7063            0.6         4.1176           4720              1              1
      7602.0000          21.16         0.2069          0.011        74.2211       88.06506         0.8073            0.8         0.3578            0.7            0.9         4.4164           4700              1              1
      7602.5000           21.4         0.2069          0.009           74.4       88.30725         0.8073         0.7929         0.3518         0.6933            0.9         4.4152           4680              1              1
      7603.0000          21.16         0.2069          0.008           73.2       86.67056            0.8         0.7859         0.3282         0.6866            0.3         3.8139           4640              1              1
      7603.5000          20.88         0.2069          0.006           72.4       85.57892            0.8         0.7789         0.3059         0.6801              0         3.5127           4640              1              1
      7604.0000          20.48         0.2082          0.003           72.4       85.57734         0.7859          0.772         0.3188         0.6933        -0.3061         3.2054           4680              1              1
      7604.5000          20.08         0.2131         -0.001           72.8        86.1208         0.7789          0.772         0.3553         0.6866        -0.6122         2.8981           4680              1              1
      7605.0000        19.6327         0.2155        -0.0049           73.2       86.66424         0.7652         0.7789         0.3732         0.6801        -1.2245         2.2845           4700              1              1
      7605.5000        19.1837         0.2278        -0.0088           71.6       84.48254         0.7584         0.7789         0.3708         0.6671        -2.1429         1.3649           4700              1              1
