#------------------------------------------------------------------------------
# Created by    : vladimir.rabinovich
# Created on    : 09/19/2023 17:22:04
#------------------------------------------------------------------------------
~Version Information Section
VERS.           2.0     :   CWLS log ASCII Standard - VERSION 2.0
WRAP.           NO      :   One line per depth step
~Well Information Section
#MNEM       .UNIT                                         VALUE :DESCRIPTION
#------------------------------------------------------------------------------
STRT        .FT                                           911.5 :START DEPTH
STOP        .FT                                           12432 :STOP DEPTH
STEP        .FT                                             0.5 :STEP      
NULL        .                                           -999.25 :NULL      
COMP        .                                    EXXON CO U S A :COMPANY   
WELL        .                               OCS G03260 ST00BP00 :WELL      
FLD         .                                           WILDCAT :FIELD     
LOC         .                                                   :LOCATION  
CNTY        .                                      WEST CAMERON :LOCATION  
STAT        .                                         LOUISIANA :STATE     
CTRY        .                                     UNITED STATES :COUNTRY   
SRVC        .                                                   :SERVICE COMPANY
DATE        .                             9/13/2023 11:18:18 AM :LOG DATE  
API         .                                    17700402650000 :API NUMBER
UWI         .                                    17700402650000 :UNIQUE WELL ID
XCOORD      .                                  1465533.33943019 :SURFACE X 
YCOORD      .                                  10722576.3450242 :SURFACE Y 
LAT         .                                        29.5443718 :LATITUDE  
LON         .                                       -93.5501671 :LONGITUDE 
ELEV        .FT                                              99 :ELEVATION VALUE
ELEV_TYPE   .                                                KB :ELEVATION REFERENCE TYPE
~Curve Information Section
#MNEM       .UNIT                                      API CODE :CURVE DESCRIPTION
#------------------------------------------------------------------------------
DEPT        .FT                                                 :DEPTH     
CALI        .IN                                                 :          
DRHO        .G/CC                                               :          
GR          .GAPI                                               :          
GR_NORM     .GAPI                                               :GammaRay Normalized
ILD         .OHMM                                               :          
RHOB        .G/CC                                               :          
VSH_GR      .V/V                                                :Volume of Shale from GR
~A        DEPTH           CALI           DRHO             GR        GR_NORM            ILD           RHOB         VSH_GR
# ...
      4228.0000        12.3989         0.0458        50.7716       83.54867         0.6039         2.2456              1
      4228.5000        12.4286         0.0463        51.9726       85.58884         0.6391         2.2481              1
      4229.0000        12.4298          0.058        52.2349       86.03374         0.6747         2.2653              1
      4229.5000        12.4288         0.0521        50.9774         83.896         0.7104         2.2788              1
      4230.0000         12.425         0.0464        49.6663       81.66738         0.7461         2.2693              1
      4230.5000        12.4271         0.0534        49.1035       80.71017         0.7746         2.2693              1
      4231.0000        12.4265         0.0815         48.978       80.49606         0.8017         2.2797              1
      4231.5000        12.4249         0.0671        48.3786       79.47684         0.8288         2.2551      0.9888689
      4232.0000        12.4204         0.0394        47.2692       77.59079         0.8353         2.2241      0.9487402
      4232.5000        12.4222         0.0598        46.4638       76.22131         0.8308         2.2454      0.9196024
      4233.0000        12.4433         0.0831        46.6268       76.49763         0.8251         2.2558      0.9254816
      4233.5000        12.5113         0.0949         48.314       79.36382         0.8178         2.2444      0.9864643
      4234.0000        12.4526         0.0693        48.7751       80.14652         0.8106         2.2078              1
      4234.5000        12.3413         0.0709         49.134       80.75555         0.8033         2.2316              1
      4235.0000        12.3213         0.0951        50.0013       82.22866          0.796         2.2517              1
      4235.5000        12.3468         0.1135        51.1359       84.15582         0.7887         2.2482              1
      4236.0000        12.3738         0.1265        51.6727       85.06715         0.7815           2.25              1
      4236.5000        12.3963         0.0923        51.3482       84.51506         0.7742         2.2359              1
      4237.0000        12.4167          0.071        50.3607       82.83615         0.7669         2.2371              1
      4237.5000        12.4381         0.0868        49.4869       81.35048           0.76         2.2488              1
      4238.0000        12.4459         0.0806        49.1912       80.84732          0.758         2.2326              1
      4238.5000        12.4429         0.0605        48.9719        80.4738          0.756         2.2255              1
      4239.0000        12.4099         0.0501        48.7047        80.0189          0.754         2.2422              1
      4239.5000        12.3632         0.0522        48.4767       79.63077          0.752         2.2504       0.992144
      4240.0000        12.3455         0.0792        48.5721       79.79205         0.7501         2.2774      0.9955756
      4240.5000        12.3522         0.0963        49.0814       80.65665         0.7481         2.2737              1
      4241.0000        12.3855          0.106        49.9432       82.12041         0.7461         2.2643              1
      4241.5000        12.4477         0.0844        50.9547       83.83841         0.7441         2.2601              1
      4242.0000        12.5279          0.062        51.7298       85.15467         0.7421         2.2031              1
      4242.5000        12.5952         0.0848        51.7971        85.2682         0.7401         2.2182              1
      4243.0000        12.6491         0.0758        51.5717       84.88448         0.7413         2.2146              1
      4243.5000        12.5762         0.0741        52.0187       85.64322         0.7433         2.2121              1
      4244.0000        12.5013         0.0833        52.7104       86.81776         0.7454         2.2332              1
      4244.5000        12.4916         0.0918        53.0154       87.33537         0.7474         2.2303              1
      4245.0000        12.5384         0.0863        54.1234       89.21732         0.7495         2.2235              1
      4245.5000        12.5473         0.0756        55.5588       91.65565         0.7515         2.2077              1
      4246.0000        12.5493         0.0682        56.4979       93.25079         0.7535         2.2018              1
      4246.5000        12.5553         0.0801        56.7886        93.7439         0.7556         2.2288              1
      4247.0000        12.5041         0.1006        57.0397       94.16973         0.7576         2.2316              1
      4247.5000        12.3508         0.0967        57.6282        95.1691         0.7596         2.2025              1
      4248.0000        12.2861          0.082        58.3771       96.44085         0.7616         2.1735              1
      4248.5000        12.2805         0.0764        58.9184       97.35983         0.7635         2.1668              1
      4249.0000        12.3015         0.0816        58.7207       97.02318         0.7654         2.1656              1
      4249.5000          12.37         0.0946        57.8818       95.59682         0.7673         2.1863              1
      4250.0000         12.441         0.1008        56.7233       93.62734         0.7692         2.2008              1
      4250.5000        12.5151         0.1062        55.5869        91.6954         0.7711         2.2167              1
      4251.0000        12.5858         0.1058        54.4506       89.76383          0.773         2.2199              1
      4251.5000        12.6743          0.089        53.3154       87.83393         0.7749         2.2056              1
      4252.0000        12.7192         0.0726        52.8115       86.97682         0.7769         2.2035              1
      4252.5000        12.7589          0.061        52.4286       86.32549         0.7766         2.1813              1
      4253.0000        12.8235         0.0788        52.9323       87.18057         0.7762         2.2202              1
      4253.5000         12.904         0.0677        53.3783        87.9376         0.7758         2.2195              1
      4254.0000        12.9397         0.0616        54.1509       89.24979         0.7754         2.2145              1
      4254.5000        12.9433         0.0702        55.4117       91.39141          0.775          2.217              1
      4255.0000        12.9447         0.0676        55.3412       91.27076         0.7746          2.197              1
      4255.5000        13.0018         0.0525        54.7825        90.3207         0.7742         2.1769              1
      4256.0000        13.1998          0.066        54.4921       89.82634         0.7738         2.1901              1
      4256.5000        12.8439         0.0777        54.9075       90.53142         0.7734         2.1758              1
      4257.0000        12.5828         0.0854         55.017       90.71664          0.773         2.1722              1
      4257.5000        12.6212         0.0858        53.5468       88.21764         0.7686         2.1712              1
      4258.0000        12.9523         0.0873        52.1329       85.81416         0.7642         2.1792              1
      4258.5000        13.4088         0.0984        51.4774       84.69942         0.7599         2.1992              1
      4259.0000        13.4901         0.1148        51.9792       85.55145         0.7555         2.2089              1
      4259.5000         12.475         0.1234        53.2657       87.73674         0.7511         2.2232              1
      4260.0000        12.3997         0.1307        54.4858       89.80919         0.7468         2.2363              1
      4260.5000        12.3672         0.1266        55.0116         90.702         0.7424         2.2414              1
      4261.0000        12.3813         0.1177        55.4276       91.40808         0.7381         2.2309              1
