#------------------------------------------------------------------------------
# Created by    : vladimir.rabinovich
# Created on    : 09/19/2023 17:21:07
#------------------------------------------------------------------------------
~Version Information Section
VERS.           2.0     :   CWLS log ASCII Standard - VERSION 2.0
WRAP.           NO      :   One line per depth step
~Well Information Section
#MNEM       .UNIT                                         VALUE :DESCRIPTION
#------------------------------------------------------------------------------
STRT        .FT                                            3871 :START DEPTH
STOP        .FT                                           10481 :STOP DEPTH
STEP        .FT                                             0.5 :STEP      
NULL        .                                           -999.25 :NULL      
COMP        .                               TALOS PETROLEUM LLC :COMPANY   
WELL        .                                OCS 00300 ST00BP00 :WELL      
FLD         .                           WEST CAMERON BLOCK 0045 :FIELD     
LOC         .                                                   :LOCATION  
CNTY        .                                      WEST CAMERON :LOCATION  
STAT        .                                         LOUISIANA :STATE     
CTRY        .                                     UNITED STATES :COUNTRY   
SRVC        .                                                   :SERVICE COMPANY
DATE        .                             9/13/2023 11:18:36 AM :LOG DATE  
API         .                                    17700410010000 :API NUMBER
UWI         .                                    17700410010000 :UNIQUE WELL ID
XCOORD      .                                  1453780.44334001 :SURFACE X 
YCOORD      .                                   10773222.791693 :SURFACE Y 
LAT         .                                         29.683533 :LATITUDE  
LON         .                                        -93.587947 :LONGITUDE 
ELEV        .FT                                              92 :ELEVATION VALUE
ELEV_TYPE   .                                                KB :ELEVATION REFERENCE TYPE
~Curve Information Section
#MNEM       .UNIT                                      API CODE :CURVE DESCRIPTION
#------------------------------------------------------------------------------
DEPT        .FT                                                 :DEPTH     
ATR         .OHMM                                               :          
CATR        .MMHO                                               :          
DCAL        .IN                                                 :          
DRHB        .G/C3                                               :          
GR          .GAPI                                               :          
GR_NORM     .GAPI                                               :GammaRay Normalized
PSR         .OHMM                                               :          
RHOB        .G/C3                                               :          
ROP5        .F/HR                                               :          
TNPH        .%                                                  :          
VSH_GR      .V/V                                                :Volume of Shale from GR
~A        DEPTH            ATR           CATR           DCAL           DRHB             GR        GR_NORM            PSR           RHOB           ROP5           TNPH         VSH_GR
# ...
      4861.0000            0.7        1428.57           1.27           0.06          35.99         38.582           1.06           2.02       147.5498             31       0.118766
      4861.5000            0.6       1666.666           1.56           0.08          32.68       35.57523           0.98           1.81       157.9099             31     0.05479212
      4862.0000           0.49       2040.814           1.61           0.12          30.34       33.44895           0.67           1.68       150.0098             35    0.009552164
      4862.5000           0.42       2380.949           1.24           0.13           29.5       32.68465            0.4           1.58       156.5398             49              0
      4863.0000           0.37       2702.699           0.89           0.11          30.21       33.32745            0.4            1.5       152.5598             60    0.006967017
      4863.5000           0.33       3030.301           0.39           0.08          29.28       32.48143           0.36           1.41       156.5398             66              0
      4864.0000           0.31       3225.805              0           0.05          26.68       30.11911           0.31           1.35       166.6799             69              0
      4864.5000           0.31       3225.805              0           0.04          25.49       29.03706            0.3           1.31          176.5             71              0
      4865.0000           0.31       3225.805              0           0.05          26.37       29.83419           0.29           1.31         178.24             76              0
      4865.5000           0.31       3225.805              0           0.08             28       31.31239           0.29           1.38       181.8499             72              0
      4866.0000           0.34       2941.176           1.36           0.15          28.09       31.39228            0.3           1.57       187.5298             65              0
      4866.5000           0.43       2325.578           1.53           0.16          28.13       31.42692           0.32           1.83       246.6099             56              0
      4867.0000           0.59       1694.914           1.12           0.22          30.69       33.74932           0.49           2.19       246.6099             44     0.01594292
      4867.5000           0.76       1315.789           0.88           0.19          35.37       37.99656           1.19           2.38       257.1797             32      0.1063098
      4868.0000           0.83       1204.818           0.52           0.25          42.47       44.44076           1.68           2.34       268.6899             27      0.2434205
      4868.5000           0.73       1369.861           0.56           0.24          48.29       49.72286           1.03           2.27       216.8899             26      0.3558056
      4869.0000           0.73       1369.861           0.58           0.25          52.79       53.80669           1.03           2.24       187.5098             30      0.4426956
      4869.5000           0.63       1587.301           0.57           0.21          54.73       55.56618           0.61           2.22       174.7598             33      0.4801316
      4870.0000           0.59       1694.914           0.55           0.18          55.74        56.4815           0.56           2.24       171.4299             35      0.4996063
      4870.5000           0.58       1724.137           0.52           0.14        56.7599       57.40571           0.58           2.24       169.8098             36      0.5192705
      4871.0000           0.53       1886.793           0.73           0.15           56.1       56.80484           0.65           2.19         168.22             38      0.5064859
      4871.5000           0.43       2325.578           1.06           0.09           52.3       53.35305           0.58           1.77       163.6299             40      0.4330436
      4872.0000           0.43       2325.578           1.43            0.1          45.03       46.75104           0.58           1.56         160.71             48      0.2925753
      4872.5000           0.35       2857.141           0.46            0.1        39.6899       41.90108           0.36           1.43       163.6399             54      0.1893848
      4873.0000           0.31       3225.805           0.36           0.11          34.79       37.45077           0.29           1.47       163.6399             66     0.09469718
      4873.5000           0.28       3571.426           0.59           0.13          33.25       36.05081           0.31           1.51         191.49             68     0.06491089
      4874.0000           0.25           4000           0.56           0.14          30.69       33.72495           0.36           1.49         222.23             70     0.01542444
      4874.5000           0.24       4166.664           0.37           0.12          31.09       34.08628            0.4           1.43       243.2698             65     0.02311236
      4875.0000           0.24       4166.664           0.21           0.11          32.15       35.04698           0.39            1.4       250.0298             63     0.04355272
      4875.5000           0.24       4166.664            0.5           0.14          32.72       35.56267           0.39           1.48       257.1997             58     0.05452485
      4876.0000           0.23        4347.82           0.83           0.17          33.48         36.251           0.42           1.62       260.9399             56     0.06917028
      4876.5000           0.23        4347.82           0.85           0.19          32.77       35.60458           0.45           1.76       272.8398             52     0.05541651
      4877.0000            0.2           5000           0.82            0.2          31.14       34.12306           0.41           1.81       285.8398             51     0.02389486
      4877.5000            0.2           5000           0.73           0.22          28.97       32.15113            0.4           1.77       300.1597             55              0
      4878.0000           0.21       4761.898           0.43           0.26           28.4       31.63181           0.41           1.76       300.1597             61              0
      4878.5000           0.22       4545.453           0.58           0.23          29.99       33.07369           0.44           1.73       310.5098             63    0.001567841
      4879.0000           0.22       4545.453           0.84           0.18          32.02       34.91489           0.45           1.77         315.96             58     0.04074227
      4879.5000           0.22       4545.453           1.34           0.11           33.7       36.43848           0.43            1.8       321.6099             54     0.07315916
      4880.0000           0.21       4761.898           1.48           0.09          33.52       36.27324           0.39           1.87       339.8398             50     0.06964347
      4880.5000            0.2           5000           1.59           0.08        32.1899       35.06393           0.37           1.84       339.8398             48     0.04391349
      4881.0000           0.21       4761.898            1.4           0.15          30.07       33.13755           0.39            1.8       353.2695             48    0.002926522
      4881.5000           0.22       4545.453           1.02           0.21          28.57       31.77404           0.42           1.76       353.1299             50              0
      4882.0000           0.22       4545.453           0.74           0.28          28.79       31.97196           0.44           1.77       360.1997             51              0
      4882.5000           0.22       4545.453           0.57           0.29          29.59       32.69662           0.45           1.76       367.5796             52              0
      4883.0000           0.22       4545.453           0.91           0.26          29.28       32.41335           0.45           1.75       367.5996             54              0
