#------------------------------------------------------------------------------
# Created by    : vladimir.rabinovich
# Created on    : 09/19/2023 17:22:04
#------------------------------------------------------------------------------
~Version Information Section
VERS.           2.0     :   CWLS log ASCII Standard - VERSION 2.0
WRAP.           NO      :   One line per depth step
~Well Information Section
#MNEM       .UNIT                                         VALUE :DESCRIPTION
#------------------------------------------------------------------------------
STRT        .FT                                           911.5 :START DEPTH
STOP        .FT                                           12432 :STOP DEPTH
STEP        .FT                                             0.5 :STEP      
NULL        .                                           -999.25 :NULL      
COMP        .                                    EXXON CO U S A :COMPANY   
WELL        .                               OCS G03260 ST00BP00 :WELL      
FLD         .                                           WILDCAT :FIELD     
LOC         .                                                   :LOCATION  
CNTY        .                                      WEST CAMERON :LOCATION  
STAT        .                                         LOUISIANA :STATE     
CTRY        .                                     UNITED STATES :COUNTRY   
SRVC        .                                                   :SERVICE COMPANY
DATE        .                             9/13/2023 11:18:18 AM :LOG DATE  
API         .                                    17700402650000 :API NUMBER
UWI         .                                    17700402650000 :UNIQUE WELL ID
XCOORD      .                                  1465533.33943019 :SURFACE X 
YCOORD      .                                  10722576.3450242 :SURFACE Y 
LAT         .                                        29.5443718 :LATITUDE  
LON         .                                       -93.5501671 :LONGITUDE 
ELEV        .FT                                              99 :ELEVATION VALUE
ELEV_TYPE   .                                                KB :ELEVATION REFERENCE TYPE
~Curve Information Section
#MNEM       .UNIT                                      API CODE :CURVE DESCRIPTION
#------------------------------------------------------------------------------
DEPT        .FT                                                 :DEPTH     
CALI        .IN                                                 :          
DRHO        .G/CC                                               :          
GR          .GAPI                                               :          
GR_NORM     .GAPI                                               :GammaRay Normalized
ILD         .OHMM                                               :          
RHOB        .G/CC                                               :          
VSH_GR      .V/V                                                :Volume of Shale from GR
~A        DEPTH           CALI           DRHO             GR        GR_NORM            ILD           RHOB         VSH_GR
# ...
      5903.0000        14.2914         0.0665        30.0603       48.01421         0.7012         2.2758      0.3194514
      5903.5000        14.3996         0.0367        28.8333       45.66807         0.6449         2.1978      0.2695334
      5904.0000        14.2764         0.0112        27.2994       42.73549         0.5908         2.0724       0.207138
      5904.5000        14.5469        -0.0047          25.46       39.21876         0.5679         1.9904      0.1323141
      5905.0000        14.7858         -0.012        23.9033        36.2426         0.5506         1.9826     0.06899147
      5905.5000        14.6637         0.0014        22.9072       34.33781         0.5829         2.1298     0.02846413
      5906.0000        14.7073          0.015        23.1324       34.76771         0.6223         2.2955     0.03761081
      5906.5000        14.4256         0.0253        23.5803       35.62329         0.6854         2.3692     0.05581462
      5907.0000        14.5089         0.0118        24.1024       36.62051         0.7485         2.3377     0.07703205
      5907.5000        14.1412         0.0022        24.3279       37.05096         0.8088          2.311     0.08619073
      5908.0000        14.4935         0.0048        23.8359       36.10975           0.86         2.2278     0.06616495
      5908.5000        15.7292         0.0138        23.2687         35.025         0.9112         2.1326     0.04308506
      5909.0000         16.187         0.0246        22.5757       33.69978         0.9525         2.1857     0.01488893
      5909.5000         14.474         0.0444        22.7995       34.12679         0.9833         2.3486     0.02397432
      5910.0000         14.549         0.0382        23.1472       34.79084          1.014         2.3672      0.0381029
      5910.5000        14.3314         0.0374        23.2171       34.92369         1.0447         2.2966     0.04092967
      5911.0000        14.3148         0.0585        22.9854       34.48023          0.925          2.208      0.0314943
      5911.5000        14.2158         0.0812        22.0627       32.71593         0.7994         2.1242              0
      5912.0000        14.4506         0.0805        21.2115       31.08813         0.6797         2.1084              0
      5912.5000        14.6277         0.0577        20.3899       29.51709         0.5662         2.0605              0
      5913.0000        14.5096         0.0442        19.8536       28.49121         0.4762         2.0529              0
      5913.5000        14.4926         0.0748        19.7029       28.20257          0.393          2.095              0
      5914.0000        15.0656         0.0819        19.5521       27.91355         0.3423         2.0736              0
      5914.5000        15.1604         0.0607        19.4531       27.72375         0.2917         2.0485              0
      5915.0000        14.9814         0.0913        19.5032       27.81893         0.2724         2.0808              0
      5915.5000        15.2157         0.1142        19.5533       27.91394         0.2681         2.0922              0
      5916.0000        15.3961         0.0859         19.687       28.16893         0.2638         2.0741              0
      5916.5000         15.044         0.0188        19.9784       28.72516         0.2792         2.0767              0
      5917.0000        14.6041        -0.0154        20.2696       29.28121          0.304         2.1064              0
      5917.5000        13.3564        -0.0076        20.6882       30.08078         0.3308         2.1705              0
      5918.0000        13.6436         0.0251        21.3499       31.34484         0.3606          2.226              0
      5918.5000        14.5522         0.0478        22.0115       32.60889         0.3905         2.1559              0
      5919.0000        14.3822          0.019        23.1201       34.72719         0.4203          2.029     0.03674868
      5919.5000        14.3127         0.0002        24.5301       37.42178         0.4502         1.9791      0.0940805
      5920.0000        14.3507         0.0133        26.1024       40.42662         0.4594         1.9845      0.1580132
      5920.5000        14.4249         0.0083        27.0696       42.27464         0.4428         2.0609      0.1973328
      5921.0000        14.4554         0.0133        27.7599       43.59354         0.4382         2.0874      0.2253945
      5921.5000        14.1458         0.0337        28.0949       44.23313         0.4474         2.1476      0.2390027
      5922.0000         13.884         0.0621        27.7608       43.59394         0.4566         2.1635      0.2254029
      5922.5000        14.1056         0.0789         27.051        42.2364         0.4658         2.1454      0.1965191
      5923.0000        14.8168         0.0498        25.6356       39.53035          0.484          2.096      0.1389436
      5923.5000        15.2855         0.0843        24.0946       36.58419         0.5078         2.1218     0.07625945
      5924.0000        15.2316         0.1406        22.9072       34.31373         0.5317         2.2389     0.02795175
      5924.5000        13.9921         0.1375        22.7598       34.03142         0.5555         2.1715     0.02194506
      5925.0000        14.4501         0.0582        23.5839       35.60588         0.5796         2.0199     0.05544427
      5925.5000        15.0028         0.0918        25.1388       38.57747         0.6055         2.1102      0.1186695
      5926.0000         14.914         0.0822        26.7821         41.718         0.6314         2.1947      0.1854893
      5926.5000        14.2548           0.03        27.8444        43.7478         0.6573         2.2618      0.2286766
      5927.0000        13.9191         0.0274        28.4125       44.83312         0.6826         2.3629      0.2517686
      5927.5000         13.865         0.0604        28.6525       45.29112         0.7072         2.4317      0.2615132
      5928.0000        14.2779         0.0453        29.1611       46.26271         0.7317          2.415      0.2821853
      5928.5000        14.6027         0.0743        29.7043       47.30045         0.7562         2.3485      0.3042649
      5929.0000        14.8647           0.12        30.5139       48.84722         0.7777         2.3272      0.3371749
      5929.5000        15.1188         0.1569        31.5581       50.84262         0.7957         2.2974      0.3796301
      5930.0000        15.3113         0.1614        32.3557       52.36642         0.8137         2.1955      0.4120515
      5930.5000        15.3996         0.1103        33.0317       53.65801         0.7927         2.0905      0.4395322
      5931.0000        15.3804          0.059        33.2443       54.06363         0.7623         2.0657      0.4481622
      5931.5000        15.3845         0.0271        33.2462       54.06668          0.694         2.0502      0.4482273
      5932.0000         15.325         0.0335         32.802       53.21702         0.6063         2.0865      0.4301493
      5932.5000        14.9135         0.0456        30.7039       49.20582         0.5258         2.1207      0.3448047
      5933.0000        14.5055         0.0546        28.2161       44.44989         0.4453          2.099      0.2436146
      5933.5000        14.3166         0.0436        26.1084       40.42032         0.3856         2.0301      0.1578791
      5934.0000        14.4963         0.0091        24.5114       37.36713         0.3413         2.0009     0.09291758
      5934.5000        14.5565         0.0383        23.7102       35.83507         0.3303         2.1413     0.06032067
      5935.0000        13.7548         0.0405         23.807       36.01934         0.3373         2.2113     0.06424129
      5935.5000        13.6568         0.0235        24.2979       36.95711         0.3655         2.2376     0.08419378
      5936.0000        13.2442         0.0228        25.4347        39.1293         0.4222         2.3417      0.1304107
