#------------------------------------------------------------------------------
# Created by    : vladimir.rabinovich
# Created on    : 09/19/2023 17:19:27
#------------------------------------------------------------------------------
~Version Information Section
VERS.           2.0     :   CWLS log ASCII Standard - VERSION 2.0
WRAP.           NO      :   One line per depth step
~Well Information Section
#MNEM       .UNIT                                         VALUE :DESCRIPTION
#------------------------------------------------------------------------------
STRT        .FT                                          4322.5 :START DEPTH
STOP        .FT                                            9954 :STOP DEPTH
STEP        .FT                                             0.5 :STEP      
NULL        .                                           -999.25 :NULL      
COMP        .                                ATP OIL & GAS CORP :COMPANY   
WELL        .                               OCS G13829 ST00BP00 :WELL      
FLD         .                           WEST CAMERON BLOCK 0092 :FIELD     
LOC         .                                                   :LOCATION  
CNTY        .                                      WEST CAMERON :LOCATION  
STAT        .                                         LOUISIANA :STATE     
CTRY        .                                     UNITED STATES :COUNTRY   
SRVC        .                                                   :SERVICE COMPANY
DATE        .                             9/13/2023 11:19:21 AM :LOG DATE  
API         .                                    17700409910000 :API NUMBER
UWI         .                                    17700409910000 :UNIQUE WELL ID
XCOORD      .                                  1447604.75856055 :SURFACE X 
YCOORD      .                                  10719416.1500606 :SURFACE Y 
LAT         .                                        29.5354331 :LATITUDE  
LON         .                                       -93.6065144 :LONGITUDE 
ELEV        .FT                                              97 :ELEVATION VALUE
ELEV_TYPE   .                                                KB :ELEVATION REFERENCE TYPE
~Curve Information Section
#MNEM       .UNIT                                      API CODE :CURVE DESCRIPTION
#------------------------------------------------------------------------------
DEPT        .FT                                                 :DEPTH     
AFCO        .MMHO                                               :          
AT10        .OHMM                                               :          
AT20        .OHMM                                               :          
AT30        .OHMM                                               :          
AT60        .OHMM                                               :          
AT90        .OHMM                                               :          
CSAX        .MMHO                                               :          
DCAL        .IN                                                 :          
DPHZ        .%                                                  :          
GR          .GAPI                                               :          
GR_NORM     .GAPI                                               :GammaRay Normalized
GRAX        .GAPI                                               :          
HDRA        .G/C3                                               :          
NPOR        .%                                                  :          
ROPS        .FT/HR                                              :          
RSAX        .OHMM                                               :          
RWA         .OHMM                                               :          
SP          .MV                                                 :          
SP_NORM     .MV                                                 :SP Normalized
TENS        .LBF                                                :          
VSH_SP      .V/V                                                :Volume of Shale from SP
~A        DEPTH           AFCO           AT10           AT20           AT30           AT60           AT90           CSAX           DCAL           DPHZ             GR        GR_NORM           GRAX           HDRA           NPOR           ROPS           RSAX            RWA             SP        SP_NORM           TENS         VSH_SP
# ...
      8860.0000       1404.418         0.6104         0.6845          0.704         0.7184         0.6813         1098.9         0.6961          19.11       120.7507       101.8581        99.1039          0.054          38.06         15.717           0.91         0.0312        -14.125        -0.7415           3158              1
      8860.5000       1401.154         0.6207         0.6986         0.7096          0.725         0.6871        1061.57         0.8174          19.62       117.9944       99.31425       101.3269         0.0405          39.35         18.159          0.942         0.0331        -14.125         -0.748           3166              1
      8861.0000       1392.441         0.6075         0.6952         0.7065         0.7208         0.6831       1019.367         0.8417          20.62       117.1764       98.55794         97.746         0.0243          37.43         18.159          0.981          0.037       -14.4375         -1.067           3137              1
      8861.5000       1383.721         0.5968         0.6862         0.7049          0.719         0.6814       1015.227         0.8174          21.08       112.8121       94.53128          98.61         0.0162          37.29         13.978          0.985         0.0391       -13.8125        -0.4486           3166              1
      8862.0000       1372.191         0.6321         0.6853         0.7207         0.7347          0.696        1061.57         0.8417          20.38       114.0375       95.65929        99.1039         0.0225          35.65         13.978          0.942         0.0366       -13.6875        -0.3301           3183              1
      8862.5000       1364.531          0.654         0.7255         0.7345         0.7472         0.7067        1043.84         0.7932        18.9799       113.2195       94.90298        98.9409         0.0367        36.9099          17.12          0.958         0.0316       -13.4375        -0.0866           3162              1
      8863.0000       1358.965         0.6601         0.7694         0.7388         0.7509         0.7101        1031.99         0.7446           17.7       112.9899       94.68929         98.882         0.0516          39.78          17.12          0.969         0.0273          -13.5        -0.1556           3174              1
      8863.5000       1356.527         0.6294         0.7093           0.73         0.7417         0.7036       979.4316         0.7083           17.1       108.6172       90.65488         99.475         0.0597        35.5399         12.934          1.021         0.0255       -13.3125         0.0253           3152              1
      8864.0000       1354.275         0.6171         0.6989         0.7291         0.7339         0.6968       939.8496         1.1327          18.06       105.9308       88.17554         98.116         0.0516          37.39         12.934          1.064         0.0287        -12.875         0.4563           3170              1
      8864.5000       1357.758         0.6551         0.7121         0.7397         0.7492         0.7123       933.7061         0.9387          19.56        107.309       89.44447         92.476         0.0351          39.02         14.875          1.071          0.034          -12.5         0.8248           3205              1
      8865.0000       1356.377         0.6729         0.7462         0.7474         0.7696         0.7353       1014.198         0.8174          20.33       111.9116       93.68704        93.3219         0.0257        35.4699         14.875          0.986         0.0372        -13.375        -0.0567           3191              1
      8865.5000       1346.719         0.6986         0.8008         0.7627          0.788         0.7543       1144.164         0.7689          19.65       114.9762       96.51115         94.168         0.0336          35.73         18.554          0.874         0.0349        -13.875        -0.5632           3230              1
      8866.0000         1337.9         0.7403         0.8032         0.7808         0.8228         0.7904       1113.584         0.7689           18.5        109.004       91.00175         94.287          0.046          37.83         18.554          0.898         0.0311       -14.4375        -1.1323           3247              1
      8866.5000       1309.895          0.762          0.822         0.7958         0.8438         0.8158       1090.512         0.7446          17.78       103.2174       85.66336         80.084         0.0522          33.04           11.7          0.917         0.0293       -15.5625        -2.2638           3222      0.9971634
      8867.0000       1283.064         0.7378          0.804          0.788         0.8431         0.8223       995.0244         0.8902          17.45       100.5614       83.21204        68.7209         0.0547          35.09           11.7          1.005         0.0289       -17.9375        -4.6453           3224      0.9715559
      8867.5000       1246.234         0.7368         0.7879         0.7775         0.8425         0.8281       1078.748         1.0842          18.08       108.1788       90.23484        79.1429         0.0568          38.55         41.693          0.927         0.0323        -18.625        -5.3393           3202      0.9640936
      8868.0000       1203.395          0.806         0.8454         0.8349         0.9127         0.9032       1158.748         0.8659          18.62       109.9833       91.89688        88.7289         0.0591          36.02         41.693          0.863         0.0359       -19.5625        -6.2834           3170      0.9539419
      8868.5000       1158.424         0.8745         0.9156         0.8917         0.9879         0.9846       1291.988         0.8902          19.12       113.0791       94.74989        90.2119         0.0566          34.45         13.872          0.774         0.0398        -20.625        -7.3524           3197      0.9424473
      8869.0000       1117.633          0.905         0.9415         0.9163         1.0207         1.0249       1338.688         1.1327           17.8       111.4696       93.26357          94.36         0.0582        37.2999         13.872          0.747         0.0356        -23.875       -10.6089           3186      0.9074312
      8869.5000        1090.42         0.9615         0.9785         0.9419          1.041         1.0506        1353.18         0.9751          16.59       112.3884       94.10892        95.7699         0.0595          37.03          9.468          0.739         0.0315       -30.8125       -17.5529           3253      0.8327645
      8870.0000       1091.904         0.9758         0.9777         0.8969         0.9702         0.9839       1639.344         1.2298          15.78       106.8409       88.99112         78.293          0.061          34.71          9.468           0.61         0.0284       -41.4375       -28.1844           3278      0.7184473
      8870.5000       1119.045         0.9859         0.9005         0.8523         0.9145         0.9275       1610.305         0.6476          17.74        94.1954       77.32761        70.3879          0.052          30.54         18.808          0.621         0.0357          -52.5       -39.2535           3223      0.5994247
      8871.0000       1163.668         1.0364         0.8857         0.7985         0.8381         0.8457       1582.277         0.7446          20.23        80.4362       64.63703         62.793         0.0393          28.99         18.808          0.632         0.0456        -50.125        -36.885           3256      0.6248925
      8871.5000       1226.887         1.0115         0.8396         0.7433         0.7653         0.7696       1569.857         0.4778          20.97        78.8016       63.12759         53.653         0.0401          24.36         27.626          0.637         0.0466       -34.0625        -20.829           3267      0.7975376
      8872.0000       1304.873         0.9789         0.7777         0.6875          0.697         0.6961       1531.393         0.5991          19.24        86.8488       70.54668         52.253         0.0569          27.68         27.626          0.653         0.0362         -26.25        -13.023           3224      0.8814731
