#------------------------------------------------------------------------------
# Created by    : vladimir.rabinovich
# Created on    : 09/19/2023 17:20:44
#------------------------------------------------------------------------------
~Version Information Section
VERS.           2.0     :   CWLS log ASCII Standard - VERSION 2.0
WRAP.           NO      :   One line per depth step
~Well Information Section
#MNEM       .UNIT                                         VALUE :DESCRIPTION
#------------------------------------------------------------------------------
STRT        .FT                                            2904 :START DEPTH
STOP        .FT                                           14016 :STOP DEPTH
STEP        .FT                                             0.5 :STEP      
NULL        .                                           -999.25 :NULL      
COMP        .                                          MCN CORP :COMPANY   
WELL        .                                OCS 00043 ST00BP00 :WELL      
FLD         .                          EUGENE ISLAND BLOCK 0089 :FIELD     
LOC         .                                                   :LOCATION  
CNTY        .                                     EUGENE ISLAND :LOCATION  
STAT        .                                         LOUISIANA :STATE     
CTRY        .                                     UNITED STATES :COUNTRY   
SRVC        .                                                   :SERVICE COMPANY
DATE        .                             9/13/2023 11:18:42 AM :LOG DATE  
API         .                                    17709009460000 :API NUMBER
UWI         .                                    17709009460000 :UNIQUE WELL ID
XCOORD      .                                  2058690.32320654 :SURFACE X 
YCOORD      .                                  10563305.2032801 :SURFACE Y 
LAT         .                                        29.1009424 :LATITUDE  
LON         .                                       -91.6898776 :LONGITUDE 
ELEV        .FT                                              49 :ELEVATION VALUE
ELEV_TYPE   .                                                KB :ELEVATION REFERENCE TYPE
~Curve Information Section
#MNEM       .UNIT                                      API CODE :CURVE DESCRIPTION
#------------------------------------------------------------------------------
DEPT        .FT                                                 :DEPTH     
ASN         .OHMM                                               :          
CALI        .IN                                                 :          
DT          .US/F                                               :          
GR          .GAPI                                               :          
GR_NORM     .GAPI                                               :GammaRay Normalized
ILD         .OHMM                                               :          
SP          .MV                                                 :          
SP_NORM     .MV                                                 :SP Normalized
VSH_GR      .V/V                                                :Volume of Shale from GR
VSH_SP      .V/V                                                :Volume of Shale from SP
~A        DEPTH            ASN           CALI             DT             GR        GR_NORM            ILD             SP        SP_NORM         VSH_GR         VSH_SP
# ...
      5207.0000         0.2867        12.0512       140.0112        38.7365       30.94094         0.2813      -184.8223       -61.8388              0      0.0501778
      5207.5000         0.2876        12.0605       139.6958        38.4849       30.60275         0.2775      -185.2239       -62.2343              0     0.04390002
      5208.0000         0.2882        12.0873       138.9382        39.1074       31.43426         0.2757      -185.6133       -62.6175              0     0.03781746
      5208.5000         0.2882        12.1355       137.6594        39.9149       32.51337         0.2739      -185.8381       -62.8362              0     0.03434602
      5209.0000         0.2888        12.1811       136.9441        40.0951       32.75307         0.2759      -185.9062       -62.8982              0     0.03336189
      5209.5000         0.2896        12.2029       137.0823        40.0076       32.63436         0.2779      -185.6799       -62.6657              0      0.0370524
      5210.0000         0.2932        12.1963       137.4478        40.0439       32.68147         0.2747      -185.4724       -62.4521              0     0.04044288
      5210.5000         0.2989        12.1881       136.9016        40.5745          33.39         0.2951      -185.6572       -62.6307    0.008297778     0.03760795
      5211.0000         0.3118        12.1911       133.9121        41.9802       35.26984         0.3174      -183.9866        -60.954     0.04829456     0.06422225
      5211.5000         0.3285          12.23       130.9521        43.6545       37.50904         0.3448       -181.251       -58.2122     0.09593696      0.1077429
      5212.0000         0.3515        12.3442       130.6941        44.9134       39.19243         0.3757      -174.2805       -51.2356      0.1317539      0.2184826
      5212.5000         0.4006        12.4835       133.2009        48.9541        44.5987         0.4175      -166.9041        -43.853      0.2467809      0.3356667
      5213.0000         0.4928        12.5145       135.6191        55.4335       53.26895         0.4602      -144.3984       -21.3412      0.4312543      0.6929968
      5213.5000         0.5201         12.464       138.8647        61.8418       61.84391         0.5054      -132.5547        -9.4913      0.6137002      0.8810905
      5214.0000         0.5727        12.4435       139.8176        67.4945        69.4076         0.5619       -125.134        -2.0645      0.7746298      0.9989762
      5214.5000         0.6203        12.4975       138.6599        69.5494       72.15631          0.617      -122.3394         0.7362       0.833113              1
      5215.0000         0.6541        12.5864       134.8098        70.4425       73.34999         0.6472      -124.1724        -1.0906      0.8585104              1
      5215.5000         0.6849        12.4495       131.4451        69.2998       71.81919         0.6252      -127.6445        -4.5566      0.8259403      0.9594191
      5216.0000         0.7147        12.3316        130.041        68.7202       71.04187         0.5903      -136.9038       -13.8097      0.8094015      0.8125445
      5216.5000         0.7249        12.2842       128.6921        68.1729       70.30792         0.5556      -143.3167       -20.2165      0.7937856      0.7108492
      5217.0000         0.7131        12.2939       130.4568        67.7432       69.73122         0.5223      -143.9092       -20.8028      0.7815154      0.7015429
      5217.5000         0.6987        12.3721       132.4492        68.9482       71.34246         0.4975      -141.8879       -18.7754       0.815797      0.7337238
      5218.0000         0.6967        12.4535       132.3914        70.7955       73.81319         0.4743       -138.698       -15.5793      0.8683658      0.7844555
      5218.5000          0.699        12.4558       132.3083        72.1661       75.64606         0.4525      -138.6519       -15.5271      0.9073631      0.7852842
      5219.0000         0.7014        12.3768       131.1128         68.873       71.23713         0.4372      -142.1685       -19.0376       0.813556      0.7295619
      5219.5000         0.6948        12.3212       129.9417        66.2286        67.6964         0.4246      -146.8462       -23.7091      0.7382212      0.6554111
      5220.0000         0.6726        12.3137       130.3501        64.8793       65.88908         0.4181      -150.2852        -27.142      0.6997676      0.6009206
      5220.5000         0.6521         12.328       131.7319        64.8323       65.82456         0.4182      -150.9448       -27.7954       0.698395      0.5905492
      5221.0000         0.6311        12.3433       132.9705        67.1029       68.86195         0.4256      -149.2402       -26.0847      0.7630203      0.6177032
      5221.5000         0.6152         12.351       138.9836        69.4248       71.96788         0.4448      -144.9668       -21.8051      0.8291038      0.6856334
      5222.0000         0.6081        12.3812        146.228        70.8519       73.87637         0.4668      -137.7603       -14.5925      0.8697101       0.800119
      5222.5000         0.6051        12.4103       149.4504         72.004       75.41668         0.4922      -132.6877        -9.5137      0.9024826      0.8807349
      5223.0000         0.6069        12.4193       154.3418        72.9197       76.64074         0.5157        -128.49        -5.3099      0.9285263      0.9474619
      5223.5000         0.6214         12.406       155.9578        76.0863       80.87715         0.5344      -125.8706        -2.6843              1      0.9891381
      5224.0000         0.6409        12.3767       154.5625        79.1631       84.99352          0.553      -124.4547        -1.2623              1              1
      5224.5000         0.6548        12.3526          150.7         77.455       82.70588         0.5614      -125.2208        -2.0222              1      0.9996476
      5225.0000         0.6572        12.3315       146.7947        75.7579       80.43297         0.5662      -126.9247          -3.72              1      0.9726984
      5225.5000         0.6575        12.3122       144.3987        75.3685       79.91033         0.5703      -128.5916        -5.3808      0.9980922      0.9463365
      5226.0000         0.6596        12.2883        142.606        74.3992       78.61146         0.5718      -127.9442        -4.7272      0.9704565      0.9567111
      5226.5000         0.6635        12.2734       141.5955        72.9346       76.64984         0.5732      -127.9419        -4.7188      0.9287201      0.9568444
      5227.0000         0.6738        12.2754       140.4124        72.5032       76.07088         0.5753      -128.3149        -5.0856      0.9164016      0.9510222
      5227.5000          0.687        12.2912       144.8008        73.2184       77.02657         0.5801       -129.676        -6.4406      0.9367356      0.9295143
      5228.0000         0.7003        12.4518       147.3071        73.9868       78.05338          0.585      -131.1011        -7.8595      0.9585825      0.9069921
      5228.5000         0.6792        12.6277        150.093         74.059       78.14852         0.5898      -131.2205        -7.9728      0.9606068      0.9051936
      5229.0000         0.6661        12.5797        150.752        72.9128       76.61291         0.5986      -130.1182        -6.8643      0.9279342      0.9227889
      5229.5000         0.6636        12.5348       149.2886        71.9937       75.38135         0.6087      -128.5398        -5.2798      0.9017308      0.9479397
      5230.0000         0.6647        12.5349       142.6721        73.9541       78.00344         0.6211      -127.3553        -4.0891        0.95752      0.9668397
      5230.5000         0.6651        12.6247       137.9507        76.1119       80.88988         0.6317      -127.7811        -4.5088              1      0.9601778
      5231.0000          0.665        12.5034       137.3867        76.7986       81.80731          0.641      -129.5496        -6.2712              1      0.9322032
