#------------------------------------------------------------------------------
# Created by    : vladimir.rabinovich
# Created on    : 09/19/2023 17:22:20
#------------------------------------------------------------------------------
~Version Information Section
VERS.           2.0     :   CWLS log ASCII Standard - VERSION 2.0
WRAP.           NO      :   One line per depth step
~Well Information Section
#MNEM       .UNIT                                         VALUE :DESCRIPTION
#------------------------------------------------------------------------------
STRT        .FT                                            3394 :START DEPTH
STOP        .FT                                            9102 :STOP DEPTH
STEP        .FT                                             0.5 :STEP      
NULL        .                                           -999.25 :NULL      
COMP        .                               TALOS PETROLEUM LLC :COMPANY   
WELL        .                                OCS 00299 ST00BP02 :WELL      
FLD         .                           WEST CAMERON BLOCK 0045 :FIELD     
LOC         .                                                   :LOCATION  
CNTY        .                                      WEST CAMERON :LOCATION  
STAT        .                                         LOUISIANA :STATE     
CTRY        .                                     UNITED STATES :COUNTRY   
SRVC        .                                                   :SERVICE COMPANY
DATE        .                             9/13/2023 11:19:21 AM :LOG DATE  
API         .                                    17700408910000 :API NUMBER
UWI         .                                    17700408910000 :UNIQUE WELL ID
XCOORD      .                                  1447531.51187247 :SURFACE X 
YCOORD      .                                  10768708.3799417 :SURFACE Y 
LAT         .                                         29.671026 :LATITUDE  
LON         .                                        -93.607557 :LONGITUDE 
ELEV        .FT                                              95 :ELEVATION VALUE
ELEV_TYPE   .                                                KB :ELEVATION REFERENCE TYPE
~Curve Information Section
#MNEM       .UNIT                                      API CODE :CURVE DESCRIPTION
#------------------------------------------------------------------------------
DEPT        .FT                                                 :DEPTH     
CALI        .IN                                                 :          
DPHI        .V/V                                                :          
DRHO        .G/C3                                               :          
GR          .GAPI                                               :          
GR_NORM     .GAPI                                               :GammaRay Normalized
IDPH        .OHMM                                               :          
IMPH        .OHMM                                               :          
NPOR        .V/V                                                :          
SFLU        .OHMM                                               :          
SP          .MV                                                 :          
SP_NORM     .MV                                                 :SP Normalized
TENS        .LBS                                                :          
VSH_GR      .V/V                                                :Volume of Shale from GR
VSH_SP      .V/V                                                :Volume of Shale from SP
~A        DEPTH           CALI           DPHI           DRHO             GR        GR_NORM           IDPH           IMPH           NPOR           SFLU             SP        SP_NORM           TENS         VSH_GR         VSH_SP
# ...
      4978.0000        12.4898         0.3768         -0.001           28.6       37.93126         0.2972         0.3819         0.3672          0.651          -89.1       -76.6997           3160      0.1049205      0.1000036
      4978.5000         12.529         0.3756        -0.0002           27.6       36.48172         0.2813          0.348         0.3648         0.6165          -88.2       -75.8028           3160     0.07407907      0.1108096
      4979.0000        12.4453         0.3708         0.0016             26       34.16244         0.2686         0.3142         0.3564         0.5886          -88.2       -75.8059           3180     0.02473279      0.1107723
      4979.5000         12.282         0.3624         0.0033             24       31.26334         0.2589         0.2945         0.3491         0.5664          -88.2        -75.809           3180              0       0.110735
      4980.0000        12.2004         0.3564         0.0061           22.2       28.65415         0.2565         0.2787         0.3456         0.5097          -87.6       -75.2121           3160              0      0.1179265
      4980.5000           12.2         0.3492          0.005           22.6       29.23397         0.2637         0.2761          0.348          0.439          -86.4       -74.0152           3140              0       0.132347
      4981.0000           12.2         0.3372          0.003             24       31.26334         0.2761         0.2839         0.3576         0.4472          -84.3       -71.9183           3140              0      0.1576109
      4981.5000          12.24         0.3252          0.001           25.4       33.29271         0.2918         0.2972         0.3768         0.5246            -81       -68.6214           3120    0.006227858      0.1973325
      4982.0000          12.24         0.3108              0           27.2        35.9019         0.3113         0.3231         0.3912         0.6222          -76.2       -63.8245           3120      0.0617425      0.2551265
      4982.5000          12.28         0.2928          0.002           30.8       41.12027         0.3322         0.3646         0.3876         0.7272          -69.9       -57.5276           3140      0.1727717      0.3309928
      4983.0000          12.32         0.2856          0.004           34.6       46.62856         0.3545         0.4113         0.3708         0.8295          -63.9       -51.5307           3140      0.2899694      0.4032446
      4983.5000          12.36          0.288          0.005           36.4       49.23775         0.3783         0.4599         0.3648         0.8073          -58.8       -46.4337           3140      0.3454841      0.4646542
      4984.0000          12.44         0.2976          0.005             36       48.65793         0.4075         0.5097          0.372         0.7555          -55.2       -42.8368           3140      0.3331475      0.5079904
      4984.5000          12.48         0.3204          0.004           35.8       48.36802         0.4349         0.5246           0.39         0.6874          -53.7       -41.3399           3120       0.326979      0.5260253
      4985.0000          12.52         0.3444          0.002           36.6       49.52766          0.439         0.5296         0.4188         0.6278          -51.6        -39.243           3120      0.3516524      0.5512891
      4985.5000          12.48         0.3672          0.001           39.6        53.8763         0.4269         0.5296         0.4459         0.5886          -48.9       -36.5461           3120      0.4441766      0.5837819
      4986.0000           12.4         0.3792         -0.001           41.2       56.19558         0.4075         0.5246           0.46            0.6          -48.9       -36.5492           3120      0.4935231      0.5837446
      4986.5000          12.36         0.3816         -0.002             40       54.45613         0.3748            0.5         0.4541         0.6937          -53.4       -41.0523           3140      0.4565133      0.5294904
      4987.0000          12.32          0.378         -0.002             35       47.20838         0.3448         0.4642         0.4424         0.7384          -59.4       -47.0554           3140      0.3023059      0.4571638
      4987.5000          12.24          0.366         -0.002           30.2       40.25055         0.3172          0.419         0.4271         0.7254          -71.4       -59.0585           3120      0.1542669      0.3125482
      4988.0000          12.24           0.36         -0.003           26.8       35.32208         0.2918         0.3646         0.4092         0.6812          -79.8       -67.4616           3060     0.04940593       0.211306
      4988.5000          12.24         0.3636         -0.004          24.97       32.66941         0.2686         0.3172         0.3936          0.611       -85.2307       -72.8954           3040              0      0.1458385
      4989.0000          12.24         0.3672         -0.005          24.12       31.43729         0.2565         0.2761         0.3792         0.5451       -89.2137       -76.8815           3060              0     0.09781325
      4989.5000          12.24          0.372         -0.003          24.67       32.23453         0.2472         0.2495          0.384         0.4773        -90.495       -78.1659           3060              0     0.08233854
      4990.0000           12.2         0.3768         -0.001          25.22       33.03179         0.2427         0.2495         0.3984         0.4729         -90.87        -78.544           3080   0.0006764189     0.07778315
      4990.5000        12.1946         0.3792          0.001             26       34.16244         0.2405         0.2565         0.4152            0.5          -91.5       -79.1771       3102.897     0.02473279      0.0701554
      4991.0000        12.2258         0.3744          0.005             26       34.16244         0.2427         0.2711         0.4128         0.5441          -91.5       -79.1802       3107.892     0.02473279     0.07011809
      4991.5000        12.2979         0.3648          0.006           25.8       33.87253         0.2495         0.2891         0.4092         0.6251          -91.5       -79.1833       3112.887     0.01856443     0.07008077
      4992.0000        12.3707         0.3552          0.007             26       34.16244         0.2541         0.3085         0.4092         0.7063          -91.2       -78.8863       3117.882     0.02473279     0.07365905
      4992.5000        12.4082         0.3408          0.007           27.4       36.19181         0.2565         0.3292          0.408         0.7517          -90.6       -78.2894           3120     0.06791078     0.08085062
      4993.0000        12.3265         0.3432          0.006             29       38.51109         0.2613         0.3261         0.3936         0.7319          -90.3       -77.9925           3140      0.1172572     0.08442771
      4993.5000        12.2041         0.3516          0.006           30.6       40.83036         0.2686         0.3142         0.3912         0.6296            -90       -77.6956           3120      0.1666035     0.08800479
      4994.0000        12.1224         0.3564          0.004           32.2       43.14964         0.2736         0.3028         0.3996         0.5233          -89.7       -77.3987           3120      0.2159498     0.09158196
      4994.5000        12.1224         0.3588          0.001           33.8       45.46892         0.2787         0.2918         0.4188         0.4309          -88.5       -76.2018           3120      0.2652961      0.1060024
      4995.0000        12.1633         0.3492              0           35.4        47.7882         0.2865         0.2945          0.426         0.3963          -87.3       -75.0049           3140      0.3146425      0.1204229
      4995.5000        12.2857         0.3264         -0.005           34.6       46.62856            0.3         0.3113         0.4236         0.4472          -85.8        -73.508           3140      0.2899694      0.1384578
