#------------------------------------------------------------------------------
# Created by    : vladimir.rabinovich
# Created on    : 09/19/2023 17:20:59
#------------------------------------------------------------------------------
~Version Information Section
VERS.           2.0     :   CWLS log ASCII Standard - VERSION 2.0
WRAP.           NO      :   One line per depth step
~Well Information Section
#MNEM       .UNIT                                         VALUE :DESCRIPTION
#------------------------------------------------------------------------------
STRT        .FT                                            4010 :START DEPTH
STOP        .FT                                           10351 :STOP DEPTH
STEP        .FT                                             0.5 :STEP      
NULL        .                                           -999.25 :NULL      
COMP        .                         TALOS ENERGY VENTURES LLC :COMPANY   
WELL        .                               OCS G13557 ST00BP00 :WELL      
FLD         .                           WEST CAMERON BLOCK 0118 :FIELD     
LOC         .                                                   :LOCATION  
CNTY        .                                      WEST CAMERON :LOCATION  
STAT        .                                         LOUISIANA :STATE     
CTRY        .                                     UNITED STATES :COUNTRY   
SRVC        .                                                   :SERVICE COMPANY
DATE        .                             9/13/2023 11:19:21 AM :LOG DATE  
API         .                                    17700409470000 :API NUMBER
UWI         .                                    17700409470000 :UNIQUE WELL ID
XCOORD      .                                  1434760.35260149 :SURFACE X 
YCOORD      .                                  10716448.9068769 :SURFACE Y 
LAT         .                                        29.5270802 :LATITUDE  
LON         .                                       -93.6468641 :LONGITUDE 
ELEV        .FT                                             100 :ELEVATION VALUE
ELEV_TYPE   .                                                KB :ELEVATION REFERENCE TYPE
~Curve Information Section
#MNEM       .UNIT                                      API CODE :CURVE DESCRIPTION
#------------------------------------------------------------------------------
DEPT        .FT                                                 :DEPTH     
AT10        .OHMM                                               :          
AT20        .OHMM                                               :          
AT30        .OHMM                                               :          
AT60        .OHMM                                               :          
AT90        .OHMM                                               :          
CALI        .IN                                                 :          
DPHI        .%                                                  :          
DRHO        .G/C3                                               :          
DTLF        .US/F                                               :          
DTLN        .US/F                                               :          
GR          .GAPI                                               :          
GR_NORM     .GAPI                                               :GammaRay Normalized
NPOR        .%                                                  :          
RHOB        .G/C3                                               :          
SP          .MV                                                 :          
SP_NORM     .MV                                                 :SP Normalized
TENS        .LBF                                                :          
VSH_GR      .V/V                                                :Volume of Shale from GR
VSH_SP      .V/V                                                :Volume of Shale from SP
~A        DEPTH           AT10           AT20           AT30           AT60           AT90           CALI           DPHI           DRHO           DTLF           DTLN             GR        GR_NORM           NPOR           RHOB             SP        SP_NORM           TENS         VSH_GR         VSH_SP
# ...
      4428.5000         1.1027          0.665         0.6198         0.5944         0.6105        10.5132        29.9415        -0.0185       144.2998       126.7999        41.8387       38.39894          35.21          2.156        -999.25        -999.25           1715       0.114871        -999.25
      4429.0000         0.9025         0.5471         0.4973         0.4711         0.4875        10.4015        30.9781        -0.0188       174.8999       124.3999        43.6746       40.34755        36.1916         2.1389        -999.25        -999.25           1715      0.1563309        -999.25
      4429.5000         0.7968         0.4801         0.4295          0.408         0.4236        10.4825        31.5902        -0.0212       170.5999          124.7        41.8647       38.41766        35.0857         2.1288        -999.25        -999.25           1715      0.1152694        -999.25
      4430.0000         0.7878         0.4581         0.4041         0.3838         0.3986        10.4128        31.6588        -0.0189            167       129.3999        38.4785       34.81085        33.8834         2.1276        -999.25        -999.25           1695     0.03852877        -999.25
      4430.5000         0.8287         0.4554         0.4011         0.3789         0.3925        10.3718        31.7598        -0.0185       164.7998            125        40.5469       37.00681        33.1575          2.126        -999.25        -999.25           1695     0.08525126        -999.25
      4431.0000         0.8277         0.4471         0.3973         0.3751         0.3873        10.4338        31.9722        -0.0175          159.7          118.1        40.7471       37.21532        33.3705         2.1225        -999.25        -999.25           1695     0.08968759        -999.25
      4431.5000         0.7438         0.4178         0.3796          0.363         0.3736        10.3306        32.9164        -0.0208            155       123.8999        40.5214       36.97064        33.4093         2.1069        -999.25        -999.25           1695     0.08448166        -999.25
      4432.0000         0.6466         0.3826         0.3561         0.3467         0.3562        10.2657        33.1176        -0.0193       148.2998       133.5999        37.6772       33.94043        34.1755         2.1036        -999.25        -999.25           1730     0.02000906        -999.25
      4432.5000          0.604         0.3661         0.3422         0.3366         0.3452        10.2404        33.1208         -0.018       132.3999          121.5        37.6027        33.8567        35.1266         2.1035        -999.25        -999.25           1730     0.01822776        -999.25
      4433.0000         0.6264         0.3745         0.3441         0.3373          0.345        10.2354        33.0416        -0.0162       135.3999       119.8999        43.5367         40.165        35.5898         2.1048        -999.25        -999.25           1730      0.1524468        -999.25
      4433.5000         0.6821         0.3943         0.3559          0.345         0.3517        10.2496        32.8664        -0.0151       137.7998          122.6        40.6927         37.135        34.8429         2.1077        -999.25        -999.25           1730     0.08797877        -999.25
      4434.0000         0.7223         0.4077          0.367         0.3526         0.3584        10.2657        32.3062        -0.0136          132.5          120.5        40.0141       36.40862        34.5929          2.117        -999.25        -999.25           1715     0.07252381        -999.25
      4434.5000         0.7339          0.412         0.3724         0.3566         0.3618        10.2832        32.0517        -0.0143       120.7999          121.6        35.8862       32.01276        34.6263         2.1212        -999.25        -999.25           1715              0        -999.25
      4435.0000         0.7285         0.4111         0.3728         0.3573         0.3623        10.4829        32.2223        -0.0142       123.2999            128        41.8328       38.33447        34.3441         2.1183        -999.25        -999.25           1715      0.1134993        -999.25
      4435.5000         0.7114         0.4067         0.3703         0.3561         0.3611        10.5939        32.2754        -0.0139          123.5       122.7999        40.2285       36.62329        35.0079         2.1175        -999.25        -999.25           1715     0.07709138        -999.25
      4436.0000         0.6952         0.4031         0.3678         0.3545         0.3597        10.5313        32.3441        -0.0113          121.7          122.6        41.8068       38.29777        36.9229         2.1163        -999.25        -999.25           1720      0.1127185        -999.25
      4436.5000         0.6894         0.4035         0.3678         0.3539         0.3592        10.6951         32.517        -0.0117       121.2999          123.2        40.7726       37.19308        38.2237         2.1135        -999.25        -999.25           1720     0.08921457        -999.25
      4437.0000         0.6901         0.4063          0.371         0.3553         0.3604        10.6597        32.7516        -0.0164          127.5            125        44.8361       41.51149        38.2193         2.1096        -999.25        -999.25           1720      0.1810955        -999.25
      4437.5000         0.7005         0.4125         0.3774         0.3597         0.3645        10.6995         32.688        -0.0217          128.5       126.2999        43.8019       40.40681        37.7601         2.1107        -999.25        -999.25           1720      0.1575916        -999.25
      4438.0000         0.7181         0.4215          0.384         0.3659         0.3701        10.6294         32.627        -0.0238          125.1          125.7        41.4749       37.92681        37.0564         2.1117        -999.25        -999.25           1715      0.1048257        -999.25
      4438.5000         0.7081         0.4217         0.3841         0.3681         0.3717        10.4781        32.6562        -0.0256       126.7999       124.3999        34.7025       30.71766        36.2626         2.1112        -999.25        -999.25           1715              0        -999.25
      4439.0000         0.6593         0.4092         0.3773         0.3646         0.3679        10.3415        32.4785        -0.0251       122.3999          124.5        35.4781        31.5383        36.1674         2.1141        -999.25        -999.25           1715              0        -999.25
      4439.5000         0.6202         0.4001         0.3739         0.3626         0.3657          10.28        32.8403        -0.0268       126.2999       121.7999        33.6446        29.5833        36.3593         2.1081        -999.25        -999.25           1715              0        -999.25
      4440.0000         0.6093         0.4028         0.3797         0.3683         0.3709        10.2265        32.9457        -0.0279       124.2999       122.7999        40.6719       37.05468        36.5168         2.1064        -999.25        -999.25           1745     0.08626986        -999.25
      4440.5000         0.5913         0.4093         0.3862         0.3783         0.3804        10.2344        33.1755        -0.0277            124       124.7999         38.345       34.57468        36.9917         2.1026        -999.25        -999.25           1745     0.03350392        -999.25
      4441.0000         0.5422         0.3982          0.382         0.3855         0.3875        10.0268        32.5849        -0.0209          124.1       128.7998        36.9582       33.09489        36.7325         2.1123        -999.25        -999.25           1745    0.002018949        -999.25
      4441.5000         0.4834          0.374          0.369         0.3882         0.3907        10.0099        32.5409        -0.0219       121.3999          120.2         37.124       33.26681        36.3868         2.1131        -999.25        -999.25           1745    0.005676757        -999.25
