#------------------------------------------------------------------------------
# Created by    : vladimir.rabinovich
# Created on    : 09/19/2023 17:22:04
#------------------------------------------------------------------------------
~Version Information Section
VERS.           2.0     :   CWLS log ASCII Standard - VERSION 2.0
WRAP.           NO      :   One line per depth step
~Well Information Section
#MNEM       .UNIT                                         VALUE :DESCRIPTION
#------------------------------------------------------------------------------
STRT        .FT                                           911.5 :START DEPTH
STOP        .FT                                           12432 :STOP DEPTH
STEP        .FT                                             0.5 :STEP      
NULL        .                                           -999.25 :NULL      
COMP        .                                    EXXON CO U S A :COMPANY   
WELL        .                               OCS G03260 ST00BP00 :WELL      
FLD         .                                           WILDCAT :FIELD     
LOC         .                                                   :LOCATION  
CNTY        .                                      WEST CAMERON :LOCATION  
STAT        .                                         LOUISIANA :STATE     
CTRY        .                                     UNITED STATES :COUNTRY   
SRVC        .                                                   :SERVICE COMPANY
DATE        .                             9/13/2023 11:18:18 AM :LOG DATE  
API         .                                    17700402650000 :API NUMBER
UWI         .                                    17700402650000 :UNIQUE WELL ID
XCOORD      .                                  1465533.33943019 :SURFACE X 
YCOORD      .                                  10722576.3450242 :SURFACE Y 
LAT         .                                        29.5443718 :LATITUDE  
LON         .                                       -93.5501671 :LONGITUDE 
ELEV        .FT                                              99 :ELEVATION VALUE
ELEV_TYPE   .                                                KB :ELEVATION REFERENCE TYPE
~Curve Information Section
#MNEM       .UNIT                                      API CODE :CURVE DESCRIPTION
#------------------------------------------------------------------------------
DEPT        .FT                                                 :DEPTH     
CALI        .IN                                                 :          
DRHO        .G/CC                                               :          
GR          .GAPI                                               :          
GR_NORM     .GAPI                                               :GammaRay Normalized
ILD         .OHMM                                               :          
RHOB        .G/CC                                               :          
VSH_GR      .V/V                                                :Volume of Shale from GR
~A        DEPTH           CALI           DRHO             GR        GR_NORM            ILD           RHOB         VSH_GR
# ...
      7611.5000        12.3097          0.078        51.9749       81.27161         0.6592         2.3004              1
      7612.0000        12.3054         0.0543        52.4498       82.07811         0.6482         2.2911              1
      7612.5000        12.3413         0.0394        52.6765       82.46265         0.6371         2.2776              1
      7613.0000        12.3761         0.0328        52.0498       81.39721         0.6253         2.2836              1
      7613.5000         12.465         0.0297        50.4787       78.72694         0.6135         2.3014      0.9729136
      7614.0000        12.6648         0.0274        48.7925       75.86091         0.6017         2.3107      0.9119342
      7614.5000        12.5722         0.0241        46.3699        71.7437         0.5898         2.3352       0.824334
      7615.0000        12.4184         0.0232        44.6153       68.76144          0.578         2.3588      0.7608818
      7615.5000        12.5233         0.0256        43.6367       67.09802         0.5662         2.3578      0.7254899
      7616.0000        12.5276         0.0324        43.1647       66.29544         0.5573         2.3579      0.7084137
      7616.5000         12.435          0.046          42.73       65.55607          0.559         2.3653      0.6926823
      7617.0000        12.4627         0.0629         42.569       65.28197         0.5607         2.3819      0.6868504
      7617.5000        12.4748         0.0756        42.9423       65.91563         0.5625         2.3933      0.7003326
      7618.0000         12.553         0.0336         43.771       67.32335         0.5642         2.3676       0.730284
      7618.5000         12.831         0.0441        44.6957       68.89416         0.5659          2.381      0.7637055
      7619.0000        12.7137         0.0581        45.2629       69.85733         0.5676          2.378      0.7841985
      7619.5000        12.5778         0.0477        45.2108       69.76828         0.5749         2.3513      0.7823038
      7620.0000        12.6213         0.0199        44.7689       69.01666         0.5836         2.3255      0.7663119
      7620.5000        12.6616         0.0247        44.3893       68.37113         0.5924         2.3559      0.7525772
      7621.0000        12.5324         0.0285        44.6801       68.86457         0.6011         2.3613      0.7630759
      7621.5000        12.4011         0.0172        45.4153        70.1134         0.6098         2.3518      0.7896467
      7622.0000        12.2958         0.0093        46.0671        71.2205         0.6186          2.342      0.8132022
      7622.5000         12.198         0.0091        46.1939       71.43528         0.6273         2.3423      0.8177719
      7623.0000        12.1904         0.0162        45.9904       71.08895          0.636          2.351      0.8104032
      7623.5000        12.3974         0.0241        45.6342       70.48298         0.6448         2.3616      0.7975102
      7624.0000         12.217         0.0288        45.3046       69.92241         0.6576         2.3725      0.7855832
      7624.5000        12.0537         0.0285        45.2176       69.77404         0.6722         2.3764      0.7824264
      7625.0000        12.1013         0.0272         45.543       70.32633         0.6868         2.3784      0.7941773
      7625.5000        12.2227         0.0247        46.1252       71.31513         0.7014         2.3581      0.8152156
      7626.0000        12.3858         0.0202         46.858        72.5597          0.716         2.3461      0.8416957
      7626.5000        12.3398         0.0145        47.7503       74.07548         0.7306         2.3282      0.8739463
      7627.0000         12.244         0.0626        48.6965       75.68266         0.7442         2.3333      0.9081418
      7627.5000        12.1783         0.0826        49.4797       77.01303         0.7562         2.3645      0.9364474
      7628.0000        12.1708         0.0585        50.0428       77.96939         0.7682         2.3479      0.9567956
      7628.5000        12.2565         0.0393        50.2795       78.37093         0.7803         2.3126       0.965339
      7629.0000        12.3661         0.0347        50.2195       78.26849         0.7923         2.3101      0.9631593
      7629.5000         12.479         0.0525        50.2296       78.28493         0.8043         2.3266      0.9635091
      7630.0000        12.3453          0.069        50.9189       79.45575         0.8163         2.3333      0.9884202
      7630.5000        12.2118         0.0641        51.8099       80.96931         0.8274         2.3284              1
      7631.0000        12.1807         0.0628        52.6015       82.31381         0.8299         2.3316              1
      7631.5000         12.167         0.0679        53.2785        83.4637         0.8323         2.3536              1
      7632.0000         12.171         0.0522        53.9687       84.63589         0.8348          2.323              1
      7632.5000        12.1758         0.0412        54.5881       85.68791         0.8373         2.3028              1
      7633.0000        12.1783         0.0395        55.0193       86.42013         0.8397         2.2899              1
      7633.5000        12.1763         0.0529        55.4373       87.12977         0.8422         2.3146              1
      7634.0000        12.1524         0.0735        55.8156       87.77209         0.8447         2.3363              1
      7634.5000        12.1451         0.1042        56.1281       88.30245         0.8471         2.3502              1
      7635.0000         12.176         0.1098        56.0741       88.21017         0.8496         2.3489              1
      7635.5000        12.1999         0.0988        55.3701       87.01318         0.8372         2.3403              1
      7636.0000        12.2129         0.1002        54.7656       85.98544         0.8224         2.3413              1
      7636.5000        12.2158         0.0549        54.4329       85.41959         0.8056          2.313              1
      7637.0000         12.211         0.0353        54.3369       85.25578         0.7762         2.2953              1
      7637.5000         12.205         0.0383        54.4116        85.3822         0.7624         2.2998              1
      7638.0000        12.1976         0.0393        54.6241       85.74263         0.7486         2.3123              1
      7638.5000        12.1672         0.0359        54.9623        86.3168         0.7371         2.2993              1
      7639.0000         12.121         0.0406        55.2139       86.74386         0.7295         2.3015              1
      7639.5000        12.1079         0.0287        55.2354       86.77968          0.722         2.2866              1
      7640.0000        12.1573         0.0168        55.0682       86.49508         0.7144         2.2701              1
      7640.5000        12.2152         0.0259        54.7068       85.88027         0.7069         2.2689              1
      7641.0000        12.2266          0.034        54.1504       84.93427         0.7122         2.2737              1
      7641.5000        12.2519         0.0227        53.8014       84.34054          0.718         2.2635              1
      7642.0000        12.3296         0.0066        53.6317       84.05165         0.7237         2.2084              1
      7642.5000        12.4353        -0.0045        53.2144       83.34206         0.7338         2.1754              1
      7643.0000        12.4753         -0.009        52.5541       82.21932         0.7474         2.1667              1
      7643.5000        12.6125        -0.0072        51.9833       81.24886          0.761         2.1882              1
      7644.0000        12.7224        -0.0008        51.5443       80.50217         0.7698         2.2076              1
      7644.5000        12.7845          0.005        51.3002       80.08689         0.7781         2.2119              1
