#------------------------------------------------------------------------------
# Created by    : vladimir.rabinovich
# Created on    : 09/19/2023 17:20:13
#------------------------------------------------------------------------------
~Version Information Section
VERS.           2.0     :   CWLS log ASCII Standard - VERSION 2.0
WRAP.           NO      :   One line per depth step
~Well Information Section
#MNEM       .UNIT                                         VALUE :DESCRIPTION
#------------------------------------------------------------------------------
STRT        .FT                                             608 :START DEPTH
STOP        .FT                                            9135 :STOP DEPTH
STEP        .FT                                             0.5 :STEP      
NULL        .                                           -999.25 :NULL      
COMP        .                             PHILLIPS PETROLEUM CO :COMPANY   
WELL        .                                OCS 00757 ST00BP00 :WELL      
FLD         .                           WEST CAMERON BLOCK 0118 :FIELD     
LOC         .                                                   :LOCATION  
CNTY        .                                      WEST CAMERON :LOCATION  
STAT        .                                         LOUISIANA :STATE     
CTRY        .                                     UNITED STATES :COUNTRY   
SRVC        .                                                   :SERVICE COMPANY
DATE        .                             9/13/2023 11:18:18 AM :LOG DATE  
API         .                                    17700400630000 :API NUMBER
UWI         .                                    17700400630000 :UNIQUE WELL ID
XCOORD      .                                  1437747.16229911 :SURFACE X 
YCOORD      .                                  10702102.5427903 :SURFACE Y 
LAT         .                                         29.487661 :LATITUDE  
LON         .                                       -93.6372228 :LONGITUDE 
ELEV        .FT                                              84 :ELEVATION VALUE
ELEV_TYPE   .                                                KB :ELEVATION REFERENCE TYPE
~Curve Information Section
#MNEM       .UNIT                                      API CODE :CURVE DESCRIPTION
#------------------------------------------------------------------------------
DEPT        .FT                                                 :DEPTH     
ASFL        .OHMM                                               :          
ASN         .OHMM                                               :          
CALI        .IN                                                 :          
DRHO        .G/CC                                               :          
GR          .GAPI                                               :          
GR_NORM     .GAPI                                               :GammaRay Normalized
ILD         .OHMM                                               :          
RHOB        .G/CC                                               :          
SP          .MV                                                 :          
SP_NORM     .MV                                                 :SP Normalized
VSH_GR      .V/V                                                :Volume of Shale from GR
VSH_SP      .V/V                                                :Volume of Shale from SP
~A        DEPTH           ASFL            ASN           CALI           DRHO             GR        GR_NORM            ILD           RHOB             SP        SP_NORM         VSH_GR         VSH_SP
# ...
      7660.0000        -999.25         1.3997        11.6778         0.0318       134.5576       61.48392         1.1526         2.4205       -74.5216       -13.2971      0.6060408      0.8701483
      7660.5000        -999.25         1.1862        11.6597         0.0463       145.6304       67.50283         1.0356         2.3863       -74.1996       -12.9751      0.7341028      0.8738495
      7661.0000        -999.25         1.0943        11.6738         0.0435       154.1516       72.13505         0.9219         2.3563       -73.3496       -12.1251      0.8326606      0.8836195
      7661.5000        -999.25          1.045        11.7214         0.0339       162.4749       76.65966         0.8309         2.3261       -72.6964       -11.4719       0.928929      0.8911276
      7662.0000        -999.25         1.0171        11.7962         0.0489       169.2744       80.35628         0.7783         2.3351       -72.3269       -11.1024              1      0.8953747
      7662.5000        -999.25         1.0076        11.8973         0.0362       174.2041       83.03661         0.7534         2.3703        -71.958       -10.7335              1      0.8996149
      7663.0000        -999.25         1.0055        11.9885         0.0173       175.6484       83.82289         0.7548         2.3533       -71.9762       -10.7517              1      0.8994057
      7663.5000        -999.25         1.0115        12.0021         0.0083       175.3059       83.63811         0.7583         2.3424       -71.9983       -10.7738              1      0.8991517
      7664.0000        -999.25         1.0196        11.9776         0.0047       174.7483       83.33638         0.7659         2.3362       -72.0726       -10.8481              1      0.8982977
      7664.5000        -999.25         1.0277        11.9492         0.0037       173.9702       82.91477         0.7745         2.3314       -72.1929       -10.9684              1       0.896915
      7665.0000        -999.25         1.0351        11.9523         0.0027       173.0862       82.43565         0.7834         2.3255       -72.2437       -11.0192              1       0.896331
      7665.5000        -999.25         1.0424         11.959         0.0019        172.312       82.01632         0.7924         2.3223       -71.7736       -10.5491              1      0.9017345
      7666.0000        -999.25         1.0482         11.935         0.0015       182.6072       87.61265         0.8012         2.3302       -71.1537        -9.9292              1      0.9088598
      7666.5000        -999.25         1.0496        11.9604         0.0026       185.9136       89.41084         0.7945         2.3352       -70.2605         -9.036              1      0.9191265
      7667.0000        -999.25         1.0471        11.9717         0.0041       188.7605       90.95926         0.7878         2.3409       -69.3673        -8.1428              1      0.9293931
      7667.5000        -999.25         1.0378        11.9801         0.0057       189.7078       91.47543         0.7794         2.3492       -68.6204        -7.3959              1      0.9379781
      7668.0000        -999.25         1.0251        11.9895         0.0096       190.2383        91.7651         0.7652          2.362       -67.9443        -6.7198              1      0.9457494
      7668.5000        -999.25         1.0119        11.9837         0.0159       191.8794       92.65822         0.7511         2.3725       -67.2682        -6.0437              1      0.9535207
      7669.0000        -999.25         0.9964        11.9474         0.0262       194.1282       93.88165         0.7322         2.3803       -67.2159        -5.9914              1      0.9541218
      7669.5000        -999.25         0.9809        11.9065         0.0346       195.2749        94.5062         0.7093         2.3868       -67.1853        -5.9608              1      0.9544736
      7670.0000        -999.25         0.9701         11.863         0.0406       195.6389       94.70532         0.6863         2.3915       -67.1545          -5.93              1      0.9548276
      7670.5000        -999.25         0.9642        11.8389         0.0346        195.762       94.77347         0.6688         2.3769       -67.3799        -6.1554              1      0.9522368
      7671.0000        -999.25         0.9584        11.8234         0.0262       196.0574       94.93542         0.6636         2.3562       -67.6112        -6.3867              1      0.9495782
      7671.5000        -999.25         0.9553         11.834         0.0176       196.6873         95.279         0.6584         2.3458       -67.8428        -6.6183              1      0.9469161
      7672.0000        -999.25         0.9587        11.8323         0.0111       197.5039       95.72409         0.6686         2.3459       -68.1866        -6.9621              1      0.9429644
      7672.5000        -999.25         0.9699         11.821         0.0192       198.9546       96.51384         0.6953         2.3515       -68.6111        -7.3866              1      0.9380851
      7673.0000        -999.25         0.9933        11.7773         0.0277       200.5188       97.36522         0.7307         2.3504       -69.0361        -7.8116              1         0.9332
      7673.5000        -999.25         1.0268        11.6658          0.034       201.6338       97.97247         0.7711         2.3469       -69.4604        -8.2359              1       0.928323
      7674.0000        -999.25         1.0718        11.5867         0.0402       200.8179       97.53043         0.8122         2.3531       -69.7615         -8.537              1      0.9248621
      7674.5000        -999.25         1.1114          11.55         0.0395       197.6226       95.79517         0.8534          2.362        -69.998        -8.7735              1      0.9221437
      7675.0000        -999.25         1.1484        11.5012         0.0328       192.9717       93.26895         0.8912         2.3555       -70.2035         -8.979              1      0.9197816
      7675.5000        -999.25         1.1843        11.4463         0.0284       187.6436       90.37461          0.924         2.3702       -70.0603        -8.8358              1      0.9214276
      7676.0000        -999.25         1.2208        11.3953         0.0245       183.6104       88.18414         0.9569         2.3856       -69.9283        -8.7038              1      0.9229448
      7676.5000        -999.25         1.2169        11.3854         0.0253       181.5569        87.0694         0.9652         2.3929       -69.8022        -8.5777              1      0.9243942
      7677.0000        -999.25         1.1977        11.4135         0.0261       181.6062       87.09756         0.9588         2.4115       -69.7229        -8.4984              1      0.9253057
      7677.5000        -999.25          1.179        11.4239         0.0284       183.7415       88.25925         0.9406         2.4166       -69.6875         -8.463              1      0.9257126
      7678.0000        -999.25         1.1666        11.4191          0.032       187.3074       90.19852         0.9083          2.415       -69.6521        -8.4276              1      0.9261196
      7678.5000        -999.25         1.1548        11.4079         0.0357       189.4773       91.37902         0.8808         2.4182       -69.8031        -8.5786              1      0.9243839
      7679.0000        -999.25         1.1448        11.3985         0.0395       191.3726       92.41041         0.8545         2.4257       -70.0292        -8.8047              1      0.9217851
      7679.5000        -999.25         1.1382        11.3901         0.0436       193.6931       93.67286         0.8363         2.4281       -70.6035         -9.379              1      0.9151839
      7680.0000        -999.25         1.1323        11.3853         0.0471       195.4304       94.61826         0.8268         2.4176       -71.2185         -9.994              1      0.9081149
