#------------------------------------------------------------------------------
# Created by    : vladimir.rabinovich
# Created on    : 09/19/2023 17:20:44
#------------------------------------------------------------------------------
~Version Information Section
VERS.           2.0     :   CWLS log ASCII Standard - VERSION 2.0
WRAP.           NO      :   One line per depth step
~Well Information Section
#MNEM       .UNIT                                         VALUE :DESCRIPTION
#------------------------------------------------------------------------------
STRT        .FT                                            2904 :START DEPTH
STOP        .FT                                           14016 :STOP DEPTH
STEP        .FT                                             0.5 :STEP      
NULL        .                                           -999.25 :NULL      
COMP        .                                          MCN CORP :COMPANY   
WELL        .                                OCS 00043 ST00BP00 :WELL      
FLD         .                          EUGENE ISLAND BLOCK 0089 :FIELD     
LOC         .                                                   :LOCATION  
CNTY        .                                     EUGENE ISLAND :LOCATION  
STAT        .                                         LOUISIANA :STATE     
CTRY        .                                     UNITED STATES :COUNTRY   
SRVC        .                                                   :SERVICE COMPANY
DATE        .                             9/13/2023 11:18:42 AM :LOG DATE  
API         .                                    17709009460000 :API NUMBER
UWI         .                                    17709009460000 :UNIQUE WELL ID
XCOORD      .                                  2058690.32320654 :SURFACE X 
YCOORD      .                                  10563305.2032801 :SURFACE Y 
LAT         .                                        29.1009424 :LATITUDE  
LON         .                                       -91.6898776 :LONGITUDE 
ELEV        .FT                                              49 :ELEVATION VALUE
ELEV_TYPE   .                                                KB :ELEVATION REFERENCE TYPE
~Curve Information Section
#MNEM       .UNIT                                      API CODE :CURVE DESCRIPTION
#------------------------------------------------------------------------------
DEPT        .FT                                                 :DEPTH     
ASN         .OHMM                                               :          
CALI        .IN                                                 :          
DT          .US/F                                               :          
GR          .GAPI                                               :          
GR_NORM     .GAPI                                               :GammaRay Normalized
ILD         .OHMM                                               :          
SP          .MV                                                 :          
SP_NORM     .MV                                                 :SP Normalized
VSH_GR      .V/V                                                :Volume of Shale from GR
VSH_SP      .V/V                                                :Volume of Shale from SP
~A        DEPTH            ASN           CALI             DT             GR        GR_NORM            ILD             SP        SP_NORM         VSH_GR         VSH_SP
# ...
      6677.0000         0.7397        12.0934        127.259        77.4078       78.45929          0.557      -149.4495       -22.1171      0.9672189      0.7244233
      6677.5000         0.7408        12.0695       130.3406        75.9725       76.72451         0.5374      -154.3269        -27.006      0.9303087       0.657452
      6678.0000         0.7219        12.1068       133.9163        74.1381       74.50761         0.5191       -156.605       -29.2956      0.8831406      0.6260877
      6678.5000         0.6879        12.2317       137.3616        72.1381       72.09081         0.5022      -155.2048       -27.9068      0.8317194      0.6451123
      6679.0000         0.6508        12.3268       139.1226        71.4646       71.27596         0.4896      -149.8147       -22.5282      0.8143822      0.7187918
      6679.5000         0.6176        12.3547       140.9473        71.2897       71.06329         0.4796      -145.7712       -18.4962      0.8098571      0.7740247
      6680.0000         0.5867        12.4443       141.8904        72.3887       72.38925         0.4729      -142.2444       -14.9808      0.8380692      0.8221808
      6680.5000         0.5593        12.5349       142.0317         74.665       75.13696         0.4664      -139.1379       -11.8858       0.896531      0.8645781
      6681.0000         0.5453        12.5588       144.8699        76.5491       77.41111         0.4604      -137.2434       -10.0028      0.9449173      0.8903726
      6681.5000         0.5398        12.5009       145.4651        76.4921       77.34081         0.4564      -135.5095        -8.2803      0.9434215      0.9139685
      6682.0000         0.5373        12.4164       146.3025        76.4742       77.31787          0.457      -133.9192        -6.7015      0.9429334      0.9355959
      6682.5000         0.5362        12.3523       147.0469        77.3425        78.3651         0.4666      -132.2776        -5.0714      0.9652148       0.957926
      6683.0000          0.539        12.3132       147.1321        79.3879       80.83405         0.4834      -130.6523        -3.4575              1      0.9800342
      6683.5000         0.5422        12.2835       146.9546        82.2686       84.31172         0.5013      -129.2034        -2.0201              1      0.9997246
      6684.0000         0.5466        12.2561       146.9653         83.792       86.15012         0.5199      -128.3613        -1.1894              1              1
      6684.5000           0.56        12.2278       146.5618        81.8921       83.85423         0.5395      -128.2903        -1.1299              1              1
      6685.0000         0.5866        12.2085       144.1519         78.025       79.18237          0.553      -129.6821        -2.5332      0.9826035      0.9926959
      6685.5000         0.6343        12.1903       138.1978        76.4906        77.3279         0.5584       -132.342        -5.2045      0.9431467      0.9561027
      6686.0000         0.6732        12.1614       133.1785        76.0483       76.79227         0.5438      -135.4153        -8.2893      0.9317504      0.9138452
      6686.5000         0.7086        12.1414        128.009        76.0575       76.80206         0.5219       -137.843       -10.7285      0.9319586      0.8804315
      6687.0000         0.7334         12.128       121.7281        75.3901       75.99458         0.4965      -141.1467       -14.0436      0.9147782      0.8350192
      6687.5000         0.7154        12.1197       122.2839        74.4204       74.82211         0.4724      -142.7222       -15.6306       0.889832      0.8132794
      6688.0000         0.6599        12.1159       129.0271        73.9423       74.24323         0.4653      -142.6096       -15.5295      0.8775156      0.8146644
      6688.5000         0.5927         12.116       137.0691        74.1653       74.51124         0.4614      -140.0381       -12.9694      0.8832178      0.8497342
      6689.0000          0.542        12.1353       141.6433        74.6927       75.14674         0.4619      -136.8911        -9.8339      0.8967391      0.8926863
      6689.5000         0.5322        12.1682       143.3635         74.356       74.73877         0.4675      -133.7588        -6.7131      0.8880589       0.935437
      6690.0000          0.558        12.2105        142.113        74.1167        74.4483         0.4778      -131.2703         -4.236      0.8818788      0.9693699
      6690.5000         0.6288        12.2491        134.772        75.7111       76.37247         0.4908      -130.2151        -3.1923      0.9228184      0.9836671
      6691.0000         0.6981        12.2772       124.3989        77.6327       78.69191         0.5133      -132.4565        -5.4452      0.9721683      0.9528055
      6691.5000         0.7523        12.1883       118.1671        78.7064        79.9872         0.5446      -137.4075       -10.4076      0.9997276      0.8848274
      6692.0000         0.7806         12.041       113.8142        78.4945       79.72994         0.5761      -146.3433       -19.3549      0.9942541      0.7622616
      6692.5000         0.7978        12.0968       115.4668        77.6238       78.67693         0.5988        -151.25        -24.273      0.9718495      0.6948904
      6693.0000         0.8024        12.3541       117.7367        76.5739       77.40761         0.6047      -154.7622       -27.7967      0.9448427      0.6466206
      6693.5000         0.7928        12.5936       120.1837         76.546       77.37247         0.5916      -156.8503       -29.8963       0.944095      0.6178589
      6694.0000         0.7604         12.633       124.9448        76.4362       77.23853          0.562      -157.6873       -30.7447      0.9412454       0.606237
      6694.5000         0.7378        12.6819       131.5454        74.2252       74.56679         0.5321      -157.6477       -30.7166      0.8843997      0.6066219
      6695.0000         0.7243        12.8261       136.9756        70.3423       69.87598         0.5064      -157.2991       -30.3795      0.7845953      0.6112397
      6695.5000         0.6954        12.8243        141.968        67.6619       66.63731         0.4986       -156.571       -29.6628      0.7156875      0.6210575
      6696.0000         0.6621        12.6991         143.04        67.5013       66.44191         0.5049      -155.1921       -28.2954        0.71153       0.639789
      6696.5000         0.6444        12.6581       136.6301        68.7484       67.94673         0.5251      -152.7368       -25.8516      0.7435475      0.6732658
      6697.0000         0.6497        12.6388       127.7976        69.3225       68.63865         0.5552      -147.8484       -20.9746      0.7582691       0.740074
      6697.5000          0.679        12.5109       123.6648        68.9065       68.13491         0.5898      -144.6516       -17.7893      0.7475513      0.7837082
      6698.0000         0.7519        12.3684       122.9246        70.9683       70.62355         0.6426      -142.8088        -15.958       0.800501      0.8087945
      6698.5000         0.8317        12.4269       127.1017        74.5897       74.99589         0.7333      -145.4392       -18.5998      0.8935295      0.7726055
      6699.0000         0.9121        12.5033       128.4148        77.6664       78.71027         0.7855      -147.7083       -20.8804      0.9725589      0.7413644
      6699.5000         1.0447        12.4968       126.8804        77.1117       78.03902         0.8053      -150.3608       -23.5443      0.9582769      0.7048726
      6700.0000         1.1527        12.1038       123.8776        74.3639       74.71896         0.8021      -154.5593       -27.7543      0.8876375      0.6472014
      6700.5000         1.1844         11.902       114.1044        71.1149       70.79372         0.7869      -157.6584       -30.8649      0.8041218      0.6045904
      6701.0000         1.1967        11.8622       110.9836        70.3096       69.81969         0.7625        -159.04       -32.2579      0.7833976      0.5855082
