#------------------------------------------------------------------------------
# Created by    : vladimir.rabinovich
# Created on    : 09/19/2023 17:22:20
#------------------------------------------------------------------------------
~Version Information Section
VERS.           2.0     :   CWLS log ASCII Standard - VERSION 2.0
WRAP.           NO      :   One line per depth step
~Well Information Section
#MNEM       .UNIT                                         VALUE :DESCRIPTION
#------------------------------------------------------------------------------
STRT        .FT                                            3394 :START DEPTH
STOP        .FT                                            9102 :STOP DEPTH
STEP        .FT                                             0.5 :STEP      
NULL        .                                           -999.25 :NULL      
COMP        .                               TALOS PETROLEUM LLC :COMPANY   
WELL        .                                OCS 00299 ST00BP02 :WELL      
FLD         .                           WEST CAMERON BLOCK 0045 :FIELD     
LOC         .                                                   :LOCATION  
CNTY        .                                      WEST CAMERON :LOCATION  
STAT        .                                         LOUISIANA :STATE     
CTRY        .                                     UNITED STATES :COUNTRY   
SRVC        .                                                   :SERVICE COMPANY
DATE        .                             9/13/2023 11:19:21 AM :LOG DATE  
API         .                                    17700408910000 :API NUMBER
UWI         .                                    17700408910000 :UNIQUE WELL ID
XCOORD      .                                  1447531.51187247 :SURFACE X 
YCOORD      .                                  10768708.3799417 :SURFACE Y 
LAT         .                                         29.671026 :LATITUDE  
LON         .                                        -93.607557 :LONGITUDE 
ELEV        .FT                                              95 :ELEVATION VALUE
ELEV_TYPE   .                                                KB :ELEVATION REFERENCE TYPE
~Curve Information Section
#MNEM       .UNIT                                      API CODE :CURVE DESCRIPTION
#------------------------------------------------------------------------------
DEPT        .FT                                                 :DEPTH     
CALI        .IN                                                 :          
DPHI        .V/V                                                :          
DRHO        .G/C3                                               :          
GR          .GAPI                                               :          
GR_NORM     .GAPI                                               :GammaRay Normalized
IDPH        .OHMM                                               :          
IMPH        .OHMM                                               :          
NPOR        .V/V                                                :          
SFLU        .OHMM                                               :          
SP          .MV                                                 :          
SP_NORM     .MV                                                 :SP Normalized
TENS        .LBS                                                :          
VSH_GR      .V/V                                                :Volume of Shale from GR
VSH_SP      .V/V                                                :Volume of Shale from SP
~A        DEPTH           CALI           DPHI           DRHO             GR        GR_NORM           IDPH           IMPH           NPOR           SFLU             SP        SP_NORM           TENS         VSH_GR         VSH_SP
# ...
      5356.0000          12.92         0.3541        -0.0078           31.6       39.62007         0.2075         0.2193         0.3828         0.2637          -83.7       -73.6387           3320      0.1408526      0.1368831
      5356.5000          12.92         0.3459        -0.0078           31.2       39.03448         0.2075         0.2193         0.3732            0.3          -84.9       -74.8418           3320      0.1283933       0.122388
      5357.0000          12.96         0.3353        -0.0078           29.6       36.70945         0.2094         0.2193         0.3636         0.3292          -86.1       -76.0449           3280     0.07892438      0.1078928
      5357.5000          12.96         0.3247        -0.0059           28.4       34.96423         0.2094         0.2193          0.366         0.3612          -86.7        -76.648           3280      0.0417922      0.1006265
      5358.0000          12.92         0.3141        -0.0059           29.4       36.40801         0.2094         0.2193         0.3792         0.3783            -87       -76.9511           3280     0.07251091     0.09697466
      5358.5000          12.76         0.3199        -0.0077           32.8       41.33072         0.2153         0.2213         0.3828         0.3385          -85.8       -75.7542           3260      0.1772493      0.1113951
      5359.0000           12.8         0.3209        -0.0114           34.2       43.35434         0.2213         0.2275          0.378         0.3113          -84.9       -74.8572           3300       0.220305      0.1222024
      5359.5000          12.92         0.3171        -0.0142             35        44.5082         0.2296         0.2405         0.3792         0.2945            -84       -73.9603           3300      0.2448554      0.1330085
      5360.0000          13.04         0.3085        -0.0141           34.8       44.21253         0.2472         0.2541         0.3936         0.2891          -83.4       -73.3634           3280      0.2385645         0.1402
      5360.5000          13.16         0.2952         -0.009           34.4       43.62695         0.2711         0.2711          0.396         0.2945          -83.1       -73.0665           3280      0.2261054      0.1437771
      5361.0000          13.28         0.2592         -0.005           33.4       42.17164         0.3113         0.3028         0.3744         0.3926          -82.2       -72.1696           3280      0.1951412      0.1545831
      5361.5000           13.2         0.2196         -0.001           32.2       40.42642         0.3578         0.3646         0.3084         0.6058          -81.3       -71.2727           3280      0.1580089      0.1653892
      5362.0000          13.16          0.192          0.003           29.2       36.07201            0.4         0.4514           0.27          0.868            -81       -70.9758           3320     0.06536192      0.1689663
      5362.5000             13         0.1728          0.008           26.2        31.7176          0.439         0.5527         0.2508         1.0377            -81       -70.9789           3360              0       0.168929
      5363.0000          12.96         0.1572          0.008           24.2       28.81274         0.4642         0.6236         0.2376         1.0767          -81.6        -71.582           3360              0      0.1616626
      5363.5000             13           0.15          0.008           23.4       27.64734         0.4862         0.6543          0.234              1          -81.6       -71.5851           3360              0      0.1616253
      5364.0000          13.12         0.1764          0.008           24.6       29.38103         0.4599         0.5946         0.2688         0.9087          -81.9       -71.8882           3360              0      0.1579735
      5364.5000           13.2         0.2484          0.008           26.4       31.98447         0.4229         0.5233          0.348         0.8073          -81.6       -71.5913           3360              0      0.1615506
      5365.0000          13.32         0.2916          0.007           27.8       34.00807          0.389         0.4599          0.408         0.7384          -81.6       -71.5944           3340     0.02144826      0.1615133
      5365.5000           13.4          0.318          0.007           28.8       35.45185         0.3578         0.4113         0.4188         0.6866          -82.2       -72.1975           3340     0.05216712       0.154247
      5366.0000           13.4          0.342          0.007           28.2       34.57637         0.3292         0.3748         0.4212         0.6607          -82.5       -72.5006           3320     0.03353971      0.1505951
      5366.5000          13.36         0.3408         -0.003           27.4       33.41097         0.3028         0.3385         0.4152         0.6607          -82.2       -72.2037           3300    0.008744016      0.1541723
      5367.0000          13.36         0.3372         -0.008           27.2       33.11529         0.2865         0.3113         0.4152         0.6419          -81.9       -71.9067           3300    0.002452932      0.1577506
      5367.5000          13.32           0.33         -0.011           27.2       33.10953         0.2736            0.3         0.4044         0.6176          -81.6       -71.6098           3320    0.002330455      0.1613277
      5368.0000          13.32         0.3276         -0.012           26.6       32.23404         0.2736         0.2891         0.3816         0.5733          -81.3       -71.3129           3320              0      0.1649049
      5368.5000          13.32         0.3312         -0.011           25.6       30.77872         0.2839         0.2918         0.3672         0.5378          -81.9        -71.916           3360              0      0.1576385
      5369.0000          13.36         0.3228          -0.01           26.6       32.22252         0.2972         0.2972         0.3612         0.5281          -79.5       -69.5191           3360              0      0.1865169
      5369.5000           13.4         0.2952         -0.008           27.6       33.66631         0.3142         0.3172         0.3564         0.5733          -75.3       -65.3222           3360     0.01417671       0.237082
      5370.0000          13.56         0.2604         -0.006           28.6       35.11009         0.3448         0.3513         0.3528         0.7126          -67.2       -57.2253           3340     0.04489558      0.3346349
      5370.5000           13.8         0.2052         -0.004           29.8       36.84378         0.3819         0.4269         0.3408         0.9532          -57.6       -47.6284           3320     0.08178265      0.4502603
      5371.0000             14         0.1788         -0.006           30.8       38.28757         0.4269         0.5186         0.2964         1.1173            -51       -41.0315           3320      0.1125015      0.5297409
      5371.5000          14.16         0.1704         -0.008           34.4       43.50019         0.4773         0.6296         0.2808              1          -44.7       -34.7346           3340      0.2234083      0.6056072
      5372.0000          14.16         0.1536          -0.01           37.6       48.13298         0.5329         0.7789          0.294         1.0867          -43.5       -33.5377           3340      0.3219784      0.6200277
      5372.5000          14.16         0.1296         -0.009           38.4       49.28687         0.5629         0.8371         0.3048         1.3318          -43.8       -33.8408           3340       0.346529      0.6163759
      5373.0000          14.16         0.1188         -0.006             37       47.25172         0.5578         0.8447         0.2868         1.5728          -47.7       -37.7439           3340      0.3032281      0.5693506
      5373.5000          14.08         0.1344         -0.007           34.6       43.76705         0.5233          0.772          0.234         1.7901          -53.1        -43.147           3340      0.2290861       0.504253
