#------------------------------------------------------------------------------
# Created by    : vladimir.rabinovich
# Created on    : 09/19/2023 17:19:27
#------------------------------------------------------------------------------
~Version Information Section
VERS.           2.0     :   CWLS log ASCII Standard - VERSION 2.0
WRAP.           NO      :   One line per depth step
~Well Information Section
#MNEM       .UNIT                                         VALUE :DESCRIPTION
#------------------------------------------------------------------------------
STRT        .FT                                          4322.5 :START DEPTH
STOP        .FT                                            9954 :STOP DEPTH
STEP        .FT                                             0.5 :STEP      
NULL        .                                           -999.25 :NULL      
COMP        .                                ATP OIL & GAS CORP :COMPANY   
WELL        .                               OCS G13829 ST00BP00 :WELL      
FLD         .                           WEST CAMERON BLOCK 0092 :FIELD     
LOC         .                                                   :LOCATION  
CNTY        .                                      WEST CAMERON :LOCATION  
STAT        .                                         LOUISIANA :STATE     
CTRY        .                                     UNITED STATES :COUNTRY   
SRVC        .                                                   :SERVICE COMPANY
DATE        .                             9/13/2023 11:19:21 AM :LOG DATE  
API         .                                    17700409910000 :API NUMBER
UWI         .                                    17700409910000 :UNIQUE WELL ID
XCOORD      .                                  1447604.75856055 :SURFACE X 
YCOORD      .                                  10719416.1500606 :SURFACE Y 
LAT         .                                        29.5354331 :LATITUDE  
LON         .                                       -93.6065144 :LONGITUDE 
ELEV        .FT                                              97 :ELEVATION VALUE
ELEV_TYPE   .                                                KB :ELEVATION REFERENCE TYPE
~Curve Information Section
#MNEM       .UNIT                                      API CODE :CURVE DESCRIPTION
#------------------------------------------------------------------------------
DEPT        .FT                                                 :DEPTH     
AFCO        .MMHO                                               :          
AT10        .OHMM                                               :          
AT20        .OHMM                                               :          
AT30        .OHMM                                               :          
AT60        .OHMM                                               :          
AT90        .OHMM                                               :          
CSAX        .MMHO                                               :          
DCAL        .IN                                                 :          
DPHZ        .%                                                  :          
GR          .GAPI                                               :          
GR_NORM     .GAPI                                               :GammaRay Normalized
GRAX        .GAPI                                               :          
HDRA        .G/C3                                               :          
NPOR        .%                                                  :          
ROPS        .FT/HR                                              :          
RSAX        .OHMM                                               :          
RWA         .OHMM                                               :          
SP          .MV                                                 :          
SP_NORM     .MV                                                 :SP Normalized
TENS        .LBF                                                :          
VSH_SP      .V/V                                                :Volume of Shale from SP
~A        DEPTH           AFCO           AT10           AT20           AT30           AT60           AT90           CSAX           DCAL           DPHZ             GR        GR_NORM           GRAX           HDRA           NPOR           ROPS           RSAX            RWA             SP        SP_NORM           TENS         VSH_SP
# ...
      6672.5000       1935.947         0.4645         0.4865         0.4923          0.545         0.5317        -999.25         2.6124          27.93       101.0221        79.1794        -999.25         0.0213        38.0699        -999.25        -999.25         0.0527       -31.4375         3.0225           2584              1
      6673.0000       1931.803         0.4726         0.4969         0.4977         0.5463         0.5327        -999.25         2.6851          29.13       102.8792        80.5733        -999.25         0.0075          37.35        -999.25        -999.25         0.0578       -31.8125         2.6431           2581              1
      6673.5000       1933.178         0.4782         0.5026         0.5004         0.5412         0.5275        -999.25         2.7094        29.8199        99.6732        78.1698        -999.25         0.0033          44.96        -999.25        -999.25         0.0607          -31.5         2.9513           2570              1
      6674.0000       1937.832         0.4832         0.5031         0.4995         0.5401         0.5264        -999.25         2.7215             29        95.8571        75.3088        -999.25         0.0132          46.39        -999.25        -999.25          0.057       -31.6875         2.7594           2585              1
      6674.5000       1938.031         0.4954         0.5085          0.497         0.5213         0.5081        -999.25         2.7336        27.7499        94.1924        74.0613        -999.25         0.0258          44.87        -999.25        -999.25         0.0518         -32.25         2.1925           2588              1
      6675.0000       1937.516         0.5299          0.534         0.5128         0.5227         0.5094        -999.25         2.7336          26.88        98.3187         77.157        -999.25         0.0291        40.5099        -999.25        -999.25         0.0484       -34.4375         0.0007           2564              1
      6675.5000       1945.207         0.5763         0.5666         0.5339         0.5259         0.5123        -999.25         2.7579        25.5699        98.0027        76.9211        -999.25         0.0344          35.52        -999.25        -999.25         0.0433       -37.1875        -2.7537           2587      0.9914352
      6676.0000       1969.811          0.584         0.5652         0.5371         0.5189         0.5058        -999.25         2.8064          24.44        98.9783        77.6538        -999.25         0.0336        37.0799        -999.25        -999.25         0.0388            -36        -1.5706           2583              1
      6676.5000        2010.92         0.5553         0.5346         0.5128         0.4863         0.4751        -999.25         2.8549          23.11        98.2015        77.0722        -999.25         0.0381        36.3799        -999.25        -999.25         0.0337       -35.9375        -1.5124           2567              1
      6677.0000       2046.801         0.5378         0.5113         0.4908          0.456         0.4461        -999.25         2.8913        23.2299        94.6664        74.4219        -999.25         0.0308           38.8        -999.25        -999.25         0.0335        -36.625        -2.2043           2571      0.9976784
      6677.5000       2078.254          0.566         0.5186          0.497         0.4538         0.4444        -999.25         2.9519           23.9        88.9642        70.1463        -999.25         0.0263          42.87        -999.25        -999.25         0.0352        -41.875        -7.4587           2545      0.9379693
      6678.0000       2097.668         0.5955         0.5343         0.5072         0.4503         0.4412        -999.25         2.9277          24.77        87.8396        69.3039        -999.25         0.0193          37.98        -999.25        -999.25         0.0377       -46.5625       -12.1505           2535      0.8846534
      6678.5000        2106.25         0.5849         0.5238         0.5049         0.4499         0.4413        -999.25          2.394          24.35        92.1642        72.5484        -999.25         0.0176        35.8099        -999.25        -999.25         0.0362        -45.875       -11.4674           2530      0.8924159
      6679.0000       2105.102         0.5834         0.5128          0.504         0.4469         0.4387        -999.25         2.4426          23.08        94.8802        74.5864        -999.25         0.0166          42.89        -999.25        -999.25         0.0323       -45.8125       -11.4093           2548      0.8930761
      6679.5000       2095.863         0.5878         0.5195         0.5126         0.4548         0.4469        -999.25         2.4668          20.93        94.7605        74.4977        -999.25          0.023        38.0099        -999.25        -999.25         0.0263        -46.625       -12.2261           2513      0.8837943
      6680.0000       2073.633         0.5592         0.5081         0.5092         0.4578         0.4501        -999.25         2.4426          19.78        92.2197        72.5931        -999.25         0.0274        36.3099        -999.25        -999.25         0.0236         -40.75        -6.3555           2537      0.9505057
      6680.5000       2041.637         0.5487         0.5007         0.5031         0.4584         0.4513        -999.25         2.5153          20.07        92.7382         72.983        -999.25         0.0218        38.7499        -999.25        -999.25         0.0248          -39.5        -5.1099           2560      0.9646602
      6681.0000       2008.049         0.5976         0.5346         0.5323         0.4875           0.48        -999.25         2.5881           19.8        92.9323        73.1296        -999.25         0.0203        39.2399        -999.25        -999.25         0.0245       -41.5625        -7.1768           2543      0.9411727
      6681.5000       1965.271         0.6193         0.5609         0.5567         0.5185         0.5112        -999.25         2.4911          18.73        91.4633        72.0289        -999.25         0.0267          30.49        -999.25        -999.25         0.0222        -42.875        -8.4936           2597      0.9262091
      6682.0000       1921.225         0.5529         0.5221         0.5348         0.5189         0.5121        -999.25         2.6609          18.33        92.8441        73.0655        -999.25         0.0399          33.81        -999.25        -999.25         0.0217       -42.6875        -8.3105           2598      0.9282898
      6682.5000       1877.285         0.5098         0.4899         0.5158         0.5189         0.5124        -999.25          2.867          20.02         88.583        69.8707        -999.25         0.0457          36.21        -999.25        -999.25         0.0269       -40.4375        -6.0648           2564      0.9538091
      6683.0000       1828.955         0.5285         0.5163         0.5445         0.5531          0.545        -999.25         3.0005          22.45          91.49         72.052        -999.25         0.0435          32.52        -999.25        -999.25         0.0353         -39.25        -4.8817           2571      0.9672534
      6683.5000         1788.5         0.5531         0.5544         0.5769         0.5979          0.589        -999.25         3.0732          23.03        91.4089        71.9922        -999.25         0.0446          31.46        -999.25        -999.25         0.0381        -39.375        -5.0111           2591      0.9657829
      6684.0000       1747.859         0.5377         0.5508         0.5773         0.6067          0.597        -999.25         3.0975          22.89        94.4473        74.2721        -999.25         0.0452          39.04        -999.25        -999.25         0.0384       -37.6875         -3.328           2604      0.9849091
      6684.5000       1719.557         0.5188          0.538         0.5659         0.6049         0.5951        -999.25         3.1702          23.24        90.2273        71.1081        -999.25         0.0412          39.02        -999.25        -999.25         0.0404       -36.5625        -2.2073           2601      0.9976443
