#------------------------------------------------------------------------------
# Created by    : vladimir.rabinovich
# Created on    : 09/19/2023 17:20:42
#------------------------------------------------------------------------------
~Version Information Section
VERS.           2.0     :   CWLS log ASCII Standard - VERSION 2.0
WRAP.           NO      :   One line per depth step
~Well Information Section
#MNEM       .UNIT                                         VALUE :DESCRIPTION
#------------------------------------------------------------------------------
STRT        .FT                                             202 :START DEPTH
STOP        .FT                                            9625 :STOP DEPTH
STEP        .FT                                             0.5 :STEP      
NULL        .                                           -999.25 :NULL      
COMP        .                           GENERAL AMERICAN OIL CO :COMPANY   
WELL        .                               OCS G01862 ST00BP00 :WELL      
FLD         .                           WEST CAMERON BLOCK 0045 :FIELD     
LOC         .                                                   :LOCATION  
CNTY        .                                      WEST CAMERON :LOCATION  
STAT        .                                         LOUISIANA :STATE     
CTRY        .                                     UNITED STATES :COUNTRY   
SRVC        .                                                   :SERVICE COMPANY
DATE        .                             9/13/2023 11:18:18 AM :LOG DATE  
API         .                                    17700004050000 :API NUMBER
UWI         .                                    17700004050000 :UNIQUE WELL ID
XCOORD      .                                  1441793.49938464 :SURFACE X 
YCOORD      .                                  10754125.7201806 :SURFACE Y 
LAT         .                                        29.6308281 :LATITUDE  
LON         .                                       -93.6253819 :LONGITUDE 
ELEV        .FT                                              70 :ELEVATION VALUE
ELEV_TYPE   .                                                KB :ELEVATION REFERENCE TYPE
~Curve Information Section
#MNEM       .UNIT                                      API CODE :CURVE DESCRIPTION
#------------------------------------------------------------------------------
DEPT        .FT                                                 :DEPTH     
ASN         .OHMM                                               :          
CALI        .IN                                                 :          
CALI_1      .IN                                                 :          
DRHO        .G/C3                                               :          
DT          .US/F                                               :          
GR          .GAPI                                               :          
GR_NORM     .GAPI                                               :GammaRay Normalized
ILD         .OHMM                                               :          
RHOB        .G/C3                                               :          
SP          .MV                                                 :          
SP_NORM     .MV                                                 :SP Normalized
VSH_GR      .V/V                                                :Volume of Shale from GR
VSH_SP      .V/V                                                :Volume of Shale from SP
~A        DEPTH            ASN           CALI         CALI_1           DRHO             DT             GR        GR_NORM            ILD           RHOB             SP        SP_NORM         VSH_GR         VSH_SP
# ...
      8030.0000         0.8876        12.0602        11.9274         0.0379       108.3881        56.3922       55.24613         0.6441         2.2056      -104.9104       -54.4457      0.4733219      0.3637416
      8030.5000         0.9329        11.8897        12.0048         0.0524       106.0784        52.9733       51.09916         0.7136         2.1752       -98.1857       -47.7132      0.3850885      0.4438905
      8031.0000         0.9972        11.7794        12.0752         0.0743       102.3536        55.1396       53.73055         0.7632         2.1967       -91.7618       -41.2814      0.4410754      0.5204595
      8031.5000         1.0615        11.7168        12.1303         0.0948       100.1505        56.4729       55.35098         0.8128          2.227        -86.689       -36.2008      0.4755527      0.5809428
      8032.0000         1.1729        11.7224        12.0701         0.1083        99.6366        58.0622       57.28211         0.8624         2.2512       -84.4553       -33.9593      0.5166406      0.6076274
      8032.5000         1.2087        11.7805        12.0171         0.0941        99.5558        62.5524       62.73386         0.9996         2.2775       -83.9479       -33.4441      0.6326354      0.6137607
      8033.0000         1.1978        11.8763        11.9694         0.0698       100.0984         65.345       66.12547          1.044         2.2997       -77.5195       -27.0079      0.7047973      0.6903821
      8033.5000         1.1825         11.982        11.9251         0.0767       103.4935        65.2426        66.0035         1.0525         2.3293       -70.6774        -20.158      0.7022021      0.7719285
      8034.0000         1.1932        11.9899        11.8925         0.0746       102.2445        63.2299       63.56313         1.0449         2.3249       -63.8425       -13.3153      0.6502794      0.8533893
      8034.5000         1.2476        11.9347        11.8871         0.0462        98.8741        63.1432       63.46021         1.0403         2.2979       -59.1641        -8.6291      0.6480896      0.9091774
      8035.0000         1.3034        11.9158        11.9091         0.0353        95.0231          65.02       65.74026         1.0098         2.3298       -60.1681        -9.6253      0.6966012      0.8973178
      8035.5000         1.3593        11.9825         11.943         0.0595        92.0665        65.4572       66.27329         0.9792         2.3666       -62.6495       -12.0989      0.7079424      0.8678702
      8036.0000         1.3067        12.0327        11.9789         0.0681        92.9711        66.2129       67.19273         0.9486         2.3805       -65.4135       -14.8551       0.727505      0.8350583
      8036.5000         1.2326        12.0432        12.0155         0.0817        101.288        64.0885       64.61681         0.9269         2.4111       -66.4937       -15.9275       0.672698      0.8222917
      8037.0000         1.1584        11.9796        12.0375         0.0647       103.8801        60.9375       60.79497         0.9251         2.4113       -68.2437       -17.6697      0.5913823      0.8015512
      8037.5000         1.0842        11.8194        12.0568         0.0396       105.0139        58.4915       57.82873         0.9508         2.4171       -70.4241       -19.8423      0.5282709      0.7756869
      8038.0000           1.03        11.7389        12.0626         0.0323       106.0325         61.741       61.77473         0.9921         2.4209       -66.7791       -16.1895      0.6122283      0.8191726
      8038.5000          1.009        11.6959        12.0672          0.047       107.8206        69.9375       71.72466         1.0317         2.3971       -61.2142       -10.6168       0.823929      0.8855143
      8039.0000          1.006        11.5411        12.1042         0.0674       109.8923        72.7301       75.11616         1.0723         2.3727       -55.6568        -5.0515      0.8960885      0.9517679
      8039.5000         1.0181        11.4213        12.1455         0.0639        114.249        75.2469       78.17293         1.1067         2.3338       -50.8298        -0.2167      0.9611261              1
      8040.0000         1.0348        11.4019        12.0827         0.0543        114.754        81.4425        85.6944         1.1161         2.3096       -48.7357         1.8852              1              1
      8040.5000          1.048        11.4978        11.9662         0.0498       113.8477        92.6285       99.27236         1.1256         2.3135       -48.8779         1.7508              1              1
      8041.0000          1.063        11.6116        11.9468         0.0497       111.8452          96.39       103.8397         1.1351         2.3202       -49.6662         0.9703              1              1
      8041.5000         1.0876        11.7382        11.9228         0.0581       103.7266        96.5377       104.0214         1.1465          2.327       -48.8118         1.8325              1              1
      8042.0000         1.1284        12.2569        11.7814         0.0625        96.2026        92.2898       98.86834         1.1768         2.3177       -49.6249         1.0272              1              1
      8042.5000         1.1587        12.5135        11.7107         0.0548        96.2039         87.004       92.45565         1.1308         2.3228       -50.4783         0.1816              1              1
      8043.0000         1.1416        12.3069        11.7347         0.0579        96.8761        80.7494       84.86719         1.0668          2.336       -51.1147         -0.447              1              1
      8043.5000         1.0857        12.0118        11.8192          0.067        97.9696          74.92       77.79476         1.0064         2.3532       -51.4779        -0.8024      0.9530801              1
      8044.0000          1.029        12.0175        11.9899         0.0939         99.469        72.2417       74.54661         0.9486         2.4062       -51.5423         -0.859      0.8839704              1
      8044.5000         1.0109        12.0137         12.246         0.1546        97.3922        72.9113       75.36168         0.8963         2.4501       -51.3611          -0.67      0.9013123              1
      8045.0000         1.0263        11.9475        12.4343         0.1321         95.811        75.7156       78.76736         0.8794         2.4064       -51.0895        -0.3906      0.9737735              1
      8045.5000         0.9746        11.8771        12.3966         0.1026       101.1492        77.4895       80.92252           0.83         2.3831       -50.8105        -0.1038              1              1
      8046.0000         0.8843        11.7808        12.1234         0.0573       105.3473        77.0597       80.40321         0.8308          2.376       -50.4338         0.2807              1              1
      8046.5000         0.7993        11.6818        12.0555         0.0474       108.6681        77.6141       81.07835         0.7925         2.3899       -50.0351         0.6872              1              1
      8047.0000         0.7545        11.6041        12.0843         0.0703       113.3223        81.5371       85.84184         0.7691         2.3977       -49.6364         1.0938              1              1
      8047.5000         0.7437        11.5325        12.1027          0.088       114.7571        85.5034       90.65778         0.7493          2.396       -49.4001         1.3379              1              1
      8048.0000         0.7573         11.481        12.0923         0.0975       114.0421        87.5791       93.17921         0.7328         2.3672       -50.2388          0.507              1              1
      8048.5000         0.8152        11.4756        11.9572         0.0551       112.3607        88.5874       94.40523         0.7054         2.3375       -53.0873        -2.3337              1      0.9841226
