#------------------------------------------------------------------------------
# Created by    : vladimir.rabinovich
# Created on    : 09/19/2023 17:20:59
#------------------------------------------------------------------------------
~Version Information Section
VERS.           2.0     :   CWLS log ASCII Standard - VERSION 2.0
WRAP.           NO      :   One line per depth step
~Well Information Section
#MNEM       .UNIT                                         VALUE :DESCRIPTION
#------------------------------------------------------------------------------
STRT        .FT                                            4010 :START DEPTH
STOP        .FT                                           10351 :STOP DEPTH
STEP        .FT                                             0.5 :STEP      
NULL        .                                           -999.25 :NULL      
COMP        .                         TALOS ENERGY VENTURES LLC :COMPANY   
WELL        .                               OCS G13557 ST00BP00 :WELL      
FLD         .                           WEST CAMERON BLOCK 0118 :FIELD     
LOC         .                                                   :LOCATION  
CNTY        .                                      WEST CAMERON :LOCATION  
STAT        .                                         LOUISIANA :STATE     
CTRY        .                                     UNITED STATES :COUNTRY   
SRVC        .                                                   :SERVICE COMPANY
DATE        .                             9/13/2023 11:19:21 AM :LOG DATE  
API         .                                    17700409470000 :API NUMBER
UWI         .                                    17700409470000 :UNIQUE WELL ID
XCOORD      .                                  1434760.35260149 :SURFACE X 
YCOORD      .                                  10716448.9068769 :SURFACE Y 
LAT         .                                        29.5270802 :LATITUDE  
LON         .                                       -93.6468641 :LONGITUDE 
ELEV        .FT                                             100 :ELEVATION VALUE
ELEV_TYPE   .                                                KB :ELEVATION REFERENCE TYPE
~Curve Information Section
#MNEM       .UNIT                                      API CODE :CURVE DESCRIPTION
#------------------------------------------------------------------------------
DEPT        .FT                                                 :DEPTH     
AT10        .OHMM                                               :          
AT20        .OHMM                                               :          
AT30        .OHMM                                               :          
AT60        .OHMM                                               :          
AT90        .OHMM                                               :          
CALI        .IN                                                 :          
DPHI        .%                                                  :          
DRHO        .G/C3                                               :          
DTLF        .US/F                                               :          
DTLN        .US/F                                               :          
GR          .GAPI                                               :          
GR_NORM     .GAPI                                               :GammaRay Normalized
NPOR        .%                                                  :          
RHOB        .G/C3                                               :          
SP          .MV                                                 :          
SP_NORM     .MV                                                 :SP Normalized
TENS        .LBF                                                :          
VSH_GR      .V/V                                                :Volume of Shale from GR
VSH_SP      .V/V                                                :Volume of Shale from SP
~A        DEPTH           AT10           AT20           AT30           AT60           AT90           CALI           DPHI           DRHO           DTLF           DTLN             GR        GR_NORM           NPOR           RHOB             SP        SP_NORM           TENS         VSH_GR         VSH_SP
# ...
      5697.5000         0.7719         0.6913          0.662         0.6401         0.6464        10.3205        20.5713        -0.0066          109.7          111.2        84.2749       76.47373        37.7875         2.3106        -999.25        -999.25           2185       0.924973        -999.25
      5698.0000         0.7852         0.7128         0.6863         0.6669         0.6722        10.5091        20.2795        -0.0041       107.3999       109.2999        84.2191       76.42531        37.5461         2.3154        -999.25        -999.25           2185      0.9239427        -999.25
      5698.5000         0.7938         0.7338         0.7058         0.6812         0.6856        10.5888        20.9021        -0.0059          110.1          112.5         83.068       75.40908         38.207         2.3051        -999.25        -999.25           2170      0.9023209        -999.25
      5699.0000         0.7741         0.7182          0.703         0.6832         0.6867        11.1812        21.6651        -0.0108          113.2          112.5        83.4615       75.75766        40.0309         2.2925        -999.25        -999.25           2170      0.9097375        -999.25
      5699.5000         0.7033         0.6614         0.6643         0.6613         0.6647        10.3142        22.3524        -0.0169          121.2       119.2999        83.5172       75.80767        41.4341         2.2812        -999.25        -999.25           2170      0.9108015        -999.25
      5700.0000         0.6229         0.5979         0.6074         0.6136          0.618         9.9575        23.0173        -0.0163       123.7999       126.3999        92.5664       83.80443        42.7642         2.2702        -999.25        -999.25           2170              1        -999.25
      5700.5000         0.5829         0.5472         0.5652          0.572         0.5771         9.9643         23.643        -0.0185          124.2          126.5        92.7922       84.00483        43.2172         2.2599        -999.25        -999.25           2120              1        -999.25
      5701.0000         0.5885         0.5449         0.5504         0.5597         0.5643         9.9762        23.4304        -0.0162       107.8999          122.5        90.0854        81.6139        43.8215         2.2634        -999.25        -999.25           2120              1        -999.25
      5701.5000         0.6184         0.5659         0.5548          0.568         0.5713         9.9922         23.385        -0.0164          113.2            120        80.4323        73.0853        43.1369         2.2641        -999.25        -999.25           2120      0.8528786        -999.25
      5702.0000          0.644         0.5738         0.5661         0.5765         0.5786        10.0876        22.1201         -0.009          119.6       117.2999        79.1272         71.933        42.0934          2.285        -999.25        -999.25           2120      0.8283617        -999.25
      5702.5000         0.6734         0.5955         0.5879         0.5907         0.5913        10.1602        20.2582        -0.0091       110.7999          113.1        74.9413       68.23513        39.0646         2.3157        -999.25        -999.25           2180      0.7496836        -999.25
      5703.0000         0.7532         0.6587         0.6419         0.6393         0.6361        10.2293        17.4365        -0.0081           97.7        98.2999        70.4656       64.28129        35.3115         2.3623        -999.25        -999.25           2180      0.6655594        -999.25
      5703.5000         0.9364          0.779         0.7515         0.7406         0.7283        10.2973        14.0604        -0.0069        92.7999           88.2         62.515       57.25702        30.6928          2.418        -999.25        -999.25           2180      0.5161068        -999.25
      5704.0000         1.2926         0.9993         0.9261          0.889         0.8587        10.7254        11.0492        -0.0049        89.2999           88.1        56.1003       51.58979        25.8868         2.4677        -999.25        -999.25           2180      0.3955274        -999.25
      5704.5000         1.8905         1.3216          1.138         1.0471         0.9899        10.3357          8.677        -0.0069           83.6           83.2        47.7321       44.19653        22.3838         2.5068        -999.25        -999.25           2150       0.238224        -999.25
      5705.0000         2.5445         1.5705          1.323         1.1552         1.0706        10.1204         8.0928        -0.0071        85.7999           81.7        41.8625       39.01104        21.2568         2.5165        -999.25        -999.25           2150      0.1278944        -999.25
      5705.5000         3.0005         1.6643         1.4627         1.1971         1.0923        10.1627        10.2386        -0.0169           82.5           81.6        34.6232       32.61527        21.9094         2.4811        -999.25        -999.25           2150              0        -999.25
      5706.0000         3.3248         1.6995         1.5586         1.2026         1.0833        10.1053        11.3882        -0.0158             82           84.6        36.0065       33.83835        22.3927         2.4621        -999.25        -999.25           2150      0.0178372        -999.25
      5706.5000         3.3244           1.67         1.5661         1.1968         1.0649        10.1326        11.2746        -0.0108             83           82.1        36.4579       34.23809        22.4905          2.464        -999.25        -999.25           2125     0.02634235        -999.25
      5707.0000          3.122         1.6066         1.5053         1.2074         1.0586        10.1204        11.6058        -0.0086           80.1        78.8999         41.629       38.80816        22.2903         2.4585        -999.25        -999.25           2125      0.1235778        -999.25
      5707.5000         3.0469         1.5657         1.4473         1.2451         1.0717        10.1382        12.1345        -0.0068           78.1        79.3999        44.1273       41.01645        22.2464         2.4498        -999.25        -999.25           2125      0.1705628        -999.25
      5708.0000         2.9824         1.5289         1.3986          1.269         1.0746        10.1326        11.7025        -0.0034           75.2           81.2        42.7728        39.8205        22.1098         2.4569        -999.25        -999.25           2125       0.145117        -999.25
      5708.5000         2.7704         1.4596         1.3374         1.2305         1.0364        10.1242        12.7681        -0.0053        80.3999           81.1        42.7728       39.82138        22.5297         2.4393        -999.25        -999.25           2135      0.1451358        -999.25
      5709.0000         2.4864         1.3751         1.2699          1.144         0.9688        10.1592        13.2784        -0.0049           82.6           84.2        46.5641       43.17217        23.1434         2.4309        -999.25        -999.25           2135      0.2164292        -999.25
      5709.5000         2.2258         1.2924         1.2141         1.0701         0.9138        10.1596        13.2412        -0.0012           92.6             92         49.821       46.05085        24.3796         2.4315        -999.25        -999.25           2135      0.2776777        -999.25
      5710.0000         2.0588         1.2169         1.1754         1.0566          0.906        10.3231         12.917          0.004           87.1           89.2        52.6282       48.53217        25.6037         2.4369        -999.25        -999.25           2135      0.3304718        -999.25
      5710.5000         1.9386         1.1612         1.1294         1.0964         0.9438        10.3069        12.4534         0.0037        76.3999        89.3999        47.6789       44.15977        25.5189         2.4445        -999.25        -999.25           2145      0.2374419        -999.25
