#------------------------------------------------------------------------------
# Created by    : vladimir.rabinovich
# Created on    : 09/19/2023 17:20:42
#------------------------------------------------------------------------------
~Version Information Section
VERS.           2.0     :   CWLS log ASCII Standard - VERSION 2.0
WRAP.           NO      :   One line per depth step
~Well Information Section
#MNEM       .UNIT                                         VALUE :DESCRIPTION
#------------------------------------------------------------------------------
STRT        .FT                                             202 :START DEPTH
STOP        .FT                                            9625 :STOP DEPTH
STEP        .FT                                             0.5 :STEP      
NULL        .                                           -999.25 :NULL      
COMP        .                           GENERAL AMERICAN OIL CO :COMPANY   
WELL        .                               OCS G01862 ST00BP00 :WELL      
FLD         .                           WEST CAMERON BLOCK 0045 :FIELD     
LOC         .                                                   :LOCATION  
CNTY        .                                      WEST CAMERON :LOCATION  
STAT        .                                         LOUISIANA :STATE     
CTRY        .                                     UNITED STATES :COUNTRY   
SRVC        .                                                   :SERVICE COMPANY
DATE        .                             9/13/2023 11:18:18 AM :LOG DATE  
API         .                                    17700004050000 :API NUMBER
UWI         .                                    17700004050000 :UNIQUE WELL ID
XCOORD      .                                  1441793.49938464 :SURFACE X 
YCOORD      .                                  10754125.7201806 :SURFACE Y 
LAT         .                                        29.6308281 :LATITUDE  
LON         .                                       -93.6253819 :LONGITUDE 
ELEV        .FT                                              70 :ELEVATION VALUE
ELEV_TYPE   .                                                KB :ELEVATION REFERENCE TYPE
~Curve Information Section
#MNEM       .UNIT                                      API CODE :CURVE DESCRIPTION
#------------------------------------------------------------------------------
DEPT        .FT                                                 :DEPTH     
ASN         .OHMM                                               :          
CALI        .IN                                                 :          
CALI_1      .IN                                                 :          
DRHO        .G/C3                                               :          
DT          .US/F                                               :          
GR          .GAPI                                               :          
GR_NORM     .GAPI                                               :GammaRay Normalized
ILD         .OHMM                                               :          
RHOB        .G/C3                                               :          
SP          .MV                                                 :          
SP_NORM     .MV                                                 :SP Normalized
VSH_GR      .V/V                                                :Volume of Shale from GR
VSH_SP      .V/V                                                :Volume of Shale from SP
~A        DEPTH            ASN           CALI         CALI_1           DRHO             DT             GR        GR_NORM            ILD           RHOB             SP        SP_NORM         VSH_GR         VSH_SP
# ...
      6244.0000         0.6383        11.3406         6.9869         0.0596       128.7563        85.1503       88.27457           0.63         2.2582       -47.1844        -2.2562              1      0.9840987
      6244.5000         0.6328         11.233         6.9974         0.0683       126.4135         86.582       90.01151         0.6053         2.2768       -47.0526        -2.1256              1      0.9857519
      6245.0000         0.6321        11.1607          6.993         0.0726       127.6523        89.5891       93.66042         0.5897         2.2945       -47.0923        -2.1666              1      0.9852329
      6245.5000         0.6283        11.1186         6.9811          0.068       131.7317        92.9264       97.71005         0.5866         2.2908       -47.1194        -2.1949              1      0.9848747
      6246.0000         0.6236        11.0759         6.9672         0.0616       133.0586         95.163       100.4239         0.5899          2.274       -47.0073        -2.0841              1      0.9862772
      6246.5000         0.6185        11.0318         6.9517          0.065       134.2788        96.4189       101.9473          0.597         2.2702       -46.3682        -1.4462              1      0.9943519
      6247.0000         0.6136        11.0034         6.9363         0.0713       135.0137        93.3745       98.25195         0.6055         2.2648       -45.2879        -0.3671              1              1
      6247.5000         0.6121        10.9787          6.927         0.0694       135.5759        87.6001       91.24335         0.6161         2.2531       -44.9294        -0.0099              1              1
      6248.0000         0.6231        10.9337         6.9176         0.0642       137.1799        86.4258       89.81759         0.6259           2.24       -44.9385        -0.0202              1              1
      6248.5000         0.6439        10.8978         6.9233         0.0682        137.821        88.9799        92.9167         0.6428         2.2385       -45.3565        -0.4395              1              1
      6249.0000         0.6643        10.9314         6.9503          0.075       138.6536        91.0426       95.41945         0.6606         2.2594       -45.6249        -0.7091              1              1
      6249.5000         0.6845        11.0326          6.984         0.0801       137.8606        91.4143       95.86983         0.6674         2.2713       -45.7866         -0.872              1              1
      6250.0000         0.7298        11.0783         7.0334         0.0845        135.884        88.2291       92.00357         0.6635         2.2796       -45.8486        -0.9353              1              1
      6250.5000         0.7454        11.1069         7.0872         0.0662       134.3977        84.6245       87.62831         0.6673         2.2771       -45.8322        -0.9201              1              1
      6251.0000         0.7458        11.1363         7.1521         0.0417       132.4124         79.542       81.45943         0.6992         2.2757       -45.4651        -0.5543              1              1
      6251.5000         0.7274        11.2903         7.1743         0.0283       130.3357        76.0142       77.17738           0.69         2.2744       -45.2025        -0.2929      0.9399443              1
      6252.0000         0.7048        11.6408         7.1776         0.0314       128.8999        75.8834       77.01804         0.6738         2.2579       -45.0875        -0.1791      0.9365541              1
      6252.5000          0.689        11.7091         7.1646         0.0449       126.7465        75.0775       76.03936         0.6552         2.2754       -44.9992        -0.0921      0.9157311              1
      6253.0000         0.6857        11.6323         7.1153          0.057       127.4915        76.1772       77.37328          0.644         2.2999       -44.9108        -0.0049      0.9441122              1
      6253.5000         0.6863        11.6453         7.0459         0.0665        128.533        79.8644       81.84755         0.6395         2.3034       -45.2918        -0.3872              1              1
      6254.0000         0.6976        11.6025         7.0267         0.0658       129.0044        82.7476       85.34608         0.6369         2.2986       -45.3511        -0.4477              1              1
      6254.5000         0.7039        11.5115         7.0801         0.0567       129.4753        83.6321       86.41893         0.6366         2.2865       -45.1711        -0.2689              1              1
      6255.0000         0.6988        11.4824         7.0961         0.0453       129.3643        80.9552       83.16956         0.6389         2.2702       -44.9454        -0.0445              1              1
      6255.5000         0.6847        11.4747         7.0922         0.0303       129.1001        79.5126       81.41818         0.6421         2.2541       -44.6874         0.2123              1              1
      6256.0000         0.6717         11.403         7.0839         0.0488       128.8254        80.0629        82.0853         0.6469         2.2821        -44.568         0.3304              1              1
      6256.5000         0.6681        11.3533         7.0826         0.0734       128.5901        81.4053       83.71387         0.6521         2.2884       -44.4625         0.4375              1              1
      6257.0000          0.671        11.3481         7.0814         0.0698       128.3027        83.0414       85.69888         0.6642         2.2764       -44.4037         0.4996              1              1
      6257.5000         0.6773        11.4802         7.0967         0.0477       127.9878        82.8145        85.4229         0.6774         2.2668       -44.4688         0.4379              1              1
      6258.0000         0.6832        11.7136         7.1337         0.0564       128.4443        80.5818       82.71263         0.6903         2.2759       -44.1752         0.7348              1              1
      6258.5000         0.6898        11.8678         7.1668         0.0687       127.7811        79.0458       80.84789         0.6999         2.2871       -44.2452         0.6682              1              1
      6259.0000         0.6974        11.7296         7.1227         0.0833       126.5409        78.1575       79.76909         0.7134          2.297       -44.5746         0.3422       0.995087              1
      6259.5000         0.7061        11.6588         7.0567         0.0847       126.4352        77.1688       78.56858         0.7308         2.3115       -45.0971         -0.177      0.9695443              1
      6260.0000         0.7335        11.7334         7.0344         0.0813       125.1127        77.0637       78.44041         0.7472         2.3187       -45.8546        -0.9311      0.9668171              1
      6260.5000         0.7859        11.9656          7.082         0.0769       124.1758        79.4359       81.31877         0.7523         2.3098       -46.8055        -1.8787              1      0.9888772
      6261.0000         0.8167        11.8853         7.1485         0.0848       124.7568        81.0175       83.23765         0.7527         2.3105       -48.4153        -3.4851              1      0.9685431
      6261.5000         0.8027        11.7407         7.1944         0.0777       125.0391        80.5287       82.64381         0.7508         2.2963       -50.8235          -5.89              1      0.9381013
      6262.0000         0.7676        11.8105         7.2247         0.0797       124.7742        78.1859       79.79991         0.7429         2.2855       -52.6864        -7.7495      0.9957428      0.9145633
      6262.5000         0.7399        12.1256          7.211         0.0643       123.1323        75.2535       76.24034         0.7345         2.2722       -50.0363        -5.0961      0.9200073      0.9481506
