#------------------------------------------------------------------------------
# Created by    : vladimir.rabinovich
# Created on    : 09/19/2023 17:19:27
#------------------------------------------------------------------------------
~Version Information Section
VERS.           2.0     :   CWLS log ASCII Standard - VERSION 2.0
WRAP.           NO      :   One line per depth step
~Well Information Section
#MNEM       .UNIT                                         VALUE :DESCRIPTION
#------------------------------------------------------------------------------
STRT        .FT                                          4322.5 :START DEPTH
STOP        .FT                                            9954 :STOP DEPTH
STEP        .FT                                             0.5 :STEP      
NULL        .                                           -999.25 :NULL      
COMP        .                                ATP OIL & GAS CORP :COMPANY   
WELL        .                               OCS G13829 ST00BP00 :WELL      
FLD         .                           WEST CAMERON BLOCK 0092 :FIELD     
LOC         .                                                   :LOCATION  
CNTY        .                                      WEST CAMERON :LOCATION  
STAT        .                                         LOUISIANA :STATE     
CTRY        .                                     UNITED STATES :COUNTRY   
SRVC        .                                                   :SERVICE COMPANY
DATE        .                             9/13/2023 11:19:21 AM :LOG DATE  
API         .                                    17700409910000 :API NUMBER
UWI         .                                    17700409910000 :UNIQUE WELL ID
XCOORD      .                                  1447604.75856055 :SURFACE X 
YCOORD      .                                  10719416.1500606 :SURFACE Y 
LAT         .                                        29.5354331 :LATITUDE  
LON         .                                       -93.6065144 :LONGITUDE 
ELEV        .FT                                              97 :ELEVATION VALUE
ELEV_TYPE   .                                                KB :ELEVATION REFERENCE TYPE
~Curve Information Section
#MNEM       .UNIT                                      API CODE :CURVE DESCRIPTION
#------------------------------------------------------------------------------
DEPT        .FT                                                 :DEPTH     
AFCO        .MMHO                                               :          
AT10        .OHMM                                               :          
AT20        .OHMM                                               :          
AT30        .OHMM                                               :          
AT60        .OHMM                                               :          
AT90        .OHMM                                               :          
CSAX        .MMHO                                               :          
DCAL        .IN                                                 :          
DPHZ        .%                                                  :          
GR          .GAPI                                               :          
GR_NORM     .GAPI                                               :GammaRay Normalized
GRAX        .GAPI                                               :          
HDRA        .G/C3                                               :          
NPOR        .%                                                  :          
ROPS        .FT/HR                                              :          
RSAX        .OHMM                                               :          
RWA         .OHMM                                               :          
SP          .MV                                                 :          
SP_NORM     .MV                                                 :SP Normalized
TENS        .LBF                                                :          
VSH_SP      .V/V                                                :Volume of Shale from SP
~A        DEPTH           AFCO           AT10           AT20           AT30           AT60           AT90           CSAX           DCAL           DPHZ             GR        GR_NORM           GRAX           HDRA           NPOR           ROPS           RSAX            RWA             SP        SP_NORM           TENS         VSH_SP
# ...
      4485.0000        -999.25        -999.25        -999.25        -999.25        -999.25        -999.25        -999.25        -999.25        -999.25        45.0569       42.68434        -999.25        -999.25        53.2499        -999.25        -999.25        -999.25        -999.25        -999.25        -999.25        -999.25
      4485.5000        -999.25        -999.25        -999.25        -999.25        -999.25        -999.25        -999.25        -999.25        -999.25        59.3108       54.95596        -999.25        -999.25        55.9099        -999.25        -999.25        -999.25        -999.25        -999.25        -999.25        -999.25
      4486.0000        -999.25        -999.25        -999.25        -999.25        -999.25        -999.25        -999.25        -999.25        -999.25        71.7112       65.62087        -999.25        -999.25          36.97        -999.25        -999.25        -999.25        -999.25        -999.25        -999.25        -999.25
      4486.5000        -999.25        -999.25        -999.25        -999.25        -999.25        -999.25        -999.25        -999.25        -999.25        79.4895       72.27917        -999.25        -999.25          31.24        -999.25        -999.25        -999.25        -999.25        -999.25        -999.25        -999.25
      4487.0000        1503.24         0.7843         0.6871          0.676         0.6637         0.6867        -999.25         0.5506          17.86        79.2877       72.01968        -999.25         0.0398          34.02        -999.25        -999.25         0.0535        -77.625       -14.7679           1981      0.8122368
      4487.5000       1505.461         0.7846          0.687         0.6759          0.663         0.6861        -999.25         0.6234          25.15        83.3627        75.4677        -999.25         0.0244          40.87        -999.25        -999.25         0.0535       -76.6875       -13.8304           1963      0.8260235
      4488.0000       1508.125         0.7849         0.6866         0.6758         0.6623         0.6853        -999.25         0.6234        25.5699        94.8037       85.30102        -999.25         0.0248          38.34        -999.25        -999.25         0.0535       -74.1875       -11.3304           1973      0.8627882
      4488.5000       1511.219         0.7853         0.6862         0.6755         0.6611         0.6842        -999.25         0.5991          25.42        101.884       91.35413        -999.25          0.023          34.05        -999.25        -999.25         0.0535         -71.75        -8.8929           1988      0.8986338
      4489.0000       1514.363         0.7853         0.6856         0.6754         0.6608         0.6833        -999.25         0.5749          24.88       100.9014       90.41792        -999.25         0.0227          34.33        -999.25        -999.25         0.0535       -69.4375        -6.5804           1969      0.9326411
      4489.5000       1517.734         0.7852         0.6848         0.6752           0.66         0.6821        -999.25         0.5749          24.79        96.4277       86.45533        -999.25         0.0171        35.2299        -999.25        -999.25         0.0535       -67.6875        -4.8304           1976      0.9583765
      4490.0000       1518.979         0.7825         0.6832         0.6751         0.6598         0.6811        -999.25         0.6234        25.2899        95.2152       85.31986        -999.25         0.0067        38.0699        -999.25        -999.25         0.0535         -67.75        -4.8929           1969      0.9574574
      4490.5000       1519.113         0.7782          0.681         0.6746         0.6586         0.6802        -999.25         0.6961          24.86        96.0703       85.97659        -999.25         0.0089          39.74        -999.25        -999.25         0.0535       -68.1875        -5.3304           1976      0.9510235
      4491.0000       1517.467         0.7721         0.6781         0.6761         0.6582         0.6782        -999.25         0.7932          24.94        92.7905       83.04903        -999.25         0.0088        37.1699        -999.25        -999.25         0.0535       -68.3125        -5.4554           1992      0.9491853
      4491.5000       1513.703         0.7643         0.6745         0.6755         0.6557         0.6743        -999.25         0.9144          24.84        90.3872        80.8812        -999.25          0.009          38.09        -999.25        -999.25         0.0535       -67.6875        -4.8304           1984      0.9583765
      4492.0000       1507.664         0.7558         0.6705         0.6749         0.6535         0.6698        -999.25         0.9629          24.82        89.4668       80.03849        -999.25         0.0068        41.3199        -999.25        -999.25         0.0535       -68.0625        -5.2054           1989      0.9528618
      4492.5000       1499.771         0.7455         0.6664         0.6746         0.6497         0.6644        -999.25         1.1085          24.56        94.5707       84.44699        -999.25         0.0081          39.52        -999.25        -999.25         0.0535       -69.4375        -6.5804           2002      0.9326411
      4493.0000        1490.74         0.7364         0.6617         0.6741         0.6489         0.6617        -999.25         0.8659          24.49        98.2719       87.63946        -999.25         0.0116          38.41        -999.25        -999.25         0.0535        -68.875        -6.0179           2004      0.9409133
      4493.5000       1484.303         0.7476          0.667         0.6816         0.6543         0.6652        -999.25         0.9144          24.15       102.5386       91.32224        -999.25         0.0171          36.14        -999.25        -999.25         0.0521            -68        -5.1429           2015      0.9537809
      4494.0000       1479.715         0.7516          0.674         0.6878         0.6609         0.6697        -999.25         0.7204          23.36       105.2321       93.64114        -999.25         0.0209          34.55        -999.25        -999.25         0.0485        -66.625        -3.7679           1980      0.9740015
      4494.5000       1483.637         0.7196         0.6742         0.6899         0.6657         0.6723        -999.25         0.5991          23.18        99.3793       88.55175        -999.25         0.0202        32.9899        -999.25        -999.25         0.0474        -64.625        -1.7679           1962              1
      4495.0000       1495.301         0.6911         0.6602         0.6786         0.6574         0.6616        -999.25         0.5991           22.6        98.0574       87.38992        -999.25         0.0274          31.41        -999.25        -999.25         0.0445       -63.1875        -0.3304           1969              1
      4495.5000       1497.592         0.6892         0.6582         0.6708         0.6665         0.6687        -999.25         0.5991          22.73        91.9608       82.08913        -999.25         0.0307          38.02        -999.25        -999.25         0.0449       -65.5625        -2.7054           1982      0.9896265
      4496.0000        1496.82         0.6873          0.665         0.6655         0.6592         0.6593        -999.25         0.5991          22.76        93.7318       83.60845        -999.25         0.0316        38.0099        -999.25        -999.25         0.0449       -65.5625        -2.7054           2006      0.9896265
      4496.5000           1500         0.6599         0.6467         0.6613          0.673         0.6708        -999.25         0.5991          23.91        91.2632       81.45263        -999.25         0.0226        38.5899        -999.25        -999.25         0.0497       -63.9375        -1.0804           2003              1
      4497.0000       1501.553         0.6198          0.614         0.6403         0.6723         0.6683        -999.25         0.5749          24.42        93.3685       83.26171        -999.25         0.0219        40.6099        -999.25        -999.25         0.0518       -63.1875        -0.3304           2003              1
