#------------------------------------------------------------------------------
# Created by    : vladimir.rabinovich
# Created on    : 09/19/2023 17:19:27
#------------------------------------------------------------------------------
~Version Information Section
VERS.           2.0     :   CWLS log ASCII Standard - VERSION 2.0
WRAP.           NO      :   One line per depth step
~Well Information Section
#MNEM       .UNIT                                         VALUE :DESCRIPTION
#------------------------------------------------------------------------------
STRT        .FT                                          4322.5 :START DEPTH
STOP        .FT                                            9954 :STOP DEPTH
STEP        .FT                                             0.5 :STEP      
NULL        .                                           -999.25 :NULL      
COMP        .                                ATP OIL & GAS CORP :COMPANY   
WELL        .                               OCS G13829 ST00BP00 :WELL      
FLD         .                           WEST CAMERON BLOCK 0092 :FIELD     
LOC         .                                                   :LOCATION  
CNTY        .                                      WEST CAMERON :LOCATION  
STAT        .                                         LOUISIANA :STATE     
CTRY        .                                     UNITED STATES :COUNTRY   
SRVC        .                                                   :SERVICE COMPANY
DATE        .                             9/13/2023 11:19:21 AM :LOG DATE  
API         .                                    17700409910000 :API NUMBER
UWI         .                                    17700409910000 :UNIQUE WELL ID
XCOORD      .                                  1447604.75856055 :SURFACE X 
YCOORD      .                                  10719416.1500606 :SURFACE Y 
LAT         .                                        29.5354331 :LATITUDE  
LON         .                                       -93.6065144 :LONGITUDE 
ELEV        .FT                                              97 :ELEVATION VALUE
ELEV_TYPE   .                                                KB :ELEVATION REFERENCE TYPE
~Curve Information Section
#MNEM       .UNIT                                      API CODE :CURVE DESCRIPTION
#------------------------------------------------------------------------------
DEPT        .FT                                                 :DEPTH     
AFCO        .MMHO                                               :          
AT10        .OHMM                                               :          
AT20        .OHMM                                               :          
AT30        .OHMM                                               :          
AT60        .OHMM                                               :          
AT90        .OHMM                                               :          
CSAX        .MMHO                                               :          
DCAL        .IN                                                 :          
DPHZ        .%                                                  :          
GR          .GAPI                                               :          
GR_NORM     .GAPI                                               :GammaRay Normalized
GRAX        .GAPI                                               :          
HDRA        .G/C3                                               :          
NPOR        .%                                                  :          
ROPS        .FT/HR                                              :          
RSAX        .OHMM                                               :          
RWA         .OHMM                                               :          
SP          .MV                                                 :          
SP_NORM     .MV                                                 :SP Normalized
TENS        .LBF                                                :          
VSH_SP      .V/V                                                :Volume of Shale from SP
~A        DEPTH           AFCO           AT10           AT20           AT30           AT60           AT90           CSAX           DCAL           DPHZ             GR        GR_NORM           GRAX           HDRA           NPOR           ROPS           RSAX            RWA             SP        SP_NORM           TENS         VSH_SP
# ...
      7035.0000       1718.289         0.4914         0.5407         0.5611         0.5784         0.5583        -999.25         1.3753           25.7       107.0089        84.4173        -999.25         0.0393          38.62        -999.25        -999.25         0.0491       -27.6875          3.487           2695              1
      7035.5000       1646.303          0.544         0.6051         0.6168         0.6298         0.6057        -999.25         1.4238          24.39       105.8921        83.5808        -999.25         0.0344        41.7999        -999.25        -999.25         0.0457         -28.25         2.9196           2720              1
      7036.0000       1593.268         0.5658         0.6364         0.6474         0.6682         0.6413        -999.25         1.4723           22.8       106.1272        83.7581        -999.25         0.0411          39.46        -999.25        -999.25         0.0408        -28.625         2.5398           2661              1
      7036.5000       1567.807         0.5541         0.6177         0.6307         0.6504         0.6251        -999.25         1.5572          21.98       105.0424        82.9456        -999.25         0.0492        41.6899        -999.25        -999.25         0.0384       -29.0625         2.0974           2695              1
      7037.0000       1565.447         0.5446         0.6004          0.616         0.6338         0.6101        -999.25         1.5936          22.04       103.3976         81.713        -999.25         0.0527        46.7599        -999.25        -999.25         0.0386       -24.5625         6.5926           2689              1
      7037.5000       1575.682         0.5446         0.5991         0.6137         0.6328         0.6094        -999.25         1.6421          22.69       100.3518        79.4297        -999.25         0.0485          48.95        -999.25        -999.25         0.0409            -28         3.1502           2660              1
      7038.0000       1582.652         0.5474         0.6015         0.6132         0.6332         0.6102        -999.25         1.6664          22.72       100.9097        79.8491        -999.25         0.0495          45.68        -999.25        -999.25         0.0409       -32.5625        -1.4171           2707              1
      7038.5000       1586.648         0.5484          0.599         0.6146           0.63         0.6075        -999.25         1.7149           22.5       103.7563        81.9851        -999.25         0.0507          49.68        -999.25        -999.25           0.04         -30.25         0.8905           2719              1
      7039.0000       1581.396         0.5579         0.6046         0.6191         0.6317         0.6097        -999.25         1.7634          22.34       103.4554        81.7605        -999.25         0.0543        40.9999        -999.25        -999.25         0.0395        -30.375         0.7607           2693              1
      7039.5000       1568.928         0.5474         0.6061         0.6252         0.6312         0.6097        -999.25         1.7391          22.88       101.9954        80.6665        -999.25         0.0508          41.96        -999.25        -999.25          0.042       -30.8125         0.3183           2691              1
      7040.0000       1545.395           0.56         0.6018         0.6295         0.6291         0.6082        -999.25         1.7877          23.61       102.8308        81.2941        -999.25         0.0468        40.0299        -999.25        -999.25         0.0456         -30.75          0.376           2681              1
      7040.5000       1511.924         0.5813         0.6101         0.6481         0.6468         0.6254        -999.25         1.8362          23.89       107.2524        84.6113        -999.25          0.043           36.4        -999.25        -999.25         0.0478        -30.375         0.7462           2688              1
      7041.0000        1477.26         0.6203         0.6719         0.6807         0.6812         0.6586        -999.25         1.9332             23        103.026        81.4425        -999.25         0.0479          36.95        -999.25        -999.25         0.0452       -30.8125         0.3038           2734              1
      7041.5000       1445.449         0.6475         0.6729         0.6905         0.6925         0.6703        -999.25         2.0302           21.4       105.0243        82.9423        -999.25         0.0563          37.04        -999.25        -999.25         0.0395        -31.875        -0.7635           2728              1
      7042.0000       1415.096         0.6197          0.672         0.6947         0.6982         0.6767        -999.25         2.1272          20.63       101.1661        80.0497        -999.25         0.0558        36.9199        -999.25        -999.25         0.0374       -32.6875        -1.5809           2716              1
      7042.5000       1388.592         0.6303         0.6885         0.7034         0.7081         0.6872        -999.25         2.1515          20.45       104.6031        82.6285        -999.25         0.0536        36.2599        -999.25        -999.25         0.0374       -33.8125        -2.7107           2712      0.9919239
      7043.0000       1369.963         0.6178         0.6749         0.7175         0.7324         0.7107        -999.25         2.1757          20.78       100.6331         79.652        -999.25         0.0484          34.58        -999.25        -999.25         0.0393         -33.75        -2.6531           2711      0.9925784
      7043.5000       1359.283         0.6466         0.6804         0.7239         0.7408         0.7195        -999.25         2.2485          21.02       102.5476        81.0889        -999.25         0.0455        33.1899        -999.25        -999.25         0.0406       -32.4375        -1.3454           2751              1
      7044.0000       1343.477         0.6453         0.6951         0.7279         0.7533          0.732        -999.25          2.297          21.62       102.5001        81.0543        -999.25         0.0381        34.5599        -999.25        -999.25         0.0437       -32.0625        -0.9753           2761              1
      7044.5000       1342.105         0.6361         0.7171         0.7188         0.7471         0.7274        -999.25         2.3091          21.83       104.6099        82.6377        -999.25         0.0313          37.65        -999.25        -999.25         0.0447            -32        -0.9176           2714              1
      7045.0000       1344.951          0.618         0.6773         0.7148         0.7427         0.7235        -999.25         2.3698          21.94        99.9551        79.1476        -999.25          0.027          39.08        -999.25        -999.25         0.0451          -31.5        -0.4225           2720              1
      7045.5000       1355.563         0.6022         0.6644         0.7099         0.7375         0.7187        -999.25          2.394          22.06       105.6244        83.4006        -999.25         0.0249           36.4        -999.25        -999.25         0.0453            -32        -0.9273           2692              1
      7046.0000        1367.76         0.5918           0.66         0.6991         0.7299         0.7109        -999.25         2.3698          22.92       106.3364        83.9357        -999.25         0.0236        35.9299        -999.25        -999.25         0.0487       -31.8125        -0.7447           2717              1
      7046.5000       1380.893         0.5883         0.6558         0.6993         0.7305         0.7116        -999.25          2.394          23.84       106.7134        84.2194        -999.25         0.0223          35.98        -999.25        -999.25         0.0526        -31.375         -0.312           2730              1
      7047.0000       1398.898         0.5907         0.6613         0.6977         0.7309          0.712        -999.25         2.4183          24.05       103.3409        81.6911        -999.25         0.0301        39.7899        -999.25        -999.25         0.0529       -30.4375         0.6206           2717              1
