#------------------------------------------------------------------------------
# Created by    : vladimir.rabinovich
# Created on    : 09/19/2023 17:22:20
#------------------------------------------------------------------------------
~Version Information Section
VERS.           2.0     :   CWLS log ASCII Standard - VERSION 2.0
WRAP.           NO      :   One line per depth step
~Well Information Section
#MNEM       .UNIT                                         VALUE :DESCRIPTION
#------------------------------------------------------------------------------
STRT        .FT                                            3394 :START DEPTH
STOP        .FT                                            9102 :STOP DEPTH
STEP        .FT                                             0.5 :STEP      
NULL        .                                           -999.25 :NULL      
COMP        .                               TALOS PETROLEUM LLC :COMPANY   
WELL        .                                OCS 00299 ST00BP02 :WELL      
FLD         .                           WEST CAMERON BLOCK 0045 :FIELD     
LOC         .                                                   :LOCATION  
CNTY        .                                      WEST CAMERON :LOCATION  
STAT        .                                         LOUISIANA :STATE     
CTRY        .                                     UNITED STATES :COUNTRY   
SRVC        .                                                   :SERVICE COMPANY
DATE        .                             9/13/2023 11:19:21 AM :LOG DATE  
API         .                                    17700408910000 :API NUMBER
UWI         .                                    17700408910000 :UNIQUE WELL ID
XCOORD      .                                  1447531.51187247 :SURFACE X 
YCOORD      .                                  10768708.3799417 :SURFACE Y 
LAT         .                                         29.671026 :LATITUDE  
LON         .                                        -93.607557 :LONGITUDE 
ELEV        .FT                                              95 :ELEVATION VALUE
ELEV_TYPE   .                                                KB :ELEVATION REFERENCE TYPE
~Curve Information Section
#MNEM       .UNIT                                      API CODE :CURVE DESCRIPTION
#------------------------------------------------------------------------------
DEPT        .FT                                                 :DEPTH     
CALI        .IN                                                 :          
DPHI        .V/V                                                :          
DRHO        .G/C3                                               :          
GR          .GAPI                                               :          
GR_NORM     .GAPI                                               :GammaRay Normalized
IDPH        .OHMM                                               :          
IMPH        .OHMM                                               :          
NPOR        .V/V                                                :          
SFLU        .OHMM                                               :          
SP          .MV                                                 :          
SP_NORM     .MV                                                 :SP Normalized
TENS        .LBS                                                :          
VSH_GR      .V/V                                                :Volume of Shale from GR
VSH_SP      .V/V                                                :Volume of Shale from SP
~A        DEPTH           CALI           DPHI           DRHO             GR        GR_NORM           IDPH           IMPH           NPOR           SFLU             SP        SP_NORM           TENS         VSH_GR         VSH_SP
# ...
      4222.0000          17.32         0.3024              0             50       84.20515         0.6236         0.6543         0.3983         0.6933          -28.8        -3.2756           2780              1       0.982526
      4222.5000          17.72         0.3257              0           53.2       91.93182         0.6117         0.6296         0.4271         0.6296          -26.1        -0.5824           2780              1              1
      4223.0000          17.92         0.3792          0.001           55.8       98.39667         0.6176         0.6176         0.4424         0.5785          -23.1         2.4108           2780              1              1
      4223.5000        18.0408         0.4008          0.001           57.2       101.8257         0.6176         0.6058         0.4671         0.5733          -20.7          4.804           2780              1              1
      4224.0000             18         0.4068          0.005             58       103.7369         0.6236         0.6176         0.4848         0.5946          -19.5         5.9972           2800              1              1
      4224.5000             18         0.4032          0.008           57.6       99.98026         0.6236         0.6296         0.4788         0.6357          -18.6         6.8903           2800              1              1
      4225.0000             18         0.3924          0.007           55.6       95.41015         0.6296         0.6419         0.4812         0.6671          -18.6         6.8835           2820              1              1
      4225.5000          17.92         0.3948          0.005           52.4       88.15762         0.6357         0.6543         0.4956         0.6735          -18.9         6.5767           2820              1              1
      4226.0000           17.8          0.402          0.004           50.8       84.48167         0.6543         0.6671          0.516         0.6481          -19.2         6.2699           2820              1              1
      4226.5000          17.36         0.3984          0.002           49.2        80.8056         0.6735         0.6866         0.5256         0.6296          -20.1         5.3631           2840              1              1
      4227.0000          16.92         0.3852          0.003           47.8       77.57664         0.6933         0.7063         0.5328         0.6058          -21.6         3.8563           2860      0.9484391              1
      4227.5000          16.64          0.349          0.005           45.4        72.1124         0.7126         0.7254         0.5316         0.6607          -23.4         2.0494           2880      0.8321788              1
      4228.0000          16.64         0.3196          0.008           41.4       63.07165         0.6933         0.7517         0.5064         0.7384          -26.4        -0.9574           2880      0.6398223              1
      4228.5000           16.6         0.2822         0.0109          37.37       53.96383         0.6607         0.7859         0.4696          0.822          -30.3        -4.8642           2880      0.4460389      0.9632795
      4229.0000          16.64         0.2525         0.0126          34.92       48.38779         0.6296            0.8         0.4366         0.9174          -35.4         -9.971           2860      0.3273997      0.8978077
      4229.5000          16.52         0.2516         0.0104          34.67       47.72944            0.6         0.7929         0.4367         0.8919          -40.8       -15.3778           2900      0.3133923      0.8284897
      4230.0000          16.32         0.2591         0.0081          33.82       45.72991         0.5629          0.772          0.438         0.8447          -45.6       -20.1846           2900      0.2708492      0.7668641
      4230.5000          16.24         0.2688          0.004           32.8       43.35038         0.5281         0.7053         0.4224         0.8287          -50.4       -24.9914           2903      0.2202209      0.7052385
      4231.0000          16.24         0.2784          0.002           31.8       41.01556         0.4954         0.6348         0.4068         0.8274          -56.4       -30.9983           2888      0.1705438      0.6282269
      4231.5000           16.4         0.2916          0.001           30.4       37.78662         0.4729         0.5838         0.3852          0.826          -61.2       -35.8051           2873      0.1018429      0.5666013
      4232.0000           16.8         0.3072          0.001           28.4       33.21648         0.4431         0.5281         0.3768         0.8165          -66.3       -40.9119           2838    0.004605963      0.5011295
      4232.5000          17.36         0.3372          0.002           28.4       33.11695         0.4152         0.4954         0.3948            0.8          -70.2       -44.8187           2820    0.002488319      0.4510423
      4233.0000          17.96         0.3624          0.001             29       34.35862         0.3926         0.4642         0.4188          0.772          -73.2       -47.8255           2820     0.02890688      0.4124936
      4233.5000          18.72          0.384          0.001           29.2       34.70619         0.3819         0.4349          0.438         0.7384          -74.1       -48.7323           2800     0.03630188      0.4008679
      4234.0000          19.44         0.4032              0           30.2       36.84196         0.3819         0.4229         0.4404            0.7          -73.2       -47.8391           2760     0.08174393      0.4123192
      4234.5000          19.68         0.4068          0.001           33.6        44.3425         0.3819         0.4309         0.4488         0.6629          -70.5        -45.146           2760      0.2413298      0.4468462
      4235.0000             19         0.3864          0.002             39       56.31366          0.389         0.4431          0.462         0.6278          -65.7       -40.3528           2780      0.4960352      0.5082974
      4235.5000          18.16         0.3672          0.004        43.6735        66.6609         0.3963         0.4556         0.4476         0.5785          -59.4       -34.0596           2800      0.7161893      0.5889795
      4236.0000          17.16         0.3504          0.005        47.7551       75.68503         0.4075         0.4729         0.4032         0.5186          -51.9       -26.5664           2840      0.9081921      0.6850461
      4236.5000          16.24         0.3276          0.002        49.3878       79.23508         0.4152         0.4954         0.3792         0.5046          -46.5       -21.1732           2860       0.983725      0.7541897
      4237.0000          15.48         0.3024         -0.003        48.5714       77.31065         0.4269         0.5233          0.354         0.6751          -43.2         -17.88           2880      0.9427797      0.7964103
      4237.5000          15.16         0.2868         -0.008        46.1224       71.73687         0.4349         0.5578         0.3252          0.772          -42.3       -16.9869           2880      0.8241887      0.8078603
      4238.0000          15.24          0.282         -0.011        43.2653       65.25085          0.439         0.5681         0.3228         0.8653          -47.1       -21.7937           2900      0.6861882      0.7462346
      4238.5000           15.4         0.2868         -0.012           39.8        57.4053         0.4466          0.552         0.3492         0.7859            -51       -25.7005           2900      0.5192616      0.6961474
      4239.0000          15.76         0.2988         -0.012             40       57.75286         0.4497         0.5262         0.3612         0.6745            -54       -28.7073           2900      0.5266567      0.6575987
      4239.5000          15.72          0.294         -0.012        43.2653       64.95232         0.4571         0.5108         0.3648          0.643          -54.3       -29.0141           2900      0.6798365      0.6536654
