#------------------------------------------------------------------------------
# Created by    : vladimir.rabinovich
# Created on    : 09/19/2023 17:20:44
#------------------------------------------------------------------------------
~Version Information Section
VERS.           2.0     :   CWLS log ASCII Standard - VERSION 2.0
WRAP.           NO      :   One line per depth step
~Well Information Section
#MNEM       .UNIT                                         VALUE :DESCRIPTION
#------------------------------------------------------------------------------
STRT        .FT                                            2904 :START DEPTH
STOP        .FT                                           14016 :STOP DEPTH
STEP        .FT                                             0.5 :STEP      
NULL        .                                           -999.25 :NULL      
COMP        .                                          MCN CORP :COMPANY   
WELL        .                                OCS 00043 ST00BP00 :WELL      
FLD         .                          EUGENE ISLAND BLOCK 0089 :FIELD     
LOC         .                                                   :LOCATION  
CNTY        .                                     EUGENE ISLAND :LOCATION  
STAT        .                                         LOUISIANA :STATE     
CTRY        .                                     UNITED STATES :COUNTRY   
SRVC        .                                                   :SERVICE COMPANY
DATE        .                             9/13/2023 11:18:42 AM :LOG DATE  
API         .                                    17709009460000 :API NUMBER
UWI         .                                    17709009460000 :UNIQUE WELL ID
XCOORD      .                                  2058690.32320654 :SURFACE X 
YCOORD      .                                  10563305.2032801 :SURFACE Y 
LAT         .                                        29.1009424 :LATITUDE  
LON         .                                       -91.6898776 :LONGITUDE 
ELEV        .FT                                              49 :ELEVATION VALUE
ELEV_TYPE   .                                                KB :ELEVATION REFERENCE TYPE
~Curve Information Section
#MNEM       .UNIT                                      API CODE :CURVE DESCRIPTION
#------------------------------------------------------------------------------
DEPT        .FT                                                 :DEPTH     
ASN         .OHMM                                               :          
CALI        .IN                                                 :          
DT          .US/F                                               :          
GR          .GAPI                                               :          
GR_NORM     .GAPI                                               :GammaRay Normalized
ILD         .OHMM                                               :          
SP          .MV                                                 :          
SP_NORM     .MV                                                 :SP Normalized
VSH_GR      .V/V                                                :Volume of Shale from GR
VSH_SP      .V/V                                                :Volume of Shale from SP
~A        DEPTH            ASN           CALI             DT             GR        GR_NORM            ILD             SP        SP_NORM         VSH_GR         VSH_SP
# ...
     13267.5000         1.2366         8.0297        85.6155        75.5162       80.87334         1.2158        -63.265        -5.6458              1      0.9486507
     13268.0000         1.2314         8.0369        85.4655        76.7994       82.10597         1.2444       -63.3159         -5.701              1      0.9478732
     13268.5000         1.2239          8.044        84.3104        77.1552       82.44831         1.2919       -63.5865        -5.9759              1      0.9440014
     13269.0000         1.2262         8.0408        83.6252        77.2965       82.58472          1.374       -64.0801        -6.4737              1      0.9369901
     13269.5000         1.2402         8.0273        81.4308        77.4232       82.70713         1.4464       -65.0875        -7.4854              1      0.9227408
     13270.0000         1.2548         8.0154        80.7432        75.6865       81.04066         1.3465       -66.8184        -9.2206              1      0.8983014
     13270.5000          1.255         8.0081        80.5187        74.7133       80.10725          1.134       -69.1063       -11.5127              1      0.8660183
     13271.0000         1.2054         8.0131         80.566        73.7698       79.20227         0.9008       -72.2579       -14.6686       0.983027       0.821569
     13271.5000         1.1332         8.0128        81.7162        74.2925       79.70483         0.7334       -75.7638       -18.1788      0.9937197      0.7721296
     13272.0000         0.9543         8.0134         84.501        74.6292       80.02882         0.6129       -81.7938       -24.2131              1      0.6871395
     13272.5000         0.6967         8.0311        85.3989        71.0371       76.58118         0.5343       -93.8982       -36.3217      0.9272593      0.5165958
     13273.0000         0.6001          8.084        86.5873        67.9916       73.65826         0.4629      -105.6779       -48.1057      0.8650694      0.3506239
     13273.5000         0.5477         8.1322        88.3217        60.0867       66.07033         0.3938       -116.926       -59.3581       0.703624      0.1921394
     13274.0000         0.5188         8.1411         87.532        47.5562       54.04182         0.3397      -120.9633       -63.3996      0.4476983      0.1352169
     13274.5000         0.4901          8.147        86.8837        38.4631       45.31321         0.3188      -120.8323       -63.2729      0.2619832      0.1370014
     13275.0000         0.4593         8.3195        85.6942        34.2672       41.28591         0.3168      -118.5867       -61.0316       0.176296       0.168569
     13275.5000         0.4432         8.2328        84.1812         36.285       43.22387         0.3258      -116.4647       -58.9138      0.2175291      0.1983972
     13276.0000         0.4596         8.1777        83.9093        39.0018       45.83276         0.3349      -116.7692       -59.2226      0.2730375      0.1940479
     13276.5000         0.4736         8.2694        83.2931        41.8136       48.53286         0.3436      -118.4907       -60.9484      0.3304864      0.1697409
     13277.0000         0.4532          8.227        82.9775        43.1245       49.79209         0.3526       -116.439       -58.9009      0.3572785      0.1985788
     13277.5000         0.4369         8.1878        82.7198        44.0542       50.68537         0.3572      -111.1543       -53.6205      0.3762845      0.2729507
     13278.0000         0.4289         8.2246        81.0027        43.7878       50.43039         0.3545      -107.6116       -50.0821      0.3708594      0.3227873
     13278.5000         0.4216         8.2527        81.0543        43.1681       49.83625         0.3511      -105.7922       -48.2669      0.3582181      0.3483535
     13279.0000         0.4342         8.2737        81.9031        43.1681       49.83701         0.3457      -109.5823       -52.0613      0.3582343      0.2949113
     13279.5000         0.4446         8.3205        81.8859        44.6295       51.24073         0.3499      -112.9331       -55.4164      0.3881006      0.2476563
     13280.0000          0.446         8.3178        81.5778        41.1166       47.86921         0.3629       -114.697       -57.1846      0.3163662      0.2227521
     13280.5000         0.4405         8.2847         81.598        39.0018       45.83977         0.3892      -111.9072        -54.399      0.2731866      0.2619859
     13281.0000         0.4432         8.2425        80.6177        37.2672       44.17532         0.4389      -105.8845       -48.3806      0.2377728      0.3467521
     13281.5000         0.4571         8.2391         80.983        36.4681       43.40895         0.5709      -101.8177       -44.3181      0.2214671      0.4039704
     13282.0000         0.4995         8.2922        80.8317        38.3206       45.18813         0.6913        -98.692       -41.1966      0.2593218      0.4479352
     13282.5000         0.5857         8.3972        81.6079        41.1641       47.91865         0.7441       -96.0903       -38.5992      0.3174181      0.4845183
     13283.0000         0.7063         8.4893         81.499         44.467        51.0902         0.7797       -89.9717       -32.4849      0.3848979      0.5706352
     13283.5000         0.7927         8.3577        82.0668        50.4235       56.80921         0.8318       -83.1814       -25.6988       0.506579      0.6662141
     13284.0000         0.8868         8.2052        82.4235        54.6293       60.84755          0.909       -79.9338       -22.4555       0.592501      0.7118944
     13284.5000          0.962         8.0671        81.9929        59.9442       65.95071         0.9728        -80.015        -22.541      0.7010788      0.7106901
     13285.0000         1.0029         7.9887        81.5391        63.4609       69.32751         1.0207       -79.9708        -22.501      0.7729259      0.7112535
     13285.5000         1.0306          8.022        81.4357        67.4213       73.13027         1.0558       -73.3356       -15.8701      0.8538356      0.8046465
     13286.0000         1.0444         8.0393        82.2648        70.3322        75.9255         1.0665        -69.623       -12.1618      0.9133085      0.8568761
     13286.5000         1.0519         8.0267        83.1431        72.4114        77.9223         1.0524       -67.8406       -10.3837      0.9557937      0.8819197
     13287.0000         1.0518         7.9772        83.8959        75.1539       80.55586         1.0477       -67.0643        -9.6116              1      0.8927944
     13287.5000         1.0288         7.8938        84.6671        76.3737       81.72765         1.0439       -67.0299        -9.5815              1      0.8932183
     13288.0000         1.0056         7.8615        85.1677        77.0371       82.36527         1.0388       -67.8553       -10.4112              1      0.8815324
     13288.5000         0.9942         7.8843        84.8947        75.9203       81.29391         1.0301       -69.6968       -12.2569              1      0.8555366
     13289.0000         1.0124         7.9026        86.4224        73.6906       79.15417         1.0057       -73.7489       -16.3133      0.9820036      0.7984042
     13289.5000         1.0301         7.9122        85.9821        73.0193       78.51059         0.9624       -81.1147       -23.6834      0.9683104         0.6946
     13290.0000         1.0067         7.9142        83.1627        71.8292       77.36886         0.8812       -88.6432       -31.2161      0.9440182      0.5885056
     13290.5000         0.8628         7.9153         79.379        67.4846       73.19881         0.8024       -92.8501       -35.4273      0.8552938       0.529193
     13291.0000         0.7252         7.9154        74.7687         61.853       67.79324         0.7437       -95.8025        -38.384      0.7402818      0.4875493
     13291.5000         0.6813         7.9171        73.6555        57.7264       63.83248         0.6919         -99.98       -42.5657      0.6560102      0.4286521
