#------------------------------------------------------------------------------
# Created by    : vladimir.rabinovich
# Created on    : 09/19/2023 17:21:07
#------------------------------------------------------------------------------
~Version Information Section
VERS.           2.0     :   CWLS log ASCII Standard - VERSION 2.0
WRAP.           NO      :   One line per depth step
~Well Information Section
#MNEM       .UNIT                                         VALUE :DESCRIPTION
#------------------------------------------------------------------------------
STRT        .FT                                            3871 :START DEPTH
STOP        .FT                                           10481 :STOP DEPTH
STEP        .FT                                             0.5 :STEP      
NULL        .                                           -999.25 :NULL      
COMP        .                               TALOS PETROLEUM LLC :COMPANY   
WELL        .                                OCS 00300 ST00BP00 :WELL      
FLD         .                           WEST CAMERON BLOCK 0045 :FIELD     
LOC         .                                                   :LOCATION  
CNTY        .                                      WEST CAMERON :LOCATION  
STAT        .                                         LOUISIANA :STATE     
CTRY        .                                     UNITED STATES :COUNTRY   
SRVC        .                                                   :SERVICE COMPANY
DATE        .                             9/13/2023 11:18:36 AM :LOG DATE  
API         .                                    17700410010000 :API NUMBER
UWI         .                                    17700410010000 :UNIQUE WELL ID
XCOORD      .                                  1453780.44334001 :SURFACE X 
YCOORD      .                                   10773222.791693 :SURFACE Y 
LAT         .                                         29.683533 :LATITUDE  
LON         .                                        -93.587947 :LONGITUDE 
ELEV        .FT                                              92 :ELEVATION VALUE
ELEV_TYPE   .                                                KB :ELEVATION REFERENCE TYPE
~Curve Information Section
#MNEM       .UNIT                                      API CODE :CURVE DESCRIPTION
#------------------------------------------------------------------------------
DEPT        .FT                                                 :DEPTH     
ATR         .OHMM                                               :          
CATR        .MMHO                                               :          
DCAL        .IN                                                 :          
DRHB        .G/C3                                               :          
GR          .GAPI                                               :          
GR_NORM     .GAPI                                               :GammaRay Normalized
PSR         .OHMM                                               :          
RHOB        .G/C3                                               :          
ROP5        .F/HR                                               :          
TNPH        .%                                                  :          
VSH_GR      .V/V                                                :Volume of Shale from GR
~A        DEPTH            ATR           CATR           DCAL           DRHB             GR        GR_NORM            PSR           RHOB           ROP5           TNPH         VSH_GR
# ...
      9136.0000           0.77       1298.699           0.96           0.07       103.6699       87.88587            0.8           2.28          24.29             40              1
      9136.5000           0.76       1315.789           0.97           0.07         100.99       85.01228           0.78           2.29          23.62             39              1
      9137.0000           0.75       1333.332           0.97           0.07       101.4399       85.49564           0.77            2.3          24.86             38              1
      9137.5000           0.75       1333.332           0.94           0.07        98.5199       82.36449           0.72           2.34          25.64             36              1
      9138.0000           0.76       1315.789           0.95           0.06          98.37       82.20449           0.73           2.35          26.63             35              1
      9138.5000            0.8           1250           0.96           0.07          96.59       80.29618           0.83           2.34          26.67             34              1
      9139.0000           0.82       1219.512           1.02           0.05        96.4399       80.13583           0.87            2.3          26.83             34              1
      9139.5000           0.84       1190.475           1.03           0.05            100       83.95509           0.97           2.29          27.48             37              1
      9140.0000           0.83       1204.818           1.05           0.05        98.5199       82.36839           0.98           2.28           30.2             38              1
      9140.5000           0.75       1333.332           0.99           0.06         102.09       86.19836           0.77            2.3           30.2             39              1
      9141.0000           0.74        1351.35           0.91           0.06          98.99       82.87411           0.74           2.32          29.46             42              1
      9141.5000           0.68       1470.588           0.86           0.07          99.95       83.90468           0.68           2.33          32.97             44              1
      9142.0000           0.64         1562.5           0.89           0.09          99.12       83.01517           0.62           2.33          29.75             46              1
      9142.5000           0.63       1587.301           0.96            0.1        98.9099       82.79061           0.62           2.27          29.75             43              1
      9143.0000           0.63       1587.301           1.01            0.1       101.3199       85.37626           0.63           2.25          28.99             41              1
      9143.5000           0.64         1562.5           0.99           0.11       101.0499       85.08754           0.65           2.25          27.78             39              1
      9144.0000           0.64         1562.5           0.97           0.11         100.22       84.19821           0.66           2.28          28.62             41              1
      9144.5000           0.64         1562.5           0.96           0.12          97.99       81.80707           0.66            2.3          28.35             44              1
      9145.0000           0.68       1470.588           0.94           0.12        99.2699       83.18069           0.73           2.29          29.13             47              1
      9145.5000           0.69       1449.273            0.9           0.13        99.5399         83.471           0.75            2.3          28.62             47              1
      9146.0000           0.69       1449.273           0.87           0.13       100.7599       84.78022           0.75            2.3          29.46             45              1
      9146.5000           0.69       1449.273           0.89           0.09        99.6599        83.6013           0.73           2.32          27.27             44              1
      9147.0000           0.68       1470.588           0.81           0.07       100.6299       84.64243           0.69           2.32          30.61             43              1
      9147.5000           0.67       1492.535           0.81           0.05       101.0099       85.05091           0.68           2.35          30.61             43              1
      9148.0000           0.66        1515.15           0.81           0.05            103       87.18604           0.68           2.35          33.96             41              1
      9148.5000           0.66        1515.15           0.93           0.05         104.49       88.78505           0.67           2.35          34.09             43              1
      9149.0000           0.65       1538.461           0.94           0.05         103.36       87.57376           0.66           2.32        36.4399             44              1
      9149.5000           0.65       1538.461           0.85           0.08         103.75       87.99295           0.66           2.36        36.4399             47              1
      9150.0000           0.66        1515.15           0.71           0.09       102.7999       86.97456           0.66           2.38          35.71             47              1
      9150.5000           0.66        1515.15           0.64           0.09          102.7       86.86818           0.66           2.42          35.02             48              1
      9151.0000           0.68       1470.588           0.71           0.07       100.0099       83.98368           0.67           2.39        39.3799             41              1
      9151.5000            0.7        1428.57           0.76           0.05          98.97       82.86912           0.71           2.38        39.3799             38              1
      9152.0000           0.72       1388.889           0.72           0.07          97.48        81.2717           0.74           2.38             40             38              1
      9152.5000           0.76       1315.789           0.68           0.08        96.0299       79.71718           0.89            2.4             40             42      0.9939825
      9153.0000           0.74        1351.35           0.75           0.08        96.5599       80.28654           0.87            2.4          34.35             44              1
      9153.5000           0.72       1388.889           0.81           0.06         100.37       84.37393           0.75           2.38          38.29             43              1
      9154.0000           0.69       1449.273            0.7           0.09       102.3899       86.54106           0.68           2.39          35.43             42              1
      9154.5000           0.67       1492.535           0.49           0.08         104.74       89.06248           0.66           2.36          35.85             40              1
      9155.0000           0.66        1515.15           0.21           0.07         103.58       87.81921           0.68           2.38           37.5             41              1
      9155.5000           0.66        1515.15           0.11           0.05         104.71       89.03192           0.67           2.41          35.85             42              1
      9156.0000           0.64         1562.5           0.05           0.07         105.12        89.4724           0.65           2.47          35.15             44              1
      9156.5000           0.64         1562.5              0           0.09       105.9199       90.33115           0.64           2.48          32.91             48              1
      9157.0000           0.64         1562.5              0           0.09       103.6599       87.90788           0.64           2.48          32.08             50              1
      9157.5000           0.64         1562.5              0           0.08       105.7699       90.17188           0.66           2.48          32.55             50              1
      9158.0000           0.64         1562.5              0           0.07       104.3999       88.70319           0.65           2.48          32.55             46              1
