#------------------------------------------------------------------------------
# Created by    : vladimir.rabinovich
# Created on    : 09/19/2023 17:19:27
#------------------------------------------------------------------------------
~Version Information Section
VERS.           2.0     :   CWLS log ASCII Standard - VERSION 2.0
WRAP.           NO      :   One line per depth step
~Well Information Section
#MNEM       .UNIT                                         VALUE :DESCRIPTION
#------------------------------------------------------------------------------
STRT        .FT                                          4322.5 :START DEPTH
STOP        .FT                                            9954 :STOP DEPTH
STEP        .FT                                             0.5 :STEP      
NULL        .                                           -999.25 :NULL      
COMP        .                                ATP OIL & GAS CORP :COMPANY   
WELL        .                               OCS G13829 ST00BP00 :WELL      
FLD         .                           WEST CAMERON BLOCK 0092 :FIELD     
LOC         .                                                   :LOCATION  
CNTY        .                                      WEST CAMERON :LOCATION  
STAT        .                                         LOUISIANA :STATE     
CTRY        .                                     UNITED STATES :COUNTRY   
SRVC        .                                                   :SERVICE COMPANY
DATE        .                             9/13/2023 11:19:21 AM :LOG DATE  
API         .                                    17700409910000 :API NUMBER
UWI         .                                    17700409910000 :UNIQUE WELL ID
XCOORD      .                                  1447604.75856055 :SURFACE X 
YCOORD      .                                  10719416.1500606 :SURFACE Y 
LAT         .                                        29.5354331 :LATITUDE  
LON         .                                       -93.6065144 :LONGITUDE 
ELEV        .FT                                              97 :ELEVATION VALUE
ELEV_TYPE   .                                                KB :ELEVATION REFERENCE TYPE
~Curve Information Section
#MNEM       .UNIT                                      API CODE :CURVE DESCRIPTION
#------------------------------------------------------------------------------
DEPT        .FT                                                 :DEPTH     
AFCO        .MMHO                                               :          
AT10        .OHMM                                               :          
AT20        .OHMM                                               :          
AT30        .OHMM                                               :          
AT60        .OHMM                                               :          
AT90        .OHMM                                               :          
CSAX        .MMHO                                               :          
DCAL        .IN                                                 :          
DPHZ        .%                                                  :          
GR          .GAPI                                               :          
GR_NORM     .GAPI                                               :GammaRay Normalized
GRAX        .GAPI                                               :          
HDRA        .G/C3                                               :          
NPOR        .%                                                  :          
ROPS        .FT/HR                                              :          
RSAX        .OHMM                                               :          
RWA         .OHMM                                               :          
SP          .MV                                                 :          
SP_NORM     .MV                                                 :SP Normalized
TENS        .LBF                                                :          
VSH_SP      .V/V                                                :Volume of Shale from SP
~A        DEPTH           AFCO           AT10           AT20           AT30           AT60           AT90           CSAX           DCAL           DPHZ             GR        GR_NORM           GRAX           HDRA           NPOR           ROPS           RSAX            RWA             SP        SP_NORM           TENS         VSH_SP
# ...
      6310.0000       3445.293         0.2722         0.2552         0.2493         0.2742           0.25        -999.25         0.2353          34.21         46.369        37.4418        -999.25        -0.0009        35.5499        -999.25        -999.25         0.0437       -121.375       -83.7488           2458     0.07103634
      6310.5000       3680.352         0.2708         0.2619         0.2445         0.2632         0.2388        -999.25         0.2595          33.77        44.4369        35.9938        -999.25        -0.0013        33.6299        -999.25        -999.25         0.0396       -123.375       -85.7532           2476     0.04825913
      6311.0000        3889.82         0.2656         0.2506         0.2389         0.2569         0.2312        -999.25         0.3566          32.97         41.516        33.8041        -999.25        -0.0036          34.58        -999.25        -999.25         0.0354           -122       -84.3826           2476      0.0638341
      6311.5000       4099.133         0.2565         0.2377         0.2271          0.243         0.2179        -999.25         0.4657        32.6299        42.0403        34.1984        -999.25         -0.006        30.5899        -999.25        -999.25         0.0326      -119.4375       -81.8244           2473     0.09290452
      6312.0000       4284.703         0.2396          0.228         0.2173         0.2319         0.2064        -999.25         0.4293        32.6299         43.282        35.1307        -999.25         -0.005        30.5499        -999.25        -999.25          0.031           -116       -78.3913           2480      0.1319171
      6312.5000       4471.266         0.2323         0.2153         0.2072         0.2192         0.1952        -999.25          0.308        32.8699         42.496        34.5422        -999.25        -0.0001          28.05        -999.25        -999.25           0.03      -110.9375       -73.3332           2454      0.1893955
      6313.0000       4664.258         0.2419         0.2041         0.2004         0.2089         0.1858        -999.25         0.2717        33.3099        44.8644        36.3195        -999.25         0.0053          32.84        -999.25        -999.25         0.0296      -110.3125       -72.7125           2451      0.1964488
      6313.5000       4847.578         0.2403         0.2148         0.2001         0.2091         0.1864        -999.25         0.2838          33.53        43.6871        35.4376        -999.25         0.0074        37.9599        -999.25        -999.25         0.0291       -115.125       -77.5294           2493      0.1417113
      6314.0000       4983.664         0.2404         0.2161         0.2003          0.211         0.1889        -999.25         0.2838        34.0299        44.7681        36.2494        -999.25         0.0045          33.77        -999.25        -999.25         0.0292      -117.5625       -79.9713           2452      0.1139625
      6314.5000       5105.398         0.2322         0.2003         0.1945         0.1997         0.1801        -999.25         0.3202           33.9        44.7681        36.2504        -999.25         0.0013        33.0499        -999.25        -999.25         0.0284       -117.375       -79.7881           2478      0.1160443
      6315.0000       5237.156         0.2212         0.1974         0.1889         0.1903         0.1732        -999.25         0.4778        33.8699        45.8879        37.0913        -999.25        -0.0012        34.0099        -999.25        -999.25         0.0278       -115.625       -78.0425           2481      0.1358806
      6315.5000       5259.992         0.2092         0.1922         0.1864         0.1851         0.1698        -999.25         0.5263          33.59        47.2368         38.104        -999.25         0.0013        32.4899        -999.25        -999.25         0.0273       -111.375       -73.7969           2441      0.1841262
      6316.0000       5067.094          0.213         0.1845         0.1889         0.1821         0.1683        -999.25         0.4536          33.08        47.2368         38.105        -999.25         0.0154          31.68        -999.25        -999.25         0.0275        -108.25       -70.6762           2458      0.2195886
      6316.5000       4681.313          0.227         0.1943         0.2028         0.2005         0.1857        -999.25         0.4051          33.08        47.9246        38.6219        -999.25         0.0235        35.4999        -999.25        -999.25         0.0298        -105.75       -68.1806           2465      0.2479477
      6317.0000        4125.43         0.2889         0.2375         0.2271         0.2226         0.2061        -999.25         0.3323          31.25        42.6615        34.6756        -999.25         0.0319          34.46        -999.25        -999.25         0.0299      -107.4375       -69.8725           2482      0.2287216
      6317.5000       3417.172         0.4555         0.3336         0.3022         0.2897         0.2646        -999.25         0.3323          28.45        40.2361        32.8576        -999.25         0.0218          23.08        -999.25        -999.25         0.0292       -111.625       -74.0643           2474      0.1810875
      6318.0000        2716.68         0.8538          0.566         0.4072         0.3661         0.3308        -999.25         0.5021          23.58        37.3044        30.6599        -999.25         0.0133          18.79        -999.25        -999.25         0.0243       -114.625       -77.0687           2487      0.1469466
      6318.5000       2087.305         1.6094          0.887         0.6588         0.5953         0.5152        -999.25         0.6961          18.94        37.5425        30.8395        -999.25         0.0028          15.29        -999.25        -999.25         0.0194      -115.1875       -77.6356           2471      0.1405046
      6319.0000       1732.541         3.3632         1.2594         0.8659          0.753         0.6422        -999.25         0.7446          14.59        35.2375        29.1117        -999.25         0.0146          11.68        -999.25        -999.25         0.0132      -116.5625       -79.0149           2497      0.1248307
      6319.5000       1666.057         4.0668          1.486         1.0072          0.833         0.7067        -999.25         0.8174          11.56        30.7709        25.7628        -999.25         0.0378          11.87        -999.25        -999.25         0.0083        -117.25       -79.7068           2475      0.1169682
      6320.0000       1710.303         2.3736         1.2376         0.9238         0.7336         0.6441        -999.25         0.8417          10.06        32.8716        27.3394        -999.25         0.0598          13.39        -999.25        -999.25         0.0061       -118.625       -81.0862           2476      0.1012932
      6320.5000       1948.971         1.0802         0.7191         0.5958           0.51         0.4678        -999.25         0.7932           11.9        36.3171        29.9245        -999.25         0.0581          20.33        -999.25        -999.25         0.0078      -118.8125        -81.278           2475     0.09911364
      6321.0000        2209.41         0.6423         0.4809         0.4299         0.3766          0.354        -999.25         0.5263          16.37        44.4749        36.0439        -999.25         0.0349          29.69        -999.25        -999.25         0.0138       -115.875       -78.3449           2471      0.1324443
      6321.5000       2425.063         0.6812         0.4868         0.4397         0.3717         0.3502        -999.25         0.5021          21.25        47.3993        38.2383        -999.25          0.009          33.45        -999.25        -999.25         0.0223      -114.3125       -76.7868           2474        0.15015
      6322.0000       2590.219         0.8122         0.5565           0.49         0.3973          0.374        -999.25         0.5749          23.84        50.8114        40.7984        -999.25        -0.0063        29.3199        -999.25        -999.25          0.027       -113.375       -75.8536           2485      0.1607545
