#------------------------------------------------------------------------------
# Created by    : vladimir.rabinovich
# Created on    : 09/19/2023 17:22:23
#------------------------------------------------------------------------------
~Version Information Section
VERS.           2.0     :   CWLS log ASCII Standard - VERSION 2.0
WRAP.           NO      :   One line per depth step
~Well Information Section
#MNEM       .UNIT                                         VALUE :DESCRIPTION
#------------------------------------------------------------------------------
STRT        .FT                                            4000 :START DEPTH
STOP        .FT                                           10100 :STOP DEPTH
STEP        .FT                                             0.5 :STEP      
NULL        .                                           -999.25 :NULL      
COMP        .                         TALOS ENERGY VENTURES LLC :COMPANY   
WELL        .                               OCS G13557 ST00BP00 :WELL      
FLD         .                           WEST CAMERON BLOCK 0118 :FIELD     
LOC         .                                                   :LOCATION  
CNTY        .                                      WEST CAMERON :LOCATION  
STAT        .                                         LOUISIANA :STATE     
CTRY        .                                     UNITED STATES :COUNTRY   
SRVC        .                                                   :SERVICE COMPANY
DATE        .                             9/13/2023 11:19:21 AM :LOG DATE  
API         .                                    17700409600000 :API NUMBER
UWI         .                                    17700409600000 :UNIQUE WELL ID
XCOORD      .                                  1437367.94342701 :SURFACE X 
YCOORD      .                                  10730631.2479363 :SURFACE Y 
LAT         .                                         29.566133 :LATITUDE  
LON         .                                        -93.638908 :LONGITUDE 
ELEV        .FT                                              97 :ELEVATION VALUE
ELEV_TYPE   .                                                KB :ELEVATION REFERENCE TYPE
~Curve Information Section
#MNEM       .UNIT                                      API CODE :CURVE DESCRIPTION
#------------------------------------------------------------------------------
DEPT        .FT                                                 :DEPTH     
CALX        .IN                                                 :          
CNC         .%                                                  :          
CSAX        .MMHO                                               :          
GR          .API                                                :          
GR_NORM     .GAPI                                               :GammaRay Normalized
GRAX        .GAPI                                               :          
PORZ        .%                                                  :          
RIPD        .OHMM                                               :          
RIPM        .OHMM                                               :          
ROPS        .M/MIN                                              :          
RSAX        .OHMM                                               :          
RSFL        .OHMM                                               :          
RSTX        .MINS                                               :          
RWAZ        .OHMM                                               :          
SP          .MV                                                 :          
SP_NORM     .MV                                                 :SP Normalized
TEN         .LBF                                                :          
VSH_GR      .V/V                                                :Volume of Shale from GR
VSH_SP      .V/V                                                :Volume of Shale from SP
ZCOR        .G/C3                                               :          
~A        DEPTH           CALX            CNC           CSAX             GR        GR_NORM           GRAX           PORZ           RIPD           RIPM           ROPS           RSAX           RSFL           RSTX           RWAZ             SP        SP_NORM            TEN         VSH_GR         VSH_SP           ZCOR
# ...
      8446.0000         10.635         24.543       2732.172         70.918       66.86671         62.391         17.048          0.726          0.636        67.1699          0.366          0.788             74          0.026        -13.729       -10.1988        93.0819      0.7205684      0.9012192           0.08
      8446.5000         10.874         27.813       2748.871        73.7229       70.24625        59.4269         16.357           0.91          0.769         60.035          0.364          0.767         74.903           0.03        -11.103        -7.5086        65.3319      0.7924735      0.9336313          0.094
      8447.0000         11.017         28.701       2693.109        77.0959       74.30978         58.675         15.628          0.963          0.824         60.035          0.374            0.8             75          0.029         -9.699        -6.0403         38.345      0.8789316      0.9513217          0.099
      8447.5000         11.095         29.104       2421.859         79.771       77.53318        76.9309         15.445          0.979          0.789         84.007          0.417          0.864             77          0.029         -9.209         -5.486         32.954      0.9475145          0.958          0.096
      8448.0000         11.219         30.754       2072.008         80.454       78.35802        88.0909         16.582           0.95           0.75         84.007          0.483            0.9             80          0.032         -9.052        -5.2647         30.799      0.9650643      0.9606662          0.091
      8448.5000         11.441         33.394       2035.107         78.335       75.80933        86.6809         18.554          0.929          0.721         55.206          0.491          0.868             80           0.04         -8.714        -4.8624         17.291      0.9108369      0.9655132          0.094
      8449.0000         11.747        36.4109       1847.508         74.438       71.11999        86.2109         20.064          0.883           0.71         55.206          0.541          0.809             77          0.045         -8.291        -4.3751          0.253      0.8110636      0.9713843            0.1
      8449.5000         12.021         37.988       1878.453        71.2069       67.23236        77.7529         20.565          0.852          0.678         13.273          0.533          0.765          75.49          0.046         -8.061        -4.0809        -11.208      0.7283481      0.9749289          0.099
      8450.0000         12.184         38.257       1909.398        70.6379       66.54994        78.8639         20.532          0.771          0.629         13.273          0.524          0.733        73.9789          0.041         -7.968        -3.9236        -17.016      0.7138286      0.9768241          0.096
      8450.5000         12.344         40.172       1940.342        72.8219       69.18195         79.975          20.66          0.706           0.61         37.368          0.516          0.705         72.469          0.038         -7.829        -3.7203        -23.881      0.7698286      0.9792735          0.095
      8451.0000         12.594         42.853       1949.951        76.2279        73.2852        80.5719         21.357          0.678            0.6         37.368          0.513          0.677             72           0.04          -7.54         -3.367        -42.048       0.857132      0.9835301          0.098
      8451.5000         12.818         43.334       1323.137         77.658       75.00954        84.3309         22.401          0.658          0.596         12.702          0.803          0.659         69.771          0.043         -7.235        -2.9977        -76.855      0.8938199      0.9879795          0.099
      8452.0000         12.913        42.8409       1106.445        76.2859        73.3601         85.741         23.147          0.644          0.591         12.702          0.904          0.656             69          0.045         -7.184        -2.8824       -114.897      0.8587255      0.9893687          0.094
      8452.5000         12.923         43.345       1106.445         74.257          70.92        95.9199         23.295          0.632          0.586         21.187          0.904          0.668             69          0.044         -7.527        -3.1611       -122.917      0.8068085      0.9860108          0.085
      8453.0000         12.931         44.246       1106.445        73.5509       70.07241         96.079         23.081          0.614          0.588         21.187          0.904          0.689             69          0.042         -8.214        -3.7839        -83.521      0.7887747      0.9785072          0.087
      8453.5000          12.95         45.394       960.2998         74.605       71.34405        98.8979         22.862          0.627          0.599        70.0439          1.041          0.711             69          0.042         -9.124        -4.6296         -17.58      0.8158308       0.968318          0.097
      8454.0000         12.959          47.36       909.8486        76.3539        73.4522        90.9099         22.573          0.626          0.607        70.0439          1.099          0.728             61          0.041         -9.864        -5.3053         44.528      0.8606852      0.9601771          0.101
      8454.5000         12.958         47.621       1099.008        76.6899       73.85938        90.9099         21.757          0.642          0.609          2.809           0.91          0.739             62          0.039         -9.935         -5.312         86.527      0.8693484      0.9600964          0.097
      8455.0000         12.934        46.2029       1134.564          75.73       72.70621        92.8379         20.607          0.654          0.612          2.809          0.884          0.743         61.248          0.035         -9.333        -4.6457       102.4939      0.8448131      0.9681241          0.088
      8455.5000         12.845         46.059       1170.125        75.8059       72.80013         94.767         20.205          0.657          0.622         27.127          0.858          0.741         60.496          0.034         -8.537        -3.7854         91.939      0.8468112      0.9784892          0.082
      8456.0000          12.74         47.683       1205.684         77.871       75.28897        96.6959         20.853          0.665          0.625         27.127          0.832          0.733         59.744          0.037         -7.894        -3.0781         65.214      0.8997653      0.9870108          0.085
      8456.5000         12.722        49.3539       1240.895         80.287       78.20031        98.6239         21.569           0.68          0.636         23.626          0.806           0.73             59          0.041         -7.451        -2.5709         50.697      0.9617087      0.9931217          0.096
      8457.0000         12.788         49.482       1280.393        81.1379       79.22741        100.308         21.603          0.693          0.649         23.626          0.782          0.738         56.521          0.041         -7.254        -2.3096        67.1169      0.9835619      0.9962699          0.099
      8457.5000         12.818         45.714       1319.891         79.506       77.26517        98.3589         21.012            0.7          0.662         18.296          0.758          0.757         54.041          0.039         -7.347        -2.3383         88.033      0.9418122      0.9959241           0.09
      8458.0000         12.706         42.011       1336.477        76.6759       73.86034        96.4099         19.844           0.72          0.677         18.296          0.748          0.779             53          0.036         -7.669         -2.596        78.0879       0.869369      0.9928192          0.095
      8458.5000         12.482         40.856       1286.398        75.3199       72.23029         96.079         18.113          0.727          0.695          19.26          0.779          0.799         51.832           0.03         -7.905        -2.7677         41.891      0.8346871      0.9907506          0.127
