#------------------------------------------------------------------------------
# Created by    : vladimir.rabinovich
# Created on    : 09/19/2023 17:22:04
#------------------------------------------------------------------------------
~Version Information Section
VERS.           2.0     :   CWLS log ASCII Standard - VERSION 2.0
WRAP.           NO      :   One line per depth step
~Well Information Section
#MNEM       .UNIT                                         VALUE :DESCRIPTION
#------------------------------------------------------------------------------
STRT        .FT                                           911.5 :START DEPTH
STOP        .FT                                           12432 :STOP DEPTH
STEP        .FT                                             0.5 :STEP      
NULL        .                                           -999.25 :NULL      
COMP        .                                    EXXON CO U S A :COMPANY   
WELL        .                               OCS G03260 ST00BP00 :WELL      
FLD         .                                           WILDCAT :FIELD     
LOC         .                                                   :LOCATION  
CNTY        .                                      WEST CAMERON :LOCATION  
STAT        .                                         LOUISIANA :STATE     
CTRY        .                                     UNITED STATES :COUNTRY   
SRVC        .                                                   :SERVICE COMPANY
DATE        .                             9/13/2023 11:18:18 AM :LOG DATE  
API         .                                    17700402650000 :API NUMBER
UWI         .                                    17700402650000 :UNIQUE WELL ID
XCOORD      .                                  1465533.33943019 :SURFACE X 
YCOORD      .                                  10722576.3450242 :SURFACE Y 
LAT         .                                        29.5443718 :LATITUDE  
LON         .                                       -93.5501671 :LONGITUDE 
ELEV        .FT                                              99 :ELEVATION VALUE
ELEV_TYPE   .                                                KB :ELEVATION REFERENCE TYPE
~Curve Information Section
#MNEM       .UNIT                                      API CODE :CURVE DESCRIPTION
#------------------------------------------------------------------------------
DEPT        .FT                                                 :DEPTH     
CALI        .IN                                                 :          
DRHO        .G/CC                                               :          
GR          .GAPI                                               :          
GR_NORM     .GAPI                                               :GammaRay Normalized
ILD         .OHMM                                               :          
RHOB        .G/CC                                               :          
VSH_GR      .V/V                                                :Volume of Shale from GR
~A        DEPTH           CALI           DRHO             GR        GR_NORM            ILD           RHOB         VSH_GR
# ...
     10425.5000        10.1298         -0.106        71.7778       82.29948         0.5663         2.3845              1
     10426.0000        10.0929        -0.1122        71.2168       81.79755         0.5731         2.3778              1
     10426.5000        10.0656        -0.1252        70.5598       81.21028          0.577         2.3793              1
     10427.0000        10.0766        -0.1387        70.1904        80.8786         0.5683         2.3823              1
     10427.5000        10.0972        -0.1468        70.3964       81.05853         0.5597         2.3678              1
     10428.0000        10.1178        -0.1414        70.6023       81.23828         0.5511         2.3786              1
     10428.5000        10.1385        -0.1355         71.098       81.67575         0.5307          2.397              1
     10429.0000        10.1591        -0.1408        72.2618       82.70717         0.5078         2.3956              1
     10429.5000        10.1701        -0.1465        73.4272       83.73992         0.4849         2.3894              1
     10430.0000        10.1715        -0.1465        74.6898       84.85916          0.462         2.3793              1
     10430.5000        10.1729        -0.1474        75.6608       85.71909         0.4519         2.3649              1
     10431.0000        10.1743        -0.1468        75.9634        85.9849         0.4429         2.3679              1
     10431.5000        10.1951        -0.1477        75.7858       85.82372          0.434         2.3767              1
     10432.0000        10.2133        -0.1486        74.8204       84.96229          0.425         2.3825              1
     10432.5000        10.2815        -0.1451        73.7736       84.02849         0.4276          2.387              1
     10433.0000        10.3591        -0.1533        72.8245       83.18145         0.4338         2.3716              1
     10433.5000        10.4465        -0.1493        71.7797       82.24943         0.4399         2.3644              1
     10434.0000        10.5241        -0.1444        71.4049       81.91303          0.446         2.3678              1
     10434.5000        10.5251        -0.1424         72.088       82.51702         0.4662         2.3703              1
     10435.0000        10.5259        -0.1467        73.0543       83.37286         0.4869          2.366              1
     10435.5000        10.5174        -0.1374        73.2555       83.54843         0.5076         2.3734              1
     10436.0000         10.576        -0.1257        73.2657        83.5543         0.5276         2.3928              1
     10436.5000         10.596        -0.1194        72.9874        83.3036         0.5428         2.3958              1
     10437.0000        10.6738        -0.1314        72.6132       82.96774         0.5475         2.3717              1
     10437.5000        10.7609        -0.1371        72.5259       82.88692         0.5283         2.3533              1
     10438.0000        10.8003        -0.1419        72.6328       82.97868         0.5091         2.3457              1
     10438.5000        10.8108        -0.1544        72.7379        83.0689         0.4899          2.337              1
     10439.0000        10.8117        -0.1524        72.8431       83.15914         0.4707         2.3429              1
     10439.5000        10.8127        -0.1373        72.8534       83.16509         0.4567         2.3498              1
     10440.0000        10.8233        -0.1363        72.9585       83.25533         0.4615         2.3561              1
     10440.5000        10.8338        -0.1382        73.0632       83.34512         0.4662         2.3436              1
     10441.0000        10.9497        -0.1468        73.3616       83.60719         0.4714         2.3364              1
     10441.5000          10.97        -0.1462        73.0833       83.35649         0.4954           2.35              1
     10442.0000        10.9946        -0.1467        72.6559       82.97334         0.5195         2.3482              1
     10442.5000        10.9964         -0.149        72.4847       82.81786         0.5436         2.3478              1
     10443.0000        11.0176        -0.1533        71.9285       82.32019         0.5677         2.3565              1
     10443.5000        11.0291        -0.1551        70.7949       81.30923         0.5933         2.3634              1
     10444.0000        11.0405        -0.1536        69.0878       79.78832         0.6203         2.3615      0.9954962
     10444.5000        11.0233        -0.1497        67.4775       78.35358         0.6472         2.3573      0.9649697
     10445.0000        11.0059        -0.1472        66.5372       77.51436         0.6723         2.3506       0.947114
     10445.5000        11.0943        -0.1466        66.6542       77.61518         0.6931         2.3448      0.9492592
     10446.0000        11.1825        -0.1548        67.3428       78.22414         0.7139         2.3352      0.9622157
     10446.5000        11.2037        -0.1595        68.1301       78.92075         0.7347         2.3478      0.9770373
     10447.0000        11.1959        -0.1513        69.1078       79.78673         0.7424         2.3639      0.9954623
     10447.5000        11.1499        -0.1473        70.1813       80.73777         0.7478         2.3746              1
     10448.0000        11.1518        -0.1579        71.2555       81.68954         0.7531         2.3689              1
     10448.5000        11.1441        -0.1723        72.3311       82.64254         0.7585         2.3622              1
     10449.0000        11.1461        -0.1742        73.3092       83.50878         0.7639         2.3598              1
     10449.5000        11.1672        -0.1678        74.0945        84.2037         0.7469         2.3676              1
     10450.0000        11.1786        -0.1682        74.4978       84.55895         0.7261         2.3842              1
     10450.5000        11.1806        -0.1711        74.8052       84.82903         0.7054         2.3872              1
     10451.0000        11.1922        -0.1695        74.7285       84.75755         0.6854         2.3964              1
     10451.5000         11.194        -0.1695         73.501       83.66312         0.6655         2.3902              1
     10452.0000        11.2247        -0.1722         73.041       83.25098         0.6455         2.3908              1
     10452.5000        11.2457        -0.1779        73.3468       83.51954         0.6256         2.3899              1
     10453.0000        11.2572        -0.1841        74.2301       84.30158         0.6073         2.3628              1
     10453.5000        11.2783        -0.1913        74.4402       84.48508         0.5948         2.3489              1
     10454.0000        11.2995        -0.1892        74.0751        84.1573         0.5823         2.3417              1
     10454.5000        11.3014        -0.1814        73.3274        83.4894         0.5698         2.3398              1
     10455.0000        11.3609        -0.1765        71.6208       81.96895         0.5573         2.3462              1
     10455.5000        11.4299        -0.1681        70.1028       80.61625         0.5448         2.3501              1
     10456.0000        11.5086        -0.1608        68.8765       79.52278         0.5337         2.3473      0.9898464
     10456.5000        11.5776        -0.1549        69.2816       79.87972         0.5258         2.3614      0.9974409
     10457.0000        11.6179        -0.1538        70.3562       80.83174         0.5178         2.3668              1
     10457.5000        11.6389        -0.1547        71.1389       81.52437         0.5099         2.3606              1
     10458.0000        11.6697        -0.1638        71.1589       81.53894          0.502         2.3418              1
     10458.5000        11.6907        -0.1724        70.6042       81.04253          0.494         2.3457              1
