#------------------------------------------------------------------------------
# Created by    : vladimir.rabinovich
# Created on    : 09/19/2023 17:20:13
#------------------------------------------------------------------------------
~Version Information Section
VERS.           2.0     :   CWLS log ASCII Standard - VERSION 2.0
WRAP.           NO      :   One line per depth step
~Well Information Section
#MNEM       .UNIT                                         VALUE :DESCRIPTION
#------------------------------------------------------------------------------
STRT        .FT                                             608 :START DEPTH
STOP        .FT                                            9135 :STOP DEPTH
STEP        .FT                                             0.5 :STEP      
NULL        .                                           -999.25 :NULL      
COMP        .                             PHILLIPS PETROLEUM CO :COMPANY   
WELL        .                                OCS 00757 ST00BP00 :WELL      
FLD         .                           WEST CAMERON BLOCK 0118 :FIELD     
LOC         .                                                   :LOCATION  
CNTY        .                                      WEST CAMERON :LOCATION  
STAT        .                                         LOUISIANA :STATE     
CTRY        .                                     UNITED STATES :COUNTRY   
SRVC        .                                                   :SERVICE COMPANY
DATE        .                             9/13/2023 11:18:18 AM :LOG DATE  
API         .                                    17700400630000 :API NUMBER
UWI         .                                    17700400630000 :UNIQUE WELL ID
XCOORD      .                                  1437747.16229911 :SURFACE X 
YCOORD      .                                  10702102.5427903 :SURFACE Y 
LAT         .                                         29.487661 :LATITUDE  
LON         .                                       -93.6372228 :LONGITUDE 
ELEV        .FT                                              84 :ELEVATION VALUE
ELEV_TYPE   .                                                KB :ELEVATION REFERENCE TYPE
~Curve Information Section
#MNEM       .UNIT                                      API CODE :CURVE DESCRIPTION
#------------------------------------------------------------------------------
DEPT        .FT                                                 :DEPTH     
ASFL        .OHMM                                               :          
ASN         .OHMM                                               :          
CALI        .IN                                                 :          
DRHO        .G/CC                                               :          
GR          .GAPI                                               :          
GR_NORM     .GAPI                                               :GammaRay Normalized
ILD         .OHMM                                               :          
RHOB        .G/CC                                               :          
SP          .MV                                                 :          
SP_NORM     .MV                                                 :SP Normalized
VSH_GR      .V/V                                                :Volume of Shale from GR
VSH_SP      .V/V                                                :Volume of Shale from SP
~A        DEPTH           ASFL            ASN           CALI           DRHO             GR        GR_NORM            ILD           RHOB             SP        SP_NORM         VSH_GR         VSH_SP
# ...
      5835.5000        -999.25         1.3266        11.2023        -0.0226       106.1888       48.75329         0.6268         2.1223      -135.0498       -37.3316      0.3351763      0.5470307
      5836.0000        -999.25         1.3092        11.5667         -0.029       107.5166       49.47402         0.6223         2.0921      -130.5984       -32.8849      0.3505111      0.6040397
      5836.5000        -999.25         1.2595        11.8978        -0.0227       113.6234       52.79205         0.6321         2.0869      -123.9287       -26.2198      0.4211075      0.6894897
      5837.0000        -999.25         1.1963        12.0374        -0.0112       120.8651       56.72669         0.6525         2.1222       -115.604       -17.8998      0.5048233      0.7961564
      5837.5000        -999.25         1.1294        11.5425        -0.0002       127.9774       60.59112         0.6763         2.1838      -110.3177       -12.6182      0.5870451      0.8638692
      5838.0000        -999.25          1.086        10.8919         0.0109       130.7039       62.07205         0.7031         2.2267      -106.7507        -9.0558      0.6185542       0.909541
      5838.5000        -999.25          1.055        10.8054         0.0208       127.7275       60.45362         0.7298         2.2199      -104.5417        -6.8515      0.5841197      0.9378013
      5839.0000        -999.25         1.0372        11.0587         0.0174       125.6781       59.33899         0.7482         2.1517      -103.7782        -6.0926       0.560404      0.9475307
      5839.5000        -999.25         1.0255        11.3165         0.0136       126.0975       59.56616         0.7662         2.1301      -103.9475        -6.2666      0.5652374         0.9453
      5840.0000        -999.25         1.0281        11.5265         0.0185       128.4524       60.84502         0.7841         2.1616      -104.0343        -6.3581      0.5924472      0.9441269
      5840.5000        -999.25         1.0346        11.7231         0.0268       131.5833       62.54573         0.8052           2.19      -103.9818        -6.3102      0.6286325       0.944741
      5841.0000        -999.25         1.0371        11.8987          0.036       130.2134       61.80043         0.8313         2.2127      -103.8469          -6.18       0.612775      0.9464102
      5841.5000        -999.25         1.0371        12.0539         0.0451        127.339       60.23743         0.8463         2.2289      -103.4156        -5.7534      0.5795199      0.9518795
      5842.0000        -999.25          1.035        11.7533         0.0465       125.3959       59.18063         0.8656         2.2218      -102.9839        -5.3263      0.5570347      0.9573551
      5842.5000        -999.25         1.0347        11.2117         0.0349       125.1118       59.02542          0.871         2.1819      -102.4463        -4.7934      0.5537323      0.9641872
      5843.0000        -999.25         1.0363        11.4162         0.0319       124.9961       58.96161         0.8699         2.1542      -101.5039        -3.8556      0.5523747      0.9762102
      5843.5000        -999.25         1.0488        11.8389         0.0342       123.7659       58.29229         0.8612         2.1405      -101.8201        -4.1765      0.5381338      0.9720961
      5844.0000        -999.25         1.0722        12.0119         0.0316       122.2593       57.47265         0.8467         2.1468      -103.5469         -5.908      0.5206947      0.9498974
      5844.5000        -999.25         1.1083        12.0045         0.0237       121.9678       57.31342         0.8283         2.1889      -105.8861        -8.2518      0.5173067      0.9198487
      5845.0000        -999.25         1.1599         11.793         0.0187        123.425       58.10447         0.8058         2.2079      -112.3977       -14.7681      0.5341377      0.8363064
      5845.5000        -999.25         1.2074        11.5982         0.0176       123.9347       58.38066         0.7854         2.2222      -121.5079       -23.8829       0.540014        0.71945
      5846.0000        -999.25         1.2815        11.5466         0.0143       121.0841        56.8306         0.7677         2.2441      -129.3484       -31.7281      0.5070341      0.6188705
      5846.5000        -999.25         1.3685        11.1532         0.0022       116.2634       54.20994         0.7651         2.2587       -131.584       -33.9684      0.4512753      0.5901487
      5847.0000        -999.25         1.4462        10.6908        -0.0069       110.3726       51.00766          0.768         2.2667      -132.9182       -35.3072      0.3831418      0.5729846
      5847.5000        -999.25         1.5211        10.6134        -0.0122       106.6576       48.98784         0.7745         2.2635      -132.8857       -35.2794      0.3401669       0.573341
      5848.0000        -999.25          1.598        10.5785        -0.0171       104.7284       47.93853         0.7817         2.2566      -131.7698       -34.1682      0.3178411      0.5875872
      5848.5000        -999.25         1.6285        10.5628        -0.0189       103.6497       47.35149         0.7889         2.2654      -131.5435       -33.9465      0.3053508      0.5904295
      5849.0000        -999.25         1.6547        10.5526        -0.0206        102.571       46.76444         0.7953         2.2837      -131.8154       -34.2231      0.2928605      0.5868834
      5849.5000        -999.25         1.6618        10.5592        -0.0211       101.8894       46.39316         0.7962         2.3133      -132.6091       -35.0214      0.2849608      0.5766487
      5850.0000        -999.25         1.5758        10.5659        -0.0203       101.4384       46.14719          0.797         2.3588      -133.8354       -36.2524      0.2797274      0.5608667
      5850.5000        -999.25         1.5299         10.578        -0.0184        101.803       46.34457         0.7966         2.3741      -134.9954       -37.4171       0.283927      0.5459346
      5851.0000        -999.25         1.4926        10.5916        -0.0171       103.9235       47.49605         0.7751         2.3369       -136.113       -38.5393      0.3084266      0.5315474
      5851.5000        -999.25         1.4638        10.6084        -0.0173        105.882        48.5596         0.7565         2.2905      -137.0024       -39.4334      0.3310553      0.5200846
      5852.0000        -999.25           1.45        10.6414        -0.0182        107.349       49.35598          0.745         2.2822      -137.3823       -39.8179      0.3479996      0.5151551
      5852.5000        -999.25          1.444        10.6745        -0.0191       107.3875       49.37609         0.7335         2.2633      -137.2234       -39.6637      0.3484275       0.517132
      5853.0000        -999.25         1.4588        10.7152        -0.0193       106.9968       49.16294         0.7299          2.251      -136.3044       -38.7494      0.3438925      0.5288538
      5853.5000        -999.25         1.4868        10.7535        -0.0193       106.6483       48.97274         0.7292         2.2473      -135.3806       -37.8302      0.3398454      0.5406384
      5854.0000        -999.25         1.5361         10.789        -0.0192       107.2999       49.32598         0.7302         2.2481      -134.4519       -36.9062      0.3473613      0.5524846
      5854.5000        -999.25         1.5755        10.8229        -0.0175        108.684       50.07737         0.7385         2.2542      -133.4058       -35.8648      0.3633483      0.5658359
      5855.0000        -999.25         1.5839        10.8472        -0.0158       110.3456       50.97952         0.7454         2.2647       -132.167       -34.6306      0.3825429       0.581659
      5855.5000        -999.25          1.578        10.8716        -0.0131       111.3125       51.50417         0.7189         2.2778      -130.3315       -32.7998      0.3937057      0.6051307
