#------------------------------------------------------------------------------
# Created by    : vladimir.rabinovich
# Created on    : 09/19/2023 17:22:23
#------------------------------------------------------------------------------
~Version Information Section
VERS.           2.0     :   CWLS log ASCII Standard - VERSION 2.0
WRAP.           NO      :   One line per depth step
~Well Information Section
#MNEM       .UNIT                                         VALUE :DESCRIPTION
#------------------------------------------------------------------------------
STRT        .FT                                            4000 :START DEPTH
STOP        .FT                                           10100 :STOP DEPTH
STEP        .FT                                             0.5 :STEP      
NULL        .                                           -999.25 :NULL      
COMP        .                         TALOS ENERGY VENTURES LLC :COMPANY   
WELL        .                               OCS G13557 ST00BP00 :WELL      
FLD         .                           WEST CAMERON BLOCK 0118 :FIELD     
LOC         .                                                   :LOCATION  
CNTY        .                                      WEST CAMERON :LOCATION  
STAT        .                                         LOUISIANA :STATE     
CTRY        .                                     UNITED STATES :COUNTRY   
SRVC        .                                                   :SERVICE COMPANY
DATE        .                             9/13/2023 11:19:21 AM :LOG DATE  
API         .                                    17700409600000 :API NUMBER
UWI         .                                    17700409600000 :UNIQUE WELL ID
XCOORD      .                                  1437367.94342701 :SURFACE X 
YCOORD      .                                  10730631.2479363 :SURFACE Y 
LAT         .                                         29.566133 :LATITUDE  
LON         .                                        -93.638908 :LONGITUDE 
ELEV        .FT                                              97 :ELEVATION VALUE
ELEV_TYPE   .                                                KB :ELEVATION REFERENCE TYPE
~Curve Information Section
#MNEM       .UNIT                                      API CODE :CURVE DESCRIPTION
#------------------------------------------------------------------------------
DEPT        .FT                                                 :DEPTH     
CALX        .IN                                                 :          
CNC         .%                                                  :          
CSAX        .MMHO                                               :          
GR          .API                                                :          
GR_NORM     .GAPI                                               :GammaRay Normalized
GRAX        .GAPI                                               :          
PORZ        .%                                                  :          
RIPD        .OHMM                                               :          
RIPM        .OHMM                                               :          
ROPS        .M/MIN                                              :          
RSAX        .OHMM                                               :          
RSFL        .OHMM                                               :          
RSTX        .MINS                                               :          
RWAZ        .OHMM                                               :          
SP          .MV                                                 :          
SP_NORM     .MV                                                 :SP Normalized
TEN         .LBF                                                :          
VSH_GR      .V/V                                                :Volume of Shale from GR
VSH_SP      .V/V                                                :Volume of Shale from SP
ZCOR        .G/C3                                               :          
~A        DEPTH           CALX            CNC           CSAX             GR        GR_NORM           GRAX           PORZ           RIPD           RIPM           ROPS           RSAX           RSFL           RSTX           RWAZ             SP        SP_NORM            TEN         VSH_GR         VSH_SP           ZCOR
# ...
      5625.0000         12.293         32.575        -999.25         68.828       67.84231        -999.25         18.748          0.607          0.623        -999.25        -999.25          0.842        -999.25          0.027        -24.097       -19.5051        -25.143      0.7413257      0.7634446          0.044
      5625.5000         12.059         34.113        -999.25         71.428       71.16809        -999.25          19.47          0.612          0.629        -999.25        -999.25          0.758        -999.25          0.029        -22.828       -18.2373        -28.108      0.8120871       0.780577          0.059
      5626.0000         11.597         35.489        -999.25         73.131       73.34499        -999.25         20.217          0.637          0.647        -999.25        -999.25          0.703        -999.25          0.033        -22.768       -18.1784        -35.563       0.858404       0.781373          0.065
      5626.5000         11.288         34.644        -999.25         73.923       74.35503        -999.25          20.44          0.707          0.725        -999.25        -999.25          0.688        -999.25          0.038         -23.97       -19.3816       -36.3329      0.8798943      0.7651135          0.058
      5627.0000         11.206         31.914        -999.25         74.219        74.7298        -999.25         19.483          0.765          0.779        -999.25        -999.25          0.718        -999.25          0.037        -25.041       -20.4538        -28.121       0.887868      0.7506243           0.05
      5627.5000         11.243         29.469        -999.25        72.1909       72.12782        -999.25         17.028          0.813          0.884        -999.25        -999.25          0.828        -999.25          0.029        -24.699       -20.1129        -24.613      0.8325067      0.7552311          0.046
      5628.0000         11.353         28.668        -999.25         65.564       63.63559        -999.25         14.053          0.835          0.916        -999.25        -999.25          1.077        -999.25           0.02        -23.278       -18.6931        -32.063      0.6518211      0.7744176          0.041
      5628.5000         11.512         28.718        -999.25         56.355       51.83615        -999.25         12.534          0.829          0.907        -999.25        -999.25           1.43        -999.25          0.015         -22.23       -17.6463        -40.731      0.4007692      0.7885635          0.043
      5629.0000         11.691         28.888        -999.25         50.137       43.86764        -999.25         12.922          0.805          0.882        -999.25        -999.25          1.576        -999.25          0.016        -22.251       -17.6684       -43.3799      0.2312264      0.7882649          0.064
      5629.5000         11.785         29.453        -999.25         48.998       42.40443        -999.25         13.712          0.746          0.797        -999.25        -999.25          1.381        -999.25          0.017        -23.024       -18.4426        -41.035      0.2000943      0.7778027          0.086
      5630.0000         11.701         30.401        -999.25         51.525       45.63671        -999.25         14.497          0.687          0.663        -999.25        -999.25          1.104        -999.25          0.017        -24.462       -19.8818        -31.958      0.2688661      0.7583541          0.078
      5630.5000         11.522         31.237        -999.25         56.361       51.82641        -999.25         16.328          0.615          0.597        -999.25        -999.25           0.89        -999.25           0.02        -27.082        -22.503        -19.922       0.400562      0.7229325           0.05
      5631.0000         11.374         32.653        -999.25         62.574        59.7798        -999.25         18.921           0.54          0.552        -999.25        -999.25          0.762        -999.25          0.024        -29.962       -25.3841        -15.763      0.5697829      0.6839986          0.037
      5631.5000          11.23         34.834        -999.25        67.7109        66.3549        -999.25         20.762           0.49          0.515        -999.25        -999.25          0.701        -999.25          0.027        -30.524       -25.9473        -19.831      0.7096788      0.6763878          0.041
      5632.0000         11.069         36.191        -999.25        70.1229        69.4399        -999.25         21.342           0.45          0.503        -999.25        -999.25          0.685        -999.25          0.026        -28.315       -23.7395         -22.44       0.775317       0.706223          0.049
      5632.5000         10.966         36.288        -999.25         70.069       69.36649        -999.25         21.346          0.434          0.497        -999.25        -999.25          0.708        -999.25          0.025        -26.068       -21.4936        -25.182      0.7737552       0.736573          0.056
      5633.0000         10.958         36.852        -999.25        69.3479       68.43853        -999.25         21.289          0.436          0.497        -999.25        -999.25          0.752        -999.25          0.025        -25.148       -20.5748        -24.429      0.7540113      0.7489892           0.05
      5633.5000         11.018        38.6769        -999.25        69.5559        68.7006        -999.25         21.612          0.456            0.5        -999.25        -999.25          0.766        -999.25          0.027        -23.916        -19.344         -6.286      0.7595872      0.7656216          0.032
      5634.0000         11.118        40.8669        -999.25         70.668       70.12063        -999.25         23.085          0.472          0.506        -999.25        -999.25          0.735        -999.25          0.033        -21.463       -16.8921         16.476      0.7898006      0.7987554          0.014
      5634.5000         11.255         42.097        -999.25        71.6709       71.40082        -999.25         25.579          0.514          0.525        -999.25        -999.25          0.703        -999.25          0.044        -18.407       -13.8373         35.528      0.8170387      0.8400365          0.007
      5635.0000         11.385          42.35        -999.25        72.8989       72.96931        -999.25         27.927          0.541          0.549        -999.25        -999.25          0.692        -999.25          0.056        -14.938       -10.3695         62.186      0.8504109      0.8868986          0.014
      5635.5000         11.424         42.051        -999.25        75.2209       75.93903        -999.25         29.243          0.567          0.574        -999.25        -999.25          0.694        -999.25          0.065        -11.341        -6.7736        73.0079      0.9135963      0.9354919          0.033
      5636.0000         11.362         42.405        -999.25        77.8729       79.33141        -999.25         29.567          0.609          0.595        -999.25        -999.25          0.703        -999.25          0.072         -8.589        -4.0228         38.175      0.9857746      0.9726649          0.045
      5636.5000         11.296        44.7159        -999.25         79.345       81.21255        -999.25         29.276          0.657          0.624        -999.25        -999.25          0.715        -999.25          0.075         -6.967         -2.402          -6.74              1      0.9945676          0.048
      5637.0000         11.278         47.485        -999.25         78.783       80.48825        -999.25         28.415          0.677          0.649        -999.25        -999.25          0.737        -999.25          0.073         -6.024        -1.4601         -19.77              1              1           0.05
      5637.5000         11.277         48.922        -999.25        77.3359       78.63042        -999.25         27.011          0.728          0.672        -999.25        -999.25           0.77        -999.25           0.07         -5.582        -1.0193        -18.014      0.9708599              1          0.048
