#------------------------------------------------------------------------------
# Created by    : vladimir.rabinovich
# Created on    : 09/19/2023 17:20:44
#------------------------------------------------------------------------------
~Version Information Section
VERS.           2.0     :   CWLS log ASCII Standard - VERSION 2.0
WRAP.           NO      :   One line per depth step
~Well Information Section
#MNEM       .UNIT                                         VALUE :DESCRIPTION
#------------------------------------------------------------------------------
STRT        .FT                                            2904 :START DEPTH
STOP        .FT                                           14016 :STOP DEPTH
STEP        .FT                                             0.5 :STEP      
NULL        .                                           -999.25 :NULL      
COMP        .                                          MCN CORP :COMPANY   
WELL        .                                OCS 00043 ST00BP00 :WELL      
FLD         .                          EUGENE ISLAND BLOCK 0089 :FIELD     
LOC         .                                                   :LOCATION  
CNTY        .                                     EUGENE ISLAND :LOCATION  
STAT        .                                         LOUISIANA :STATE     
CTRY        .                                     UNITED STATES :COUNTRY   
SRVC        .                                                   :SERVICE COMPANY
DATE        .                             9/13/2023 11:18:42 AM :LOG DATE  
API         .                                    17709009460000 :API NUMBER
UWI         .                                    17709009460000 :UNIQUE WELL ID
XCOORD      .                                  2058690.32320654 :SURFACE X 
YCOORD      .                                  10563305.2032801 :SURFACE Y 
LAT         .                                        29.1009424 :LATITUDE  
LON         .                                       -91.6898776 :LONGITUDE 
ELEV        .FT                                              49 :ELEVATION VALUE
ELEV_TYPE   .                                                KB :ELEVATION REFERENCE TYPE
~Curve Information Section
#MNEM       .UNIT                                      API CODE :CURVE DESCRIPTION
#------------------------------------------------------------------------------
DEPT        .FT                                                 :DEPTH     
ASN         .OHMM                                               :          
CALI        .IN                                                 :          
DT          .US/F                                               :          
GR          .GAPI                                               :          
GR_NORM     .GAPI                                               :GammaRay Normalized
ILD         .OHMM                                               :          
SP          .MV                                                 :          
SP_NORM     .MV                                                 :SP Normalized
VSH_GR      .V/V                                                :Volume of Shale from GR
VSH_SP      .V/V                                                :Volume of Shale from SP
~A        DEPTH            ASN           CALI             DT             GR        GR_NORM            ILD             SP        SP_NORM         VSH_GR         VSH_SP
# ...
     11797.5000         0.7747          9.093        98.6025        63.1346       75.08732         0.7625       -70.0798        -1.7273      0.8954749              1
     11798.0000         0.7663         9.0885        99.2789        62.9737       74.92249         0.7483         -69.98        -1.6372      0.8919678              1
     11798.5000         0.7603         9.1148        99.0527        63.1435       75.09529         0.7484       -69.2449        -0.9118      0.8956445              1
     11799.0000         0.7567         9.1649        99.2163           63.8       75.76514         0.7559       -68.2593         0.0641      0.9098966              1
     11799.5000         0.7594         9.2086        99.4971        64.1653        76.1377         0.7681       -67.5557          0.758      0.9178235              1
     11800.0000         0.7785         9.2454        99.7893        64.0148       75.98338         0.7874       -67.3846         0.9193      0.9145401              1
     11800.5000         0.8119         9.2446       100.8311        62.9158       74.86038         0.8081       -67.9449         0.3493      0.8906464              1
     11801.0000         0.8406         9.2261       101.2701        61.7533       73.67265         0.8266       -68.4926        -0.2081      0.8653755              1
     11801.5000         0.8553         9.2034       100.5592        60.7312       72.62818         0.8326       -68.3827        -0.1079      0.8431528              1
     11802.0000         0.8544         9.2007        99.1769        61.4602       73.37209         0.8372       -68.3386        -0.0735      0.8589805              1
     11802.5000         0.8521         9.1836        98.0011        62.6286       74.56473          0.841       -68.4946        -0.2392      0.8843559              1
     11803.0000         0.8512         9.1686        96.9644        63.5831       75.53903         0.8424       -68.5887         -0.343      0.9050858              1
     11803.5000         0.8508          9.164        96.3876        62.8385       74.77798         0.8391       -68.6652        -0.4292      0.8888931              1
     11804.0000         0.8508         9.1817        95.9788        62.0226       73.94411         0.8357       -68.5237        -0.2974      0.8711512              1
     11804.5000         0.8513         9.2211        96.0376        61.7661       73.68163         0.8291       -67.8793         0.3372      0.8655667              1
     11805.0000         0.8521         9.2691        96.3605        62.2108       74.13518         0.8378       -67.7302         0.4766      0.8752165              1
     11805.5000         0.8532         9.3087        96.7067        62.8168       74.75346         0.8389       -67.6337         0.5634      0.8883714              1
     11806.0000         0.8528          9.333        96.9788        63.3594        75.3071         0.8364       -67.5878         0.5996       0.900151              1
     11806.5000         0.8523         9.3463        96.7664        63.8465       75.80395         0.8386       -67.3754         0.8023      0.9107223              1
     11807.0000         0.8519         9.3424        96.3876        63.9937       75.95367         0.8405        -66.964          1.204      0.9139078              1
     11807.5000          0.851         9.3337        96.8979        64.1287       76.09103         0.8407       -66.3704         1.7879      0.9168305              1
     11808.0000         0.8501         9.3094        97.3782        65.7654       77.76194         0.8406       -66.1494         1.9992      0.9523817              1
     11808.5000         0.8496          9.305        97.3376        67.1101       79.13464         0.8387       -66.2837         1.8551       0.981588              1
     11809.0000         0.8509         9.3142        97.0842        66.2051       78.20987         0.8363       -66.3748         1.7543      0.9619121              1
     11809.5000         0.8578         9.3396        96.7621        64.1534       76.11391         0.8303        -66.308         1.8114      0.9173172              1
     11810.0000         0.8625         9.3497        96.5032        62.6207       74.54799         0.8239       -66.1212         1.9885      0.8839998              1
     11810.5000         0.8623         9.3326        96.3208        61.9137       73.82533         0.8162       -65.9606         2.1394      0.8686239              1
     11811.0000         0.8611         9.3007        96.2849        63.3177       75.25869         0.8107       -65.8522         2.2381       0.899121              1
     11811.5000         0.8595         9.2597        96.4773        65.3258       77.30891         0.8062       -65.9136          2.167      0.9427427              1
     11812.0000         0.8573          9.243        96.6615         66.611       78.62083         0.8012       -66.2501         1.8208       0.970656              1
     11812.5000         0.8458         9.2486        96.8794        67.0912       79.11074         0.8004       -66.7079         1.3532      0.9810796              1
     11813.0000         0.8236          9.338        96.8844        67.2124        79.2339         0.8004       -66.9774          1.074         0.9837              1
     11813.5000         0.8122         9.3169         96.623        67.2117       79.23257         0.7886        -67.015         1.0267      0.9836718              1
     11814.0000         0.8025         9.3297        96.2603        66.8665       78.87952         0.7821       -66.9957         1.0363      0.9761601              1
     11814.5000         0.7953         9.4376        96.4109        65.7853        77.7747         0.7796       -66.9335         1.0888      0.9526533              1
     11815.0000         0.7907         9.4081        97.1943        63.9039       75.85266         0.7805       -66.7982         1.2144      0.9117587              1
     11815.5000         0.7891         9.3704        98.1857         61.989       73.89651         0.7834       -66.6554         1.3475      0.8701386              1
     11816.0000         0.7937         9.3391         98.771        61.2691       73.16068          0.779       -66.5925         1.4007      0.8544825              1
     11816.5000         0.8023         9.3254        99.8502        61.3169       73.20889          0.774       -66.6873         1.2961      0.8555082              1
     11817.0000         0.8083         9.3383        99.3921        60.3592        72.2302         0.7695       -66.8401         1.1336      0.8346851              1
     11817.5000         0.8042         9.3792        99.7131        59.9968       71.85958         0.7607       -67.2191         0.7449      0.8267996              1
     11818.0000         0.7863          9.413        99.9296        61.5275       73.42223          0.755       -67.3014         0.6529      0.8600475              1
     11818.5000         0.7743         9.3467        99.1376        63.3257       75.25808          0.757       -66.7605         1.1841      0.8991081              1
     11819.0000         0.7672         9.3134        98.6807        64.2108        76.1615         0.7574       -66.4045         1.5304      0.9183298              1
     11819.5000         0.7677         9.2712        98.6569        64.5049       76.46125         0.7617       -66.4868         1.4384      0.9247075              1
     11820.0000         0.7722         9.1894        99.8411        64.5154       76.47134         0.7672       -67.1831         0.7414      0.9249222              1
     11820.5000         0.7779         9.1195       100.4344        65.0045       76.97034         0.7768       -67.5675          0.357      0.9355392              1
     11821.0000         0.7844         9.1264       100.8839        64.5396       76.49495         0.7811       -67.5062         0.4183      0.9254245              1
     11821.5000         0.7915         9.3492       101.1552        63.3514       75.28085          0.782       -67.2461         0.6784      0.8995926              1
