#------------------------------------------------------------------------------
# Created by    : vladimir.rabinovich
# Created on    : 09/19/2023 17:20:13
#------------------------------------------------------------------------------
~Version Information Section
VERS.           2.0     :   CWLS log ASCII Standard - VERSION 2.0
WRAP.           NO      :   One line per depth step
~Well Information Section
#MNEM       .UNIT                                         VALUE :DESCRIPTION
#------------------------------------------------------------------------------
STRT        .FT                                             608 :START DEPTH
STOP        .FT                                            9135 :STOP DEPTH
STEP        .FT                                             0.5 :STEP      
NULL        .                                           -999.25 :NULL      
COMP        .                             PHILLIPS PETROLEUM CO :COMPANY   
WELL        .                                OCS 00757 ST00BP00 :WELL      
FLD         .                           WEST CAMERON BLOCK 0118 :FIELD     
LOC         .                                                   :LOCATION  
CNTY        .                                      WEST CAMERON :LOCATION  
STAT        .                                         LOUISIANA :STATE     
CTRY        .                                     UNITED STATES :COUNTRY   
SRVC        .                                                   :SERVICE COMPANY
DATE        .                             9/13/2023 11:18:18 AM :LOG DATE  
API         .                                    17700400630000 :API NUMBER
UWI         .                                    17700400630000 :UNIQUE WELL ID
XCOORD      .                                  1437747.16229911 :SURFACE X 
YCOORD      .                                  10702102.5427903 :SURFACE Y 
LAT         .                                         29.487661 :LATITUDE  
LON         .                                       -93.6372228 :LONGITUDE 
ELEV        .FT                                              84 :ELEVATION VALUE
ELEV_TYPE   .                                                KB :ELEVATION REFERENCE TYPE
~Curve Information Section
#MNEM       .UNIT                                      API CODE :CURVE DESCRIPTION
#------------------------------------------------------------------------------
DEPT        .FT                                                 :DEPTH     
ASFL        .OHMM                                               :          
ASN         .OHMM                                               :          
CALI        .IN                                                 :          
DRHO        .G/CC                                               :          
GR          .GAPI                                               :          
GR_NORM     .GAPI                                               :GammaRay Normalized
ILD         .OHMM                                               :          
RHOB        .G/CC                                               :          
SP          .MV                                                 :          
SP_NORM     .MV                                                 :SP Normalized
VSH_GR      .V/V                                                :Volume of Shale from GR
VSH_SP      .V/V                                                :Volume of Shale from SP
~A        DEPTH           ASFL            ASN           CALI           DRHO             GR        GR_NORM            ILD           RHOB             SP        SP_NORM         VSH_GR         VSH_SP
# ...
      5097.5000        -999.25         1.1098        10.3803         0.0071       150.6572       67.59598         0.7714         2.1703      -113.4943        -7.7273      0.7360846      0.8919377
      5098.0000        -999.25         1.1227        10.3758         0.0054       151.1633       67.87673         0.7845         2.1583      -114.8052        -9.0453      0.7420581      0.8670698
      5098.5000        -999.25         1.1333        10.3793         0.0037       150.8779       67.72738            0.8         2.1504      -114.5624        -8.8097      0.7388804      0.8715151
      5099.0000        -999.25         1.1316        10.4039         0.0021       149.3806       66.91949         0.8161         2.1386      -112.6554        -6.9098      0.7216912      0.9073623
      5099.5000        -999.25         1.1299        10.4967         0.0011       146.7002       65.46844         0.8349          2.121      -110.8074        -5.0689      0.6908178      0.9420962
      5100.0000        -999.25         1.1254        10.7705              0       147.5525       65.93745         0.8537         2.0973      -109.0231        -3.2918      0.7007967      0.9756264
      5100.5000        -999.25          1.118         11.057         0.0007       157.3191       71.25096         0.8544         2.0872      -107.4105        -1.6863      0.8138502              1
      5101.0000        -999.25         1.1106        10.7824          0.007       162.3325       73.98128         0.8551         2.1345      -106.1392        -0.4221      0.8719421              1
      5101.5000        -999.25         1.1079        10.5376         0.0194       164.9368       75.40232         0.8545         2.1692      -105.6814         0.0285       0.902177              1
      5102.0000        -999.25         1.1079        10.4518         0.0288       166.5649       76.29283         0.8534         2.1873      -106.3903        -0.6875      0.9211241              1
      5102.5000        -999.25          1.108        10.4563         0.0347       167.5957       76.85879          0.856         2.1812       -107.348        -1.6524      0.9331657              1
      5103.0000        -999.25          1.115        10.4651         0.0383        167.197       76.64782         0.8666         2.1764      -108.3732        -2.6847       0.928677      0.9870811
      5103.5000        -999.25         1.1234        10.4598         0.0408        166.342       76.18893         0.8751         2.1769      -109.3997        -3.7183      0.9189133      0.9675792
      5104.0000        -999.25         1.1305        10.4531         0.0209       165.2598       75.60654         0.8781         2.1805      -110.3855        -4.7113      0.9065222      0.9488434
      5104.5000        -999.25         1.1352        10.4427         0.0176       164.1775       75.02407         0.8747         2.1851      -111.3708        -5.7037      0.8941292      0.9301189
      5105.0000        -999.25           1.14        10.4336          0.019       163.0977       74.44302         0.8581         2.1812      -112.1337        -6.4738      0.8817663      0.9155887
      5105.5000        -999.25         1.1359        10.4957         0.0169       162.0178       73.86195         0.8417         2.1709      -112.5886        -6.9358      0.8694031      0.9068717
      5106.0000        -999.25          1.127        10.6217         0.0126       161.4277       73.54695         0.8261          2.164      -111.8314        -6.1857      0.8627011      0.9210245
      5106.5000        -999.25         1.1142        11.2913         0.0083       161.0007       73.32066         0.8105         2.1571      -110.3108        -4.6723      0.8578863      0.9495792
      5107.0000        -999.25         1.1001        11.7043          0.005        160.865       73.25262         0.8108         2.1509      -109.2898        -3.6584      0.8564386      0.9687094
      5107.5000        -999.25         1.0882        11.7007         0.0033       160.8323       73.24066         0.8139         2.1491      -108.3922        -2.7679      0.8561843      0.9855113
      5108.0000        -999.25         1.0804        11.6846         0.0015       160.6504       73.14751         0.8173         2.1475      -107.5298        -1.9127      0.8542024              1
      5108.5000        -999.25         1.0792        11.6208         0.0011       160.5608       73.10458         0.8324         2.1478      -107.1002        -1.4902      0.8532888              1
      5109.0000        -999.25         1.0886        11.5542         0.0035       161.0964       73.40141         0.8474         2.1518      -106.6704        -1.0676      0.8596045              1
      5109.5000        -999.25         1.0964        11.4567         0.0085       160.9028       73.30186         0.8582          2.158       -106.337        -0.7413      0.8574863              1
      5110.0000        -999.25         1.1042        11.2903         0.0099       160.3401       73.00186         0.8658         2.1664      -106.1067        -0.5181      0.8511034              1
      5110.5000        -999.25         1.1077        11.1072         0.0095       159.1323       72.35124         0.8734          2.173      -105.8781        -0.2967      0.8372605              1
      5111.0000        -999.25         1.1112          10.97         0.0067       155.8782       70.58847         0.8681         2.1791      -105.7555        -0.1812      0.7997547              1
      5111.5000        -999.25         1.1085        10.8768         0.0019       152.3149       68.65768         0.8556         2.1796      -105.6331         -0.066       0.758674              1
      5112.0000        -999.25         1.0977        10.8803        -0.0026       149.1482       66.94252         0.8333         2.1736      -105.6129        -0.0529      0.7221813              1
      5112.5000        -999.25         1.0825        10.9701        -0.0083       146.2974       65.39889         0.8139         2.1593      -105.7871        -0.2342       0.689338              1
      5113.0000        -999.25         1.0615        11.2476        -0.0117       145.0396       64.72107         0.8067         2.1449      -105.9612        -0.4155      0.6749164              1
      5113.5000        -999.25         1.0431        11.5374        -0.0097       146.6074       65.57887         0.8002         2.1312      -106.1354        -0.5968      0.6931675              1
      5114.0000        -999.25         1.0308        11.6922        -0.0128       150.6262       67.76868         0.7953         2.1212      -106.3615        -0.8301      0.7397593              1
      5114.5000        -999.25          1.029        11.7015        -0.0122       154.6169       69.94318         0.7895         2.1188      -106.6125        -1.0882       0.786025              1
      5115.0000        -999.25         1.0308        11.4313        -0.0064       156.8264       71.14976         0.7799         2.1209      -106.8636        -1.3464      0.8116969              1
      5115.5000        -999.25         1.0348         11.259        -0.0016       157.1345       71.32291         0.7704         2.1146      -107.1145        -1.6045      0.8153812              1
      5116.0000        -999.25         1.0389        11.1293         0.0022       155.5776        70.4825         0.7609          2.103       -107.317        -1.8141         0.7975              1
      5116.5000        -999.25         1.0406        11.0443         0.0043       156.9688       71.24432         0.7611         2.0951      -107.2931        -1.7973      0.8137088              1
      5117.0000        -999.25         1.0389        10.9936         0.0065       159.2014        72.4634          0.762          2.102      -107.2692        -1.7806      0.8396469              1
      5117.5000        -999.25         1.0372        10.9519         0.0083       159.7063       72.74352         0.7745         2.1068      -107.2452        -1.7637      0.8456067              1
