#------------------------------------------------------------------------------
# Created by    : vladimir.rabinovich
# Created on    : 09/19/2023 17:20:13
#------------------------------------------------------------------------------
~Version Information Section
VERS.           2.0     :   CWLS log ASCII Standard - VERSION 2.0
WRAP.           NO      :   One line per depth step
~Well Information Section
#MNEM       .UNIT                                         VALUE :DESCRIPTION
#------------------------------------------------------------------------------
STRT        .FT                                             608 :START DEPTH
STOP        .FT                                            9135 :STOP DEPTH
STEP        .FT                                             0.5 :STEP      
NULL        .                                           -999.25 :NULL      
COMP        .                             PHILLIPS PETROLEUM CO :COMPANY   
WELL        .                                OCS 00757 ST00BP00 :WELL      
FLD         .                           WEST CAMERON BLOCK 0118 :FIELD     
LOC         .                                                   :LOCATION  
CNTY        .                                      WEST CAMERON :LOCATION  
STAT        .                                         LOUISIANA :STATE     
CTRY        .                                     UNITED STATES :COUNTRY   
SRVC        .                                                   :SERVICE COMPANY
DATE        .                             9/13/2023 11:18:18 AM :LOG DATE  
API         .                                    17700400630000 :API NUMBER
UWI         .                                    17700400630000 :UNIQUE WELL ID
XCOORD      .                                  1437747.16229911 :SURFACE X 
YCOORD      .                                  10702102.5427903 :SURFACE Y 
LAT         .                                         29.487661 :LATITUDE  
LON         .                                       -93.6372228 :LONGITUDE 
ELEV        .FT                                              84 :ELEVATION VALUE
ELEV_TYPE   .                                                KB :ELEVATION REFERENCE TYPE
~Curve Information Section
#MNEM       .UNIT                                      API CODE :CURVE DESCRIPTION
#------------------------------------------------------------------------------
DEPT        .FT                                                 :DEPTH     
ASFL        .OHMM                                               :          
ASN         .OHMM                                               :          
CALI        .IN                                                 :          
DRHO        .G/CC                                               :          
GR          .GAPI                                               :          
GR_NORM     .GAPI                                               :GammaRay Normalized
ILD         .OHMM                                               :          
RHOB        .G/CC                                               :          
SP          .MV                                                 :          
SP_NORM     .MV                                                 :SP Normalized
VSH_GR      .V/V                                                :Volume of Shale from GR
VSH_SP      .V/V                                                :Volume of Shale from SP
~A        DEPTH           ASFL            ASN           CALI           DRHO             GR        GR_NORM            ILD           RHOB             SP        SP_NORM         VSH_GR         VSH_SP
# ...
      7291.0000        -999.25         0.8975        11.0269         0.0356        166.011       78.81057         0.5625          2.309       -76.0807        -6.7148       0.974693      0.9458069
      7291.5000        -999.25         0.8761         10.967         0.0269       169.7173       80.82397         0.5591         2.3011       -73.3313         -3.979              1      0.9772529
      7292.0000        -999.25         0.8575        10.9115         0.0155       172.7859       82.49076         0.5545         2.3207       -71.0214        -1.6826              1              1
      7292.5000        -999.25         0.8408         10.889          0.019       175.9875       84.22993         0.5474         2.3461       -69.8835        -0.5582              1              1
      7293.0000        -999.25         0.8255        10.9142         0.0352       177.0327        84.7971         0.5403         2.3576       -69.2214         0.0904              1              1
      7293.5000        -999.25         0.8191        10.9368         0.0375       176.2012       84.34428         0.5333          2.338       -69.4209        -0.1226              1              1
      7294.0000        -999.25          0.833         10.957         0.0326       172.6558       82.41674         0.5289         2.3374       -70.4469        -1.1621              1              1
      7294.5000        -999.25          0.852        10.9687         0.0457       168.6924       80.26192         0.5244         2.3408       -72.0745        -2.8032              1      0.9907678
      7295.0000        -999.25          0.869        10.9797         0.0464       163.5522       77.46758         0.5243         2.3172       -73.6676        -4.4098      0.9461186      0.9723011
      7295.5000        -999.25         0.8799        10.9786         0.0515       160.3599       75.73187         0.5286         2.3159       -74.1565        -4.9123      0.9091888      0.9665253
      7296.0000        -999.25         0.8909        10.9776         0.0427       161.0752        76.1198         0.5328         2.3047       -73.2048        -3.9741      0.9174425      0.9773092
      7296.5000        -999.25         0.8962        10.9512          0.018       163.7476       77.57126         0.5353         2.2944       -72.3126        -3.0954      0.9483246      0.9874092
      7297.0000        -999.25         0.9014        10.9148         0.0167       166.8997       79.28349         0.5367         2.3015       -71.8904        -2.6867      0.9847552      0.9921069
      7297.5000        -999.25         0.9039        10.8748         0.0243       168.0779       79.92291         0.5381         2.3233       -73.3534        -4.1632      0.9983599      0.9751356
      7298.0000        -999.25         0.9042        10.8125         0.0317       166.7214       79.18491         0.5396         2.3308       -75.2952        -6.1185      0.9826576      0.9526609
      7298.5000        -999.25         0.9044        10.7535         0.0226       165.5771        78.5621          0.541         2.3147       -77.5559        -8.3927      0.9694063      0.9265207
      7299.0000        -999.25         0.9046        10.7039         0.0153       165.6516       78.60176         0.5425         2.3053       -78.2433        -9.0936      0.9702502      0.9184644
      7299.5000        -999.25         0.9031        10.6698         0.0079       169.0144       80.42844         0.5438         2.2943       -76.8662        -7.7301              1      0.9341368
      7300.0000        -999.25         0.9012        10.6672         0.0117       171.7485       81.91351         0.5452         2.2782       -75.5001        -6.3775              1      0.9496839
      7300.5000        -999.25         0.8993        10.7843         0.0159       173.2271       82.71619         0.5465         2.2755       -74.1622        -5.0531              1      0.9649069
      7301.0000        -999.25         0.8974        10.9093          0.017       171.8723       81.97915         0.5504          2.278        -73.022        -3.9264              1      0.9778575
      7301.5000        -999.25         0.8941        10.9864         0.0184       170.5161       81.24124         0.5646         2.2824       -72.1947        -3.1126              1      0.9872115
      7302.0000        -999.25         0.8905        11.0373         0.0219        169.146       80.49584         0.5788         2.2904       -71.3688        -2.3002              1      0.9965494
      7302.5000        -999.25         0.8881        11.0718         0.0278        168.999       80.41507         0.5931         2.3011       -70.8416        -1.7865              1              1
      7303.0000        -999.25         0.8909        11.1074         0.0366       169.7576       80.82647         0.6119         2.3164       -70.5833        -1.5417              1              1
      7303.5000        -999.25         0.8937        11.1437         0.0418       168.2341        79.9977         0.6317         2.3438       -70.3344        -1.3064      0.9999511              1
      7304.0000        -999.25         0.8982        11.1811         0.0494       166.3948       78.99731         0.6515         2.3584       -70.2041        -1.1896      0.9786661              1
      7304.5000        -999.25         0.9058        11.2187          0.056       164.3389       77.87908         0.6691         2.3683       -70.0125        -1.0115      0.9548741              1
      7305.0000        -999.25         0.9133        11.2386         0.0544       162.7551       77.01759         0.6788         2.3678       -69.8103        -0.8228      0.9365444              1
      7305.5000        -999.25          0.921         11.256          0.045       162.2324        76.7326         0.6886         2.3554       -69.6696        -0.6956       0.930481              1
      7306.0000        -999.25         0.9296        11.2655         0.0353       162.6528       76.96031         0.6929         2.3449        -69.537        -0.5765      0.9353258              1
      7306.5000        -999.25         0.9382        11.2768         0.0253       163.9502       77.66452          0.687         2.3361       -69.6277        -0.6807      0.9503089              1
      7307.0000        -999.25         0.9467        11.2935          0.022       165.6797       78.60361         0.6811         2.3357       -69.9707        -1.0372      0.9702896              1
      7307.5000        -999.25         0.9485        11.3072         0.0238       166.5837       79.09403         0.6693         2.3417       -70.4065        -1.4866      0.9807241              1
      7308.0000        -999.25         0.9473        11.3169         0.0215       167.1357       79.39315         0.6556         2.3495       -70.9698        -2.0634      0.9870883      0.9992713
      7308.5000        -999.25         0.9381        11.3251          0.019       166.1765         78.871         0.6406         2.3511       -71.5326        -2.6397      0.9759788      0.9926471
      7309.0000        -999.25         0.9266        11.3258         0.0161       165.1626       78.31918         0.6208         2.3394       -71.4528        -2.5734      0.9642378      0.9934092
      7309.5000        -999.25         0.9183        11.3265         0.0132       165.1257        78.2983         0.5999         2.3313       -70.4911        -1.6252      0.9637936              1
      7310.0000        -999.25         0.9107        11.3193         0.0109       165.6223       78.56731         0.5757         2.3237       -69.7842        -0.9318      0.9695174              1
      7310.5000        -999.25         0.9032        11.3035         0.0089       167.2356       79.44325         0.5525         2.3147       -69.5845        -0.7456      0.9881543              1
      7311.0000        -999.25         0.8972        11.2871          0.007       170.4946       81.21352         0.5355         2.3137       -69.9247        -1.0993              1              1
