#------------------------------------------------------------------------------
# Created by    : vladimir.rabinovich
# Created on    : 09/19/2023 17:22:23
#------------------------------------------------------------------------------
~Version Information Section
VERS.           2.0     :   CWLS log ASCII Standard - VERSION 2.0
WRAP.           NO      :   One line per depth step
~Well Information Section
#MNEM       .UNIT                                         VALUE :DESCRIPTION
#------------------------------------------------------------------------------
STRT        .FT                                            4000 :START DEPTH
STOP        .FT                                           10100 :STOP DEPTH
STEP        .FT                                             0.5 :STEP      
NULL        .                                           -999.25 :NULL      
COMP        .                         TALOS ENERGY VENTURES LLC :COMPANY   
WELL        .                               OCS G13557 ST00BP00 :WELL      
FLD         .                           WEST CAMERON BLOCK 0118 :FIELD     
LOC         .                                                   :LOCATION  
CNTY        .                                      WEST CAMERON :LOCATION  
STAT        .                                         LOUISIANA :STATE     
CTRY        .                                     UNITED STATES :COUNTRY   
SRVC        .                                                   :SERVICE COMPANY
DATE        .                             9/13/2023 11:19:21 AM :LOG DATE  
API         .                                    17700409600000 :API NUMBER
UWI         .                                    17700409600000 :UNIQUE WELL ID
XCOORD      .                                  1437367.94342701 :SURFACE X 
YCOORD      .                                  10730631.2479363 :SURFACE Y 
LAT         .                                         29.566133 :LATITUDE  
LON         .                                        -93.638908 :LONGITUDE 
ELEV        .FT                                              97 :ELEVATION VALUE
ELEV_TYPE   .                                                KB :ELEVATION REFERENCE TYPE
~Curve Information Section
#MNEM       .UNIT                                      API CODE :CURVE DESCRIPTION
#------------------------------------------------------------------------------
DEPT        .FT                                                 :DEPTH     
CALX        .IN                                                 :          
CNC         .%                                                  :          
CSAX        .MMHO                                               :          
GR          .API                                                :          
GR_NORM     .GAPI                                               :GammaRay Normalized
GRAX        .GAPI                                               :          
PORZ        .%                                                  :          
RIPD        .OHMM                                               :          
RIPM        .OHMM                                               :          
ROPS        .M/MIN                                              :          
RSAX        .OHMM                                               :          
RSFL        .OHMM                                               :          
RSTX        .MINS                                               :          
RWAZ        .OHMM                                               :          
SP          .MV                                                 :          
SP_NORM     .MV                                                 :SP Normalized
TEN         .LBF                                                :          
VSH_GR      .V/V                                                :Volume of Shale from GR
VSH_SP      .V/V                                                :Volume of Shale from SP
ZCOR        .G/C3                                               :          
~A        DEPTH           CALX            CNC           CSAX             GR        GR_NORM           GRAX           PORZ           RIPD           RIPM           ROPS           RSAX           RSFL           RSTX           RWAZ             SP        SP_NORM            TEN         VSH_GR         VSH_SP           ZCOR
# ...
      4806.0000         13.522         35.575        -999.25         50.856       48.27111        -999.25         31.366          0.348          0.414        -999.25        -999.25          0.832        -999.25          0.046         -56.25       -53.0717          -20.6      0.3249173      0.2489456         -0.001
      4806.5000         13.125         36.174        -999.25         51.191       48.75179        -999.25         32.581          0.322          0.394        -999.25        -999.25          0.847        -999.25          0.047        -57.571       -54.3948        -17.889      0.3351444      0.2294883          0.012
      4807.0000         12.488         37.939        -999.25         49.995        47.0132        -999.25         34.014          0.299           0.37        -999.25        -999.25          0.832        -999.25          0.047        -59.193        -56.019         -12.48      0.2981531      0.2056029          0.021
      4807.5000         11.986         38.546        -999.25        49.6089        46.4486        -999.25         35.569          0.278           0.34        -999.25        -999.25          0.761        -999.25          0.049        -61.196       -58.0241         -6.536      0.2861404      0.1761162          0.017
      4808.0000         11.814        37.9189        -999.25         51.257       48.83266        -999.25         36.774          0.256           0.31        -999.25        -999.25          0.679        -999.25          0.048        -62.925       -59.7552         -4.873      0.3368652      0.1506588          0.008
      4808.5000         11.821         37.689        -999.25         52.856       51.14557        -999.25         37.437          0.232          0.292        -999.25        -999.25          0.645        -999.25          0.045        -63.612       -60.4443         -8.456      0.3860759       0.140525         -0.002
      4809.0000         11.851         37.761        -999.25         53.306       51.79293        -999.25         37.878          0.207          0.262        -999.25        -999.25          0.675        -999.25          0.041        -63.362       -60.1964         -8.873      0.3998497      0.1441706         -0.008
      4809.5000         11.875         37.179        -999.25        53.4269       51.96325        -999.25         38.277          0.191          0.237        -999.25        -999.25          0.724        -999.25          0.039        -62.897       -59.7335          1.814      0.4034735      0.1509779          -0.01
      4810.0000         11.918        37.1219        -999.25         53.444       51.98312        -999.25         38.071          0.184          0.225        -999.25        -999.25          0.701        -999.25          0.037        -62.384       -59.2227         11.654      0.4038962      0.1584897         -0.009
      4810.5000         11.993         38.942        -999.25         53.337       51.82309        -999.25         37.681          0.187          0.223        -999.25        -999.25          0.605        -999.25          0.037        -61.581       -58.4218          4.223      0.4004912      0.1702677         -0.008
      4811.0000         12.097         41.799        -999.25         54.158       53.00824        -999.25          36.79          0.197          0.231        -999.25        -999.25           0.52        -999.25          0.037        -60.344       -57.1869        -14.771      0.4257072      0.1884279         -0.008
      4811.5000         12.221         44.063        -999.25         57.084        57.2447        -999.25        35.5439          0.208           0.25        -999.25        -999.25          0.489        -999.25          0.036        -57.465         -54.31        -31.959      0.5158446      0.2307353         -0.005
      4812.0000         12.329         45.131        -999.25         60.975       62.87995        -999.25        33.7209          0.222           0.28        -999.25        -999.25          0.526        -999.25          0.035        -52.016       -48.8631       -37.9839      0.6357437      0.3108368          0.003
      4812.5000         12.397        43.9659        -999.25        62.7159       65.39855        -999.25         31.904          0.243          0.313        -999.25        -999.25          0.653        -999.25          0.034         -46.24       -43.0893        -32.231      0.6893309      0.3957456          0.015
      4813.0000         12.465          40.48        -999.25         62.481       65.05312        -999.25         30.906          0.269          0.347        -999.25        -999.25           0.86        -999.25          0.035       -42.8799       -39.7313        -22.029      0.6819812      0.4451279          0.024
      4813.5000         12.538         37.329        -999.25         63.726       66.85287        -999.25         30.305          0.309          0.374        -999.25        -999.25          1.012        -999.25          0.038       -41.3069       -38.1604        -21.039      0.7202739      0.4682294          0.028
      4814.0000         12.555         36.561        -999.25         66.481       70.84146        -999.25           29.7          0.367          0.398        -999.25        -999.25          1.033        -999.25          0.043       -39.4269       -36.2825        -30.274      0.8051375      0.4958456          0.027
      4814.5000         12.529        37.5909        -999.25        68.5449       73.82825        -999.25         29.094          0.398          0.416        -999.25        -999.25          1.041        -999.25          0.045        -37.179       -34.0367        -33.647      0.8686863       0.528872          0.023
      4815.0000         12.545        38.8019        -999.25        69.2549       74.85249        -999.25         28.644          0.422          0.422        -999.25        -999.25          1.075        -999.25          0.046        -35.767       -32.6268        -24.012      0.8904786      0.5496058          0.016
      4815.5000         12.613         39.403        -999.25        68.6819       74.01699        -999.25         28.447          0.429          0.427        -999.25        -999.25          1.051        -999.25          0.046        -35.332        -32.194        -17.691      0.8727019      0.5559706          0.008
      4816.0000          12.67         40.349        -999.25        68.3939       73.59458        -999.25         28.498          0.428          0.429        -999.25        -999.25          0.924        -999.25          0.046        -34.201       -31.0651        -23.318      0.8637145      0.5725721          0.002
      4816.5000         12.696         42.765        -999.25          70.21       76.22218        -999.25          27.85          0.424          0.433        -999.25        -999.25          0.786        -999.25          0.044        -30.928       -27.7942        -26.927      0.9196209      0.6206735          0.005
      4817.0000         12.727         45.532        -999.25         73.205       80.55865        -999.25          27.11          0.427          0.437        -999.25        -999.25          0.704        -999.25          0.042        -26.619       -23.4873        -24.459              1      0.6840103          0.016
      4817.5000         12.776         46.853        -999.25        74.7849       82.84387        -999.25         26.457          0.425          0.441        -999.25        -999.25           0.67        -999.25          0.039        -23.601       -20.4714        -26.032              1      0.7283618          0.023
      4818.0000         12.828         44.989        -999.25        73.8009       81.41258        -999.25         26.287          0.431          0.442        -999.25        -999.25          0.658        -999.25          0.039        -22.695       -19.5676        -32.519              1       0.741653          0.019
      4818.5000         12.881         41.395        -999.25         72.615       79.68848        -999.25          26.66           0.43          0.445        -999.25        -999.25          0.657        -999.25           0.04        -22.951       -19.8257        -39.205       0.993372      0.7378573          0.013
