#------------------------------------------------------------------------------
# Created by    : vladimir.rabinovich
# Created on    : 09/19/2023 17:20:13
#------------------------------------------------------------------------------
~Version Information Section
VERS.           2.0     :   CWLS log ASCII Standard - VERSION 2.0
WRAP.           NO      :   One line per depth step
~Well Information Section
#MNEM       .UNIT                                         VALUE :DESCRIPTION
#------------------------------------------------------------------------------
STRT        .FT                                             608 :START DEPTH
STOP        .FT                                            9135 :STOP DEPTH
STEP        .FT                                             0.5 :STEP      
NULL        .                                           -999.25 :NULL      
COMP        .                             PHILLIPS PETROLEUM CO :COMPANY   
WELL        .                                OCS 00757 ST00BP00 :WELL      
FLD         .                           WEST CAMERON BLOCK 0118 :FIELD     
LOC         .                                                   :LOCATION  
CNTY        .                                      WEST CAMERON :LOCATION  
STAT        .                                         LOUISIANA :STATE     
CTRY        .                                     UNITED STATES :COUNTRY   
SRVC        .                                                   :SERVICE COMPANY
DATE        .                             9/13/2023 11:18:18 AM :LOG DATE  
API         .                                    17700400630000 :API NUMBER
UWI         .                                    17700400630000 :UNIQUE WELL ID
XCOORD      .                                  1437747.16229911 :SURFACE X 
YCOORD      .                                  10702102.5427903 :SURFACE Y 
LAT         .                                         29.487661 :LATITUDE  
LON         .                                       -93.6372228 :LONGITUDE 
ELEV        .FT                                              84 :ELEVATION VALUE
ELEV_TYPE   .                                                KB :ELEVATION REFERENCE TYPE
~Curve Information Section
#MNEM       .UNIT                                      API CODE :CURVE DESCRIPTION
#------------------------------------------------------------------------------
DEPT        .FT                                                 :DEPTH     
ASFL        .OHMM                                               :          
ASN         .OHMM                                               :          
CALI        .IN                                                 :          
DRHO        .G/CC                                               :          
GR          .GAPI                                               :          
GR_NORM     .GAPI                                               :GammaRay Normalized
ILD         .OHMM                                               :          
RHOB        .G/CC                                               :          
SP          .MV                                                 :          
SP_NORM     .MV                                                 :SP Normalized
VSH_GR      .V/V                                                :Volume of Shale from GR
VSH_SP      .V/V                                                :Volume of Shale from SP
~A        DEPTH           ASFL            ASN           CALI           DRHO             GR        GR_NORM            ILD           RHOB             SP        SP_NORM         VSH_GR         VSH_SP
# ...
      4728.5000        -999.25         1.5382        10.8328        -0.0114        76.5452        33.3377         0.7782         2.1305      -156.0227       -45.8186    0.007185104       0.173234
      4729.0000        -999.25         1.5145        10.9161        -0.0116        73.0087       31.63827         0.7444         2.1324      -156.9111        -46.707              0      0.1564717
      4729.5000        -999.25         1.4912        10.9708        -0.0146           69.9       30.14427         0.7131         2.1358      -157.3323       -47.1282              0      0.1485245
      4730.0000        -999.25         1.4686         10.998        -0.0167           65.7       28.12619         0.6869         2.1414      -157.2017       -46.9976              0      0.1509887
      4730.5000        -999.25         1.4487        10.8509        -0.0174        60.8254       25.78415         0.6611         2.1489      -157.0129       -46.8088              0       0.154551
      4731.0000        -999.25         1.4289        10.5603        -0.0151        57.0994       23.99378         0.6379         2.1568      -156.8572       -46.6531              0      0.1574887
      4731.5000        -999.25         1.4131        10.4557        -0.0123        54.2819       22.63952          0.615         2.1575      -157.3936       -47.1895              0      0.1473679
      4732.0000        -999.25         1.3915        10.4053        -0.0119        54.0016       22.50372         0.5947         2.1534      -158.7156       -48.5115              0      0.1224245
      4732.5000        -999.25         1.3799        10.4821        -0.0126         59.449       25.11831         0.5736         2.1406      -159.9712       -49.7671              0     0.09873394
      4733.0000        -999.25         1.3689        10.5797        -0.0133        65.7769       28.15577         0.5519         2.1298      -159.9253       -49.7212              0     0.09960002
      4733.5000        -999.25         1.3667        10.6796        -0.0079        69.4213       29.90456         0.5419          2.124      -159.4634       -49.2593              0      0.1083151
      4734.0000        -999.25         1.3774        10.7859        -0.0029        71.0732        30.6966         0.5364         2.1252      -158.9653       -48.7612              0      0.1177132
      4734.5000        -999.25         1.3861        10.8958         0.0005        71.5248       30.91221         0.5521         2.1252      -158.8848       -48.6807              0      0.1192321
      4735.0000        -999.25         1.3937        10.9461         0.0007        72.0178       31.14779         0.5707         2.1244      -159.4226       -49.2185              0      0.1090849
      4735.5000        -999.25         1.3991        10.9609        -0.0014        72.8608       31.55136          0.588         2.1128      -159.9937       -49.7896              0     0.09830943
      4736.0000        -999.25         1.3967        11.0116         -0.004        75.8524       32.98667         0.5968         2.1028      -160.4695       -50.2654              0     0.08933207
      4736.5000        -999.25         1.3924        11.2103        -0.0054        80.3142       35.12808         0.6004         2.0997      -160.5403       -50.3362     0.04527835     0.08799621
      4737.0000        -999.25          1.385        11.4909        -0.0068        84.5544       37.16298         0.6028         2.0976      -160.1003       -49.8962     0.08857402     0.09629814
      4737.5000        -999.25         1.3776        11.8513        -0.0062        87.0918       38.38019         0.6049         2.0961      -159.8662       -49.6621      0.1144721      0.1007151
      4738.0000        -999.25         1.3775        11.9827        -0.0042        87.9849       38.80785         0.6021         2.0997        -159.79       -49.5859      0.1235714      0.1021528
      4738.5000        -999.25         1.3803        12.0115        -0.0019        84.8285        37.2909         0.5945         2.1115      -160.0544       -49.8503     0.09129577     0.09716415
      4739.0000        -999.25         1.3994        11.9027        -0.0009        79.0641       34.52158         0.5823         2.1204      -160.6653       -50.4612     0.03237412     0.08563773
      4739.5000        -999.25         1.4206         11.789        -0.0012         75.021       32.57889         0.5749         2.1299      -161.8218       -51.6177              0     0.06381701
      4740.0000        -999.25         1.4353        11.3222        -0.0021        74.1957       32.18138         0.5704         2.1299      -162.8777       -52.6736              0     0.04389435
      4740.5000        -999.25         1.4494          10.91        -0.0029        75.1887       32.65697         0.5654          2.123      -163.6931        -53.489              0     0.02850946
      4741.0000        -999.25          1.453        10.6827        -0.0016        75.5367       32.82283         0.5553         2.1251      -164.2632       -54.0591              0     0.01775281
      4741.5000        -999.25         1.4555        10.5143        -0.0018        73.7153       31.94704         0.5453         2.1283      -164.5837       -54.3796              0     0.01170565
      4742.0000        -999.25         1.4598        10.3907        -0.0022        71.5444       30.90328         0.5359         2.1334      -164.7039       -54.4998              0    0.009437705
      4742.5000        -999.25         1.4643        10.3766        -0.0037        71.2928       30.78131         0.5338         2.1414      -164.4934       -54.2893              0     0.01340945
      4743.0000        -999.25         1.4675        10.3846        -0.0051        72.1202       31.17738         0.5447         2.1511      -163.4736       -53.2695              0     0.03265093
      4743.5000        -999.25         1.4667        10.4383        -0.0062        74.9132       32.51733         0.5677         2.1616      -162.4546       -52.2505              0     0.05187736
      4744.0000        -999.25         1.4575        10.4678        -0.0032        81.3982       35.63017         0.5914         2.1747       -160.772       -50.5679     0.05596112      0.0836245
      4744.5000        -999.25         1.4348        10.4787         0.0019        91.7139       40.58257         0.6156         2.1648      -158.6482       -48.4441      0.1613313      0.1236962
      4745.0000        -999.25         1.4048         10.532         0.0051        97.9032       43.55348         0.6446         2.1372      -156.4102       -46.2061      0.2245421      0.1659226
      4745.5000        -999.25         1.3904         10.709         0.0051       100.9563       45.01838         0.6756         2.1214      -154.1157       -43.9116      0.2557101      0.2092151
      4746.0000        -999.25         1.3904        10.8414         0.0042       102.5195       45.76777         0.7209         2.1278      -151.4302       -41.2261      0.2716547      0.2598849
      4746.5000        -999.25          1.407        10.8488         0.0033       102.5345       45.77372         0.7628         2.1363      -150.0627       -39.8586      0.2717814      0.2856868
      4747.0000        -999.25         1.4393        10.8515          0.002        99.7477       44.43426         0.7824         2.1329      -149.3464       -39.1423      0.2432821      0.2992019
      4747.5000        -999.25         1.4823         10.838         0.0004        96.9609       43.09488          0.802         2.1093       -149.782       -39.5779      0.2147847       0.290983
      4748.0000        -999.25         1.5234        10.8145        -0.0037        94.1742       41.75551         0.8068         2.0939       -150.511       -40.3069      0.1862875      0.2772283
      4748.5000        -999.25         1.5356        10.7891        -0.0103        92.2343       40.82267         0.8091         2.0883      -151.6262       -41.4221      0.1664398      0.2561868
