#------------------------------------------------------------------------------
# Created by    : vladimir.rabinovich
# Created on    : 09/19/2023 17:20:44
#------------------------------------------------------------------------------
~Version Information Section
VERS.           2.0     :   CWLS log ASCII Standard - VERSION 2.0
WRAP.           NO      :   One line per depth step
~Well Information Section
#MNEM       .UNIT                                         VALUE :DESCRIPTION
#------------------------------------------------------------------------------
STRT        .FT                                            2904 :START DEPTH
STOP        .FT                                           14016 :STOP DEPTH
STEP        .FT                                             0.5 :STEP      
NULL        .                                           -999.25 :NULL      
COMP        .                                          MCN CORP :COMPANY   
WELL        .                                OCS 00043 ST00BP00 :WELL      
FLD         .                          EUGENE ISLAND BLOCK 0089 :FIELD     
LOC         .                                                   :LOCATION  
CNTY        .                                     EUGENE ISLAND :LOCATION  
STAT        .                                         LOUISIANA :STATE     
CTRY        .                                     UNITED STATES :COUNTRY   
SRVC        .                                                   :SERVICE COMPANY
DATE        .                             9/13/2023 11:18:42 AM :LOG DATE  
API         .                                    17709009460000 :API NUMBER
UWI         .                                    17709009460000 :UNIQUE WELL ID
XCOORD      .                                  2058690.32320654 :SURFACE X 
YCOORD      .                                  10563305.2032801 :SURFACE Y 
LAT         .                                        29.1009424 :LATITUDE  
LON         .                                       -91.6898776 :LONGITUDE 
ELEV        .FT                                              49 :ELEVATION VALUE
ELEV_TYPE   .                                                KB :ELEVATION REFERENCE TYPE
~Curve Information Section
#MNEM       .UNIT                                      API CODE :CURVE DESCRIPTION
#------------------------------------------------------------------------------
DEPT        .FT                                                 :DEPTH     
ASN         .OHMM                                               :          
CALI        .IN                                                 :          
DT          .US/F                                               :          
GR          .GAPI                                               :          
GR_NORM     .GAPI                                               :GammaRay Normalized
ILD         .OHMM                                               :          
SP          .MV                                                 :          
SP_NORM     .MV                                                 :SP Normalized
VSH_GR      .V/V                                                :Volume of Shale from GR
VSH_SP      .V/V                                                :Volume of Shale from SP
~A        DEPTH            ASN           CALI             DT             GR        GR_NORM            ILD             SP        SP_NORM         VSH_GR         VSH_SP
# ...
      7412.0000         0.6832         12.476       129.8462        81.3175       81.13152           0.58      -139.0139        -7.4237              1      0.9257028
      7412.5000         0.6698        12.4937       132.7998         77.704       76.76607         0.5175      -142.2124       -10.6403      0.9311929      0.8816397
      7413.0000         0.6526        12.4697       133.9482        74.8572       73.32644         0.4553      -145.2632       -13.7092      0.8580093         0.8396
      7413.5000         0.6305        12.3975       134.3169        73.4467       71.62162         0.4062      -149.3616       -17.8258      0.8217366      0.7832082
      7414.0000         0.6005         12.299       132.7554        72.4491       70.41534         0.3757      -153.4341       -21.9164       0.796071      0.7271726
      7414.5000         0.5636        12.2139       129.7134        72.3051       70.23997         0.3671      -161.3137       -29.8141      0.7923399      0.6189849
      7415.0000         0.5275        12.1429       127.5074        72.7717       70.80218         0.3746      -169.4517       -37.9703      0.8043016      0.5072562
      7415.5000         0.4932        12.0886        125.749         71.729       69.54143         0.3905      -175.1104       -43.6471      0.7774772      0.4294918
      7416.0000          0.476        12.0742       124.4186        69.2773        66.5791         0.4072      -177.9546       -46.5095       0.714449      0.3902808
      7416.5000         0.4799        12.0827       122.3676        64.2523       60.50882         0.4201      -173.8784       -42.4514      0.5852939      0.4458712
      7417.0000         0.5445        12.1162       119.6624        60.9855       56.56208           0.43      -160.4727       -29.0638      0.5013208       0.629263
      7417.5000         0.5967        12.1849       118.1475        60.3716        55.8192         0.4406       -151.929       -20.5383      0.4855148      0.7460507
      7418.0000         0.6367        12.2432       117.0328         62.822       58.77729         0.4514      -148.2881       -16.9155       0.548453      0.7956781
      7418.5000         0.6306        12.2755       116.5255        67.0179       63.84336         0.4598      -151.1692       -19.8147      0.6562417       0.755963
      7419.0000         0.6023        12.2826       115.1914        70.2155       67.70387         0.4675       -157.979       -26.6427      0.7383803      0.6624287
      7419.5000         0.5778        12.2751       114.5778         71.462       69.20785         0.4734        -166.98       -35.6618      0.7703797      0.5388795
      7420.0000         0.5809          12.22       114.8969         70.988       68.63393         0.4821      -177.1616       -45.8616      0.7581688      0.3991562
      7420.5000         0.6124        12.1465         115.58        69.7103       67.08949         0.4992       -179.043       -47.7611      0.7253084      0.3731356
      7421.0000         0.6788        12.0819       116.8464        67.6598        64.6116          0.527      -173.5168        -42.253      0.6725872      0.4485891
      7421.5000         0.7357        12.0768       118.6123        64.2721       60.51884         0.5649      -166.7144       -35.4688      0.5855072      0.5415233
      7422.0000         0.7683        12.1805       121.7626        63.0399       59.02923         0.6172      -160.9448       -29.7173      0.5538135       0.620311
      7422.5000         0.7637        12.3925       124.7531        62.8864       58.84251         0.6634      -152.9104        -21.701      0.5498406      0.7301233
      7423.0000         0.7427        12.5634       128.0681        64.1473       60.36388         0.6741      -145.9678       -14.7766      0.5822103      0.8249781
      7423.5000         0.7314        12.6954       133.6899        66.6534       63.38925         0.6673      -138.7151         -7.542      0.6465798      0.9240822
      7424.0000         0.7375        12.7855       135.9426        70.1401       67.59879         0.6605      -134.5835        -3.4285      0.7361444      0.9804315
      7424.5000         0.7305        12.8249       137.3408        73.7021       71.89941         0.6547       -132.324        -1.1872       0.827647              1
      7425.0000         0.7225         12.844       137.6667        76.9432       75.81232         0.6427      -130.7434         0.3753      0.9109004              1
      7425.5000         0.7135        12.9056       139.6782        80.0061       79.51002         0.6249      -129.5444         1.5561      0.9895748              1
      7426.0000         0.7194        13.0292       141.4834        81.7891       81.66207         0.6056      -129.5242         1.5582              1              1
      7426.5000         0.7374        13.0973       143.2554        82.6422       82.69093         0.5865      -131.1233         -0.059              1              1
      7427.0000           0.76        12.9656        143.623        82.5283       82.55205         0.5667      -134.0154        -2.9693              1      0.9867219
      7427.5000          0.786        12.6298       141.0432        81.4761       81.27984         0.5462      -140.1169        -9.0889              1      0.9028918
      7428.0000         0.7939        12.3903        137.074        80.4508       80.04021         0.5278      -144.8462       -13.8363              1      0.8378589
      7428.5000         0.7641        12.2547       132.6768        79.7673       79.21328         0.5102      -147.3013       -16.3096      0.9832613      0.8039781
      7429.0000         0.7297        12.1885       120.8379        78.5619       77.75616         0.4939      -147.6892       -16.7156      0.9522586      0.7984164
      7429.5000         0.7036        12.2338       118.9446        76.9829        75.8477         0.4787      -146.3938       -15.4383      0.9116532      0.8159137
      7430.0000         0.6908        12.3067       119.0011        75.0177       73.47295         0.4656      -144.9265       -13.9892      0.8611265      0.8357644
      7430.5000         0.7058        12.3722       119.9648        73.5199       71.66256         0.4569      -144.6997       -13.7805      0.8226076      0.8386233
      7431.0000         0.7483        12.4113       121.3076        72.9421       70.96329         0.4502      -146.7129       -15.8119      0.8077297      0.8107959
      7431.5000         0.7789         12.427       122.1161        71.8073       69.59142         0.4492      -151.8701       -20.9872      0.7785409      0.7399014
      7432.0000         0.7971        12.4226       122.4149        71.5051       69.22501         0.4492      -156.2893       -25.4245      0.7707448      0.6791164
      7432.5000         0.7879        12.3922       121.9993         69.851       67.22597         0.4538      -158.9639       -28.1173      0.7282121      0.6422288
      7433.0000         0.7598        12.3426       122.1462        66.4592       63.12814         0.4589      -159.2129       -28.3844      0.6410244      0.6385699
      7433.5000         0.7344        12.2888       123.4521        63.7531       59.85858         0.4671      -157.0161       -26.2057      0.5714591      0.6684151
      7434.0000         0.7108         12.243       123.9294         61.877        57.5913         0.4754      -153.8252        -23.033      0.5232192      0.7118767
      7434.5000          0.691        12.2086       123.0291        61.1782       56.74601         0.4872      -148.6533       -17.8792      0.5052344      0.7824767
      7435.0000         0.6755         12.175       122.2849        63.2578       59.25615          0.499      -144.8167       -14.0607      0.5586416      0.8347849
      7435.5000         0.6744         12.145       121.7023        67.0853       63.87741         0.5111      -142.4246       -11.6868      0.6569662      0.8673041
      7436.0000         0.6876        12.1546       123.1545        70.3739        67.8477         0.5223      -142.0107        -11.291      0.7414405       0.872726
