#------------------------------------------------------------------------------
# Created by    : vladimir.rabinovich
# Created on    : 09/19/2023 17:21:07
#------------------------------------------------------------------------------
~Version Information Section
VERS.           2.0     :   CWLS log ASCII Standard - VERSION 2.0
WRAP.           NO      :   One line per depth step
~Well Information Section
#MNEM       .UNIT                                         VALUE :DESCRIPTION
#------------------------------------------------------------------------------
STRT        .FT                                            3871 :START DEPTH
STOP        .FT                                           10481 :STOP DEPTH
STEP        .FT                                             0.5 :STEP      
NULL        .                                           -999.25 :NULL      
COMP        .                               TALOS PETROLEUM LLC :COMPANY   
WELL        .                                OCS 00300 ST00BP00 :WELL      
FLD         .                           WEST CAMERON BLOCK 0045 :FIELD     
LOC         .                                                   :LOCATION  
CNTY        .                                      WEST CAMERON :LOCATION  
STAT        .                                         LOUISIANA :STATE     
CTRY        .                                     UNITED STATES :COUNTRY   
SRVC        .                                                   :SERVICE COMPANY
DATE        .                             9/13/2023 11:18:36 AM :LOG DATE  
API         .                                    17700410010000 :API NUMBER
UWI         .                                    17700410010000 :UNIQUE WELL ID
XCOORD      .                                  1453780.44334001 :SURFACE X 
YCOORD      .                                   10773222.791693 :SURFACE Y 
LAT         .                                         29.683533 :LATITUDE  
LON         .                                        -93.587947 :LONGITUDE 
ELEV        .FT                                              92 :ELEVATION VALUE
ELEV_TYPE   .                                                KB :ELEVATION REFERENCE TYPE
~Curve Information Section
#MNEM       .UNIT                                      API CODE :CURVE DESCRIPTION
#------------------------------------------------------------------------------
DEPT        .FT                                                 :DEPTH     
ATR         .OHMM                                               :          
CATR        .MMHO                                               :          
DCAL        .IN                                                 :          
DRHB        .G/C3                                               :          
GR          .GAPI                                               :          
GR_NORM     .GAPI                                               :GammaRay Normalized
PSR         .OHMM                                               :          
RHOB        .G/C3                                               :          
ROP5        .F/HR                                               :          
TNPH        .%                                                  :          
VSH_GR      .V/V                                                :Volume of Shale from GR
~A        DEPTH            ATR           CATR           DCAL           DRHB             GR        GR_NORM            PSR           RHOB           ROP5           TNPH         VSH_GR
# ...
     10418.5000            0.7        1428.57        -999.25        -999.25        88.2699       73.36721            0.8        -999.25          20.39        -999.25      0.8588768
     10419.0000           0.77       1298.699        -999.25        -999.25        87.8999       72.97036           1.25        -999.25          21.05        -999.25      0.8504332
     10419.5000           0.76       1315.789        -999.25        -999.25          93.98       79.49178           1.08        -999.25          21.05        -999.25      0.9891867
     10420.0000           0.72       1388.889        -999.25        -999.25       101.1299       87.16046            0.8        -999.25          21.25        -999.25              1
     10420.5000           0.64         1562.5        -999.25        -999.25       102.2799       88.39391           0.67        -999.25          22.25        -999.25              1
     10421.0000           0.58       1724.137        -999.25        -999.25         101.45       87.50389           0.55        -999.25          21.58        -999.25              1
     10421.5000           0.53       1886.793        -999.25        -999.25        99.9399       85.88409            0.5        -999.25          21.98        -999.25              1
     10422.0000           0.53       1886.793        -999.25        -999.25         100.12       86.07736           0.53        -999.25          22.39        -999.25              1
     10422.5000           0.52       1923.076        -999.25        -999.25       101.4099       87.46078            0.5        -999.25          23.78        -999.25              1
     10423.0000           0.52       1923.076        -999.25        -999.25         100.35       86.32404           0.51        -999.25          23.78        -999.25              1
     10423.5000           0.52       1923.076        -999.25        -999.25        99.0599       84.94025           0.52        -999.25          22.53        -999.25              1
     10424.0000           0.53       1886.793        -999.25        -999.25        99.5699       85.48725           0.52        -999.25          22.39        -999.25              1
     10424.5000           0.54       1851.852        -999.25        -999.25           98.6       84.44701           0.55        -999.25          21.45        -999.25              1
     10425.0000           0.54       1851.852        -999.25        -999.25          99.99       85.93792           0.57        -999.25          19.25        -999.25              1
     10425.5000           0.54       1851.852        -999.25        -999.25          97.73       83.51391           0.54        -999.25          19.25        -999.25              1
     10426.0000           0.54       1851.852        -999.25        -999.25          97.58         83.353           0.53        -999.25          19.52        -999.25              1
     10426.5000           0.54       1851.852        -999.25        -999.25          97.35       83.10631           0.54        -999.25          18.91        -999.25              1
     10427.0000           0.55       1818.182        -999.25        -999.25          97.86       83.65334           0.54        -999.25             18        -999.25              1
     10427.5000           0.56       1785.713        -999.25        -999.25        95.3799       80.99318           0.56        -999.25           16.3        -999.25              1
     10428.0000           0.59       1694.914        -999.25        -999.25        94.5399       80.09223           0.59        -999.25           16.3        -999.25              1
     10428.5000           0.61       1639.344        -999.25        -999.25          94.72       80.28547           0.62        -999.25          16.22        -999.25              1
     10429.0000           0.63       1587.301        -999.25        -999.25          98.22       84.03947           0.66        -999.25          15.89        -999.25              1
     10429.5000           0.63       1587.301        -999.25        -999.25          97.75       83.53538           0.67        -999.25          15.16        -999.25              1
     10430.0000           0.61       1639.344        -999.25        -999.25          98.74        84.5972           0.64        -999.25          14.43        -999.25              1
     10430.5000           0.59       1694.914        -999.25        -999.25           98.6       84.44701           0.57        -999.25          14.83        -999.25              1
     10431.0000           0.58       1724.137        -999.25        -999.25        99.5299       85.44434           0.57        -999.25          14.32        -999.25              1
     10431.5000           0.58       1724.137        -999.25        -999.25        98.3799        84.2109           0.57        -999.25          14.23        -999.25              1
     10432.0000           0.59       1694.914        -999.25        -999.25        98.4199       84.25381           0.58        -999.25          13.54        -999.25              1
     10432.5000           0.58       1724.137        -999.25        -999.25        96.4399       82.13011            0.6        -999.25          13.95        -999.25              1
     10433.0000           0.57       1754.385        -999.25        -999.25        96.4399       82.13011            0.6        -999.25          13.95        -999.25              1
     10433.5000           0.56       1785.713        -999.25        -999.25        95.7599       81.40076           0.58        -999.25          13.23        -999.25              1
     10434.0000           0.54       1851.852        -999.25        -999.25          97.87       83.66406           0.53        -999.25          13.35        -999.25              1
     10434.5000           0.54       1851.852        -999.25        -999.25           97.6       83.37447           0.54        -999.25          12.98        -999.25              1
     10435.0000           0.55       1818.182        -999.25        -999.25          97.21       82.95616           0.56        -999.25          13.73        -999.25              1
     10435.5000           0.55       1818.182        -999.25        -999.25        96.8899       82.61278           0.57        -999.25          14.37        -999.25              1
     10436.0000           0.55       1818.182        -999.25        -999.25        96.3799       82.06574           0.57        -999.25          14.81        -999.25              1
     10436.5000           0.55       1818.182        -999.25        -999.25        97.3999       83.15977           0.56        -999.25          15.19        -999.25              1
     10437.0000           0.54       1851.852        -999.25        -999.25          95.84       81.48675           0.57        -999.25          16.76        -999.25              1
     10437.5000           0.53       1886.793        -999.25        -999.25          95.74       81.37948           0.57        -999.25          17.36        -999.25              1
     10438.0000           0.51       1960.783        -999.25        -999.25        95.3199       80.92885           0.53        -999.25          20.09        -999.25              1
     10438.5000           0.49       2040.814        -999.25        -999.25        96.4299       82.11939           0.47        -999.25          20.74        -999.25              1
     10439.0000           0.49       2040.814        -999.25        -999.25          95.59       81.21859           0.48        -999.25          20.74        -999.25              1
     10439.5000           0.48       2083.332        -999.25        -999.25        -999.25        -999.25           0.49        -999.25          23.47        -999.25        -999.25
     10440.0000           0.47       2127.656        -999.25        -999.25        -999.25        -999.25           0.46        -999.25           22.9        -999.25        -999.25
     10440.5000           0.48       2083.332        -999.25        -999.25        -999.25        -999.25           0.47        -999.25          22.99        -999.25        -999.25
