#------------------------------------------------------------------------------
# Created by    : vladimir.rabinovich
# Created on    : 09/19/2023 17:22:04
#------------------------------------------------------------------------------
~Version Information Section
VERS.           2.0     :   CWLS log ASCII Standard - VERSION 2.0
WRAP.           NO      :   One line per depth step
~Well Information Section
#MNEM       .UNIT                                         VALUE :DESCRIPTION
#------------------------------------------------------------------------------
STRT        .FT                                           911.5 :START DEPTH
STOP        .FT                                           12432 :STOP DEPTH
STEP        .FT                                             0.5 :STEP      
NULL        .                                           -999.25 :NULL      
COMP        .                                    EXXON CO U S A :COMPANY   
WELL        .                               OCS G03260 ST00BP00 :WELL      
FLD         .                                           WILDCAT :FIELD     
LOC         .                                                   :LOCATION  
CNTY        .                                      WEST CAMERON :LOCATION  
STAT        .                                         LOUISIANA :STATE     
CTRY        .                                     UNITED STATES :COUNTRY   
SRVC        .                                                   :SERVICE COMPANY
DATE        .                             9/13/2023 11:18:18 AM :LOG DATE  
API         .                                    17700402650000 :API NUMBER
UWI         .                                    17700402650000 :UNIQUE WELL ID
XCOORD      .                                  1465533.33943019 :SURFACE X 
YCOORD      .                                  10722576.3450242 :SURFACE Y 
LAT         .                                        29.5443718 :LATITUDE  
LON         .                                       -93.5501671 :LONGITUDE 
ELEV        .FT                                              99 :ELEVATION VALUE
ELEV_TYPE   .                                                KB :ELEVATION REFERENCE TYPE
~Curve Information Section
#MNEM       .UNIT                                      API CODE :CURVE DESCRIPTION
#------------------------------------------------------------------------------
DEPT        .FT                                                 :DEPTH     
CALI        .IN                                                 :          
DRHO        .G/CC                                               :          
GR          .GAPI                                               :          
GR_NORM     .GAPI                                               :GammaRay Normalized
ILD         .OHMM                                               :          
RHOB        .G/CC                                               :          
VSH_GR      .V/V                                                :Volume of Shale from GR
~A        DEPTH           CALI           DRHO             GR        GR_NORM            ILD           RHOB         VSH_GR
# ...
      8750.5000        12.2707         0.0042        25.4526       34.88115         0.3009         2.2142     0.04002437
      8751.0000         12.267         0.0007        25.2114       34.47077         0.3048         2.2047     0.03129293
      8751.5000        12.2535         0.0004         25.392       34.77698         0.3086         2.2071     0.03780811
      8752.0000        12.2381         0.0042        25.7402       35.36816         0.3121         2.2134     0.05038647
      8752.5000        12.2165         0.0089        26.0836       35.95119         0.3121         2.2081      0.0627913
      8753.0000        12.2049         0.0156        26.4349       36.54748          0.312          2.205     0.07547833
      8753.5000        12.1873         0.0116        26.9074       37.34988          0.312         2.2017     0.09255064
      8754.0000        12.1782         0.0046        27.0218       37.54359         0.3119         2.1956     0.09667222
      8754.5000         12.169         0.0069        26.4397       36.55392         0.3119         2.2032     0.07561533
      8755.0000        12.1698         0.0168        25.7943       35.45653         0.3118         2.2104     0.05226655
      8755.5000        12.1665         0.0197        25.4562       34.88148         0.3118         2.2169     0.04003152
      8756.0000        12.1738         0.0146        25.5589       35.05549         0.3082          2.224      0.0437338
      8756.5000        12.1606         0.0094        25.7228       35.33333         0.3039         2.2293     0.04964528
      8757.0000        12.1517         0.0115        25.5906       35.10817         0.2997         2.2296     0.04485467
      8757.5000        12.1366         0.0123        25.6766       35.25364         0.2954         2.2375     0.04794969
      8758.0000        12.1211         0.0289        26.3364       36.37432         0.2913         2.2304     0.07179406
      8758.5000        12.1178         0.0561        27.2166       37.86951         0.2895         2.2362      0.1036066
      8759.0000        12.1297         0.0465        27.8206       38.89521         0.2878         2.2517      0.1254301
      8759.5000        12.1633         0.0388         28.089        39.3508         0.2861         2.2446      0.1351233
      8760.0000           12.2         0.0377        28.5171       40.07758         0.2844         2.2431      0.1505868
      8760.5000        12.2138         0.0378        28.8798       40.69341         0.2826          2.245      0.1636896
      8761.0000        12.1733         0.0337        29.1358       41.12774         0.2809         2.2404      0.1729306
      8761.5000        12.1315         0.0247        29.1265       41.11142         0.2792         2.2263      0.1725833
      8762.0000        12.1198         0.0329        28.8975       40.72179         0.2788          2.216      0.1642933
      8762.5000        12.1169          0.032        28.5904       40.19925         0.2787         2.2051      0.1531756
      8763.0000        12.1109         0.0402        27.8675       38.97032         0.2787         2.1999       0.127028
      8763.5000        12.0973         0.0434        26.8972       37.32082         0.2786          2.204     0.09193233
      8764.0000        12.0552         0.0276        26.1569       36.06232         0.2786         2.1961     0.06515576
      8764.5000        12.0431         0.0199         26.549        36.7281         0.2785         2.1908     0.07932135
      8765.0000         12.062         0.0176        26.4946       36.63499         0.2796         2.1955     0.07734031
      8765.5000        12.0803         0.0162        25.9606       35.72705         0.2817         2.2026     0.05802244
      8766.0000         12.086           0.01        25.4442       34.84886         0.2837         2.2007     0.03933748
      8766.5000        12.0992         0.0179        25.0432       34.16693         0.2857         2.2144      0.0248284
      8767.0000        12.1083         0.0254        24.8567       33.84951         0.2877         2.2233     0.01807477
      8767.5000        12.1166         0.0238        24.8002       33.75282         0.2898         2.2176     0.01601735
      8768.0000        12.1226         0.0247        24.6544       33.50455         0.2908         2.2157     0.01073505
      8768.5000        12.1279         0.0286        24.4636       33.17965         0.2913         2.2201    0.003822327
      8769.0000         12.131         0.0296        24.6187        33.4427         0.2919         2.2171    0.009419137
      8769.5000        12.1407         0.0271        25.0341        34.1479         0.2925         2.1993     0.02442348
      8770.0000        12.1543         0.0235        25.3535       34.69015         0.2931         2.1817     0.03596058
      8770.5000        12.1591         0.0208        25.5832       35.07998         0.2936         2.1727     0.04425479
      8771.0000        12.1557          0.017        25.5943       35.09815         0.2934         2.1582     0.04464154
      8771.5000         12.145         0.0145          25.15       34.34265         0.2911         2.1653     0.02856697
      8772.0000         12.136         0.0146        24.6632       33.51475         0.2887         2.1783     0.01095208
      8772.5000         12.126         0.0172        24.7502       33.66209         0.2864         2.1946     0.01408695
      8773.0000        12.1152          0.015        24.9051       33.92479          0.284         2.2038     0.01967637
      8773.5000        12.1079         0.0089        24.6919       33.56182         0.2817         2.2039     0.01195364
      8774.0000        12.1034         0.0026        24.4208       33.10064         0.2793         2.1953    0.002141181
      8774.5000        12.1015         0.0024        24.1653       32.66578         0.2762         2.1898              0
      8775.0000        12.0967         0.0091        24.0664       32.49722         0.2708         2.1905              0
      8775.5000        12.0946         0.0175        23.8489       32.12693         0.2655         2.1932              0
      8776.0000        12.0946         0.0254        23.4797       31.49905         0.2601         2.2009              0
      8776.5000        12.0949         0.0194        23.7475       31.95361         0.2542         2.1984              0
      8777.0000        12.0931          0.013        24.5724       33.35466         0.2477         2.1966    0.007546039
      8777.5000          12.09         0.0092        25.2203       34.45513         0.2412         2.1936     0.03096025
      8778.0000        12.0829         0.0072         25.404       34.76661         0.2347         2.1894     0.03758735
      8778.5000        12.0758         0.0057        24.9831       34.05087         0.2282         2.1895     0.02235899
      8779.0000        12.0745         0.0045        24.5472       33.30964         0.2245         2.1891    0.006587982
      8779.5000        12.0764         0.0035        24.3467       32.96825         0.2245         2.1902              0
      8780.0000         12.077         0.0027        24.3365       32.95042         0.2244         2.1962              0
      8780.5000        12.0836         0.0013        24.9279       33.95469         0.2244         2.2032     0.02031261
      8781.0000        12.0901        -0.0008        26.0818         35.915         0.2243         2.2061     0.06202121
      8781.5000        12.0943        -0.0032        27.6381       38.55909         0.2242         2.2091      0.1182784
      8782.0000        12.0969        -0.0012        29.0167       40.90107         0.2355         2.2154      0.1681079
      8782.5000        12.1017         0.0063        30.4841       43.39408         0.2495         2.2393      0.2211507
      8783.0000        12.1101         0.0166         31.506       45.12991         0.2634         2.2519      0.2580832
      8783.5000        12.1129         0.0257        31.0917       44.42538         0.2996         2.2634      0.2430933
