#------------------------------------------------------------------------------
# Created by    : vladimir.rabinovich
# Created on    : 09/19/2023 17:20:44
#------------------------------------------------------------------------------
~Version Information Section
VERS.           2.0     :   CWLS log ASCII Standard - VERSION 2.0
WRAP.           NO      :   One line per depth step
~Well Information Section
#MNEM       .UNIT                                         VALUE :DESCRIPTION
#------------------------------------------------------------------------------
STRT        .FT                                            2904 :START DEPTH
STOP        .FT                                           14016 :STOP DEPTH
STEP        .FT                                             0.5 :STEP      
NULL        .                                           -999.25 :NULL      
COMP        .                                          MCN CORP :COMPANY   
WELL        .                                OCS 00043 ST00BP00 :WELL      
FLD         .                          EUGENE ISLAND BLOCK 0089 :FIELD     
LOC         .                                                   :LOCATION  
CNTY        .                                     EUGENE ISLAND :LOCATION  
STAT        .                                         LOUISIANA :STATE     
CTRY        .                                     UNITED STATES :COUNTRY   
SRVC        .                                                   :SERVICE COMPANY
DATE        .                             9/13/2023 11:18:42 AM :LOG DATE  
API         .                                    17709009460000 :API NUMBER
UWI         .                                    17709009460000 :UNIQUE WELL ID
XCOORD      .                                  2058690.32320654 :SURFACE X 
YCOORD      .                                  10563305.2032801 :SURFACE Y 
LAT         .                                        29.1009424 :LATITUDE  
LON         .                                       -91.6898776 :LONGITUDE 
ELEV        .FT                                              49 :ELEVATION VALUE
ELEV_TYPE   .                                                KB :ELEVATION REFERENCE TYPE
~Curve Information Section
#MNEM       .UNIT                                      API CODE :CURVE DESCRIPTION
#------------------------------------------------------------------------------
DEPT        .FT                                                 :DEPTH     
ASN         .OHMM                                               :          
CALI        .IN                                                 :          
DT          .US/F                                               :          
GR          .GAPI                                               :          
GR_NORM     .GAPI                                               :GammaRay Normalized
ILD         .OHMM                                               :          
SP          .MV                                                 :          
SP_NORM     .MV                                                 :SP Normalized
VSH_GR      .V/V                                                :Volume of Shale from GR
VSH_SP      .V/V                                                :Volume of Shale from SP
~A        DEPTH            ASN           CALI             DT             GR        GR_NORM            ILD             SP        SP_NORM         VSH_GR         VSH_SP
# ...
      5942.0000         0.5572        12.1055       124.5701        62.6814       61.48769         0.3772      -180.2412       -54.1372      0.6061211      0.2857918
      5942.5000         0.4819        12.0685       125.7804        61.7635       60.30695         0.3649      -184.6489       -58.5395      0.5809988      0.2254863
      5943.0000         0.4202        11.9975       126.2209        62.0454       60.66759         0.3421      -187.0623       -60.9475      0.5886722         0.1925
      5943.5000         0.3554        11.9539       127.2179        62.1602       60.81355         0.3289       -189.939       -63.8188      0.5917776      0.1531671
      5944.0000         0.3147        11.9417       128.2563         60.811       59.07866         0.3192      -195.5698       -69.4442      0.5548651     0.07610687
      5944.5000         0.2927        11.9378       128.1733         57.586       54.93358         0.3082      -198.2371       -72.1062      0.4666719     0.03964108
      5945.0000           0.28        11.9372         127.75         55.319       52.01948         0.2969      -199.7273        -73.591      0.4046698     0.01930132
      5945.5000         0.2693         11.937       127.5378        54.2737       50.67491         0.2879        -200.51       -74.3683      0.3760619    0.008653406
      5946.0000          0.264        11.9346       127.8043        54.1445       50.50751         0.2795      -200.6355       -74.4884      0.3725002    0.007008174
      5946.5000         0.2683        11.9199       128.2014        54.3606       50.78361         0.2742      -200.1824       -74.0299      0.3783747     0.01328905
      5947.0000         0.2761        11.9029       127.8534         53.998       50.31632         0.2714      -199.2407       -73.0828      0.3684324     0.02626299
      5947.5000         0.2856        11.8962       127.3107        52.2724        48.0977         0.2688      -198.5354       -72.3721      0.3212276     0.03599862
      5948.0000         0.2915        11.9074       126.8949        50.6351       45.99265         0.2674      -197.6292       -71.4605      0.2764394     0.04848627
      5948.5000         0.2952        11.9603       126.3016        49.7217       44.81755          0.266      -196.8635       -70.6894      0.2514373     0.05904932
      5949.0000         0.2919        11.9906       126.3938        48.9368       43.80756         0.2682      -194.7209       -68.5415      0.2299482     0.08847266
      5949.5000          0.291        11.9347       126.7672        48.7538       43.57102         0.2706      -185.8982       -59.7133      0.2249154      0.2094069
      5950.0000         0.3007        11.8957       127.4316        49.5869       44.63986         0.2682      -180.6492        -54.459      0.2476566      0.2813836
      5950.5000          0.316        11.8834       128.3201        50.0343       45.21328         0.2653      -176.8308       -50.6352       0.259857      0.3337644
      5951.0000         0.3265        11.9006        128.459        49.3588       44.34384         0.2584      -180.1672       -53.9662      0.2413583      0.2881342
      5951.5000         0.3299        11.9468       128.7632        48.0161       42.61731         0.2498      -186.7249       -60.5185      0.2046235      0.1983767
      5952.0000         0.3253        11.9812       128.5449        47.5345       41.99699         0.2409      -190.1707       -63.9589      0.1914254      0.1512479
      5952.5000         0.3145        11.9713       127.7865         46.946       41.23946         0.2317      -191.8386       -65.6214      0.1753077       0.128474
      5953.0000         0.2994        11.9772       126.8605         46.227       40.31414         0.2236      -192.2976        -66.075      0.1556199      0.1222603
      5953.5000         0.2842        12.0074        126.045         45.869       39.85276         0.2162      -191.9944       -65.7664      0.1458034      0.1264876
      5954.0000         0.2726        12.0546       125.5277        45.7035       39.63858          0.214      -190.8379       -64.6046      0.1412464      0.1424028
      5954.5000         0.2679        12.0973       125.1526        45.8655       39.84531         0.2265      -188.7266       -62.4878      0.1456449         0.1714
      5955.0000         0.2713        12.1387       125.6606        46.5067       40.66759         0.2272      -185.9761        -59.732      0.1631402      0.2091507
      5955.5000         0.2793        12.1736       126.8408        46.9861       41.28199         0.2342       -184.866       -58.6165      0.1762125      0.2244315
      5956.0000         0.2933         12.197       127.8074        46.5295       40.69393         0.2503      -187.0913       -60.8364      0.1637006      0.1940219
      5956.5000         0.3108        12.2169       125.9185        46.1965       40.26455         0.2664      -186.7727       -60.5124      0.1545649      0.1984603
      5957.0000         0.3347        12.2305       122.4919        46.3777       40.49594         0.2825      -186.2651       -59.9994       0.159488      0.2054877
      5957.5000         0.3759        12.2464       120.2212        48.4464        43.1523         0.3117      -185.2717       -59.0006      0.2160064      0.2191699
      5958.0000         0.4408        12.2204       118.1217        50.5588       45.86494         0.3459      -181.7019       -55.4254      0.2737221      0.2681452
      5958.5000          0.555        12.3293       117.8599        52.4291        48.2664          0.385       -175.311       -49.0291      0.3248169      0.3557658
      5959.0000         0.6909        12.4923       118.4415        53.5676       49.72775         0.4304      -169.5874       -43.3001      0.3559095      0.4342452
      5959.5000         0.7746        12.5999       120.3673        54.0099       50.29448         0.4853      -167.4243       -41.1317      0.3679676      0.4639493
      5960.0000         0.8232        12.6584       122.5154        53.9968        50.2761          0.513      -170.3806       -44.0826      0.3675767       0.423526
      5960.5000         0.8427        12.6732       123.8939        53.7912       50.01054         0.4618      -174.3545       -48.0511      0.3619263       0.369163
      5961.0000         0.8304        12.6832       124.0691        53.3256       49.41079         0.4169      -177.1719       -50.8631      0.3491656      0.3306425
      5961.5000         0.8103        12.6863       124.2777        53.0212       49.01827         0.3681      -179.0273       -52.7131      0.3408142         0.3053
      5962.0000         0.7861        12.6193       124.8844        52.9579        48.9354         0.3414      -179.9309       -53.6113       0.339051      0.2929959
      5962.5000         0.7593         12.495        125.668        53.4193        49.5268         0.3265      -180.4712       -54.1462       0.351634      0.2856685
      5963.0000         0.7354        12.4325       125.9014        53.6397       49.80843         0.3226      -180.9604         -54.63      0.3576262      0.2790411
      5963.5000         0.7204        12.4541       125.8544        52.8912       48.84534         0.3268       -182.625       -56.2892      0.3371348      0.2563123
      5964.0000         0.7051         12.509       126.2225        52.1658       47.91179         0.3343      -184.4673       -58.1261       0.317272      0.2311493
      5964.5000         0.6871        12.5167        126.637         51.661        47.2618          0.335      -185.9502       -59.6036      0.3034424      0.2109096
      5965.0000         0.6715        12.4313       126.7238        51.2485       46.73027         0.3416      -186.6062       -60.2543      0.2921333      0.2019959
      5965.5000         0.6565        12.3358       127.0511        50.7244       46.05548         0.3519       -186.906       -60.5487      0.2777761       0.197963
      5966.0000         0.6414        12.3177       128.0161        50.0272       45.15816         0.3643       -186.988       -60.6253      0.2586842      0.1969137
