#------------------------------------------------------------------------------
# Created by    : vladimir.rabinovich
# Created on    : 09/19/2023 17:20:13
#------------------------------------------------------------------------------
~Version Information Section
VERS.           2.0     :   CWLS log ASCII Standard - VERSION 2.0
WRAP.           NO      :   One line per depth step
~Well Information Section
#MNEM       .UNIT                                         VALUE :DESCRIPTION
#------------------------------------------------------------------------------
STRT        .FT                                             608 :START DEPTH
STOP        .FT                                            9135 :STOP DEPTH
STEP        .FT                                             0.5 :STEP      
NULL        .                                           -999.25 :NULL      
COMP        .                             PHILLIPS PETROLEUM CO :COMPANY   
WELL        .                                OCS 00757 ST00BP00 :WELL      
FLD         .                           WEST CAMERON BLOCK 0118 :FIELD     
LOC         .                                                   :LOCATION  
CNTY        .                                      WEST CAMERON :LOCATION  
STAT        .                                         LOUISIANA :STATE     
CTRY        .                                     UNITED STATES :COUNTRY   
SRVC        .                                                   :SERVICE COMPANY
DATE        .                             9/13/2023 11:18:18 AM :LOG DATE  
API         .                                    17700400630000 :API NUMBER
UWI         .                                    17700400630000 :UNIQUE WELL ID
XCOORD      .                                  1437747.16229911 :SURFACE X 
YCOORD      .                                  10702102.5427903 :SURFACE Y 
LAT         .                                         29.487661 :LATITUDE  
LON         .                                       -93.6372228 :LONGITUDE 
ELEV        .FT                                              84 :ELEVATION VALUE
ELEV_TYPE   .                                                KB :ELEVATION REFERENCE TYPE
~Curve Information Section
#MNEM       .UNIT                                      API CODE :CURVE DESCRIPTION
#------------------------------------------------------------------------------
DEPT        .FT                                                 :DEPTH     
ASFL        .OHMM                                               :          
ASN         .OHMM                                               :          
CALI        .IN                                                 :          
DRHO        .G/CC                                               :          
GR          .GAPI                                               :          
GR_NORM     .GAPI                                               :GammaRay Normalized
ILD         .OHMM                                               :          
RHOB        .G/CC                                               :          
SP          .MV                                                 :          
SP_NORM     .MV                                                 :SP Normalized
VSH_GR      .V/V                                                :Volume of Shale from GR
VSH_SP      .V/V                                                :Volume of Shale from SP
~A        DEPTH           ASFL            ASN           CALI           DRHO             GR        GR_NORM            ILD           RHOB             SP        SP_NORM         VSH_GR         VSH_SP
# ...
      8746.5000        -999.25         1.0981         11.115         0.0692       155.4548       75.69666         0.8111         2.3476       -57.6347        -2.0619      0.9084396      0.9992885
      8747.0000        -999.25         1.0801        11.2089          0.064       155.0217       75.46253         0.7821          2.323        -56.448        -2.0619      0.9034581      0.9992885
      8747.5000        -999.25         1.0712        11.2808         0.0421       155.1169       75.51559         0.7653         2.3044       -53.8184        -2.0619       0.904587      0.9992885
      8748.0000        -999.25         1.0693        11.3313         0.0349       155.0193       75.46384         0.7485         2.3106       -49.2838        -2.0619      0.9034861      0.9992885
      8748.5000        -999.25         1.0771        11.3579         0.0336       154.9065       75.40396         0.7561          2.324       -38.7358        -2.0619       0.902212      0.9992885
      8749.0000        -999.25         1.0871        11.3506         0.0324       154.7815       75.33733          0.772         2.3333       -29.3707        -2.0619      0.9007941      0.9992885
      8749.5000        -999.25         1.1079        11.3474         0.0291       154.8425       75.37178         0.8172         2.3325       -20.9027        -2.0619      0.9015272      0.9992885
      8750.0000        -999.25         1.1267        11.3566         0.0263       155.7632        75.8734         0.8603         2.3306       -19.4068        -2.0619         0.9122      0.9992885
      8750.5000        -999.25         1.1431        11.3783         0.0401       156.6716       76.36838         0.8912         2.3287       -18.4663        -2.0619      0.9227315      0.9992885
      8751.0000        -999.25         1.1571        11.4032          0.045       156.9097       76.49914         0.9221         2.3272        -18.555        -2.0619      0.9255136      0.9992885
      8751.5000        -999.25         1.1664        11.4182         0.0476       157.2178       76.66793          0.952         2.3328       -18.6437        -2.0619      0.9291049      0.9992885
      8752.0000        -999.25         1.1756        11.4327         0.0587       157.7187        76.9414         0.9697         2.3546       -18.7032        -2.0619      0.9349234      0.9992885
      8752.5000        -999.25         1.1846        11.4426         0.0696       157.0801       76.59565         0.9875         2.3716       -18.8172        -2.0619       0.927567      0.9992885
      8753.0000        -999.25           1.19        11.4497          0.068       155.2869       75.62242         1.0052         2.3758        -19.156        -2.0619      0.9068601      0.9992885
      8753.5000        -999.25         1.1955         11.448         0.0579       153.1641       74.47006         1.0123         2.3694       -19.7518        -2.0619      0.8823417      0.9992885
      8754.0000        -999.25         1.2009        11.4403         0.0639       152.9587       74.35986          1.008         2.3779       -25.4177        -2.0619      0.8799971      0.9992885
      8754.5000        -999.25         1.2058        11.4178         0.0621        153.885       74.86452         1.0038         2.3811       -33.9547        -2.0619      0.8907346      0.9992885
      8755.0000        -999.25         1.2107        11.3933         0.0537       155.1426       75.54927         0.9972         2.3768       -42.8367        -2.0619      0.9053037      0.9992885
      8755.5000        -999.25         1.2156        11.3557         0.0677       155.1277       75.54253         0.9932         2.3896       -48.1649        -2.0619      0.9051603      0.9992885
      8756.0000        -999.25         1.2252         11.313          0.083        154.228       75.05483         1.0082         2.4131       -49.4772        -2.0619      0.8947837      0.9992885
      8756.5000        -999.25         1.2378        11.2679          0.091       152.4138        74.0703         1.0295          2.429       -49.9455        -2.0619      0.8738363      0.9992885
      8757.0000        -999.25         1.2642        11.2163          0.092       150.2317       72.88567         1.0523         2.4403       -50.2098        -2.0619      0.8486313      0.9992885
      8757.5000        -999.25         1.3171        11.1647         0.0863       147.1809         71.229         1.0714         2.4426       -50.4377        -2.0619      0.8133829      0.9992885
      8758.0000        -999.25         1.3691        11.1099         0.0675       143.9673       69.48385         1.0901           2.43       -50.6821        -2.0619      0.7762521      0.9992885
      8758.5000        -999.25         1.4093         11.054         0.0425       140.4028       67.54803         1.0876         2.4363       -50.9445        -2.0619      0.7350646      0.9992885
      8759.0000        -999.25         1.4267        10.9983          0.027       137.7224       66.09266         1.0631         2.4466        -51.207        -2.0619      0.7040991      0.9992885
      8759.5000        -999.25         1.3641        10.9511          0.025       137.5076       65.97723         1.0263         2.4434       -51.3715        -2.0619      0.7016431      0.9992885
      8760.0000        -999.25         1.2945        10.9391         0.0529        144.604       69.83513         0.9863         2.4138       -51.4462        -2.2918      0.7837262       0.996646
      8760.5000        -999.25         1.2361        10.9382         0.0621       152.1274       73.92509         0.9382         2.3763       -51.5208        -2.4354      0.8707467      0.9949954
      8761.0000        -999.25         1.1773        10.9512         0.0705       156.2793       76.18285           0.89         2.3637       -51.4516        -2.4352       0.918784      0.9949977
      8761.5000        -999.25           1.13        10.9362         0.0793       160.7371       78.60677         0.8439          2.376       -51.2501        -2.2705      0.9703567      0.9968908
      8762.0000        -999.25         1.0888        10.9102         0.0737       165.0911       80.97429         0.8087         2.3691       -50.9349        -1.9553              1              1
      8762.5000        -999.25         1.0817        10.8746         0.0524       164.8005       80.81767         0.7736         2.3594       -50.5148        -1.5352              1              1
      8763.0000        -999.25         1.0849        10.8371         0.0418       164.4727       80.64083         0.7679         2.3518       -50.2363        -1.2567              1              1
      8763.5000        -999.25         1.0915        10.8185         0.0444       165.3823       81.13646         0.7828         2.3503       -49.9908        -1.0112              1              1
      8764.0000        -999.25         1.1031        10.8208         0.0557       167.8308       82.46848         0.8043         2.3537       -49.8224        -0.8428              1              1
      8764.5000        -999.25         1.1182        10.8231         0.0678       169.2688       83.25127         0.8309         2.3599       -49.7234        -0.7438              1              1
      8765.0000        -999.25         1.1411        10.8106         0.0687       169.1372       83.18106         0.8637          2.372       -49.6322        -0.6526              1              1
      8765.5000        -999.25         1.1677        10.7964         0.0587       169.6938       83.48486         0.8827         2.3836       -49.8336         -0.854              1              1
      8766.0000        -999.25         1.1988        10.7459         0.0487       171.4915       84.46318         0.9041         2.3936       -50.0508        -1.0712              1              1
      8766.5000        -999.25         1.2287        10.6889          0.042       172.8306       85.19218         0.9401         2.3915       -50.3989        -1.4193              1              1
