#------------------------------------------------------------------------------
# Created by    : vladimir.rabinovich
# Created on    : 09/19/2023 17:20:13
#------------------------------------------------------------------------------
~Version Information Section
VERS.           2.0     :   CWLS log ASCII Standard - VERSION 2.0
WRAP.           NO      :   One line per depth step
~Well Information Section
#MNEM       .UNIT                                         VALUE :DESCRIPTION
#------------------------------------------------------------------------------
STRT        .FT                                             608 :START DEPTH
STOP        .FT                                            9135 :STOP DEPTH
STEP        .FT                                             0.5 :STEP      
NULL        .                                           -999.25 :NULL      
COMP        .                             PHILLIPS PETROLEUM CO :COMPANY   
WELL        .                                OCS 00757 ST00BP00 :WELL      
FLD         .                           WEST CAMERON BLOCK 0118 :FIELD     
LOC         .                                                   :LOCATION  
CNTY        .                                      WEST CAMERON :LOCATION  
STAT        .                                         LOUISIANA :STATE     
CTRY        .                                     UNITED STATES :COUNTRY   
SRVC        .                                                   :SERVICE COMPANY
DATE        .                             9/13/2023 11:18:18 AM :LOG DATE  
API         .                                    17700400630000 :API NUMBER
UWI         .                                    17700400630000 :UNIQUE WELL ID
XCOORD      .                                  1437747.16229911 :SURFACE X 
YCOORD      .                                  10702102.5427903 :SURFACE Y 
LAT         .                                         29.487661 :LATITUDE  
LON         .                                       -93.6372228 :LONGITUDE 
ELEV        .FT                                              84 :ELEVATION VALUE
ELEV_TYPE   .                                                KB :ELEVATION REFERENCE TYPE
~Curve Information Section
#MNEM       .UNIT                                      API CODE :CURVE DESCRIPTION
#------------------------------------------------------------------------------
DEPT        .FT                                                 :DEPTH     
ASFL        .OHMM                                               :          
ASN         .OHMM                                               :          
CALI        .IN                                                 :          
DRHO        .G/CC                                               :          
GR          .GAPI                                               :          
GR_NORM     .GAPI                                               :GammaRay Normalized
ILD         .OHMM                                               :          
RHOB        .G/CC                                               :          
SP          .MV                                                 :          
SP_NORM     .MV                                                 :SP Normalized
VSH_GR      .V/V                                                :Volume of Shale from GR
VSH_SP      .V/V                                                :Volume of Shale from SP
~A        DEPTH           ASFL            ASN           CALI           DRHO             GR        GR_NORM            ILD           RHOB             SP        SP_NORM         VSH_GR         VSH_SP
# ...
      6553.0000        -999.25          1.212         11.069        -0.0209        89.3561       38.39595          0.254         2.0972       -170.676       -83.5332      0.1148074     0.01767225
      6553.5000        -999.25         1.2037        11.0379        -0.0199         88.073       37.69771          0.251         2.0995      -170.8701       -83.7384     0.09995132     0.01519996
      6554.0000        -999.25         1.1949        10.9918        -0.0208        87.2585       37.25425         0.2481         2.1019      -170.6792       -83.5585     0.09051595     0.01736744
      6554.5000        -999.25          1.185        10.8866        -0.0221        87.0951       37.16458         0.2443            2.1        -170.26       -83.1503     0.08860803     0.02228555
      6555.0000        -999.25          1.173        10.8579        -0.0254         90.144       38.82071         0.2399         2.0976      -169.6279       -82.5292       0.123845      0.0297687
      6555.5000        -999.25         1.1579        10.9198        -0.0245        94.9862       41.45138         0.2356         2.0946      -168.8779       -81.7902      0.1798165      0.0386723
      6556.0000        -999.25         1.1336        10.9693        -0.0221        97.9824       43.07893         0.2372         2.0913      -167.8066         -80.73      0.2144452     0.05144574
      6556.5000        -999.25         1.0995        10.8842        -0.0216        99.4945       43.89977         0.2435         2.1015      -166.4023       -79.3367      0.2319099     0.06823252
      6557.0000        -999.25          1.062        10.7852        -0.0212       100.0519       44.20193         0.2498         2.1084      -163.4897       -76.4351       0.238339      0.1031916
      6557.5000        -999.25         1.0249         10.683        -0.0214       100.8075        44.6117         0.2566         2.1132      -158.0256        -70.982      0.2470575      0.1688915
      6558.0000        -999.25         0.9933        10.5793        -0.0217       101.9132       45.21178         0.2637         2.1147      -150.8184       -63.7859      0.2598251      0.2555916
      6558.5000        -999.25         0.9786        10.4892        -0.0221       104.5532       46.64565         0.2708         2.1167      -150.2832       -63.2617      0.2903329      0.2619072
      6559.0000        -999.25         0.9702        10.4012        -0.0205       108.8527       48.98143         0.2754         2.1193      -156.9846       -69.9741      0.3400304       0.181035
      6559.5000        -999.25         0.9816        10.3353        -0.0187       114.4966       52.04773         0.2774         2.1219      -160.0115        -73.012      0.4052709      0.1444337
      6560.0000        -999.25         1.0058        10.3238        -0.0166       115.8691       52.79282         0.2794         2.1229      -161.5007       -74.5122      0.4211237       0.126359
      6560.5000        -999.25         1.0274         10.465        -0.0125       114.3394       51.96067         0.2799         2.1233      -161.6912       -74.7138      0.4034185      0.1239301
      6561.0000        -999.25         1.0448        10.5018        -0.0095        112.017       50.69767         0.2753         2.1148      -161.0396       -74.0732      0.3765463      0.1316482
      6561.5000        -999.25         1.0597        10.6386        -0.0083       112.0516       50.71561         0.2708         2.0981      -161.1689       -74.2135      0.3769278      0.1299578
      6562.0000        -999.25         1.0686        10.6502        -0.0089       112.3646       50.88495         0.2673         2.0904      -162.6699       -75.7255      0.3805308      0.1117409
      6562.5000        -999.25          1.075        10.3637        -0.0119       112.3319       50.86625         0.2654         2.1017      -163.7979       -76.8645       0.380133     0.09801805
      6563.0000        -999.25         1.0855        10.2212        -0.0149       109.0408       49.07687         0.2636         2.0908      -164.6423         -77.72       0.342061     0.08771083
      6563.5000        -999.25         1.1239        10.3235        -0.0191       104.8247       46.78477         0.2724         2.0722      -164.6184       -77.7071       0.293293     0.08786627
      6564.0000        -999.25          1.235         10.475        -0.0237       100.3588       44.35693         0.2879         2.0596       -164.446       -77.5457      0.2416367     0.08981084
      6564.5000        -999.25         1.4596        10.6662        -0.0255        96.3309       42.16701         0.3034         2.0726       -163.939       -77.0497      0.1950427     0.09578677
      6565.0000        -999.25         1.6673        10.8289        -0.0222        93.5859       40.67445         0.3329         2.1237      -163.4321       -76.5539      0.1632861      0.1017602
      6565.5000        -999.25         2.0132        10.8666        -0.0151        90.8441       39.18352         0.3703          2.214      -163.2849       -76.4177      0.1315643      0.1034012
      6566.0000        -999.25         2.6449        10.5767        -0.0064        88.2627       37.77977         0.4077         2.2933      -163.5662         -76.71      0.1016972     0.09987953
      6566.5000        -999.25         2.8124        10.3827         0.0024        86.2742       36.69829          0.426         2.3726       -164.209       -77.3638     0.07868697     0.09200241
      6567.0000        -999.25         2.6589        10.3177         0.0096        85.4337        36.2407         0.4404         2.4519       -164.845       -78.0108     0.06895106     0.08420719
      6567.5000        -999.25          2.249        10.3017         0.0163        85.1455        36.0832         0.4149         2.5302      -165.4807       -78.6576     0.06560005     0.07641445
      6568.0000        -999.25         2.0122        10.3048         0.0197        85.3621       36.20005         0.3861         2.5794      -166.1165       -79.3044      0.0680861     0.06862172
      6568.5000        -999.25         1.9252        10.3082         0.0123        86.7314       36.94339         0.3528         2.5627      -166.6116       -79.8105     0.08390191     0.06252408
      6569.0000        -999.25         1.4758        10.3129         0.0081        88.7809       38.05639         0.3195         2.5494      -167.0977       -80.3076      0.1075827     0.05653492
      6569.5000        -999.25         1.2327        10.3176         0.0101        91.1896       39.36449         0.2969           2.52      -167.4893       -80.7103      0.1354148     0.05168317
      6570.0000        -999.25         1.1255        10.2827         0.0116        96.5221       42.26167         0.2769         2.4279      -167.6145       -80.8465      0.1970569     0.05004221
      6570.5000        -999.25         1.0474        10.2456         0.0036       102.3049       45.40352         0.2569         2.2458      -167.1106       -80.3536      0.2639047     0.05598073
      6571.0000        -999.25         1.0036        10.4893        -0.0189       105.4508       47.11237         0.2525         2.1038      -165.4167       -78.6707      0.3002631     0.07625663
      6571.5000        -999.25         0.9767        11.1723        -0.0318       106.1563       47.49496          0.252         2.0704       -161.688        -74.953      0.3084035      0.1210482
      6572.0000        -999.25         0.9721        11.7269        -0.0426       106.7638        47.8243         0.2535           2.06      -155.7278       -69.0039      0.3154107      0.1927241
      6572.5000        -999.25          0.975        11.9663        -0.0483       107.7269       48.34678         0.2566          2.055      -150.5728       -63.8599      0.3265272         0.2547
      6573.0000        -999.25         0.9773        12.0468        -0.0408        110.592       49.90303         0.2636         2.0527      -147.9316       -61.2297       0.359639      0.2863892
