#------------------------------------------------------------------------------
# Created by    : vladimir.rabinovich
# Created on    : 09/19/2023 17:21:07
#------------------------------------------------------------------------------
~Version Information Section
VERS.           2.0     :   CWLS log ASCII Standard - VERSION 2.0
WRAP.           NO      :   One line per depth step
~Well Information Section
#MNEM       .UNIT                                         VALUE :DESCRIPTION
#------------------------------------------------------------------------------
STRT        .FT                                            3871 :START DEPTH
STOP        .FT                                           10481 :STOP DEPTH
STEP        .FT                                             0.5 :STEP      
NULL        .                                           -999.25 :NULL      
COMP        .                               TALOS PETROLEUM LLC :COMPANY   
WELL        .                                OCS 00300 ST00BP00 :WELL      
FLD         .                           WEST CAMERON BLOCK 0045 :FIELD     
LOC         .                                                   :LOCATION  
CNTY        .                                      WEST CAMERON :LOCATION  
STAT        .                                         LOUISIANA :STATE     
CTRY        .                                     UNITED STATES :COUNTRY   
SRVC        .                                                   :SERVICE COMPANY
DATE        .                             9/13/2023 11:18:36 AM :LOG DATE  
API         .                                    17700410010000 :API NUMBER
UWI         .                                    17700410010000 :UNIQUE WELL ID
XCOORD      .                                  1453780.44334001 :SURFACE X 
YCOORD      .                                   10773222.791693 :SURFACE Y 
LAT         .                                         29.683533 :LATITUDE  
LON         .                                        -93.587947 :LONGITUDE 
ELEV        .FT                                              92 :ELEVATION VALUE
ELEV_TYPE   .                                                KB :ELEVATION REFERENCE TYPE
~Curve Information Section
#MNEM       .UNIT                                      API CODE :CURVE DESCRIPTION
#------------------------------------------------------------------------------
DEPT        .FT                                                 :DEPTH     
ATR         .OHMM                                               :          
CATR        .MMHO                                               :          
DCAL        .IN                                                 :          
DRHB        .G/C3                                               :          
GR          .GAPI                                               :          
GR_NORM     .GAPI                                               :GammaRay Normalized
PSR         .OHMM                                               :          
RHOB        .G/C3                                               :          
ROP5        .F/HR                                               :          
TNPH        .%                                                  :          
VSH_GR      .V/V                                                :Volume of Shale from GR
~A        DEPTH            ATR           CATR           DCAL           DRHB             GR        GR_NORM            PSR           RHOB           ROP5           TNPH         VSH_GR
# ...
      7853.5000           0.25           4000           0.36           0.42          63.46       54.69448            0.5           2.42        73.7699             40      0.4615846
      7854.0000           0.26       3846.152           0.84           0.37        67.2899       58.80297           0.54           2.49        66.6699             38      0.5489993
      7854.5000           0.26       3846.152           0.77           0.33          73.12       65.05674           0.34           2.56          55.56             39      0.6820583
      7855.0000           0.24       4166.664           0.79           0.17          71.49       63.30901           0.29           2.33          34.95             39      0.6448725
      7855.5000           0.18       5555.555           0.14           0.23          68.73       60.34942           0.22           2.29          34.95             46      0.5819026
      7856.0000           0.19       5263.156           0.13           0.22          63.86       55.12653           0.23           2.26          34.22             51      0.4707773
      7856.5000            0.2           5000           0.13           0.14          60.14       51.13712           0.22           2.19          32.55             45      0.3858962
      7857.0000           0.17       5882.352           0.11           0.11          61.65       52.75744           0.19           2.19          31.03             46      0.4203711
      7857.5000           0.17       5882.352           0.04           0.08        62.0099       53.14389           0.19           2.18          32.03             48      0.4285933
      7858.0000           0.22       4545.453           0.17           0.06          62.37       53.53074           0.26            2.2          34.22             48      0.4368243
      7858.5000           0.33       3030.301           0.32           0.08             58       48.84432           0.52            2.2          33.96             46      0.3371132
      7859.0000            0.3       3333.332           0.56           0.08          56.39       47.11802           0.52           2.19          35.64             42      0.3003834
      7859.5000           0.29       3448.273           0.74           0.08          56.42       47.15076           0.28           2.17          42.65             46      0.3010801
      7860.0000           0.28       3571.426           0.75           0.06          60.05       57.39333           0.34           2.14        80.1799             41      0.5190069
      7860.5000           0.27       3703.703           0.58           0.07        65.0399       61.57228            0.4           2.13          65.46             36      0.6079209
      7861.0000           0.24       4166.664           0.36            0.1        67.8899       63.95943           0.27           2.15          65.46             34      0.6587114
      7861.5000           0.23        4347.82           0.37           0.08        64.8899       61.44763           0.26           2.16          83.72             32      0.6052688
      7862.0000           0.19       5263.156           0.51           0.07          62.39       59.35469           0.21            2.2          83.72             37       0.560738
      7862.5000           0.17       5882.352           0.55           0.06          59.09       56.59165           0.24           2.18        73.1699             41        0.50195
      7863.0000           0.16           6250           0.55            0.1          56.45       54.38145           0.23           2.19          63.61             46      0.4549245
      7863.5000            0.2           5000           0.53           0.13        54.0099       52.33846           0.17           2.17        57.6899             45      0.4114566
      7864.0000           0.21       4761.898           0.52            0.1          56.48       54.40741           0.16           2.16        57.3199             47      0.4554767
      7864.5000           0.21       4761.898           0.48           0.06          59.96       57.32215           0.22           2.15        57.3199             51      0.5174926
      7865.0000           0.23        4347.82           0.49           0.07          60.58       57.84176           0.22           2.16        58.8199             56      0.5285481
      7865.5000           0.22       4545.453           0.54           0.11          55.86       53.88962           0.21           2.18        58.8199             49      0.4444599
      7866.0000           0.21       4761.898           0.62           0.17          48.61       47.81897           0.21            2.2           60.2             42      0.3152972
      7866.5000           0.19       5263.156           0.59           0.16          38.95       39.73003           0.21           2.23          60.81             39      0.1431922
      7867.0000           0.19       5263.156           0.55            0.2             30       32.23564           0.22            2.2          65.21             39              0
      7867.5000           0.19       5263.156            0.5           0.23          24.45       27.58858           0.27           2.21          91.83             38              0
      7868.0000            0.2           5000           0.49           0.33          21.74       25.31964           0.27           2.19       110.4299             33              0
      7868.5000           0.21       4761.898           0.52           0.33          21.86       25.42054           0.29           2.22       110.4299             34              0
      7869.0000           0.19       5263.156           0.65           0.27          23.94        27.1629           0.28           2.21        88.6699             36              0
      7869.5000           0.17       5882.352           0.91           0.15          25.82       28.73765           0.32           2.11          87.37             43              0
      7870.0000           0.19       5263.156           1.16           0.15          26.47       29.28238           0.41           1.98        88.6699             46              0
      7870.5000            0.2           5000           1.22           0.25          23.88       27.11392           0.47           1.91       124.1399             48              0
      7871.0000            0.2           5000           1.26           0.27          27.18       29.87792            0.5           1.92         122.45             47              0
      7871.5000           0.18       5555.555           1.25           0.18          29.35        31.6955           0.43           1.95       124.1399             48              0
      7872.0000           0.17       5882.352           1.19           0.15          32.77       34.55986           0.41           2.03       124.1399             46      0.0331886
      7872.5000           0.16           6250           1.01           0.18          35.95       37.22338            0.4           2.13       124.1399             42     0.08985909
      7873.0000           0.16           6250           1.02           0.27          41.89       42.19801           0.37           2.11       123.2899             40      0.1957023
      7873.5000           0.19       5263.156           0.86           0.19          46.56       46.10912           0.35           2.13         151.25             38      0.2789173
      7874.0000           0.16           6250           0.79           0.15          46.17       45.78308           0.24           2.14         151.25             38      0.2719805
      7874.5000           0.13       7692.305           0.52           0.08        46.2599       45.85873            0.2           2.18         141.74             36      0.2735901
      7875.0000           0.13       7692.305           0.52           0.08          45.93       45.58294           0.19           2.17       135.3298             36      0.2677221
      7875.5000           0.13       7692.305           0.34           0.07          44.27        44.1934            0.2           2.12       100.5599             36      0.2381574
