#------------------------------------------------------------------------------
# Created by    : vladimir.rabinovich
# Created on    : 09/19/2023 17:20:42
#------------------------------------------------------------------------------
~Version Information Section
VERS.           2.0     :   CWLS log ASCII Standard - VERSION 2.0
WRAP.           NO      :   One line per depth step
~Well Information Section
#MNEM       .UNIT                                         VALUE :DESCRIPTION
#------------------------------------------------------------------------------
STRT        .FT                                             202 :START DEPTH
STOP        .FT                                            9625 :STOP DEPTH
STEP        .FT                                             0.5 :STEP      
NULL        .                                           -999.25 :NULL      
COMP        .                           GENERAL AMERICAN OIL CO :COMPANY   
WELL        .                               OCS G01862 ST00BP00 :WELL      
FLD         .                           WEST CAMERON BLOCK 0045 :FIELD     
LOC         .                                                   :LOCATION  
CNTY        .                                      WEST CAMERON :LOCATION  
STAT        .                                         LOUISIANA :STATE     
CTRY        .                                     UNITED STATES :COUNTRY   
SRVC        .                                                   :SERVICE COMPANY
DATE        .                             9/13/2023 11:18:18 AM :LOG DATE  
API         .                                    17700004050000 :API NUMBER
UWI         .                                    17700004050000 :UNIQUE WELL ID
XCOORD      .                                  1441793.49938464 :SURFACE X 
YCOORD      .                                  10754125.7201806 :SURFACE Y 
LAT         .                                        29.6308281 :LATITUDE  
LON         .                                       -93.6253819 :LONGITUDE 
ELEV        .FT                                              70 :ELEVATION VALUE
ELEV_TYPE   .                                                KB :ELEVATION REFERENCE TYPE
~Curve Information Section
#MNEM       .UNIT                                      API CODE :CURVE DESCRIPTION
#------------------------------------------------------------------------------
DEPT        .FT                                                 :DEPTH     
ASN         .OHMM                                               :          
CALI        .IN                                                 :          
CALI_1      .IN                                                 :          
DRHO        .G/C3                                               :          
DT          .US/F                                               :          
GR          .GAPI                                               :          
GR_NORM     .GAPI                                               :GammaRay Normalized
ILD         .OHMM                                               :          
RHOB        .G/C3                                               :          
SP          .MV                                                 :          
SP_NORM     .MV                                                 :SP Normalized
VSH_GR      .V/V                                                :Volume of Shale from GR
VSH_SP      .V/V                                                :Volume of Shale from SP
~A        DEPTH            ASN           CALI         CALI_1           DRHO             DT             GR        GR_NORM            ILD           RHOB             SP        SP_NORM         VSH_GR         VSH_SP
# ...
      7726.0000         0.4187        14.0887        13.5282          0.118       110.1129        45.2109       40.26145         0.2729         2.2218      -123.2094       -77.7666      0.1544989     0.08611189
      7726.5000         0.4396        13.9487        13.5763         0.0816       107.3298        45.1492       40.18887         0.2801         2.1985      -121.7147       -76.2739      0.1529547      0.1038821
      7727.0000         0.4538        13.6857        13.4889         0.0493       107.9122        46.0128       41.23926         0.2872         2.1693      -121.4681       -76.0294      0.1753034      0.1067928
      7727.5000         0.4636        13.5995        13.3845         0.0351       106.5195        46.3382       41.63648         0.2944         2.1588      -124.4536        -79.017      0.1837549     0.07122621
      7728.0000         0.4655        13.6147        13.2736         0.0788       105.4254        46.0021       41.23089          0.299         2.1625      -127.4355       -82.0009      0.1751253     0.03570357
      7728.5000         0.4849        13.6597        13.2414          0.103       105.0084        43.6305       38.35508         0.3035         2.1973      -130.4211       -84.9886      0.1139378   0.0001356942
      7729.0000          0.488        13.7379        13.2585         0.1162       105.0022        42.1265       36.53208         0.2987         2.2254      -133.0085        -87.578     0.07515068              0
      7729.5000         0.4612        13.8346        13.2738         0.0921       105.4526         43.372       38.04596         0.2917         2.2221      -133.2764        -87.848      0.1073609              0
      7730.0000         0.4407         13.755        13.2804         0.0406       106.6001        45.1561        40.2135         0.2846         2.1813      -132.8406       -87.4142      0.1534787              0
      7730.5000         0.4195        13.7282        13.2869         0.0224       107.4169        45.1835       40.24907         0.2775         2.1402      -132.0317       -86.6074      0.1542355              0
      7731.0000         0.3804        13.9078        13.2818         0.0643       107.1743        43.4934       38.20034         0.2852         2.1766      -131.0469       -85.6246      0.1106455              0
      7731.5000         0.3716        14.0871        13.3906         0.0537       108.3546        41.7192       36.04942         0.2883         2.1822      -129.9553       -84.5351     0.06488135     0.00553449
      7732.0000         0.3756        14.1114        13.5749         0.0472       109.3298        39.7863       33.70591         0.2983         2.1803       -128.665       -83.2468     0.01501927     0.02087139
      7732.5000          0.378        14.2665        13.6847         0.0475       109.0114        38.6063       32.27612         0.3102         2.1811      -124.7629       -79.3468              0     0.06729998
      7733.0000         0.3764         14.299        13.7292         0.0522       108.6425         39.326       33.15188         0.3225         2.2041      -123.3944       -77.9804    0.003231454     0.08356667
      7733.5000         0.3644        14.2601        13.6896         0.0481        107.916        41.4058       35.67829         0.3328         2.2095      -123.5752       -78.1632     0.05698492     0.08139047
      7734.0000         0.3553        14.1334        13.5904         0.0483         107.35        43.5815       38.32109         0.3457         2.2108      -123.9884       -78.5785      0.1132148     0.07644644
      7734.5000         0.3534        14.0037        13.5065         0.0447       107.3385        45.0112       40.05864         0.3599         2.2182      -124.4647       -79.0568      0.1501839     0.07075237
      7735.0000         0.3562        14.0071        13.4446         0.0319       107.6755        45.5162       40.67383         0.3685         2.2036       -121.908       -76.5022       0.163273      0.1011643
      7735.5000         0.3719        14.1347        13.4687         0.0897       108.8689        42.6748       37.22773          0.379         2.2079      -120.7208        -75.317      0.0899517      0.1152738
      7736.0000         0.3929        14.4253        13.6601         0.0906        108.512         41.192       35.43047          0.379         2.2246      -119.5336       -74.1319     0.05171212      0.1293822
      7736.5000         0.4138        14.4553        13.8878         0.0623        108.358        41.5958       35.92284         0.3578         2.2092      -118.9207        -73.521     0.06218809      0.1366547
      7737.0000         0.4348        14.4393         13.901         0.0454       108.4354        43.6775       38.45168         0.3191         2.1821       -117.183       -71.7854      0.1159932      0.1573167
      7737.5000         0.4176         14.595        13.8175         0.0695        106.553        46.0628       41.34886          0.272         2.2138      -113.6858       -68.2902      0.1776353      0.1989262
      7738.0000         0.4065        14.7419        13.8342         0.0504       105.8566        48.2297       43.98098          0.213         2.2238      -110.2473       -64.8538      0.2336378      0.2398357
      7738.5000         0.4062        14.6183        13.9828         0.0239       105.4142        49.1432       45.09193         0.1854         2.2181      -111.5284       -66.1369      0.2572751      0.2245607
      7739.0000         0.4071        14.5559        13.9551         0.0093       105.0338          50.05       46.19476         0.1642         2.2184      -114.8159       -69.4265      0.2807396      0.1853988
      7739.5000         0.4096        14.4075        13.9266         0.0059       106.6112        50.0529       46.20058         0.2147         2.2059      -119.5502       -74.1629      0.2808634      0.1290131
      7740.0000         0.4141        14.4946        13.9299         0.0487       108.9755        47.3475       42.91966         0.2123         2.1957      -124.1665       -78.7812      0.2110566     0.07403337
      7740.5000         0.4239        14.7068        13.9576         0.0613       111.5428        45.6603       40.87432         0.2008         2.1741      -128.4368       -83.0536      0.1675388     0.02317147
      7741.0000         0.4347        14.9319        14.0856         0.0564       112.8799        44.5529       39.53266         0.1899         2.1356      -129.3259       -83.9447      0.1389927     0.01256307
      7741.5000         0.4423        15.1929        14.3386         0.0921       112.8191        43.4993       38.25628         0.1786         2.1337      -129.8462       -84.4671      0.1118357    0.006344023
      7742.0000         0.4436        15.2605        14.4014         0.0901       112.1991        42.6014       37.16887         0.1724         2.1411      -130.2898       -84.9127     0.08869942    0.001039323
      7742.5000         0.4364        15.2306        14.5197         0.0825       112.0918         41.681       36.05415         0.1765         2.1458      -130.5522       -85.1772     0.06498199              0
      7743.0000         0.4227        15.1263        14.5272           0.05       110.6073        41.4448       35.76992         0.1812         2.1259      -130.8435       -85.4705     0.05893448              0
      7743.5000         0.4139        15.0361        14.4105         0.0276       109.8156        42.1118       36.58172          0.186         2.1121      -131.1052       -85.7343     0.07620677              0
      7744.0000         0.4047        15.0079        14.3263          0.037       108.7202        42.9735       37.62981         0.1907         2.1314      -131.1238       -85.7549      0.0985066              0
      7744.5000         0.3937        15.0361        14.2926         0.0296       107.7772        43.6564        38.4609         0.2182         2.1345      -129.4602       -84.0934      0.1161893     0.01079287
