#------------------------------------------------------------------------------
# Created by    : vladimir.rabinovich
# Created on    : 09/19/2023 17:20:42
#------------------------------------------------------------------------------
~Version Information Section
VERS.           2.0     :   CWLS log ASCII Standard - VERSION 2.0
WRAP.           NO      :   One line per depth step
~Well Information Section
#MNEM       .UNIT                                         VALUE :DESCRIPTION
#------------------------------------------------------------------------------
STRT        .FT                                             202 :START DEPTH
STOP        .FT                                            9625 :STOP DEPTH
STEP        .FT                                             0.5 :STEP      
NULL        .                                           -999.25 :NULL      
COMP        .                           GENERAL AMERICAN OIL CO :COMPANY   
WELL        .                               OCS G01862 ST00BP00 :WELL      
FLD         .                           WEST CAMERON BLOCK 0045 :FIELD     
LOC         .                                                   :LOCATION  
CNTY        .                                      WEST CAMERON :LOCATION  
STAT        .                                         LOUISIANA :STATE     
CTRY        .                                     UNITED STATES :COUNTRY   
SRVC        .                                                   :SERVICE COMPANY
DATE        .                             9/13/2023 11:18:18 AM :LOG DATE  
API         .                                    17700004050000 :API NUMBER
UWI         .                                    17700004050000 :UNIQUE WELL ID
XCOORD      .                                  1441793.49938464 :SURFACE X 
YCOORD      .                                  10754125.7201806 :SURFACE Y 
LAT         .                                        29.6308281 :LATITUDE  
LON         .                                       -93.6253819 :LONGITUDE 
ELEV        .FT                                              70 :ELEVATION VALUE
ELEV_TYPE   .                                                KB :ELEVATION REFERENCE TYPE
~Curve Information Section
#MNEM       .UNIT                                      API CODE :CURVE DESCRIPTION
#------------------------------------------------------------------------------
DEPT        .FT                                                 :DEPTH     
ASN         .OHMM                                               :          
CALI        .IN                                                 :          
CALI_1      .IN                                                 :          
DRHO        .G/C3                                               :          
DT          .US/F                                               :          
GR          .GAPI                                               :          
GR_NORM     .GAPI                                               :GammaRay Normalized
ILD         .OHMM                                               :          
RHOB        .G/C3                                               :          
SP          .MV                                                 :          
SP_NORM     .MV                                                 :SP Normalized
VSH_GR      .V/V                                                :Volume of Shale from GR
VSH_SP      .V/V                                                :Volume of Shale from SP
~A        DEPTH            ASN           CALI         CALI_1           DRHO             DT             GR        GR_NORM            ILD           RHOB             SP        SP_NORM         VSH_GR         VSH_SP
# ...
      7137.0000         0.5711        13.1662        -999.25         0.0897       123.6703        75.6986       75.68607          0.573         2.3101       -47.8524         0.0103      0.9082143              1
      7137.5000         0.5711        13.1239        -999.25         0.0761       123.6746        76.6371       76.82446         0.5779         2.2741       -48.1351        -0.2745      0.9324354              1
      7138.0000         0.5672        13.0936        -999.25         0.0767       122.1191        75.6077       75.57455         0.5859         2.2598       -48.3947        -0.5361      0.9058416              1
      7138.5000         0.5587        13.0733         7.8265         0.0892       122.9099        76.1792       76.26753          0.598         2.2712       -48.4936        -0.6371      0.9205858              1
      7139.0000         0.5509        13.0739         7.8449         0.0915       125.8748        78.0088       78.48726         0.6258         2.2722       -48.6285        -0.7741       0.967814              1
      7139.5000         0.5529        13.0778         7.8679         0.0789       125.7758        80.1133       81.04073         0.6905         2.2551       -48.8049        -0.9525              1              1
      7140.0000         0.5725         13.074         7.9331         0.0741       125.3674        81.7155        82.9846         0.7434         2.2411       -48.9815        -1.1312              1      0.9984381
      7140.5000         0.5808        13.0583         8.0383          0.079       125.1088        83.9594       85.70726         0.7757         2.2407       -49.1581        -1.3098              1      0.9963119
      7141.0000         0.5903        13.0478         8.0523         0.0903       124.7698        83.0347        84.5844         0.7939         2.2538        -49.348        -1.5018              1      0.9940262
      7141.5000         0.6032        13.1653         8.0354         0.1025       124.2952        81.1062       82.24332         0.7937         2.2652       -49.7915        -1.9473              1      0.9887226
      7142.0000         0.6208        13.1514         8.0094         0.1075       124.0254        81.4879       82.70596         0.7679         2.2681        -50.184        -2.3419              1       0.984025
      7142.5000         0.6459        13.1218          7.981         0.0967        124.396        80.8016       81.87231         0.7194         2.2611       -51.1356        -3.2955              1      0.9726726
      7143.0000         0.6711        13.1225            7.9         0.0763       124.6633        78.9048       79.56969         0.6711          2.257       -52.6998        -4.8618      0.9908445      0.9540262
      7143.5000         0.6963        13.0921          7.828          0.067       124.0768        79.5734       80.38052         0.6264         2.2452       -55.4708        -7.6348              1      0.9210143
      7144.0000         0.6791        13.0133          7.891         0.0704       122.8331        81.2051       82.36019         0.5804         2.2382       -58.2529        -10.419              1      0.8878691
      7144.5000         0.6553        13.0911         8.1905         0.0526       118.4799        78.8118         79.455         0.5343         2.2308        -65.243       -17.4111      0.9884043      0.8046297
      7145.0000         0.6314        13.3437          8.341         0.0398       113.2133        77.7759       78.19721         0.4883         2.2389       -68.2029       -20.3731      0.9616428      0.7693679
      7145.5000           0.62        13.5063         8.2407         0.0586       104.0612        78.2229       78.73897         0.4486         2.2551       -70.0665       -22.2388      0.9731695      0.7471572
      7146.0000           0.68        13.4366         8.3368         0.0739        102.601        76.7865        76.9951          0.437         2.3246       -78.2433       -30.4176       0.936066      0.6497905
      7146.5000         0.7561        13.2689         8.3272         0.0568       104.0958        72.8464       72.21266         0.4296         2.3215       -95.0906        -47.267       0.834312      0.4492024
      7147.0000          0.831        13.2225         8.2541         0.0479       107.3676        69.0726       67.63206         0.4176         2.2902      -111.8936        -64.072      0.7368525      0.2491429
      7147.5000         0.8547        13.1566         8.2088         0.0373        109.001        68.1034       66.45522         0.4082         2.2609      -120.1624       -72.3429      0.7118131      0.1506797
      7148.0000          0.783         13.061         8.1844          0.034       107.6101        67.0709       65.20153         0.3941         2.2444      -123.5156       -75.6981      0.6851389      0.1107369
      7148.5000         0.7075        13.0073         8.1651         0.0508       105.9755        61.7623       58.75825         0.3741         2.1701      -124.3318       -76.5164      0.5480478      0.1009952
      7149.0000          0.661        13.2252         8.1305         0.0691       109.2732        55.5912       51.26809         0.3542         2.1402       -122.834       -75.0206      0.3886828      0.1188024
      7149.5000         0.6173        13.9808         8.0985         0.0959       113.1935          51.22       45.96247         0.3342         2.1028      -121.5829       -73.7716      0.2757972      0.1336714
      7150.0000         0.5964        14.5334         8.1871          0.121       119.6405        49.0206       43.29261         0.3147         2.0375      -121.8574       -74.0481      0.2189916      0.1303797
      7150.5000         0.5614        14.3512         8.5793         0.1479       120.2889        48.0002       42.05361         0.2984         2.0213      -123.2301       -75.4229        0.19263      0.1140131
      7151.0000         0.5402        13.2459         8.7865         0.0818       117.3711        50.5673       45.16851         0.2823         2.0309      -124.9362       -77.1311      0.2589045     0.09367734
      7151.5000         0.5387        12.9136         8.8657         0.0353       113.3024        55.6743       51.36591         0.2641         2.0541      -126.2406       -78.4375       0.390764       0.078125
      7152.0000          0.538        13.0143         8.8297         0.0031         109.84          57.13       53.13186         0.2576         2.0886       -127.218        -79.417      0.4283375     0.06646429
      7152.5000         0.5379        13.3195         8.2403         0.0147        110.778        58.1565       54.37704         0.2544         2.1641      -127.9191       -80.1201      0.4548306     0.05809402
      7153.0000         0.5314        13.8603          8.196         0.1024       115.8317        60.1581       56.80564         0.2533         2.1617      -128.4556       -80.6587       0.506503     0.05168216
      7153.5000         0.4832        14.3801         8.2701         0.1427       117.0314        61.5358       58.47706         0.2671         2.1401      -128.6624       -80.8675      0.5420651     0.04919643
      7154.0000         0.4426        14.5789         8.5587         0.1422       118.3412        62.1292       59.19661         0.2899         2.1065      -128.5044       -80.7116      0.5573748     0.05105237
      7154.5000         0.4259        14.6194         8.8288          0.122       120.9374        59.9901       56.59993         0.3263         2.0699      -128.0369       -80.2461      0.5021263     0.05659403
      7155.0000         0.4131        14.6048         8.8085         0.1107       118.2472        56.8709       52.81366         0.3594          2.066      -127.4465       -79.6578      0.4215671     0.06359763
      7155.5000         0.3999        14.4352         8.7122         0.1271       116.9838        55.9175       51.65597         0.3838         2.0598      -126.8671       -79.0804      0.3969355     0.07047144
