#------------------------------------------------------------------------------
# Created by    : vladimir.rabinovich
# Created on    : 09/19/2023 17:20:42
#------------------------------------------------------------------------------
~Version Information Section
VERS.           2.0     :   CWLS log ASCII Standard - VERSION 2.0
WRAP.           NO      :   One line per depth step
~Well Information Section
#MNEM       .UNIT                                         VALUE :DESCRIPTION
#------------------------------------------------------------------------------
STRT        .FT                                             202 :START DEPTH
STOP        .FT                                            9625 :STOP DEPTH
STEP        .FT                                             0.5 :STEP      
NULL        .                                           -999.25 :NULL      
COMP        .                           GENERAL AMERICAN OIL CO :COMPANY   
WELL        .                               OCS G01862 ST00BP00 :WELL      
FLD         .                           WEST CAMERON BLOCK 0045 :FIELD     
LOC         .                                                   :LOCATION  
CNTY        .                                      WEST CAMERON :LOCATION  
STAT        .                                         LOUISIANA :STATE     
CTRY        .                                     UNITED STATES :COUNTRY   
SRVC        .                                                   :SERVICE COMPANY
DATE        .                             9/13/2023 11:18:18 AM :LOG DATE  
API         .                                    17700004050000 :API NUMBER
UWI         .                                    17700004050000 :UNIQUE WELL ID
XCOORD      .                                  1441793.49938464 :SURFACE X 
YCOORD      .                                  10754125.7201806 :SURFACE Y 
LAT         .                                        29.6308281 :LATITUDE  
LON         .                                       -93.6253819 :LONGITUDE 
ELEV        .FT                                              70 :ELEVATION VALUE
ELEV_TYPE   .                                                KB :ELEVATION REFERENCE TYPE
~Curve Information Section
#MNEM       .UNIT                                      API CODE :CURVE DESCRIPTION
#------------------------------------------------------------------------------
DEPT        .FT                                                 :DEPTH     
ASN         .OHMM                                               :          
CALI        .IN                                                 :          
CALI_1      .IN                                                 :          
DRHO        .G/C3                                               :          
DT          .US/F                                               :          
GR          .GAPI                                               :          
GR_NORM     .GAPI                                               :GammaRay Normalized
ILD         .OHMM                                               :          
RHOB        .G/C3                                               :          
SP          .MV                                                 :          
SP_NORM     .MV                                                 :SP Normalized
VSH_GR      .V/V                                                :Volume of Shale from GR
VSH_SP      .V/V                                                :Volume of Shale from SP
~A        DEPTH            ASN           CALI         CALI_1           DRHO             DT             GR        GR_NORM            ILD           RHOB             SP        SP_NORM         VSH_GR         VSH_SP
# ...
      6833.0000         1.7362        13.2009        -999.25         0.1005        99.3862        37.7007       29.95118         0.9063         2.2639      -106.3883       -57.6241              0      0.3259036
      6833.5000         1.6882        13.1247        -999.25         0.1089        98.9784        37.5109       29.72022         0.8655          2.276      -104.6952       -55.9277              0      0.3460988
      6834.0000         1.5948        12.9408        -999.25         0.0691        98.0756        37.4444       29.63891         0.8212         2.2857      -103.0609         -54.29              0      0.3655952
      6834.5000         1.2841        12.6216        -999.25         0.0881        96.3688        37.4517       29.64716         0.7768         2.3241      -101.6146       -52.8404              0      0.3828524
      6835.0000         1.1223        12.4886        -999.25         0.1058        94.7549        37.7227       29.97532         0.7325         2.3432       -99.7058       -50.9282              0      0.4056167
      6835.5000         0.9422        12.3567        -999.25         0.0797        93.8866          39.04       31.57343         0.6882         2.3499       -96.5276       -47.7467              0      0.4434917
      6836.0000         0.7664         12.312        -999.25         0.0635        92.3884        39.7437       32.42686         0.6439         2.3442       -89.9833        -41.199              0      0.5214404
      6836.5000         0.6159        12.4159        -999.25         0.0596        91.4032        40.1457       32.91413         0.5995         2.3663       -80.3658       -31.5782              0      0.6359738
      6837.0000         0.5716        12.5458        -999.25         0.0923        95.7747        42.9128       36.27176         0.5552         2.3662       -70.3429       -21.5519     0.06961181      0.7553345
      6837.5000         0.5531        12.7157        -999.25         0.1295       100.6066        48.0039       42.44986         0.5108         2.3676       -65.9911       -17.1968      0.2010609      0.8071809
      6838.0000         0.5501        12.6887        -999.25         0.1133       105.9237        53.8506       49.54498         0.4665         2.3417       -66.7539       -17.9562      0.3520209      0.7981405
      6838.5000         0.5705        12.5861        -999.25         0.1024       114.6072        61.5328        58.8676         0.4199         2.2888       -76.0619       -27.2609      0.5503746      0.6873702
      6839.0000         0.5963        12.4506        -999.25         0.1026       115.9216        68.0045       66.72124         0.3846            2.3       -89.0621       -40.2577      0.7174731      0.5326464
      6839.5000         0.6215        12.4154        -999.25         0.0952       114.5255        71.6003        71.0846         0.3523         2.3144      -108.4003       -59.5926      0.8103107       0.302469
      6840.0000         0.6467        12.4145        -999.25          0.051       113.6189        72.0444       71.62296         0.3183         2.3222       -121.839       -73.0279      0.8217652       0.142525
      6840.5000         0.6719        12.4274        -999.25         0.0558       112.9977        70.5165       69.76806         0.2925         2.2778       -125.605       -76.7906      0.7822991     0.09773091
      6841.0000         0.6829        12.4504        -999.25         0.0669       113.1072        65.2058       63.32222          0.276         2.2617      -129.3708        -80.553      0.6451537     0.05294046
      6841.5000         0.6778        12.4849        -999.25          0.077       113.8461        60.2115       57.26027         0.2615         2.2292      -132.4956       -83.6745      0.5161759     0.01577977
      6842.0000         0.6719         12.653        -999.25         0.1013         114.27        54.3609       50.15919         0.2499         2.1813      -133.7539       -84.9294      0.3650893   0.0008405049
      6842.5000          0.643        13.1544        -999.25         0.1034       113.9977        51.7599       47.00195         0.2479         2.1372      -134.4021       -85.5742      0.2979137              0
      6843.0000         0.6152        13.4844        -999.25         0.1333       113.5929        49.3608       44.08972         0.2638         2.1326       -134.001       -85.1698      0.2359514              0
      6843.5000         0.5875        13.6366        -999.25         0.0664       113.7854        46.9359       41.14618         0.2876         2.0904      -133.3928       -84.5583       0.173323    0.005258379
      6844.0000         0.5694        14.0906        -999.25         0.0798       114.9117        44.4703       38.15325         0.3188         2.0353      -132.6863       -83.8484      0.1096436     0.01370957
      6844.5000         0.6349        14.4749        -999.25         0.1618       114.7656         44.412       38.08189         0.3586         2.0985      -131.6426       -82.8013      0.1081252       0.026175
      6845.0000         0.7092         14.386        -999.25         0.1358       114.9191        45.3189        39.1818         0.4106         2.1152      -130.2368       -81.3922      0.1315276     0.04295004
      6845.5000         0.7846         14.101        -999.25         0.1005        113.783        46.5007       40.61546         0.4572         2.0965      -124.9454       -76.0974      0.1620311      0.1059834
      6846.0000         0.8629        13.8268        -999.25         0.0955       113.0533        49.8434       44.67165          0.518         2.0776       -120.015       -71.1637      0.2483331      0.1647179
      6846.5000         0.9267        13.4093        -999.25         0.1011       111.5996        50.2716       45.19072         0.5703         2.1238      -108.7172       -59.8625       0.259377       0.299256
      6847.0000         0.9256        12.9983        -999.25         0.0747       109.9647        50.1326       45.02142         0.6101         2.1426      -105.3713       -56.5133      0.2557749      0.3391274
      6847.5000         0.9162        12.6009        -999.25          0.078       109.3768        48.5439       43.09272         0.6336          2.141      -102.0181       -53.1567      0.2147386      0.3790869
      6848.0000         0.8769        12.1259        -999.25         0.0301       107.2207        45.5355       39.44091         0.6138         2.1454       -95.7023       -46.8376      0.1370406      0.4543143
      6848.5000         0.7378        11.7588        -999.25         0.0215       102.6611        43.2075       36.61497         0.5887         2.1578       -88.3104       -39.4423     0.07691436      0.5423536
      6849.0000         0.6889        11.7763        -999.25          0.018        94.4825        42.0257        35.1801         0.5674         2.2428       -77.0199       -28.1485     0.04638501      0.6768036
      6849.5000         0.6521        11.8178        -999.25         0.0185        95.1063        41.0021       33.93722         0.5506         2.3083       -63.4006       -14.5258      0.0199408      0.8389786
      6850.0000         0.6359        12.1723        -999.25         0.0375        91.1769         51.303       46.43809          0.543         2.3119        -55.515        -6.6369      0.2859167      0.9328941
      6850.5000         0.6244        12.2209        -999.25         0.0635       101.9995        57.5928       54.07097          0.567          2.292       -53.2857        -4.4042      0.4483186      0.9594738
      6851.0000         0.6194        12.1993        -999.25         0.0912       103.7097        64.7133         62.712         0.6077         2.2986       -52.5137        -3.6289      0.6321703      0.9687036
      6851.5000          0.616        12.1089        -999.25         0.1085       110.8868        70.1802       69.34608         0.6488         2.3116       -51.9803        -3.0921      0.7733208       0.975094
