#------------------------------------------------------------------------------
# Created by    : vladimir.rabinovich
# Created on    : 09/19/2023 17:20:13
#------------------------------------------------------------------------------
~Version Information Section
VERS.           2.0     :   CWLS log ASCII Standard - VERSION 2.0
WRAP.           NO      :   One line per depth step
~Well Information Section
#MNEM       .UNIT                                         VALUE :DESCRIPTION
#------------------------------------------------------------------------------
STRT        .FT                                             608 :START DEPTH
STOP        .FT                                            9135 :STOP DEPTH
STEP        .FT                                             0.5 :STEP      
NULL        .                                           -999.25 :NULL      
COMP        .                             PHILLIPS PETROLEUM CO :COMPANY   
WELL        .                                OCS 00757 ST00BP00 :WELL      
FLD         .                           WEST CAMERON BLOCK 0118 :FIELD     
LOC         .                                                   :LOCATION  
CNTY        .                                      WEST CAMERON :LOCATION  
STAT        .                                         LOUISIANA :STATE     
CTRY        .                                     UNITED STATES :COUNTRY   
SRVC        .                                                   :SERVICE COMPANY
DATE        .                             9/13/2023 11:18:18 AM :LOG DATE  
API         .                                    17700400630000 :API NUMBER
UWI         .                                    17700400630000 :UNIQUE WELL ID
XCOORD      .                                  1437747.16229911 :SURFACE X 
YCOORD      .                                  10702102.5427903 :SURFACE Y 
LAT         .                                         29.487661 :LATITUDE  
LON         .                                       -93.6372228 :LONGITUDE 
ELEV        .FT                                              84 :ELEVATION VALUE
ELEV_TYPE   .                                                KB :ELEVATION REFERENCE TYPE
~Curve Information Section
#MNEM       .UNIT                                      API CODE :CURVE DESCRIPTION
#------------------------------------------------------------------------------
DEPT        .FT                                                 :DEPTH     
ASFL        .OHMM                                               :          
ASN         .OHMM                                               :          
CALI        .IN                                                 :          
DRHO        .G/CC                                               :          
GR          .GAPI                                               :          
GR_NORM     .GAPI                                               :GammaRay Normalized
ILD         .OHMM                                               :          
RHOB        .G/CC                                               :          
SP          .MV                                                 :          
SP_NORM     .MV                                                 :SP Normalized
VSH_GR      .V/V                                                :Volume of Shale from GR
VSH_SP      .V/V                                                :Volume of Shale from SP
~A        DEPTH           ASFL            ASN           CALI           DRHO             GR        GR_NORM            ILD           RHOB             SP        SP_NORM         VSH_GR         VSH_SP
# ...
      3642.0000        -999.25         0.9943         11.884         0.0086       154.1096       81.56548         0.8679          2.038      -143.8052         -5.071              1      0.9420566
      3642.5000        -999.25         1.0075        11.1197         0.0174       158.0273       83.68724          0.863         2.0366      -144.0322        -5.3108              1      0.9375321
      3643.0000        -999.25         1.0207        11.0727         0.0228       160.1499       84.83351         0.8581         2.0363      -144.1377         -5.429              1      0.9353019
      3643.5000        -999.25         1.0387        11.0347         0.0265       158.6169       83.99299         0.8532         2.0424      -144.2434        -5.5475              1       0.933066
      3644.0000        -999.25          1.059        11.0442         0.0263       153.9722       81.46145         0.8483         2.0609      -144.3938        -5.7106              1      0.9299887
      3644.5000        -999.25         1.0849        11.0896         0.0221       150.5515       79.59511         0.8457         2.0785      -144.8892        -6.2188      0.9913853         0.9204
      3645.0000        -999.25         1.1116        11.1856         0.0168       149.6292       79.08654         0.8507         2.0906      -146.1162        -7.4585      0.9805647      0.8970094
      3645.5000        -999.25         1.1379         11.365         0.0132       149.4663       78.99067         0.8557         2.1005      -148.2595        -9.6146      0.9785249      0.8563283
      3646.0000        -999.25         1.1768        11.4823         0.0109       150.1536       79.35685         0.8607         2.1096       -151.355       -12.7228       0.986316       0.797683
      3646.5000        -999.25         1.2258        11.4651         0.0092        147.552       77.93571         0.8695         2.1181      -154.5515        -15.932      0.9560789      0.7371321
      3647.0000        -999.25         1.2734        11.3434         0.0076       142.9644       75.43514         0.8823         2.1311       -157.573       -18.9663      0.9028754      0.6798812
      3647.5000        -999.25         1.3056        11.2085         0.0061       138.8613       73.19795         0.8951         2.1482      -158.5642       -19.9702      0.8552756      0.6609396
      3648.0000        -999.25         1.3288         11.095         0.0046       136.5273       71.92223         0.9072         2.1633       -159.031       -20.4498      0.8281326      0.6518906
      3648.5000        -999.25         1.3555        11.0004         0.0023        134.583       70.85825         0.9187         2.1732      -159.3635        -20.795      0.8054946      0.6453773
      3649.0000        -999.25         1.3887        10.9736        -0.0001       134.0417       70.55674         0.9301         2.1756      -160.9089       -22.3532      0.7990796      0.6159773
      3649.5000        -999.25         1.4235        10.9585        -0.0022       133.7737        70.4037         0.9402         2.1726      -162.5547       -24.0117      0.7958235      0.5846849
      3650.0000        -999.25         1.4481        10.9565        -0.0041       133.5002       70.24772         0.9492         2.1665      -163.1262        -24.596      0.7925047      0.5736604
      3650.5000        -999.25         1.4744        10.9551        -0.0061       129.6797        68.1641         0.9582         2.1612       -163.375       -24.8575      0.7481723      0.5687264
      3651.0000        -999.25         1.4924        10.9563        -0.0073        126.421        66.3858         0.9671         2.1631      -163.4202       -24.9154      0.7103363       0.567634
      3651.5000        -999.25         1.5079        10.9574         -0.008       124.5524       65.36301         0.9771         2.1655      -163.5815       -25.0895      0.6885746      0.5643491
      3652.0000        -999.25         1.5166        10.9642        -0.0088       124.5771       65.36909          0.988         2.1653      -163.9075       -25.4282      0.6887041      0.5579585
      3652.5000        -999.25         1.5226        10.9738        -0.0091       123.1168       64.56815         0.9989         2.1684      -164.3413       -25.8748      0.6716627      0.5495321
      3653.0000        -999.25         1.5304        10.9834        -0.0095       121.7708       63.82927         1.0098         2.1724      -164.9268        -26.473      0.6559418      0.5382453
      3653.5000        -999.25         1.5385        10.9882        -0.0098       121.6708       63.76764         1.0194         2.1763      -165.0881       -26.6471      0.6546305      0.5349604
      3654.0000        -999.25         1.5488        10.9928        -0.0099       122.1688       64.03089         1.0251         2.1802      -165.2073        -26.779      0.6602317      0.5324717
      3654.5000        -999.25           1.56        11.0025          -0.01        122.536       64.22316         1.0307          2.182      -164.9709       -26.5554      0.6643226      0.5366905
      3655.0000        -999.25         1.5698        11.0164        -0.0101       123.3734       64.67087         1.0363         2.1754      -164.3459       -25.9431      0.6738483      0.5482434
      3655.5000        -999.25          1.577        11.0528        -0.0101        125.396       65.76279         1.0418         2.1652       -163.363       -24.9729      0.6970806      0.5665491
      3656.0000        -999.25         1.5823        11.0745        -0.0089       126.7228       66.47646         1.0467         2.1585      -162.2419       -23.8646       0.712265      0.5874604
      3656.5000        -999.25         1.5633        11.0702        -0.0076       127.3381        66.8035         1.0517         2.1536       -161.333       -22.9684      0.7192233      0.6043698
      3657.0000        -999.25         1.5309        11.0791        -0.0061       127.5461       66.90926         1.0561         2.1495      -160.5242       -22.1724      0.7214735      0.6193887
      3657.5000        -999.25         1.4806        11.1414        -0.0038        128.114       67.21056         1.0559         2.1474      -159.4246       -21.0855      0.7278842      0.6398962
      3658.0000        -999.25         1.4112        11.2141        -0.0015       128.6956       67.51923         1.0557         2.1584      -157.6802       -19.3539      0.7344518      0.6725679
      3658.5000        -999.25         1.3529        11.2689              0       129.2551       67.81597         1.0555         2.1643      -155.1606        -16.847      0.7407653      0.7198679
      3659.0000        -999.25         1.3088        11.2948         0.0004       129.8132       68.11194         1.0472          2.168      -153.5957       -15.2949      0.7470625      0.7491528
      3659.5000        -999.25         1.2752        11.3294         0.0007       126.4102       66.25526         1.0389         2.1556      -152.0845       -13.7964      0.7075586      0.7774264
      3660.0000        -999.25         1.2484        11.4404         0.0006       122.2546       63.98948         1.0302         2.1445      -151.1892       -12.9138      0.6593505      0.7940792
      3660.5000        -999.25         1.2241        11.6787         0.0003       119.2708       62.36062         1.0162         2.1377      -150.2161       -11.9535      0.6246941      0.8121981
      3661.0000        -999.25         1.2057        11.8306              0       117.6353       61.46445         1.0021         2.1331      -149.0088       -10.7589      0.6056267      0.8347377
      3661.5000        -999.25         1.1895         11.926        -0.0004       117.8375       61.56707          0.992          2.131      -147.9248        -9.6877      0.6078099      0.8549491
      3662.0000        -999.25         1.1756        11.9663         0.0001       120.0704       62.77321          0.983          2.133      -146.9653        -8.7409      0.6334726      0.8728132
