#------------------------------------------------------------------------------
# Created by    : vladimir.rabinovich
# Created on    : 09/19/2023 17:21:07
#------------------------------------------------------------------------------
~Version Information Section
VERS.           2.0     :   CWLS log ASCII Standard - VERSION 2.0
WRAP.           NO      :   One line per depth step
~Well Information Section
#MNEM       .UNIT                                         VALUE :DESCRIPTION
#------------------------------------------------------------------------------
STRT        .FT                                            3871 :START DEPTH
STOP        .FT                                           10481 :STOP DEPTH
STEP        .FT                                             0.5 :STEP      
NULL        .                                           -999.25 :NULL      
COMP        .                               TALOS PETROLEUM LLC :COMPANY   
WELL        .                                OCS 00300 ST00BP00 :WELL      
FLD         .                           WEST CAMERON BLOCK 0045 :FIELD     
LOC         .                                                   :LOCATION  
CNTY        .                                      WEST CAMERON :LOCATION  
STAT        .                                         LOUISIANA :STATE     
CTRY        .                                     UNITED STATES :COUNTRY   
SRVC        .                                                   :SERVICE COMPANY
DATE        .                             9/13/2023 11:18:36 AM :LOG DATE  
API         .                                    17700410010000 :API NUMBER
UWI         .                                    17700410010000 :UNIQUE WELL ID
XCOORD      .                                  1453780.44334001 :SURFACE X 
YCOORD      .                                   10773222.791693 :SURFACE Y 
LAT         .                                         29.683533 :LATITUDE  
LON         .                                        -93.587947 :LONGITUDE 
ELEV        .FT                                              92 :ELEVATION VALUE
ELEV_TYPE   .                                                KB :ELEVATION REFERENCE TYPE
~Curve Information Section
#MNEM       .UNIT                                      API CODE :CURVE DESCRIPTION
#------------------------------------------------------------------------------
DEPT        .FT                                                 :DEPTH     
ATR         .OHMM                                               :          
CATR        .MMHO                                               :          
DCAL        .IN                                                 :          
DRHB        .G/C3                                               :          
GR          .GAPI                                               :          
GR_NORM     .GAPI                                               :GammaRay Normalized
PSR         .OHMM                                               :          
RHOB        .G/C3                                               :          
ROP5        .F/HR                                               :          
TNPH        .%                                                  :          
VSH_GR      .V/V                                                :Volume of Shale from GR
~A        DEPTH            ATR           CATR           DCAL           DRHB             GR        GR_NORM            PSR           RHOB           ROP5           TNPH         VSH_GR
# ...
      8281.0000           0.55       1818.182           0.19           0.12          91.36       82.36399           0.56           2.41           30.2             39              1
      8281.5000           0.55       1818.182           0.13           0.08        89.6699       80.29979           0.54           2.39          27.07             37              1
      8282.0000           0.56       1785.713           0.25           0.09        89.5499        80.1414           0.54           2.39          25.75             35              1
      8282.5000           0.59       1694.914            0.3           0.11        89.8199       80.45639           0.55           2.39          25.75             33              1
      8283.0000           0.59       1694.914           0.29           0.12        85.3899       75.06622           0.55           2.42          27.44             32       0.895026
      8283.5000           0.63       1587.301           0.18           0.11        81.8199       70.72019           0.57           2.44          29.65             34      0.8025573
      8284.0000           0.66        1515.15           0.07           0.12             79       67.28436           0.71           2.48        32.3199             40      0.7294543
      8284.5000           0.66        1515.15              0           0.14          80.96       69.65099           0.71           2.47          35.09             47      0.7798082
      8285.0000           0.64         1562.5           0.26            0.2        86.0499        75.8166           0.66           2.49          39.04             47      0.9109916
      8285.5000           0.62       1612.902           0.52           0.16          89.49       79.97976           0.65           2.43          45.68             50      0.9995694
      8286.0000           0.56       1785.713           0.81           0.12          93.33       84.62845           0.58           2.38          51.72             48              1
      8286.5000           0.55       1818.182           1.02           0.07          93.47       84.78561           0.56           2.28        58.8199             50              1
      8287.0000           0.53       1886.793           1.01           0.07        93.5599       84.88192           0.53           2.29        58.4399             51              1
      8287.5000           0.52       1923.076           0.91            0.1        91.0399       81.81045           0.53           2.35          56.78             51              1
      8288.0000           0.52       1923.076           0.81            0.1          91.72       82.62336           0.53           2.42          56.78             47              1
      8288.5000           0.55       1818.182           0.75           0.13        92.2899       83.30231           0.53           2.43          51.43             41              1
      8289.0000           0.55       1818.182           0.79           0.11          90.47       81.08054           0.61           2.38        53.5699             45              1
      8289.5000           0.53       1886.793           0.68           0.15        89.7599       80.20592           0.59           2.42        52.3199             48              1
      8290.0000           0.48       2083.332           0.61           0.17        90.7999        81.4556           0.49            2.5          50.28             50              1
      8290.5000           0.47       2127.656           0.47           0.14          94.25        85.6309           0.49           2.46          44.34             41              1
      8291.0000           0.46        2173.91           0.46            0.1        93.0299       84.13727           0.52           2.33           45.8             39              1
      8291.5000           0.46        2173.91           0.49           0.08        89.8199       80.22796           0.52            2.2          47.25             39              1
      8292.0000           0.37       2702.699            0.5            0.1        84.0499       73.21125           0.56           2.16          47.75             40      0.8555585
      8292.5000           0.22       4545.453           0.62           0.13        75.6499       63.00204           0.26           2.14          50.28             41      0.6383413
      8293.0000           0.19       5263.156           0.77           0.11          66.37       51.72485           0.22           2.13             48             39      0.3984011
      8293.5000           0.18       5555.555           0.77            0.1           58.5       42.15899           0.22           2.14          50.14             44      0.1948721
      8294.0000           0.18       5555.555           0.72           0.07           54.4       37.16962           0.22           2.16          51.73             42     0.08871525
      8294.5000           0.17       5882.352           0.69           0.09          53.15       35.63955           0.21           2.15        57.8799             43     0.05616062
      8295.0000           0.16           6250           0.84           0.09          54.72       37.53256            0.2           2.12        80.0099             42     0.09643742
      8295.5000           0.15       6666.664           0.91           0.11           53.3       35.79633           0.19            2.1        80.0099             42     0.05949629
      8296.0000           0.16           6250           0.79           0.15          53.77        36.3541            0.2           2.08          90.47             44      0.0713639
      8296.5000           0.16           6250           0.67           0.28          50.89       32.84544           0.19           2.11         109.11             40              0
      8297.0000           0.16           6250           0.62           0.36          53.81       36.37716           0.19           2.19         109.11             45     0.07185445
      8297.5000           0.17       5882.352           0.71           0.27          56.42       39.53281           0.19           2.25       133.3799             51       0.138996
      8298.0000           0.18       5555.555           0.76           0.19        64.7999       49.69205            0.2           2.32       211.8699             57        0.35515
      8298.5000           0.24       4166.664           0.68           0.16          76.95       64.42792           0.23           2.33         300.23             55      0.6686791
      8299.0000           0.24       4166.664           0.62           0.22        88.6899       78.66593           0.23           2.37       327.5098             54      0.9716156
      8299.5000           0.37       2702.699           0.68           0.19        96.1799       87.74505           0.28            2.4       327.5098             45              1
      8300.0000           0.44       2272.727           0.76           0.14        97.3099       89.10398           0.41           2.38       217.0198             40              1
      8300.5000           0.46        2173.91           0.91           0.11          94.75       85.98392           0.51           2.33       116.1699             31              1
      8301.0000           0.47       2127.656           0.82           0.09        87.0199       76.58803           0.52           2.21        79.3099             28      0.9274048
      8301.5000           0.47       2127.656           0.84           0.09        74.5399       61.42626           0.52           2.09          57.52             28       0.604814
      8302.0000           0.44       2272.727           0.88           0.12          63.37       47.85485           0.56           2.05          47.62             31      0.3160606
      8302.5000           0.32           3125           1.26            0.1          58.98       42.51324           0.79           2.01        41.1899             36      0.2024094
      8303.0000           0.19       5263.156           1.31           0.13          55.17       37.87588           0.66           2.04          30.72             35      0.1037422
