#------------------------------------------------------------------------------
# Created by    : vladimir.rabinovich
# Created on    : 09/19/2023 17:22:04
#------------------------------------------------------------------------------
~Version Information Section
VERS.           2.0     :   CWLS log ASCII Standard - VERSION 2.0
WRAP.           NO      :   One line per depth step
~Well Information Section
#MNEM       .UNIT                                         VALUE :DESCRIPTION
#------------------------------------------------------------------------------
STRT        .FT                                           911.5 :START DEPTH
STOP        .FT                                           12432 :STOP DEPTH
STEP        .FT                                             0.5 :STEP      
NULL        .                                           -999.25 :NULL      
COMP        .                                    EXXON CO U S A :COMPANY   
WELL        .                               OCS G03260 ST00BP00 :WELL      
FLD         .                                           WILDCAT :FIELD     
LOC         .                                                   :LOCATION  
CNTY        .                                      WEST CAMERON :LOCATION  
STAT        .                                         LOUISIANA :STATE     
CTRY        .                                     UNITED STATES :COUNTRY   
SRVC        .                                                   :SERVICE COMPANY
DATE        .                             9/13/2023 11:18:18 AM :LOG DATE  
API         .                                    17700402650000 :API NUMBER
UWI         .                                    17700402650000 :UNIQUE WELL ID
XCOORD      .                                  1465533.33943019 :SURFACE X 
YCOORD      .                                  10722576.3450242 :SURFACE Y 
LAT         .                                        29.5443718 :LATITUDE  
LON         .                                       -93.5501671 :LONGITUDE 
ELEV        .FT                                              99 :ELEVATION VALUE
ELEV_TYPE   .                                                KB :ELEVATION REFERENCE TYPE
~Curve Information Section
#MNEM       .UNIT                                      API CODE :CURVE DESCRIPTION
#------------------------------------------------------------------------------
DEPT        .FT                                                 :DEPTH     
CALI        .IN                                                 :          
DRHO        .G/CC                                               :          
GR          .GAPI                                               :          
GR_NORM     .GAPI                                               :GammaRay Normalized
ILD         .OHMM                                               :          
RHOB        .G/CC                                               :          
VSH_GR      .V/V                                                :Volume of Shale from GR
~A        DEPTH           CALI           DRHO             GR        GR_NORM            ILD           RHOB         VSH_GR
# ...
      9320.0000        14.2481          0.052        46.3969        68.9543          0.706         2.2988      0.7649851
      9320.5000        13.5971         0.0249        47.0878        70.1139         0.7302         2.3269      0.7896574
      9321.0000        13.3102         0.0412        47.4669       70.74366         0.7391         2.3686      0.8030566
      9321.5000        13.2957         0.0653        47.7448       71.20145          0.747         2.3527      0.8127969
      9322.0000        13.2031          0.071        48.0372       71.68371         0.7549          2.337      0.8230576
      9322.5000        12.9282         0.0594        48.0189       71.63818         0.7628         2.3295      0.8220888
      9323.0000        12.6548         0.0465        47.9755       71.54998         0.7522         2.3444      0.8202124
      9323.5000        12.4568         0.0416         47.988       71.55679           0.74         2.3511      0.8203571
      9324.0000        12.3794         0.0424        48.1704       71.85227         0.7278         2.3533      0.8266441
      9324.5000        12.5477         0.0509        48.5417       72.46877         0.7156         2.3558      0.8397611
      9325.0000        12.9224         0.0567        48.9896       73.21545         0.7044          2.338      0.8556478
      9325.5000        13.1153         0.0419        49.3513       73.81565         0.6941         2.3257      0.8684181
      9326.0000        13.4428         0.0585        49.4656       73.99543         0.6837          2.327      0.8722432
      9326.5000        14.1652         0.0713        49.3116       73.71929         0.6734         2.3153      0.8663679
      9327.0000        14.9315         0.0662        48.9764       73.13509          0.663         2.3012       0.853938
      9327.5000         14.374          0.071        48.5225       72.34931         0.6527         2.3152      0.8372194
      9328.0000        14.2543         0.0922        48.0185       71.47842         0.6554         2.3246      0.8186899
      9328.5000        14.1073         0.1074          47.83       71.14368         0.6665         2.3205      0.8115676
      9329.0000        13.8315         0.0806        48.0963       71.58176         0.6776         2.3063      0.8208886
      9329.5000         13.718         0.0572        48.6671       72.53726         0.6887         2.2806      0.8412184
      9330.0000         13.667         0.0384        49.2928       73.58606         0.6998         2.2927      0.8635332
      9330.5000        13.2725         0.0219        49.5352       73.98354         0.7057         2.3237      0.8719901
      9331.0000        13.0164         0.0189        49.0457       73.13728         0.7079         2.3933      0.8539846
      9331.5000        13.2846         0.0402        48.2452       71.76257           0.71          2.416      0.8247355
      9332.0000        13.4527         0.0629        47.6553       70.74552         0.7122         2.4312      0.8030962
      9332.5000        13.6675         0.0874        47.3747       70.25426         0.7144         2.4101      0.7926439
      9333.0000        13.8421         0.0701        46.2968       68.40816         0.7165         2.3511      0.7533652
      9333.5000         12.865         0.0514        44.1025       64.66498         0.7187         2.3566      0.6737229
      9334.0000        12.8578         0.0489        41.9107       60.92601         0.7241         2.3829      0.5941703
      9334.5000        13.0947         0.0599        40.5929       58.67225          0.732         2.3826       0.546218
      9335.0000        13.0741         0.0472        40.3602       58.26237         0.7131         2.3871      0.5374973
      9335.5000        12.8192         0.0231        40.9196       59.19852         0.6733         2.3757      0.5574154
      9336.0000        12.7965         0.0134        41.6298        60.3909         0.6371         2.3516      0.5827852
      9336.5000        12.9022         0.0198        42.0777       61.13741          0.606         2.3226      0.5986682
      9337.0000        12.7054         0.0207        41.6346          60.37         0.5748         2.3062      0.5823405
      9337.5000        12.6212         0.0332         40.189       57.89906         0.5437         2.2752      0.5297672
      9338.0000        12.6485         0.0275        39.1498       56.11872         0.5243          2.266      0.4918877
      9338.5000        12.7572         0.0374         39.456       56.62461         0.5163         2.2717      0.5026513
      9339.0000        12.9099         0.0372        40.1408       57.77383         0.5083         2.2639      0.5271028
      9339.5000        13.6463         0.0439        40.7617       58.81447         0.5332         2.2477      0.5492441
      9340.0000        14.3697         0.0467        41.6647       60.33447         0.5607         2.1983      0.5815845
      9340.5000        15.2054         0.0305        42.6895       62.06148         0.5882         2.1956      0.6183294
      9341.0000        14.0359         0.0131        42.6293       61.94474         0.6157         2.2264      0.6158456
      9341.5000        13.0155         0.0032        41.9879       60.84019         0.6432          2.267      0.5923445
      9342.0000        14.1777        -0.0034        42.2639       61.29475         0.6677         2.2956       0.602016
      9342.5000        14.6474        -0.0101        43.5262       63.42533          0.682         2.3152      0.6473474
      9343.0000        14.6231        -0.0146        44.0863       64.36265         0.6962         2.3472      0.6672904
      9343.5000        13.0782        -0.0138        44.2524       64.63046         0.7105         2.3723      0.6729886
      9344.0000        13.3618        -0.0079        44.7427       65.44919         0.7248         2.3729      0.6904083
      9344.5000        13.9385        -0.0077        45.7398       67.12911          0.739         2.3899      0.7261513
      9345.0000        14.4904        -0.0079         46.849       68.99952         0.7532         2.3957      0.7659472
      9345.5000        14.4278        -0.0066        47.9413        70.8412         0.7511         2.4043       0.805132
      9346.0000        14.3896        -0.0035        48.8154        72.3121         0.7439          2.407      0.8364276
      9346.5000        14.4121        -0.0009         49.376       73.25011         0.7367         2.3927      0.8563854
      9347.0000        14.5983         0.0021        49.6811       73.75414         0.7295         2.3799      0.8671092
      9347.5000        14.4178         0.0101        50.9965       75.97492         0.7223         2.3643        0.91436
      9348.0000        14.4126           0.02        53.1063       79.54565         0.7119         2.3608      0.9903329
      9348.5000        14.5539         0.0255        54.2023       81.39362         0.6994         2.3476              1
      9349.0000        14.6936         0.0248        54.2867        81.5226         0.6869         2.3359              1
      9349.5000        14.7057         0.0223        53.3728       79.95518         0.6744         2.3342      0.9990465
      9350.0000        14.7589          0.023        52.4167       78.31606         0.6618         2.3366      0.9641714
      9350.5000        14.7912         0.0248        51.2762       76.36356         0.6493          2.342      0.9226288
      9351.0000         14.722         0.0254        50.5275       75.07668         0.6373         2.3286      0.8952484
      9351.5000        14.9498         0.0219        50.0723       74.28871         0.6331         2.3333      0.8784832
      9352.0000        15.2217         0.0273        49.9403       74.04998         0.6289         2.3538      0.8734038
      9352.5000        15.0009         0.0497        50.0639       74.24556         0.6247          2.366      0.8775651
      9353.0000        14.6986         0.0527        50.2682       74.57827         0.6205          2.356       0.884644
