#------------------------------------------------------------------------------
# Created by    : vladimir.rabinovich
# Created on    : 09/19/2023 17:22:20
#------------------------------------------------------------------------------
~Version Information Section
VERS.           2.0     :   CWLS log ASCII Standard - VERSION 2.0
WRAP.           NO      :   One line per depth step
~Well Information Section
#MNEM       .UNIT                                         VALUE :DESCRIPTION
#------------------------------------------------------------------------------
STRT        .FT                                            3394 :START DEPTH
STOP        .FT                                            9102 :STOP DEPTH
STEP        .FT                                             0.5 :STEP      
NULL        .                                           -999.25 :NULL      
COMP        .                               TALOS PETROLEUM LLC :COMPANY   
WELL        .                                OCS 00299 ST00BP02 :WELL      
FLD         .                           WEST CAMERON BLOCK 0045 :FIELD     
LOC         .                                                   :LOCATION  
CNTY        .                                      WEST CAMERON :LOCATION  
STAT        .                                         LOUISIANA :STATE     
CTRY        .                                     UNITED STATES :COUNTRY   
SRVC        .                                                   :SERVICE COMPANY
DATE        .                             9/13/2023 11:19:21 AM :LOG DATE  
API         .                                    17700408910000 :API NUMBER
UWI         .                                    17700408910000 :UNIQUE WELL ID
XCOORD      .                                  1447531.51187247 :SURFACE X 
YCOORD      .                                  10768708.3799417 :SURFACE Y 
LAT         .                                         29.671026 :LATITUDE  
LON         .                                        -93.607557 :LONGITUDE 
ELEV        .FT                                              95 :ELEVATION VALUE
ELEV_TYPE   .                                                KB :ELEVATION REFERENCE TYPE
~Curve Information Section
#MNEM       .UNIT                                      API CODE :CURVE DESCRIPTION
#------------------------------------------------------------------------------
DEPT        .FT                                                 :DEPTH     
CALI        .IN                                                 :          
DPHI        .V/V                                                :          
DRHO        .G/C3                                               :          
GR          .GAPI                                               :          
GR_NORM     .GAPI                                               :GammaRay Normalized
IDPH        .OHMM                                               :          
IMPH        .OHMM                                               :          
NPOR        .V/V                                                :          
SFLU        .OHMM                                               :          
SP          .MV                                                 :          
SP_NORM     .MV                                                 :SP Normalized
TENS        .LBS                                                :          
VSH_GR      .V/V                                                :Volume of Shale from GR
VSH_SP      .V/V                                                :Volume of Shale from SP
~A        DEPTH           CALI           DPHI           DRHO             GR        GR_NORM           IDPH           IMPH           NPOR           SFLU             SP        SP_NORM           TENS         VSH_GR         VSH_SP
# ...
      8704.0000          15.56         0.1371           0.01           82.8        88.7912         0.9404         0.9159         0.2736         0.8825              0        -5.7143           5480              1      0.9365078
      8704.5000          15.64         0.1335           0.01             82       87.69564          0.957         0.9322         0.2616         0.9655              0        -5.7143           5500              1      0.9365078
      8705.0000          15.68         0.1335          0.008           81.8       87.41765          0.957         0.9404          0.258         1.0093            0.3        -5.4143           5540              1      0.9398411
      8705.5000          15.68         0.1359          0.005             82       87.68464         0.9655         0.9487         0.2604         0.9913            0.6        -5.1143           5520              1      0.9431744
      8706.0000          15.56         0.1396          0.004           83.6       89.85925          0.957         0.9404         0.2664         0.9655            0.6        -5.1143           5500              1      0.9431744
      8706.5000          15.44         0.1396          0.004           83.8        90.1263         0.9322         0.9159           0.27         0.9487            0.6        -5.1143           5480              1      0.9431744
      8707.0000          15.24         0.1396          0.004             81       86.30559         0.9159         0.8912         0.2736         0.9322            1.2        -4.5143           5460              1      0.9498411
      8707.5000          15.24         0.1445          0.004             76        79.4872         0.8912         0.8739         0.2844         0.9079            1.2        -4.5143           5460      0.9890893      0.9498411
      8708.0000           15.2         0.1506          0.003             77       80.84428         0.8653         0.8485         0.2832         0.8739            1.2        -4.5143           5460              1      0.9498411
      8708.5000          15.28         0.1592          0.001           78.4        82.7464         0.8485         0.8239          0.282          0.832            1.2        -4.5143           5460              1      0.9498411
      8709.0000          15.32         0.1678          0.001           80.6       85.73856         0.8239         0.8159         0.2904            0.8            1.2        -4.5143           5460              1      0.9498411
      8709.5000          15.36         0.1763          0.002           81.6       87.09564         0.8159            0.8         0.3096         0.7652            1.2        -4.5143           5440              1      0.9498411
      8710.0000          15.36         0.1776          0.002           81.4       86.81764         0.8079         0.7859         0.3276         0.7517            1.2        -4.5143           5420              1      0.9498411
      8710.5000          15.32         0.1763          0.003             80       84.90453         0.8079         0.7929         0.3312         0.7384            1.2        -4.5143           5460              1      0.9498411
      8711.0000          15.28         0.1751          0.002           77.8       81.90138         0.8159            0.8         0.3108         0.7517            1.5        -4.2143           5460              1      0.9531745
      8711.5000          15.24         0.1739          0.001             78       82.16839         0.8239            0.8         0.3036          0.832            1.8        -3.9143           5460              1      0.9565078
      8712.0000          15.16         0.1788              0           80.2       85.16055          0.832         0.8079         0.3132          0.832            1.8        -3.9143           5460              1      0.9565078
      8712.5000          15.12         0.1812              0           82.8       88.69777          0.832         0.8159         0.3228         0.8159            1.5        -4.2143           5400              1      0.9531745
      8713.0000          15.24         0.1788              0           84.4       90.87238          0.832         0.8159          0.324         0.7859            1.2        -4.5143           5400              1      0.9498411
      8713.5000          15.36           0.18         -0.001             86       93.04702          0.832         0.8159         0.3252         0.7652            1.2        -4.5143           5400              1      0.9498411
      8714.0000          15.36         0.1812         -0.001           87.2       94.67659         0.8485         0.8079         0.3252          0.745            1.2        -4.5143           5380              1      0.9498411
      8714.5000          15.36         0.1788         -0.001           85.2       91.94595         0.8739          0.832         0.3192         0.7584            1.2        -4.5143           5360              1      0.9498411
      8715.0000           15.4         0.1751         -0.001             81       86.21764         0.9079         0.8653          0.312         0.7652            1.2        -4.5143           5360              1      0.9498411
      8715.5000          15.48         0.1678              0           76.6       80.21681         0.9322         0.9159         0.3048          0.832            1.2        -4.5143           5340              1      0.9498411
      8716.0000          15.48         0.1592         -0.001           74.6       77.48617          0.957          0.974         0.2844         0.9404            0.6        -5.1143           5340      0.9465142      0.9431744
      8716.5000          15.44         0.1469         -0.002             73       75.30054         0.9913         1.0377         0.2544          1.181            0.3        -5.4143           5340      0.9000114      0.9398411
      8717.0000           15.4         0.1347         -0.002           69.6       70.66228              1          1.057         0.2244         1.2716            0.6        -5.1143           5340       0.801325      0.9431744
      8717.5000          15.32         0.1224         -0.002           67.6       67.93165          0.974         1.0867         0.2028         1.3074            1.2        -4.5143           5320      0.7432266      0.9498411
      8718.0000          15.24         0.1273         -0.003           67.8       68.19867         0.9404         1.0473          0.228          1.181            1.5        -4.2143           5320      0.7489079      0.9531745
      8718.5000          15.12         0.1482         -0.004             71        72.5534         0.9079         0.9913         0.2844         0.9655            1.5        -4.2143           5320      0.8415617      0.9531745
      8719.0000          14.96         0.1604         -0.004           73.6       76.09061         0.8825         0.9322         0.3048         0.8825            1.2        -4.5143           5340      0.9168214      0.9498411
      8719.5000          14.76         0.1678         -0.004             75       77.99271         0.8485         0.8739          0.306         0.8239            0.9        -4.8143           5360      0.9572918      0.9465078
      8720.0000          14.64         0.1751         -0.004           76.4       79.89482         0.8239            0.8         0.3096         0.7789            1.2        -4.5143           5400      0.9977621      0.9498411
      8720.5000          14.68         0.1788         -0.001           78.8       83.15952            0.8         0.7859         0.3132          0.745            1.5        -4.2143           5460              1      0.9531745
      8721.0000          14.64         0.1824         -0.001           80.6       85.60666            0.8         0.7789         0.3216         0.7254            1.8        -3.9143           5440              1      0.9565078
      8721.5000           14.6         0.1872          0.001           81.6       86.96373         0.8079         0.7789         0.3312         0.7254            2.1        -3.6143           5380              1      0.9598411
