#------------------------------------------------------------------------------
# Created by    : vladimir.rabinovich
# Created on    : 09/19/2023 17:22:20
#------------------------------------------------------------------------------
~Version Information Section
VERS.           2.0     :   CWLS log ASCII Standard - VERSION 2.0
WRAP.           NO      :   One line per depth step
~Well Information Section
#MNEM       .UNIT                                         VALUE :DESCRIPTION
#------------------------------------------------------------------------------
STRT        .FT                                            3394 :START DEPTH
STOP        .FT                                            9102 :STOP DEPTH
STEP        .FT                                             0.5 :STEP      
NULL        .                                           -999.25 :NULL      
COMP        .                               TALOS PETROLEUM LLC :COMPANY   
WELL        .                                OCS 00299 ST00BP02 :WELL      
FLD         .                           WEST CAMERON BLOCK 0045 :FIELD     
LOC         .                                                   :LOCATION  
CNTY        .                                      WEST CAMERON :LOCATION  
STAT        .                                         LOUISIANA :STATE     
CTRY        .                                     UNITED STATES :COUNTRY   
SRVC        .                                                   :SERVICE COMPANY
DATE        .                             9/13/2023 11:19:21 AM :LOG DATE  
API         .                                    17700408910000 :API NUMBER
UWI         .                                    17700408910000 :UNIQUE WELL ID
XCOORD      .                                  1447531.51187247 :SURFACE X 
YCOORD      .                                  10768708.3799417 :SURFACE Y 
LAT         .                                         29.671026 :LATITUDE  
LON         .                                        -93.607557 :LONGITUDE 
ELEV        .FT                                              95 :ELEVATION VALUE
ELEV_TYPE   .                                                KB :ELEVATION REFERENCE TYPE
~Curve Information Section
#MNEM       .UNIT                                      API CODE :CURVE DESCRIPTION
#------------------------------------------------------------------------------
DEPT        .FT                                                 :DEPTH     
CALI        .IN                                                 :          
DPHI        .V/V                                                :          
DRHO        .G/C3                                               :          
GR          .GAPI                                               :          
GR_NORM     .GAPI                                               :GammaRay Normalized
IDPH        .OHMM                                               :          
IMPH        .OHMM                                               :          
NPOR        .V/V                                                :          
SFLU        .OHMM                                               :          
SP          .MV                                                 :          
SP_NORM     .MV                                                 :SP Normalized
TENS        .LBS                                                :          
VSH_GR      .V/V                                                :Volume of Shale from GR
VSH_SP      .V/V                                                :Volume of Shale from SP
~A        DEPTH           CALI           DPHI           DRHO             GR        GR_NORM           IDPH           IMPH           NPOR           SFLU             SP        SP_NORM           TENS         VSH_GR         VSH_SP
# ...
      3484.0000        -999.25        -999.25        -999.25           21.8       64.10342        -999.25        -999.25         0.5976        -999.25        -999.25        -999.25           2660      0.6617748        -999.25
      3484.5000        -999.25        -999.25        -999.25             22       64.59174        -999.25        -999.25         0.5976        -999.25        -999.25        -999.25           2680      0.6721647        -999.25
      3485.0000        -999.25        -999.25        -999.25           21.6       63.56222        -999.25        -999.25         0.5976        -999.25        -999.25        -999.25           2700        0.65026        -999.25
      3485.5000        -999.25        -999.25        -999.25           20.6       61.01484        -999.25        -999.25         0.5976        -999.25        -999.25        -999.25           2700      0.5960605        -999.25
      3486.0000        -999.25        -999.25        -999.25             21        62.0091        -999.25        -999.25         0.5976        -999.25        -999.25        -999.25           2700      0.6172149        -999.25
      3486.5000        -999.25        -999.25        -999.25           21.6        63.5093        -999.25        -999.25         0.5976        -999.25        -999.25        -999.25           2660       0.649134        -999.25
      3487.0000        -999.25        -999.25        -999.25             22       64.50361        -999.25        -999.25         0.5976        -999.25        -999.25        -999.25           2640      0.6702896        -999.25
      3487.5000        -999.25        -999.25        -999.25           22.4       65.49789        -999.25        -999.25         0.5976        -999.25        -999.25        -999.25           2560      0.6914446        -999.25
      3488.0000        -999.25        -999.25        -999.25           22.8       66.49216        -999.25        -999.25         0.5976        -999.25        -999.25        -999.25           2460      0.7125991        -999.25
      3488.5000        -999.25        -999.25        -999.25             24       69.51025        -999.25        -999.25         0.5976        -999.25        -999.25        -999.25           2480      0.7768139        -999.25
      3489.0000        -999.25        -999.25        -999.25           25.2       72.52835        -999.25        -999.25         0.5976        -999.25        -999.25        -999.25           2500      0.8410287        -999.25
      3489.5000        -999.25        -999.25        -999.25           25.4       73.01669        -999.25        -999.25         0.5976        -999.25        -999.25        -999.25           2540       0.851419        -999.25
      3490.0000        -999.25        -999.25        -999.25             25       71.98714        -999.25        -999.25         0.5976        -999.25        -999.25        -999.25           2600      0.8295137        -999.25
      3490.5000        -999.25        -999.25        -999.25           24.6        70.9576        -999.25        -999.25         0.5976        -999.25        -999.25        -999.25           2663      0.8076084        -999.25
      3491.0000        -999.25        -999.25        -999.25           24.2       69.92808        -999.25        -999.25         0.5976        -999.25        -999.25        -999.25           2668      0.7857038        -999.25
      3491.5000        -999.25        -999.25        -999.25           23.8       68.89852        -999.25        -999.25         0.5976        -999.25        -999.25        -999.25           2693      0.7637984        -999.25
      3492.0000        -999.25        -999.25        -999.25             24       69.38686        -999.25        -999.25         0.5976        -999.25        -999.25        -999.25           2678      0.7741884        -999.25
      3492.5000        -999.25        -999.25        -999.25           24.6       70.88707        -999.25        -999.25         0.5976        -999.25        -999.25        -999.25           2660      0.8061079        -999.25
      3493.0000        -999.25        -999.25        -999.25           24.2       69.85756        -999.25        -999.25         0.5976        -999.25        -999.25        -999.25           2640      0.7842034        -999.25
      3493.5000        -999.25        -999.25        -999.25           23.2       67.31013        -999.25        -999.25         0.5976        -999.25        -999.25        -999.25           2640      0.7300027        -999.25
      3494.0000        -999.25        -999.25        -999.25             20       59.19719        -999.25        -999.25         0.5976        -999.25        -999.25        -999.25           2640       0.557387        -999.25
      3494.5000        -999.25        -999.25        -999.25           18.8       56.14383        -999.25        -999.25         0.5976        -999.25        -999.25        -999.25           2680      0.4924219        -999.25
      3495.0000        -999.25        -999.25        -999.25           17.8       53.59643        -999.25        -999.25         0.5976        -999.25        -999.25        -999.25           2680       0.438222        -999.25
      3495.5000        -999.25        -999.25        -999.25             19       56.61454        -999.25        -999.25         0.5976        -999.25        -999.25        -999.25           2680      0.5024369        -999.25
      3496.0000        -999.25        -999.25        -999.25           22.2       64.69222        -999.25        -999.25         0.5976        -999.25        -999.25        -999.25           2680      0.6743026        -999.25
      3496.5000        -999.25        -999.25        -999.25             25       71.75796        -999.25        -999.25         0.5988        -999.25        -999.25        -999.25           2700      0.8246374        -999.25
      3497.0000          13.76         0.3948         -0.067           25.8       73.76411         3.2613         6.2783         0.5988         1.0562          -67.5       -17.3773           2680      0.8673216      0.7348741
      3497.5000          13.96         0.3948         -0.031           25.8       73.74651         2.1729         1.9638         0.5988         1.2447          -72.3       -22.2401           2700      0.8669471      0.6510327
      3498.0000          14.12          0.396          -0.03           25.6       73.22292         0.5233         0.8447         0.5988         1.3028          -75.9       -25.9028           2660      0.8558069      0.5878828
      3498.5000          14.24         0.3924         -0.032           27.2       77.25292         0.3056         0.5186         0.5856         1.3521            -78       -28.0656           2620      0.9415515      0.5505931
      3499.0000          14.28         0.3864         -0.033           28.4       80.27099         0.3231          0.419         0.5232         1.4038          -78.9       -29.0283           2560              1      0.5339949
      3499.5000          14.28         0.3804         -0.032             28       79.24149         0.3783          0.389         0.5076         1.4716          -79.8       -29.9911           2540      0.9838614      0.5173948
      3500.0000          14.32         0.3708         -0.025           27.4       77.70599         0.4431         0.4514         0.5052         1.4735          -80.7       -30.9538           2560      0.9511914      0.5007966
      3500.5000          14.24         0.3708         -0.016             28       79.20621            0.5         0.5233         0.5172         1.3692          -80.7       -31.0166           2600       0.983111      0.4997138
      3501.0000           14.2         0.3828         -0.014           28.8       81.21244         0.4908         0.6117         0.5292         1.2255            -81       -31.3793           2640              1      0.4934604
      3501.5000          14.24         0.3984         -0.014           28.8       81.19478         0.4685         0.6735         0.5376          1.057          -80.7        -31.142           2640              1      0.4975517
