#------------------------------------------------------------------------------
# Created by    : vladimir.rabinovich
# Created on    : 09/19/2023 17:20:59
#------------------------------------------------------------------------------
~Version Information Section
VERS.           2.0     :   CWLS log ASCII Standard - VERSION 2.0
WRAP.           NO      :   One line per depth step
~Well Information Section
#MNEM       .UNIT                                         VALUE :DESCRIPTION
#------------------------------------------------------------------------------
STRT        .FT                                            4010 :START DEPTH
STOP        .FT                                           10351 :STOP DEPTH
STEP        .FT                                             0.5 :STEP      
NULL        .                                           -999.25 :NULL      
COMP        .                         TALOS ENERGY VENTURES LLC :COMPANY   
WELL        .                               OCS G13557 ST00BP00 :WELL      
FLD         .                           WEST CAMERON BLOCK 0118 :FIELD     
LOC         .                                                   :LOCATION  
CNTY        .                                      WEST CAMERON :LOCATION  
STAT        .                                         LOUISIANA :STATE     
CTRY        .                                     UNITED STATES :COUNTRY   
SRVC        .                                                   :SERVICE COMPANY
DATE        .                             9/13/2023 11:19:21 AM :LOG DATE  
API         .                                    17700409470000 :API NUMBER
UWI         .                                    17700409470000 :UNIQUE WELL ID
XCOORD      .                                  1434760.35260149 :SURFACE X 
YCOORD      .                                  10716448.9068769 :SURFACE Y 
LAT         .                                        29.5270802 :LATITUDE  
LON         .                                       -93.6468641 :LONGITUDE 
ELEV        .FT                                             100 :ELEVATION VALUE
ELEV_TYPE   .                                                KB :ELEVATION REFERENCE TYPE
~Curve Information Section
#MNEM       .UNIT                                      API CODE :CURVE DESCRIPTION
#------------------------------------------------------------------------------
DEPT        .FT                                                 :DEPTH     
AT10        .OHMM                                               :          
AT20        .OHMM                                               :          
AT30        .OHMM                                               :          
AT60        .OHMM                                               :          
AT90        .OHMM                                               :          
CALI        .IN                                                 :          
DPHI        .%                                                  :          
DRHO        .G/C3                                               :          
DTLF        .US/F                                               :          
DTLN        .US/F                                               :          
GR          .GAPI                                               :          
GR_NORM     .GAPI                                               :GammaRay Normalized
NPOR        .%                                                  :          
RHOB        .G/C3                                               :          
SP          .MV                                                 :          
SP_NORM     .MV                                                 :SP Normalized
TENS        .LBF                                                :          
VSH_GR      .V/V                                                :Volume of Shale from GR
VSH_SP      .V/V                                                :Volume of Shale from SP
~A        DEPTH           AT10           AT20           AT30           AT60           AT90           CALI           DPHI           DRHO           DTLF           DTLN             GR        GR_NORM           NPOR           RHOB             SP        SP_NORM           TENS         VSH_GR         VSH_SP
# ...
      6116.0000         0.2609         0.2213         0.2181         0.2183         0.2175         9.8091        29.5431        -0.0054          112.7          112.2        34.1454       32.89617         31.658         2.1625        -999.25        -999.25           2315              0        -999.25
      6116.5000         0.2562         0.2183         0.2162         0.2221         0.2208         9.7958         29.526        -0.0016            112       111.8999        32.0492       31.04485        32.2333         2.1628        -999.25        -999.25           2315              0        -999.25
      6117.0000         0.2508         0.2138         0.2136         0.2227         0.2213         9.8091        29.7126         -0.003          111.1       112.2999        29.9808       29.21809         32.412         2.1597        -999.25        -999.25           2315              0        -999.25
      6117.5000         0.2453         0.2086         0.2105         0.2187         0.2176         9.7877        29.8628        -0.0055          112.1          112.7        27.3953       26.93434        33.2278         2.1573        -999.25        -999.25           2245              0        -999.25
      6118.0000         0.2453         0.2069         0.2105         0.2178         0.2166         9.8091        30.4922        -0.0059          113.7       114.2999        30.4913       29.67085        33.6487         2.1469        -999.25        -999.25           2245              0        -999.25
      6118.5000         0.2544          0.213         0.2163          0.228         0.2254         9.8142        30.8315        -0.0059       115.2999          115.5        29.7456       29.01283        34.2265         2.1413        -999.25        -999.25           2245              0        -999.25
      6119.0000         0.2707         0.2256         0.2274         0.2497         0.2446         9.8009        31.0371        -0.0063          115.1          116.1        34.3698       33.09957        34.7143         2.1379        -999.25        -999.25           2245    0.002118537        -999.25
      6119.5000         0.2901         0.2376         0.2412         0.2754         0.2675         9.7776        31.3716        -0.0081       114.8999          116.1        33.8774       32.66537        34.5932         2.1324        -999.25        -999.25           2335              0        -999.25
      6120.0000         0.3097         0.2506         0.2586         0.2985          0.289         9.8142        29.7868        -0.0054          115.2            115        35.3987       34.01048         32.545         2.1585        -999.25        -999.25           2335     0.02149947        -999.25
      6120.5000         0.3482          0.281         0.2913         0.3292          0.318         9.8192        26.2059         0.0042       105.8999          108.5        32.3028       31.27573        29.4517         2.2176        -999.25        -999.25           2335              0        -999.25
      6121.0000          0.452         0.3556         0.3615         0.3858         0.3696         9.8463        22.7239         0.0145           97.2        96.3999         32.513       31.46235        26.2462         2.2751        -999.25        -999.25           2335              0        -999.25
      6121.5000          0.693         0.5024         0.4879         0.4769         0.4505         9.9255        19.6062         0.0192        89.3999           89.5        39.6724       37.78928        24.3821         2.3265        -999.25        -999.25           2245      0.1018996        -999.25
      6122.0000         1.0645         0.6977          0.644         0.5908           0.55         9.9422        16.7755         0.0263           87.6           88.6        47.7106       44.89272        23.8959         2.3732        -999.25        -999.25           2245      0.2530365        -999.25
      6122.5000         1.2231         0.7606         0.7317          0.675         0.6256        10.0095        16.9349         0.0228        95.2999        94.3999        53.4471       49.96228        25.7005         2.3706        -999.25        -999.25           2245      0.3608996        -999.25
      6123.0000         1.1135         0.7013         0.7131         0.6651         0.6257        10.0572         19.567         0.0147        99.3999          103.2        56.8434       52.96413        28.5141         2.3271        -999.25        -999.25           2245      0.4247688        -999.25
      6123.5000         1.0055         0.6603         0.6548         0.5997         0.5764        10.0636        21.4921         0.0116            108       106.2999        56.6313       52.77761        31.2656         2.2954        -999.25        -999.25           2215      0.4208002        -999.25
      6124.0000         0.9577         0.6452         0.6111         0.5533         0.5386        10.0977        22.9535          0.006          106.5          105.6        58.9169       54.79796        32.7347         2.2713        -999.25        -999.25           2215      0.4637864        -999.25
      6124.5000         0.9481         0.6446         0.5929         0.5428         0.5303        10.1204        22.9999         0.0042       105.3999            105        61.2884        56.8943        33.7668         2.2705        -999.25        -999.25           2215      0.5083894        -999.25
      6125.0000         0.9499         0.6472         0.5898         0.5501         0.5382        10.2243        22.8219         0.0044          103.2          104.6        61.2421       56.85427        33.9283         2.2734        -999.25        -999.25           2215      0.5075378        -999.25
      6125.5000         0.9483         0.6494         0.5911         0.5562         0.5455        10.4217          22.21         0.0044          103.2          103.7        66.2731       60.10688        33.8821         2.2835        -999.25        -999.25           2215      0.5767421        -999.25
      6126.0000         0.9548          0.652         0.5965         0.5584         0.5488        10.4981        21.2551          0.005            104       104.7999        65.2389       59.13567        34.1109         2.2993        -999.25        -999.25           2315       0.556078        -999.25
      6126.5000         0.9748         0.6529         0.6052         0.5627         0.5527         10.523        21.0616         0.0025          104.7          104.7        70.6683       64.24024        33.9889         2.3025        -999.25        -999.25           2315       0.664686        -999.25
      6127.0000         0.9697         0.6408         0.5998         0.5607         0.5503        10.8467        22.1772        -0.0029       105.3999       105.8999        67.6584       61.41178        34.2385         2.2841        -999.25        -999.25           2315       0.604506        -999.25
      6127.5000         0.9078         0.5941         0.5611         0.5313         0.5238        11.3179        23.8765        -0.0107          106.7       107.2999        70.2439       63.84309        33.9504          2.256        -999.25        -999.25           2315      0.6562361        -999.25
      6128.0000         0.8215         0.5324          0.499         0.4769         0.4751        10.0618        26.1395        -0.0186          108.7       108.7999        69.9854       63.60104        34.5056         2.2187        -999.25        -999.25           2285       0.651086        -999.25
      6128.5000         0.7473         0.4798         0.4383         0.4214         0.4247         9.8514        28.4862        -0.0231       110.7999       112.2999        67.4484        61.2172        34.9377           2.18        -999.25        -999.25           2285       0.600366        -999.25
      6129.0000         0.6806         0.4331         0.3872         0.3745          0.381         9.7272        30.2085        -0.0273          114.1       113.8999        60.3866       54.57996        35.3395         2.1516        -999.25        -999.25           2285       0.459148        -999.25
