#------------------------------------------------------------------------------
# Created by    : vladimir.rabinovich
# Created on    : 09/19/2023 17:22:23
#------------------------------------------------------------------------------
~Version Information Section
VERS.           2.0     :   CWLS log ASCII Standard - VERSION 2.0
WRAP.           NO      :   One line per depth step
~Well Information Section
#MNEM       .UNIT                                         VALUE :DESCRIPTION
#------------------------------------------------------------------------------
STRT        .FT                                            4000 :START DEPTH
STOP        .FT                                           10100 :STOP DEPTH
STEP        .FT                                             0.5 :STEP      
NULL        .                                           -999.25 :NULL      
COMP        .                         TALOS ENERGY VENTURES LLC :COMPANY   
WELL        .                               OCS G13557 ST00BP00 :WELL      
FLD         .                           WEST CAMERON BLOCK 0118 :FIELD     
LOC         .                                                   :LOCATION  
CNTY        .                                      WEST CAMERON :LOCATION  
STAT        .                                         LOUISIANA :STATE     
CTRY        .                                     UNITED STATES :COUNTRY   
SRVC        .                                                   :SERVICE COMPANY
DATE        .                             9/13/2023 11:19:21 AM :LOG DATE  
API         .                                    17700409600000 :API NUMBER
UWI         .                                    17700409600000 :UNIQUE WELL ID
XCOORD      .                                  1437367.94342701 :SURFACE X 
YCOORD      .                                  10730631.2479363 :SURFACE Y 
LAT         .                                         29.566133 :LATITUDE  
LON         .                                        -93.638908 :LONGITUDE 
ELEV        .FT                                              97 :ELEVATION VALUE
ELEV_TYPE   .                                                KB :ELEVATION REFERENCE TYPE
~Curve Information Section
#MNEM       .UNIT                                      API CODE :CURVE DESCRIPTION
#------------------------------------------------------------------------------
DEPT        .FT                                                 :DEPTH     
CALX        .IN                                                 :          
CNC         .%                                                  :          
CSAX        .MMHO                                               :          
GR          .API                                                :          
GR_NORM     .GAPI                                               :GammaRay Normalized
GRAX        .GAPI                                               :          
PORZ        .%                                                  :          
RIPD        .OHMM                                               :          
RIPM        .OHMM                                               :          
ROPS        .M/MIN                                              :          
RSAX        .OHMM                                               :          
RSFL        .OHMM                                               :          
RSTX        .MINS                                               :          
RWAZ        .OHMM                                               :          
SP          .MV                                                 :          
SP_NORM     .MV                                                 :SP Normalized
TEN         .LBF                                                :          
VSH_GR      .V/V                                                :Volume of Shale from GR
VSH_SP      .V/V                                                :Volume of Shale from SP
ZCOR        .G/C3                                               :          
~A        DEPTH           CALX            CNC           CSAX             GR        GR_NORM           GRAX           PORZ           RIPD           RIPM           ROPS           RSAX           RSFL           RSTX           RWAZ             SP        SP_NORM            TEN         VSH_GR         VSH_SP           ZCOR
# ...
      7237.0000         10.666         45.571       1592.697        82.9609       80.26548         98.048         22.428          0.488          0.461        58.0829          0.628          0.691             32          0.032          1.103          1.926        -47.543              1              1          0.068
      7237.5000          10.67         50.469       1646.715        83.0289       80.34602        97.9579         21.782          0.488          0.461        46.6299          0.609          0.689         31.681           0.03          1.334         2.1559        -47.634              1              1          0.076
      7238.0000         10.667         52.508       1700.732        84.0929       81.62572         93.127         21.222          0.486          0.459        46.6299          0.589          0.707         31.363          0.028          1.429         2.2497        -41.228              1              1          0.085
      7238.5000          10.67         50.741       1754.752        86.2529       84.22498        88.2959         21.204          0.478          0.456         52.316           0.57           0.73         31.044          0.027          1.521         2.3405        -34.331              1              1          0.088
      7239.0000         10.685         47.847       1762.295        87.6089       85.85623        86.2109         21.552          0.479           0.45         52.316          0.567          0.737             31          0.029          1.517         2.3354        -33.597              1              1          0.083
      7239.5000         10.702          44.06       1647.334         87.797       86.08138          82.25         21.877          0.471          0.443         62.173          0.607          0.716             32          0.029          1.381         2.1982        -38.529              1              1          0.075
      7240.0000         10.714        41.3539       1655.984        89.4299       88.04603        78.2889          22.12          0.472          0.443         62.173          0.604          0.679         32.776           0.03          1.216          2.032       -42.0649              1              1          0.073
      7240.5000         10.724         42.508       1658.484        91.9769       91.11121         77.283         22.345          0.479          0.444         54.666          0.603          0.646             33          0.031          1.006         1.8209        -38.865              1              1          0.074
      7241.0000         10.728         46.871       1634.549        91.9779       91.11109        65.2219         22.411           0.48          0.446         54.658          0.612          0.634             34          0.031          0.542         1.3557       -32.5359              1              1          0.073
      7241.5000         10.719         50.546       1672.688        89.6349       88.28886        67.9789         22.203          0.484          0.451        110.886          0.598           0.64          35.65          0.031         -0.247         0.5655        -31.321              1              1          0.072
      7242.0000         10.697         50.732       1710.824         87.719       85.98084         70.736         21.882          0.493          0.458        110.886          0.585          0.645         37.301           0.03         -1.225        -0.4136        -35.857              1              1          0.074
      7242.5000         10.674         48.546       1726.988         86.674       84.72137        73.4929         21.601          0.511          0.472         70.917          0.579          0.649             38          0.031         -2.798        -1.9878         -40.11              1              1          0.075
      7243.0000          10.64         43.991       1747.846         85.902       83.79058          76.25         21.213          0.531          0.482        70.8779          0.573          0.675          37.53          0.031         -5.222         -4.413        -41.159              1      0.9709277           0.07
      7243.5000         10.564         38.864       1768.703        85.0499       82.76335         79.007         20.588          0.544          0.487        53.6949          0.566          0.735         37.059          0.029         -7.535        -6.7271        -41.501              1       0.943047          0.062
      7244.0000         10.463         35.746       1789.561          83.72       81.16088        81.7639         19.983          0.569          0.493        53.6949           0.56          0.796         36.589          0.029         -8.681        -7.8743        -43.868              1      0.9292253          0.058
      7244.5000         10.396         35.088       1810.418        83.0609         80.366         84.521         19.812           0.59          0.507          63.14          0.553          0.811         36.119          0.029         -9.034        -8.2285        -46.808              1      0.9249578          0.055
      7245.0000         10.366         35.543       1831.273        83.7699        81.2183         87.278         20.167          0.594          0.516         63.761          0.547          0.801        35.6479          0.031         -9.617        -8.8127       -43.5519              1      0.9179193          0.052
      7245.5000         10.305         36.515       1852.131        83.9149       81.39156        90.0339         20.693          0.573            0.5         64.382           0.54          0.823         35.178          0.031        -11.155       -10.3518        -32.701              1      0.8993759          0.046
      7246.0000         10.192         38.009       1860.014        82.6089       79.81783        92.7909         21.049          0.536          0.458         64.382          0.538          0.875             35           0.03        -14.562         -13.76        -24.188      0.9961241      0.8583133          0.043
      7246.5000         10.087         38.118       1807.736        81.2329       78.15986        95.1389         21.291          0.463          0.425          56.34          0.554          0.878         35.335          0.027          -19.8       -18.9992        -24.682       0.960848      0.7951903          0.047
      7247.0000         10.042        35.7729       1755.459          79.86       76.50548         98.371         21.993            0.4          0.394        60.9839          0.571           0.79          35.67          0.025        -26.356       -25.5563        -31.522      0.9256485      0.7161891          0.046
      7247.5000         10.038        34.1429       1703.846        76.0609       71.93014       101.6039         23.683          0.357           0.35         65.627          0.587          0.704             36          0.026        -36.408       -35.6095        -40.499      0.8283008      0.5950662          0.032
      7248.0000         10.036         34.728       1694.355        69.4839       64.01029       104.8359         26.003           0.32          0.324         65.627           0.59          0.699         35.722          0.029        -50.548       -49.7507        -47.412      0.6597934      0.4246903          0.025
      7248.5000         10.025        35.7419       1684.863         62.974       56.17122       105.4769          27.96          0.288          0.306        67.8169          0.594          0.793         35.444           0.03        -63.209       -62.4128        -45.809      0.4930047      0.2721349          0.034
      7249.0000         10.013         35.063       1675.373         58.759       51.09516       104.5149         29.126           0.26          0.288        67.9839          0.597          0.904         35.166           0.03        -69.371        -68.576        -34.905      0.3850034      0.1978796          0.037
      7249.5000          10.01         32.792       1669.711         57.101       49.09764        103.553         29.949          0.244          0.275         68.152          0.599          0.896             35          0.029       -70.5659       -69.7721        -23.291      0.3425031      0.1834686          0.033
