#------------------------------------------------------------------------------
# Created by    : vladimir.rabinovich
# Created on    : 09/19/2023 17:21:07
#------------------------------------------------------------------------------
~Version Information Section
VERS.           2.0     :   CWLS log ASCII Standard - VERSION 2.0
WRAP.           NO      :   One line per depth step
~Well Information Section
#MNEM       .UNIT                                         VALUE :DESCRIPTION
#------------------------------------------------------------------------------
STRT        .FT                                            3871 :START DEPTH
STOP        .FT                                           10481 :STOP DEPTH
STEP        .FT                                             0.5 :STEP      
NULL        .                                           -999.25 :NULL      
COMP        .                               TALOS PETROLEUM LLC :COMPANY   
WELL        .                                OCS 00300 ST00BP00 :WELL      
FLD         .                           WEST CAMERON BLOCK 0045 :FIELD     
LOC         .                                                   :LOCATION  
CNTY        .                                      WEST CAMERON :LOCATION  
STAT        .                                         LOUISIANA :STATE     
CTRY        .                                     UNITED STATES :COUNTRY   
SRVC        .                                                   :SERVICE COMPANY
DATE        .                             9/13/2023 11:18:36 AM :LOG DATE  
API         .                                    17700410010000 :API NUMBER
UWI         .                                    17700410010000 :UNIQUE WELL ID
XCOORD      .                                  1453780.44334001 :SURFACE X 
YCOORD      .                                   10773222.791693 :SURFACE Y 
LAT         .                                         29.683533 :LATITUDE  
LON         .                                        -93.587947 :LONGITUDE 
ELEV        .FT                                              92 :ELEVATION VALUE
ELEV_TYPE   .                                                KB :ELEVATION REFERENCE TYPE
~Curve Information Section
#MNEM       .UNIT                                      API CODE :CURVE DESCRIPTION
#------------------------------------------------------------------------------
DEPT        .FT                                                 :DEPTH     
ATR         .OHMM                                               :          
CATR        .MMHO                                               :          
DCAL        .IN                                                 :          
DRHB        .G/C3                                               :          
GR          .GAPI                                               :          
GR_NORM     .GAPI                                               :GammaRay Normalized
PSR         .OHMM                                               :          
RHOB        .G/C3                                               :          
ROP5        .F/HR                                               :          
TNPH        .%                                                  :          
VSH_GR      .V/V                                                :Volume of Shale from GR
~A        DEPTH            ATR           CATR           DCAL           DRHB             GR        GR_NORM            PSR           RHOB           ROP5           TNPH         VSH_GR
# ...
      5716.0000           0.48       2083.332           1.25           0.15          92.22       86.65033           0.47           1.97       159.3098             48              1
      5716.5000           0.49       2040.814           1.02           0.11        93.5399       87.84692           0.52           2.05       156.5298             50              1
      5717.0000           0.47       2127.656           0.87           0.09          90.59       85.16701           0.52            2.1       159.2998             50              1
      5717.5000           0.45       2222.219           0.93           0.09          87.72       82.55954           0.42           2.07       148.7698             53              1
      5718.0000           0.43       2325.578           1.13           0.11        82.8199       78.10908           0.42           2.02       148.7698             56      0.9597676
      5718.5000           0.41       2439.023           1.16           0.14          82.96       78.23451           0.45           2.02       146.3499             60      0.9624364
      5719.0000           0.42       2380.949           1.13           0.14          86.09       81.07452           0.34           2.04       142.8699             57              1
      5719.5000           0.46        2173.91           1.05           0.18          89.35       84.03244            0.5           2.09       134.3398             54              1
      5720.0000            0.5           2000            1.1           0.17          91.11       85.62866           0.52           2.09       132.3599             51              1
      5720.5000            0.5           2000           1.14           0.15        89.1299       83.82922           0.49           2.09       132.3599             52              1
      5721.0000           0.48       2083.332           1.15           0.13        90.4099        84.9895           0.51           2.11       131.3899             51              1
      5721.5000           0.48       2083.332           1.03           0.13        91.5499       86.02282           0.48           2.15       134.3298             55              1
      5722.0000           0.47       2127.656           0.88           0.19        92.8799       87.22849           0.54           2.18       130.4299             54              1
      5722.5000           0.45       2222.219           0.88           0.18        89.1699       83.85843           0.41           2.16       116.1299             54              1
      5723.0000           0.44       2272.727           0.93           0.15        87.1499       82.02282           0.44           2.16       126.7599             50              1
      5723.5000           0.43       2325.578           0.95           0.14        85.9099       80.89523           0.48           2.16       126.7599             45              1
      5724.0000           0.33       3030.301            0.9           0.09          83.35       78.56937           0.38           2.03       133.3298             43      0.9695612
      5724.5000           0.29       3448.273           1.12           0.05          77.22       73.00234           0.24            1.9       127.6599             46      0.8511137
      5725.0000            0.3       3333.332           1.48           0.01        72.0599       68.31581           0.26            1.8       134.3198             49      0.7514002
      5725.5000           0.34       2941.176           1.57           0.05        71.0099       67.36072           0.39           1.84       137.3999             49      0.7310791
      5726.0000           0.34       2941.176           1.51            0.1          69.95       66.39669           0.36           1.87            144             50      0.7105679
      5726.5000           0.32           3125           1.38           0.11           73.7       69.79961           0.29           1.88            144             50      0.7829704
      5727.0000           0.34       2941.176           1.31           0.11          74.71       70.71477            0.3           1.94       152.5398             51      0.8024418
      5727.5000            0.4           2500           1.17           0.09        78.0699       73.76345           0.45              2       187.5098             50      0.8673075
      5728.0000           0.41       2439.023           1.22           0.13           75.2       71.15614           0.43           2.05       185.5698             49      0.8118327
      5728.5000           0.38       2631.578           1.18           0.11        76.7799       72.58879           0.37              2       173.0898             49      0.8423147
      5729.0000           0.38       2631.578           1.06           0.11        77.8899       73.59488           0.38              2       163.6499             48      0.8637208
      5729.5000            0.4           2500           0.79            0.1        82.4299       77.71489           0.43           2.04         178.23             50      0.9513806
      5730.0000           0.42       2380.949           0.69           0.08        85.8199       80.79095           0.41           2.08         178.23             50              1
      5730.5000           0.42       2380.949           0.64           0.07          88.87       83.55836           0.45           2.06       173.0798             48              1
      5731.0000           0.35       2857.141           0.88              0          86.84       81.71352           0.37           1.89       171.4399             46              1
      5731.5000           0.34       2941.176           1.45           0.01        78.8999       74.50308           0.29            1.8       162.1799             42      0.8830443
      5732.0000           0.38       2631.578           1.84           0.04          70.83       67.17474           0.38           1.79       162.1799             43      0.7271222
      5732.5000           0.42       2380.949           1.57           0.14        65.8799       62.67888           0.44           1.95       163.6399             48      0.6314655
      5733.0000           0.45       2222.219            1.2           0.23          65.58       62.40485           0.47           2.09       159.2998             53      0.6256352
      5733.5000           0.49       2040.814           0.91           0.23          67.08       63.76487           0.54           2.17         168.23             51      0.6545717
      5734.0000            0.5           2000           0.86           0.19          65.84       62.63743           0.54           2.13       173.0798             50      0.6305836
      5734.5000           0.49       2040.814           0.86           0.17          62.84       59.91195           0.51           2.07       159.2898             49      0.5725948
      5735.0000           0.49       2040.814           1.11           0.24          57.73       55.27096           0.47           1.99       159.2898             51      0.4738502
      5735.5000            0.5           2000           1.32           0.27          63.46       60.47136           0.45           1.98       162.1599             55       0.584497
      5736.0000           0.51       1960.783           1.33           0.29        75.4099       71.31881           0.49           2.02       163.6399             53      0.8152938
      5736.5000           0.54       1851.852           1.12           0.27        92.9199       87.21426           0.51            2.1            144             53              1
      5737.0000           0.54       1851.852           0.83           0.27         100.86       94.42126           0.52           2.19       146.3398             49              1
      5737.5000           0.55       1818.182           0.57           0.22       102.3199       95.74496           0.54           2.24       136.3599             50              1
      5738.0000           0.56       1785.713           0.42           0.21        97.5599       91.42159           0.54           2.28       131.3899             47              1
