#------------------------------------------------------------------------------
# Created by    : vladimir.rabinovich
# Created on    : 09/19/2023 17:20:13
#------------------------------------------------------------------------------
~Version Information Section
VERS.           2.0     :   CWLS log ASCII Standard - VERSION 2.0
WRAP.           NO      :   One line per depth step
~Well Information Section
#MNEM       .UNIT                                         VALUE :DESCRIPTION
#------------------------------------------------------------------------------
STRT        .FT                                             608 :START DEPTH
STOP        .FT                                            9135 :STOP DEPTH
STEP        .FT                                             0.5 :STEP      
NULL        .                                           -999.25 :NULL      
COMP        .                             PHILLIPS PETROLEUM CO :COMPANY   
WELL        .                                OCS 00757 ST00BP00 :WELL      
FLD         .                           WEST CAMERON BLOCK 0118 :FIELD     
LOC         .                                                   :LOCATION  
CNTY        .                                      WEST CAMERON :LOCATION  
STAT        .                                         LOUISIANA :STATE     
CTRY        .                                     UNITED STATES :COUNTRY   
SRVC        .                                                   :SERVICE COMPANY
DATE        .                             9/13/2023 11:18:18 AM :LOG DATE  
API         .                                    17700400630000 :API NUMBER
UWI         .                                    17700400630000 :UNIQUE WELL ID
XCOORD      .                                  1437747.16229911 :SURFACE X 
YCOORD      .                                  10702102.5427903 :SURFACE Y 
LAT         .                                         29.487661 :LATITUDE  
LON         .                                       -93.6372228 :LONGITUDE 
ELEV        .FT                                              84 :ELEVATION VALUE
ELEV_TYPE   .                                                KB :ELEVATION REFERENCE TYPE
~Curve Information Section
#MNEM       .UNIT                                      API CODE :CURVE DESCRIPTION
#------------------------------------------------------------------------------
DEPT        .FT                                                 :DEPTH     
ASFL        .OHMM                                               :          
ASN         .OHMM                                               :          
CALI        .IN                                                 :          
DRHO        .G/CC                                               :          
GR          .GAPI                                               :          
GR_NORM     .GAPI                                               :GammaRay Normalized
ILD         .OHMM                                               :          
RHOB        .G/CC                                               :          
SP          .MV                                                 :          
SP_NORM     .MV                                                 :SP Normalized
VSH_GR      .V/V                                                :Volume of Shale from GR
VSH_SP      .V/V                                                :Volume of Shale from SP
~A        DEPTH           ASFL            ASN           CALI           DRHO             GR        GR_NORM            ILD           RHOB             SP        SP_NORM         VSH_GR         VSH_SP
# ...
      4011.0000        -999.25         0.9548        10.1937         0.0085       187.6274        94.3675         0.8166         2.0342      -129.7493        -0.4206              1              1
      4011.5000        -999.25         0.9567        10.2048         0.0066       187.8896       94.50272         0.8151          2.034      -129.9114        -0.5955              1              1
      4012.0000        -999.25         0.9587        10.2197         0.0046       188.0139       94.56293         0.8139         2.0339       -130.127        -0.8238              1              1
      4012.5000        -999.25         0.9604        10.2378         0.0031       187.7969       94.43772         0.8127         2.0357      -130.3425        -1.0521              1              1
      4013.0000        -999.25          0.959        10.2599          0.009       187.5085        94.2736          0.813         2.0437      -130.5581        -1.2804              1              1
      4013.5000        -999.25         0.9577        10.2836         0.0178       185.3379       93.08669         0.8167          2.059      -130.7249          -1.46              1              1
      4014.0000        -999.25         0.9564        10.3091         0.0226        179.478       89.89472         0.8204         2.0744      -130.8899        -1.6377              1              1
      4014.5000        -999.25         0.9571        10.3555         0.0215       177.7908       88.97042         0.8241         2.0787      -131.0916        -1.8521              1              1
      4015.0000        -999.25         0.9599        10.4311         0.0187        176.136       88.06382         0.8278         2.0731      -131.3142        -2.0875              1      0.9983491
      4015.5000        -999.25         0.9627        10.5608         0.0161       172.0037       85.81075         0.8315         2.0671      -131.6143        -2.4003              1      0.9924472
      4016.0000        -999.25         0.9716        10.9977         0.0156        168.823       84.07483         0.8351         2.0625      -131.9775        -2.7763              1      0.9853528
      4016.5000        -999.25         0.9829        11.6978         0.0178       168.4395       83.85908         0.8337         2.0586      -132.3391        -3.1506              1      0.9782906
      4017.0000        -999.25         0.9949        11.9537         0.0202       169.8271       84.60579         0.8324         2.0597      -132.7007         -3.525              1      0.9712264
      4017.5000        -999.25         1.0073        12.0141         0.0198       171.8523       85.69912          0.831         2.0642      -132.8572        -3.6942              1       0.968034
      4018.0000        -999.25         1.0184        11.0111         0.0174       172.9207       86.27236         0.8347         2.0655      -132.7656        -3.6154              1      0.9695207
      4018.5000        -999.25         1.0258        10.8716         0.0177       167.8513       83.51006         0.8388         2.0692      -132.5564        -3.4189              1      0.9732283
      4019.0000        -999.25         1.0331        10.8195         0.0193       162.7263       80.71745         0.8438         2.0852      -132.2834        -3.1587              1      0.9781377
      4019.5000        -999.25         1.0338        10.8201         0.0227       159.6296       79.02718         0.8547         2.0947      -131.9915        -2.8795      0.9793018      0.9834056
      4020.0000        -999.25         1.0328        11.6519         0.0247       158.9121       78.62992         0.8657         2.0932       -131.697        -2.5977      0.9708494      0.9887226
      4020.5000        -999.25         1.0302        12.4461         0.0235        160.627       79.55457         0.8741         2.0848      -131.4651        -2.3786      0.9905227      0.9928566
      4021.0000        -999.25         1.0251        12.0174         0.0187       162.7849       80.71996         0.8809         2.0781      -131.2583        -2.1845              1      0.9965189
      4021.5000        -999.25           1.02        11.5845         0.0156       162.9995        80.8293         0.8837         2.0736      -131.0801        -2.0191              1      0.9996396
      4022.0000        -999.25         1.0169        11.4841         0.0211       160.8491       79.65326         0.8776         2.0765      -130.9478        -1.8995      0.9926226              1
      4022.5000        -999.25         1.0164        11.4478         0.0278        158.719        78.4883         0.8802         2.0779      -130.8381        -1.8026      0.9678361              1
      4023.0000        -999.25         1.0159        11.4489         0.0251       158.8162       78.53384         0.8994         2.0749      -130.7485        -1.7257       0.968805              1
      4023.5000        -999.25         1.0173        11.1645         0.0194       160.2332       79.29653         0.9178         2.0732      -131.1978        -2.1878      0.9850326      0.9964566
      4024.0000        -999.25         1.0294         11.041         0.0234       162.6924       80.62572         0.9355         2.0781      -132.0735        -3.0762              1      0.9796944
      4024.5000        -999.25         1.0415        10.9874         0.0242       165.6238       82.21143         0.9532         2.0765       -132.936        -3.9514              1      0.9631811
      4025.0000        -999.25         1.0605        10.9523         0.0173       168.0642        83.5304         0.9663         2.0722      -133.4143        -4.4425              1      0.9539151
      4025.5000        -999.25         1.0839          10.92         0.0109       169.6929       84.40819         0.9784         2.0688      -133.2473        -4.2882              1      0.9568264
      4026.0000        -999.25         1.1124        10.8887         0.0139       170.1431       84.64547         0.9905         2.0735      -132.3071        -3.3608              1      0.9743245
      4026.5000        -999.25         1.1453        10.8632         0.0196       167.2954       83.09052         1.0126         2.0977      -131.8118        -2.8782              1      0.9834302
      4027.0000        -999.25         1.1796        10.8412         0.0181       161.5098         79.939         1.0355         2.1169      -132.0859        -3.1651      0.9987022       0.978017
      4027.5000        -999.25         1.2066        10.8333         0.0149       155.4463       76.63641         1.0584         2.1284      -132.7004        -3.7923      0.9284342       0.966183
      4028.0000        -999.25         1.2236         10.845         0.0131       151.0376       74.23313         1.0813         2.1443      -133.4805        -4.5852      0.8773007      0.9512227
      4028.5000        -999.25         1.2406        10.8978          0.017       146.4622        71.7392          1.104         2.1655      -134.2612        -5.3786      0.8242382      0.9362528
      4029.0000        -999.25         1.2567        10.9713          0.016       141.6431       69.11288         1.1259         2.1737      -134.5425        -5.6726      0.7683591      0.9307057
      4029.5000        -999.25         1.2723        11.0219         0.0115       137.7498       66.98969         1.1478         2.1723      -134.3799        -5.5228      0.7231849      0.9335321
      4030.0000        -999.25         1.2883        11.0359         0.0063       133.7856       64.82803         1.1687         2.1708      -133.8147        -4.9703      0.6771922      0.9439566
      4030.5000        -999.25         1.3105        11.1164         0.0029       130.7603       63.17657         1.1883         2.1719      -133.1106         -4.279      0.6420547          0.957
      4031.0000        -999.25         1.3398        11.1506         0.0002       129.4048       62.43258         1.2072         2.1757      -132.6455        -3.8266       0.626225      0.9655358
