#------------------------------------------------------------------------------
# Created by    : vladimir.rabinovich
# Created on    : 09/19/2023 17:20:42
#------------------------------------------------------------------------------
~Version Information Section
VERS.           2.0     :   CWLS log ASCII Standard - VERSION 2.0
WRAP.           NO      :   One line per depth step
~Well Information Section
#MNEM       .UNIT                                         VALUE :DESCRIPTION
#------------------------------------------------------------------------------
STRT        .FT                                             202 :START DEPTH
STOP        .FT                                            9625 :STOP DEPTH
STEP        .FT                                             0.5 :STEP      
NULL        .                                           -999.25 :NULL      
COMP        .                           GENERAL AMERICAN OIL CO :COMPANY   
WELL        .                               OCS G01862 ST00BP00 :WELL      
FLD         .                           WEST CAMERON BLOCK 0045 :FIELD     
LOC         .                                                   :LOCATION  
CNTY        .                                      WEST CAMERON :LOCATION  
STAT        .                                         LOUISIANA :STATE     
CTRY        .                                     UNITED STATES :COUNTRY   
SRVC        .                                                   :SERVICE COMPANY
DATE        .                             9/13/2023 11:18:18 AM :LOG DATE  
API         .                                    17700004050000 :API NUMBER
UWI         .                                    17700004050000 :UNIQUE WELL ID
XCOORD      .                                  1441793.49938464 :SURFACE X 
YCOORD      .                                  10754125.7201806 :SURFACE Y 
LAT         .                                        29.6308281 :LATITUDE  
LON         .                                       -93.6253819 :LONGITUDE 
ELEV        .FT                                              70 :ELEVATION VALUE
ELEV_TYPE   .                                                KB :ELEVATION REFERENCE TYPE
~Curve Information Section
#MNEM       .UNIT                                      API CODE :CURVE DESCRIPTION
#------------------------------------------------------------------------------
DEPT        .FT                                                 :DEPTH     
ASN         .OHMM                                               :          
CALI        .IN                                                 :          
CALI_1      .IN                                                 :          
DRHO        .G/C3                                               :          
DT          .US/F                                               :          
GR          .GAPI                                               :          
GR_NORM     .GAPI                                               :GammaRay Normalized
ILD         .OHMM                                               :          
RHOB        .G/C3                                               :          
SP          .MV                                                 :          
SP_NORM     .MV                                                 :SP Normalized
VSH_GR      .V/V                                                :Volume of Shale from GR
VSH_SP      .V/V                                                :Volume of Shale from SP
~A        DEPTH            ASN           CALI         CALI_1           DRHO             DT             GR        GR_NORM            ILD           RHOB             SP        SP_NORM         VSH_GR         VSH_SP
# ...
      6529.0000         0.6354         11.211         7.0919         0.0558       136.5042        74.5499       75.05293          0.663         2.2334       -51.0036        -4.2771      0.8947431      0.9609869
      6529.5000         0.6247        11.4169         7.1233         0.0629       140.8608        79.5381       81.10615         0.6419         2.2331        -51.162        -4.4321              1      0.9591417
      6530.0000          0.617        11.4926         7.1504         0.0312       141.0168         83.634       86.07644         0.6279         2.1991       -51.3898        -4.6566              1      0.9564691
      6530.5000         0.6113        11.4881         7.1709         0.0565       138.5266         83.634       86.07584         0.6204         2.2199       -51.5853        -4.8487              1      0.9541821
      6531.0000         0.6075        11.5326         7.1815         0.0775       135.6304         81.193       83.11276         0.6164         2.2393       -51.6989         -4.959              1      0.9528691
      6531.5000         0.6037        11.8977          7.163         0.0857       134.3518        80.6387       82.43932         0.6069         2.2544       -51.7626        -5.0193              1      0.9521512
      6532.0000         0.5996        11.9508         7.1194         0.0559       134.4634        81.2991        83.2402         0.5962         2.2288       -52.1498        -5.4032              1      0.9475809
      6532.5000         0.5975        11.8791         7.0748         0.0329       135.2058        82.3761       84.54666         0.5963         2.2068       -52.5713        -5.8213              1      0.9426036
      6533.0000         0.5984        11.8969          7.074         0.0241       136.0388        83.3352       85.71005         0.5962         2.1915        -53.001        -6.2477              1      0.9375274
      6533.5000         0.5985        11.9647         7.1029         0.0348       136.7876         84.343       86.93253         0.5953         2.1942       -53.6578        -6.9011              1      0.9297488
      6534.0000         0.5987        11.9335         7.1573         0.0563       137.7407        85.1454       87.90575         0.5884         2.2106        -54.872         -8.112              1      0.9153333
      6534.5000         0.5898        11.5002         7.2168         0.0508       138.2522        84.2354       86.80062         0.5835          2.214        -54.896        -8.1326              1      0.9150881
      6535.0000         0.5794        11.3345         7.2239         0.0509       138.6614        83.1622       85.49754         0.5773         2.2047       -54.1415        -7.3748              1      0.9241095
      6535.5000         0.5703         11.535         7.1662         0.0652       138.4041        85.2927       88.08257         0.5632           2.21       -53.5905        -6.8204              1      0.9307095
      6536.0000         0.5635        11.6961         7.1272         0.0849       137.5894        88.0159       91.38693         0.5529         2.2283       -53.8365        -7.0631              1      0.9278203
      6536.5000         0.5648        11.6047         7.1089         0.0775       137.5271        89.0801       92.67786         0.5505         2.2225       -54.3713        -7.5945              1      0.9214941
      6537.0000         0.5864        11.5435         7.1048         0.0702       137.9702        88.4257       91.88306         0.5698          2.221       -54.3843        -7.6042              1      0.9213786
      6537.5000         0.6184        11.5557         7.1049          0.073       138.8052        85.9296         88.853         0.6033         2.2346       -54.1901        -7.4066              1       0.923731
      6538.0000          0.645        11.6837         7.1195         0.0829       139.5427        83.7303       86.18324         0.6246         2.2468       -54.4805        -7.6937              1      0.9203131
      6538.5000         0.6595         11.774         7.1468         0.0877       133.7788         81.816       83.85939         0.6322         2.2757       -55.0429        -8.2527              1      0.9136583
      6539.0000         0.6612        11.6678         7.1338         0.0963       129.9841          81.08       82.96555         0.6468           2.31       -54.9581        -8.1646              1      0.9147071
      6539.5000         0.6642        11.6827         7.1537         0.1137       127.6622        79.2629       80.75966          0.663         2.3336        -54.486        -7.6891              1      0.9203678
      6540.0000         0.6686        11.7267         7.2263         0.1074       127.7725        80.5876       82.36675         0.6785         2.3051       -54.1779        -7.3777              1       0.924075
      6540.5000          0.673        11.7395          7.187         0.0939       129.4321        83.7323       86.18264         0.6973         2.2647       -54.3188        -7.5152              1      0.9224381
      6541.0000         0.6811        11.6616         7.1314         0.0619       129.2849          84.12       86.65244         0.7156         2.2336       -54.8214        -8.0145              1      0.9164941
      6541.5000         0.6945        11.6326         7.1543         0.0405       126.9741        81.4209       83.37612         0.7274         2.2194        -55.808        -8.9977              1      0.9047893
      6542.0000         0.7116           11.7         7.1791         0.0397       127.0781        77.2416       78.30338         0.7364         2.2358         -56.79        -9.9763      0.9639018      0.8931393
      6542.5000         0.7117         11.676         7.1466         0.0508       128.5361        76.9568       77.95715         0.7339         2.2561       -57.5454       -10.7284       0.956535      0.8841857
      6543.0000         0.7025        11.4666         7.1237         0.0607       129.5769        78.0425       79.27418         0.7249         2.2633       -58.0931       -11.2727       0.984557      0.8777059
      6543.5000         0.6932         11.419           7.14         0.0662       130.2378        78.2517       79.52747          0.716         2.2616       -58.2654       -11.4417      0.9899461       0.875694
      6544.0000         0.6842        11.5132         7.1487         0.0526       130.8555        79.4437       80.97338          0.701         2.2649        -58.024       -11.1969              1      0.8786083
      6544.5000         0.6758        11.5993         7.1291         0.0485       129.5212        80.6407       82.42548         0.6822         2.2738       -57.8862       -11.0558              1      0.8802881
      6545.0000         0.6667        11.6767         7.1058         0.0523       125.0186        80.8994       82.73885         0.6631         2.2808        -57.694       -10.8602              1      0.8826166
      6545.5000         0.6577        11.7561         7.1763         0.0563       123.3787        79.3986       80.91682         0.6423         2.2594       -57.4132       -10.5761              1      0.8859988
      6546.0000         0.6486        11.8152          7.532         0.0517       124.1869        78.7367       80.11292         0.6232         2.2365       -57.6592       -10.8187              1      0.8831107
      6546.5000         0.6396        11.8168         7.4021          0.042       127.1301        79.8221       81.42958         0.6019         2.2364       -58.0408        -11.197              1      0.8786072
      6547.0000         0.6297        11.7259         7.1919         0.0379       130.0312        80.2289       81.92255         0.5913         2.2219       -58.0771       -11.2299              1      0.8782155
      6547.5000         0.6167        11.6068         7.0987         0.0319       131.5955        79.7465        81.3365         0.5866         2.2119       -57.5772       -10.7267              1      0.8842059
