#------------------------------------------------------------------------------
# Created by    : vladimir.rabinovich
# Created on    : 09/19/2023 17:22:20
#------------------------------------------------------------------------------
~Version Information Section
VERS.           2.0     :   CWLS log ASCII Standard - VERSION 2.0
WRAP.           NO      :   One line per depth step
~Well Information Section
#MNEM       .UNIT                                         VALUE :DESCRIPTION
#------------------------------------------------------------------------------
STRT        .FT                                            3394 :START DEPTH
STOP        .FT                                            9102 :STOP DEPTH
STEP        .FT                                             0.5 :STEP      
NULL        .                                           -999.25 :NULL      
COMP        .                               TALOS PETROLEUM LLC :COMPANY   
WELL        .                                OCS 00299 ST00BP02 :WELL      
FLD         .                           WEST CAMERON BLOCK 0045 :FIELD     
LOC         .                                                   :LOCATION  
CNTY        .                                      WEST CAMERON :LOCATION  
STAT        .                                         LOUISIANA :STATE     
CTRY        .                                     UNITED STATES :COUNTRY   
SRVC        .                                                   :SERVICE COMPANY
DATE        .                             9/13/2023 11:19:21 AM :LOG DATE  
API         .                                    17700408910000 :API NUMBER
UWI         .                                    17700408910000 :UNIQUE WELL ID
XCOORD      .                                  1447531.51187247 :SURFACE X 
YCOORD      .                                  10768708.3799417 :SURFACE Y 
LAT         .                                         29.671026 :LATITUDE  
LON         .                                        -93.607557 :LONGITUDE 
ELEV        .FT                                              95 :ELEVATION VALUE
ELEV_TYPE   .                                                KB :ELEVATION REFERENCE TYPE
~Curve Information Section
#MNEM       .UNIT                                      API CODE :CURVE DESCRIPTION
#------------------------------------------------------------------------------
DEPT        .FT                                                 :DEPTH     
CALI        .IN                                                 :          
DPHI        .V/V                                                :          
DRHO        .G/C3                                               :          
GR          .GAPI                                               :          
GR_NORM     .GAPI                                               :GammaRay Normalized
IDPH        .OHMM                                               :          
IMPH        .OHMM                                               :          
NPOR        .V/V                                                :          
SFLU        .OHMM                                               :          
SP          .MV                                                 :          
SP_NORM     .MV                                                 :SP Normalized
TENS        .LBS                                                :          
VSH_GR      .V/V                                                :Volume of Shale from GR
VSH_SP      .V/V                                                :Volume of Shale from SP
~A        DEPTH           CALI           DPHI           DRHO             GR        GR_NORM           IDPH           IMPH           NPOR           SFLU             SP        SP_NORM           TENS         VSH_GR         VSH_SP
# ...
      7210.0000        18.6122         0.1656          0.003           70.6       84.65189         1.3441         1.2716         0.2412         1.1487        -7.6531        -3.1767           4300              1      0.9647033
      7210.5000        18.3673         0.1776          0.004           73.2       88.41903         1.2716          1.192         0.2832          1.057        -7.6531         -3.178           4280              1      0.9646889
      7211.0000          17.52          0.186          0.004           74.6       90.44671          1.203         1.1173         0.3276         0.9826        -7.6531        -3.1792           4300              1      0.9646755
      7211.5000          16.88         0.1956          0.003           74.6       90.44504         1.1381         1.0473         0.3804          0.924        -7.9592        -3.4865           4340              1      0.9612611
      7212.0000          16.16         0.2052         -0.001             74       89.57363         1.0867         0.9826         0.4224         0.8912        -8.2653        -3.7938           4340              1      0.9578466
      7212.5000          15.52           0.21         -0.003             73       88.12238         1.0668          0.957          0.426         0.8739        -8.2653        -3.7951           4360              1      0.9578322
      7213.0000          15.08         0.2052         -0.003           71.6       86.09132         1.0473         0.9487         0.3996         0.8912        -8.8776        -4.4086           4380              1      0.9510155
      7213.5000          14.64         0.2052         -0.001           71.2       85.50983         1.0473         0.9487         0.3828            0.9        -8.8776        -4.4098           4380              1      0.9510022
      7214.0000           14.6         0.2088          0.001           73.8       89.27697         1.0377         0.9487         0.3876         0.8739        -8.5714        -4.1048           4380              1      0.9543911
      7214.5000          14.56         0.2148          0.003           77.2       94.20376         1.0377          0.957         0.3876         0.8569        -8.2653           -3.8           4380              1      0.9577778
      7215.0000          14.56          0.222          0.005           75.8       92.17271         1.0473          0.974         0.3792         0.8569        -7.9592        -3.4951           4380              1      0.9611655
      7215.5000           14.6         0.2172          0.007           72.8       87.82238          1.057              1         0.3624         0.8739        -7.9592        -3.4963           4380              1      0.9611522
      7216.0000           14.6         0.2016          0.015           70.6       84.63167         1.0767         1.0473         0.3336            0.9        -8.2653        -3.8036           4400              1      0.9577378
      7216.5000          14.68         0.1824          0.024           70.2       84.05017          1.107         1.1173          0.306          0.924        -8.8776        -4.4172           4420              1        0.95092
      7217.0000          14.84         0.1656           0.03           70.8       84.91821         1.1277          1.203         0.2592          0.957       -11.3265        -6.8673           4420              1      0.9236966
      7217.5000          15.08         0.1476          0.022           70.2       84.04681          1.107         1.3074          0.216         1.1487       -14.6939       -10.2359           4420              1      0.8862678
      7218.0000          15.48         0.1296          0.011           63.2       73.89828         1.0867         1.4208          0.174         1.4473          -18.9       -14.4432           4420      0.8701761        0.83952
      7218.5000           16.2         0.1212          0.002           54.4       61.14057         1.0281         1.4208         0.1284         1.6779          -23.7       -19.2444           4400      0.5987355      0.7861733
      7219.0000          16.32         0.1128         -0.001        47.7815       51.54504          0.957         1.3566         0.1188         1.8234          -28.8       -24.3457           4400      0.3945753      0.7294922
      7219.5000          16.28         0.1176         -0.003        48.5822         52.704         0.8739          1.192         0.1164         1.7411          -35.1       -30.6469           4400       0.419234      0.6594789
      7220.0000           16.2          0.144         -0.005           50.8       55.91712         0.7789         1.0377         0.1176         1.3566          -43.8       -39.3481           4400      0.4875983      0.5627989
      7220.5000             16           0.18         -0.007           52.6       58.52464         0.6937         0.8653         0.1415         1.1487          -52.2       -47.7493       4398.435      0.5430773      0.4694522
      7221.0000          15.64         0.2112        -0.0079             54       60.55231         0.6055         0.7126         0.1932         0.9826          -61.5       -57.0506       4415.567      0.5862193      0.3661045
      7221.5000          15.28         0.2292        -0.0109           54.6       61.42035         0.5578         0.6451          0.198         0.9079          -71.7       -67.2518       4412.606      0.6046883      0.2527578
      7222.0000          14.96         0.2448        -0.0138           55.6       62.86823         0.5186         0.5733         0.2004         0.9404       -79.2857       -74.8387       4409.615      0.6354942      0.1684589
      7222.5000          14.64         0.2616        -0.0186           57.4       65.47572         0.4817         0.5629         0.2088         1.0093       -83.2653       -78.8195       4428.571      0.6909729      0.1242277
      7223.0000          14.48          0.276        -0.0235             58       66.34377         0.4556         0.5527         0.2244         1.1173       -84.7959       -80.3514       4469.388       0.709442      0.1072066
      7223.5000          14.24         0.2904        -0.0255           53.4       59.67416          0.439         0.5428          0.246          1.057       -88.1633         -83.72       4489.796      0.5675353     0.06977776
      7224.0000          14.08            0.3        -0.0245        48.7755       52.96904         0.4037         0.4817         0.2568         0.7652          -92.7       -88.2579       4469.388      0.4248731     0.01935671
      7224.5000          14.04         0.3024        -0.0235        45.5102       48.23414         0.3714         0.4349         0.2592         0.6222          -96.6       -92.1591       4428.571      0.3241306              0
      7225.0000          13.96          0.294        -0.0225        45.5102       48.23245         0.3416         0.3963         0.2604         0.5527          -99.6       -95.1604       4408.163      0.3240947              0
      7225.5000          13.88          0.288        -0.0225        46.7347       50.00574         0.3261         0.3646         0.2604         0.4954         -101.4       -96.9616       4408.163      0.3618242              0
      7226.0000          13.76         0.2904        -0.0196        47.9592       51.77904         0.3113         0.3513          0.258         0.5046          -98.7       -94.2628       4428.571       0.399554              0
      7226.5000          13.68         0.2916        -0.0176        46.7347       50.00236         0.3028         0.3448          0.252         0.5477          -97.5        -93.064       4428.571      0.3617524              0
      7227.0000          13.64         0.2928        -0.0176        43.6735       45.56333         0.2945         0.3448         0.2364         0.6278          -96.9       -92.4653       4448.979      0.2673049              0
      7227.5000          13.64         0.2952        -0.0147        41.0204       41.71584         0.2839         0.3448         0.2352         0.6812          -97.5       -93.0665       4448.979      0.1854435              0
