#------------------------------------------------------------------------------
# Created by    : vladimir.rabinovich
# Created on    : 09/19/2023 17:20:44
#------------------------------------------------------------------------------
~Version Information Section
VERS.           2.0     :   CWLS log ASCII Standard - VERSION 2.0
WRAP.           NO      :   One line per depth step
~Well Information Section
#MNEM       .UNIT                                         VALUE :DESCRIPTION
#------------------------------------------------------------------------------
STRT        .FT                                            2904 :START DEPTH
STOP        .FT                                           14016 :STOP DEPTH
STEP        .FT                                             0.5 :STEP      
NULL        .                                           -999.25 :NULL      
COMP        .                                          MCN CORP :COMPANY   
WELL        .                                OCS 00043 ST00BP00 :WELL      
FLD         .                          EUGENE ISLAND BLOCK 0089 :FIELD     
LOC         .                                                   :LOCATION  
CNTY        .                                     EUGENE ISLAND :LOCATION  
STAT        .                                         LOUISIANA :STATE     
CTRY        .                                     UNITED STATES :COUNTRY   
SRVC        .                                                   :SERVICE COMPANY
DATE        .                             9/13/2023 11:18:42 AM :LOG DATE  
API         .                                    17709009460000 :API NUMBER
UWI         .                                    17709009460000 :UNIQUE WELL ID
XCOORD      .                                  2058690.32320654 :SURFACE X 
YCOORD      .                                  10563305.2032801 :SURFACE Y 
LAT         .                                        29.1009424 :LATITUDE  
LON         .                                       -91.6898776 :LONGITUDE 
ELEV        .FT                                              49 :ELEVATION VALUE
ELEV_TYPE   .                                                KB :ELEVATION REFERENCE TYPE
~Curve Information Section
#MNEM       .UNIT                                      API CODE :CURVE DESCRIPTION
#------------------------------------------------------------------------------
DEPT        .FT                                                 :DEPTH     
ASN         .OHMM                                               :          
CALI        .IN                                                 :          
DT          .US/F                                               :          
GR          .GAPI                                               :          
GR_NORM     .GAPI                                               :GammaRay Normalized
ILD         .OHMM                                               :          
SP          .MV                                                 :          
SP_NORM     .MV                                                 :SP Normalized
VSH_GR      .V/V                                                :Volume of Shale from GR
VSH_SP      .V/V                                                :Volume of Shale from SP
~A        DEPTH            ASN           CALI             DT             GR        GR_NORM            ILD             SP        SP_NORM         VSH_GR         VSH_SP
# ...
      3737.0000         0.3106        11.9989       150.4185        35.4797       33.00254         0.2696      -173.7246        -50.305  0.00005397391      0.0885849
      3737.5000         0.3178        12.0437        150.594        35.5679       33.10318         0.2785      -174.0286        -50.602    0.002195237     0.08298111
      3738.0000          0.328        12.1086       151.2058        35.2586       32.68224         0.2835      -174.2578       -50.8241              0     0.07879056
      3738.5000         0.3385        12.1851       152.2556        35.2306       32.63041         0.2869       -173.396       -49.9552              0      0.0951849
      3739.0000         0.3475        12.2591       153.4292        36.7244       34.57542         0.2877      -172.5264       -49.0785      0.0335195      0.1117264
      3739.5000         0.3553        12.2832       154.3972         37.421       35.47438         0.2887      -171.7766       -48.3217     0.05264631      0.1260056
      3740.0000         0.3622        12.2679       155.0903        37.2198       35.19515         0.2898      -172.2761       -48.8141     0.04670529      0.1167151
      3740.5000         0.3674        12.1875       155.5332        37.4667       35.50403         0.2889       -172.689       -49.2199     0.05327728      0.1090585
      3741.0000         0.3665        12.1118        155.679        37.2226       35.16864         0.2834      -172.3625       -48.8864     0.04614136       0.115351
      3741.5000         0.3605        12.1113       155.5037        36.1782       33.78314         0.2821      -171.6025       -48.1193     0.01666252      0.1298245
      3742.0000         0.3514        12.0856       155.7427        35.4031         32.751         0.2839      -170.9321       -47.4418              0      0.1426076
      3742.5000         0.3433        12.0208       155.9014        34.3969       31.41562         0.2857      -170.4136       -46.9163              0      0.1525226
      3743.0000         0.3382        11.9778       155.5686        32.8218       29.33376         0.2881      -170.0222       -46.5178              0      0.1600415
      3743.5000         0.3377        12.0294       155.2751        32.2672       28.59094         0.2905      -169.6738       -46.1623              0      0.1667491
      3744.0000         0.3402        12.1206        155.009         33.249       29.86413         0.2882      -169.2925       -45.7739              0      0.1740774
      3744.5000         0.3406        12.1434       154.8352        34.5922       31.61152         0.2821      -168.5737       -45.0481              0      0.1877717
      3745.0000         0.3381        12.1555       154.6934        35.3872       32.63947         0.2768      -167.8735       -44.3408              0       0.201117
      3745.5000          0.333         12.177       154.6589         34.499       31.45892          0.274      -167.5254       -43.9856              0      0.2078189
      3746.0000         0.3264        12.2079       153.9534        34.9421       32.02524         0.2713      -167.3726       -43.8258              0      0.2108339
      3746.5000         0.3185         12.259       153.9868        36.2199       33.68682         0.2733      -167.2527       -43.6988     0.01461329      0.2132302
      3747.0000          0.313        12.3056       154.8704        36.3744       33.87447         0.2704        -166.21        -42.649     0.01860566      0.2330378
      3747.5000          0.313        12.3276         155.78         36.438       33.94283         0.2605      -165.6575       -42.0895     0.02006019      0.2435943
      3748.0000         0.3187        12.3306       156.4717         37.003       34.66911         0.2506      -166.3123       -42.7372     0.03551288      0.2313735
      3748.5000         0.3255        12.3399       156.9514        37.5417       35.36087         0.2525       -166.918       -43.3358     0.05023136      0.2200792
      3749.0000         0.3322        12.3543       157.2434        37.4064       35.16825         0.2608      -167.3086       -43.7194     0.04613308      0.2128415
      3749.5000         0.3369        12.3696       157.2563        36.2249       33.60285         0.2686      -167.1584       -43.5621     0.01282655      0.2158094
      3750.0000         0.3369        12.3818       156.3972        35.3287       32.41168         0.2729      -166.2341       -42.6307              0       0.233383
      3750.5000         0.3328        12.3907       154.7173        35.0902       32.08364         0.2812      -165.2822       -41.6717              0      0.2514774
      3751.0000         0.3297        12.4009       154.7417        35.7808       32.97472         0.2796      -164.4436       -40.8261              0      0.2674321
      3751.5000         0.3233        12.4199         155.54        37.4015       35.08624         0.2781      -162.8054       -39.1808     0.04438806      0.2984754
      3752.0000         0.3184        12.4377        156.063        38.7512       36.84217         0.2764       -160.801       -37.1693     0.08174831      0.3364283
      3752.5000         0.3145        12.4605       155.8662        39.4064        37.6868         0.2735        -159.28       -35.6413     0.09971911      0.3652585
      3753.0000         0.3121        12.4961       154.6064        40.1062       38.58995         0.2705      -158.1709       -34.5251      0.1189352      0.3863189
      3753.5000         0.3112        12.5401        153.375        40.8234       39.51594         0.2685      -157.3701       -33.7172      0.1386371      0.4015622
      3754.0000         0.3104        12.5599       153.0996        41.3711       40.21952         0.2685      -156.7012       -33.0413      0.1536069      0.4143151
      3754.5000         0.3105        12.5361       153.5698        41.7148       40.65542         0.2685      -156.5615       -32.8945      0.1628812      0.4170849
      3755.0000         0.3117        12.4712       153.8831         41.556       40.43183         0.2685      -158.0249       -34.3508       0.158124      0.3896075
      3755.5000         0.3115        12.3949       153.6531        39.9491       38.30824         0.2686       -159.156       -35.4749      0.1129412      0.3683981
      3756.0000         0.3057        12.2788       152.4106        38.1658       35.95318         0.2666      -159.8298       -36.1416     0.06283367      0.3558188
      3756.5000         0.2954        12.2086       151.2913        36.4608       33.70087         0.2581      -158.0381       -34.3428     0.01491206      0.3897585
      3757.0000         0.2834        12.1703       150.6995        35.4471       32.35564         0.2495      -155.6116       -31.9092              0      0.4356755
      3757.5000         0.2749        12.1336       150.5679        34.9553       31.69523         0.2499      -153.9827       -30.2733              0      0.4665415
      3758.0000         0.2692         12.132       151.0059        35.1434       31.92697         0.2502      -152.7219       -29.0054              0      0.4904642
      3758.5000         0.2672         12.182       151.3435        36.5926       33.81345         0.2631      -151.5088       -27.7852     0.01730744      0.5134868
      3759.0000         0.2681         12.251       150.7837        37.9427        35.5699          0.277      -150.0408       -26.3102     0.05467873       0.541317
      3759.5000         0.2712        12.3275       149.8257         38.756       36.62198          0.299      -148.9043       -25.1666     0.07706346      0.5628943
      3760.0000         0.2841        12.3827       146.9009        38.6926       36.52358         0.3262      -148.8164       -25.0716     0.07496976      0.5646868
      3760.5000         0.3103        12.4139       143.9839        38.6578       36.46282          0.362      -149.1116       -25.3598     0.07367706       0.559249
      3761.0000         0.3534        12.4285       141.5161        39.5516       37.62053         0.4085      -149.0916       -25.3327     0.09830921      0.5597604
