#------------------------------------------------------------------------------
# Created by    : vladimir.rabinovich
# Created on    : 09/19/2023 17:22:04
#------------------------------------------------------------------------------
~Version Information Section
VERS.           2.0     :   CWLS log ASCII Standard - VERSION 2.0
WRAP.           NO      :   One line per depth step
~Well Information Section
#MNEM       .UNIT                                         VALUE :DESCRIPTION
#------------------------------------------------------------------------------
STRT        .FT                                           911.5 :START DEPTH
STOP        .FT                                           12432 :STOP DEPTH
STEP        .FT                                             0.5 :STEP      
NULL        .                                           -999.25 :NULL      
COMP        .                                    EXXON CO U S A :COMPANY   
WELL        .                               OCS G03260 ST00BP00 :WELL      
FLD         .                                           WILDCAT :FIELD     
LOC         .                                                   :LOCATION  
CNTY        .                                      WEST CAMERON :LOCATION  
STAT        .                                         LOUISIANA :STATE     
CTRY        .                                     UNITED STATES :COUNTRY   
SRVC        .                                                   :SERVICE COMPANY
DATE        .                             9/13/2023 11:18:18 AM :LOG DATE  
API         .                                    17700402650000 :API NUMBER
UWI         .                                    17700402650000 :UNIQUE WELL ID
XCOORD      .                                  1465533.33943019 :SURFACE X 
YCOORD      .                                  10722576.3450242 :SURFACE Y 
LAT         .                                        29.5443718 :LATITUDE  
LON         .                                       -93.5501671 :LONGITUDE 
ELEV        .FT                                              99 :ELEVATION VALUE
ELEV_TYPE   .                                                KB :ELEVATION REFERENCE TYPE
~Curve Information Section
#MNEM       .UNIT                                      API CODE :CURVE DESCRIPTION
#------------------------------------------------------------------------------
DEPT        .FT                                                 :DEPTH     
CALI        .IN                                                 :          
DRHO        .G/CC                                               :          
GR          .GAPI                                               :          
GR_NORM     .GAPI                                               :GammaRay Normalized
ILD         .OHMM                                               :          
RHOB        .G/CC                                               :          
VSH_GR      .V/V                                                :Volume of Shale from GR
~A        DEPTH           CALI           DRHO             GR        GR_NORM            ILD           RHOB         VSH_GR
# ...
     12134.0000         7.9981        -0.0718        77.6884       78.91341         0.7565         2.3117      0.9768811
     12134.5000         7.7014        -0.0632        78.3636       79.71108         0.7481         2.3324      0.9938528
     12135.0000         8.1329        -0.0584        78.2705       79.60109         0.7319         2.3266      0.9915125
     12135.5000         8.6224         -0.086        76.7441       77.79783         0.7156         2.3028      0.9531453
     12136.0000         8.4124        -0.0895        75.6932       76.55629         0.6993         2.3047      0.9267296
     12136.5000         7.5597        -0.0944        75.9862       76.90244         0.6831         2.3168      0.9340945
     12137.0000         7.2625        -0.0789        77.0454       78.15377         0.6668         2.3293      0.9607185
     12137.5000         7.1291        -0.0707         77.241       78.38485         0.6514         2.3452      0.9656351
     12138.0000         7.3979        -0.0761        76.6714       77.71193         0.6441         2.3244      0.9513177
     12138.5000          7.657        -0.0975        76.5807       77.60478         0.6368         2.2948      0.9490379
     12139.0000         7.7823        -0.0791        76.9686       78.06304         0.6295         2.3175      0.9587881
     12139.5000         7.7732        -0.0738        77.4526       78.63483         0.6222           2.33      0.9709538
     12140.0000          7.764        -0.0807        77.7454       78.98075         0.6149         2.3082      0.9783139
     12140.5000          7.774        -0.0894        78.0377       79.32606         0.6076         2.2883      0.9856608
     12141.0000         7.2099        -0.0788        78.3298       79.67116         0.6004         2.3096      0.9930034
     12141.5000         7.1712        -0.0697        78.9122       80.35918         0.6013         2.3274              1
     12142.0000         7.1485        -0.0779        78.6884        80.0948          0.604         2.3163              1
     12142.5000         6.9181        -0.0817        77.6278       78.84182         0.6067         2.3182      0.9753579
     12143.0000         6.7929        -0.1031        77.1455       78.27203         0.6094          2.309      0.9632346
     12143.5000         6.4666        -0.1118        78.2896       79.62365         0.6121         2.2988      0.9919925
     12144.0000         6.4372        -0.1128        79.9149       81.54377         0.6158         2.2959              1
     12144.5000         6.4847        -0.1264        80.1981       81.87834         0.6273         2.2862              1
     12145.0000         6.5129         -0.121        78.5642       79.94807         0.6388         2.2862       0.998895
     12145.5000         6.4549        -0.1032         78.175       79.48827         0.6503         2.3069      0.9891122
     12146.0000         6.3971        -0.1042        78.2659       79.59566         0.6619         2.2939      0.9913971
     12146.5000         6.1377        -0.1081        78.3572       79.70352         0.6824         2.2798       0.993692
     12147.0000         5.9454        -0.0737        78.9297       80.37987         0.7034         2.2982              1
     12147.5000         5.9641        -0.0743        79.4978       81.05103         0.7244         2.2919              1
     12148.0000         6.0019        -0.0762        78.5356       79.91428         0.7454          2.301      0.9981763
     12148.5000         6.0303        -0.0796        77.4755       78.66189         0.7681         2.3242      0.9715295
     12149.0000         6.0681        -0.0719        76.8951       77.97621         0.7984         2.3358      0.9569407
     12149.5000         6.0964        -0.0487        76.4105        77.4037         0.8285         2.3639      0.9447596
     12150.0000         6.2686        -0.0347        75.8307       76.71875         0.8587         2.3803      0.9301862
     12150.5000         6.6035        -0.0294        75.3466       76.14684         0.8727         2.3953      0.9180177
     12151.0000         6.5169        -0.0231        75.9166       76.82021         0.8866         2.4146       0.932345
     12151.5000         6.3244        -0.0232        76.2958        77.2682         0.9005         2.4276      0.9418765
     12152.0000         6.1611        -0.0474        76.7693        77.8276         0.9144         2.3908      0.9537787
     12152.5000         6.0552        -0.0672        77.5325       78.72923         0.9283          2.369      0.9729623
     12153.0000         5.9492        -0.0765        78.1027       79.40285         0.9388         2.3782      0.9872946
     12153.5000         5.8816        -0.0721        78.3857       79.73719         0.9399         2.3753      0.9944083
     12154.0000         5.8524        -0.0736        78.5729       79.95834         0.9409         2.3651      0.9991137
     12154.5000        -999.25        -999.25        -999.25        -999.25         0.9419        -999.25        -999.25
     12155.0000        -999.25        -999.25        -999.25        -999.25          0.943        -999.25        -999.25
     12155.5000        -999.25        -999.25        -999.25        -999.25         0.9442        -999.25        -999.25
     12156.0000        -999.25        -999.25        -999.25        -999.25         0.9453        -999.25        -999.25
     12156.5000        -999.25        -999.25        -999.25        -999.25         0.9465        -999.25        -999.25
     12157.0000        -999.25        -999.25        -999.25        -999.25         0.9476        -999.25        -999.25
     12157.5000        -999.25        -999.25        -999.25        -999.25         0.9487        -999.25        -999.25
     12158.0000        -999.25        -999.25        -999.25        -999.25         0.9457        -999.25        -999.25
     12158.5000        -999.25        -999.25        -999.25        -999.25         0.9268        -999.25        -999.25
     12159.0000        -999.25        -999.25        -999.25        -999.25         0.9079        -999.25        -999.25
     12159.5000        -999.25        -999.25        -999.25        -999.25         0.8733        -999.25        -999.25
     12160.0000        -999.25        -999.25        -999.25        -999.25         0.8361        -999.25        -999.25
     12160.5000        -999.25        -999.25        -999.25        -999.25          0.799        -999.25        -999.25
     12161.0000        -999.25        -999.25        -999.25        -999.25         0.7618        -999.25        -999.25
     12161.5000        -999.25        -999.25        -999.25        -999.25         0.7302        -999.25        -999.25
     12162.0000        -999.25        -999.25        -999.25        -999.25          0.722        -999.25        -999.25
     12162.5000        -999.25        -999.25        -999.25        -999.25         0.7138        -999.25        -999.25
     12163.0000        -999.25        -999.25        -999.25        -999.25         0.7056        -999.25        -999.25
     12163.5000        -999.25        -999.25        -999.25        -999.25         0.6975        -999.25        -999.25
     12164.0000        -999.25        -999.25        -999.25        -999.25         0.6893        -999.25        -999.25
     12164.5000        -999.25        -999.25        -999.25        -999.25         0.6811        -999.25        -999.25
     12165.0000        -999.25        -999.25        -999.25        -999.25         0.6729        -999.25        -999.25
     12165.5000        -999.25        -999.25        -999.25        -999.25         0.6751        -999.25        -999.25
     12166.0000        -999.25        -999.25        -999.25        -999.25         0.6812        -999.25        -999.25
     12166.5000        -999.25        -999.25        -999.25        -999.25         0.6873        -999.25        -999.25
     12167.0000        -999.25        -999.25        -999.25        -999.25         0.6934        -999.25        -999.25
