#------------------------------------------------------------------------------
# Created by    : vladimir.rabinovich
# Created on    : 09/19/2023 17:22:23
#------------------------------------------------------------------------------
~Version Information Section
VERS.           2.0     :   CWLS log ASCII Standard - VERSION 2.0
WRAP.           NO      :   One line per depth step
~Well Information Section
#MNEM       .UNIT                                         VALUE :DESCRIPTION
#------------------------------------------------------------------------------
STRT        .FT                                            4000 :START DEPTH
STOP        .FT                                           10100 :STOP DEPTH
STEP        .FT                                             0.5 :STEP      
NULL        .                                           -999.25 :NULL      
COMP        .                         TALOS ENERGY VENTURES LLC :COMPANY   
WELL        .                               OCS G13557 ST00BP00 :WELL      
FLD         .                           WEST CAMERON BLOCK 0118 :FIELD     
LOC         .                                                   :LOCATION  
CNTY        .                                      WEST CAMERON :LOCATION  
STAT        .                                         LOUISIANA :STATE     
CTRY        .                                     UNITED STATES :COUNTRY   
SRVC        .                                                   :SERVICE COMPANY
DATE        .                             9/13/2023 11:19:21 AM :LOG DATE  
API         .                                    17700409600000 :API NUMBER
UWI         .                                    17700409600000 :UNIQUE WELL ID
XCOORD      .                                  1437367.94342701 :SURFACE X 
YCOORD      .                                  10730631.2479363 :SURFACE Y 
LAT         .                                         29.566133 :LATITUDE  
LON         .                                        -93.638908 :LONGITUDE 
ELEV        .FT                                              97 :ELEVATION VALUE
ELEV_TYPE   .                                                KB :ELEVATION REFERENCE TYPE
~Curve Information Section
#MNEM       .UNIT                                      API CODE :CURVE DESCRIPTION
#------------------------------------------------------------------------------
DEPT        .FT                                                 :DEPTH     
CALX        .IN                                                 :          
CNC         .%                                                  :          
CSAX        .MMHO                                               :          
GR          .API                                                :          
GR_NORM     .GAPI                                               :GammaRay Normalized
GRAX        .GAPI                                               :          
PORZ        .%                                                  :          
RIPD        .OHMM                                               :          
RIPM        .OHMM                                               :          
ROPS        .M/MIN                                              :          
RSAX        .OHMM                                               :          
RSFL        .OHMM                                               :          
RSTX        .MINS                                               :          
RWAZ        .OHMM                                               :          
SP          .MV                                                 :          
SP_NORM     .MV                                                 :SP Normalized
TEN         .LBF                                                :          
VSH_GR      .V/V                                                :Volume of Shale from GR
VSH_SP      .V/V                                                :Volume of Shale from SP
ZCOR        .G/C3                                               :          
~A        DEPTH           CALX            CNC           CSAX             GR        GR_NORM           GRAX           PORZ           RIPD           RIPM           ROPS           RSAX           RSFL           RSTX           RWAZ             SP        SP_NORM            TEN         VSH_GR         VSH_SP           ZCOR
# ...
      6028.0000         10.655         36.114        -999.25         51.917       46.10529        -999.25         28.005          0.456          0.386        -999.25        -999.25          0.901        -999.25          0.048        -62.899       -59.2493        -18.103       0.278836      0.3494398          0.038
      6028.5000         10.645         36.223        -999.25         51.951       46.14491        -999.25          27.42          0.486          0.399        -999.25        -999.25          1.025        -999.25          0.049        -63.115       -59.4665        -12.372      0.2796788      0.3469716          0.045
      6029.0000          10.67         35.222        -999.25          53.05       47.46675        -999.25          26.16          0.494          0.415        -999.25        -999.25          1.089        -999.25          0.045        -60.511       -56.8636        -12.102      0.3078031        0.37655          0.051
      6029.5000         10.682         34.724        -999.25          55.74       50.70411        -999.25         24.004          0.482           0.43        -999.25        -999.25          0.909        -999.25          0.036         -54.04       -50.3938        -14.284      0.3766833      0.4500705          0.058
      6030.0000         10.671         34.633        -999.25         59.056       54.69516        -999.25         21.987          0.398          0.413        -999.25        -999.25          0.739        -999.25          0.025        -49.926        -46.281        -15.601      0.4615991      0.4968068          0.073
      6030.5000         10.655         34.994        -999.25         60.378       56.28548        -999.25          20.91          0.335          0.361        -999.25        -999.25          0.687        -999.25          0.019        -55.032       -51.3882        -17.365      0.4954358      0.4387705          0.076
      6031.0000         10.596         35.155        -999.25         57.843       53.23197        -999.25          22.75          0.327          0.315        -999.25        -999.25          0.668        -999.25          0.022       -66.5959       -62.9532        -20.869      0.4304674        0.30735          0.057
      6031.5000         10.479         33.543        -999.25          52.08       46.29215        -999.25         25.688          0.293          0.272        -999.25        -999.25          0.596        -999.25          0.025       -76.3199       -72.6784        -24.863      0.2828117      0.1968364          0.037
      6032.0000         10.382         30.947        -999.25         47.179       40.39016        -999.25         27.662           0.24          0.248        -999.25        -999.25          0.525        -999.25          0.024         -81.46       -77.8197        -27.014      0.1572374      0.1384125          0.028
      6032.5000         10.357          30.03        -999.25         45.904       38.85377        -999.25         28.738          0.231          0.237        -999.25        -999.25          0.508        -999.25          0.026       -84.7339       -81.0947        -26.385      0.1245483      0.1011965          0.024
      6033.0000         10.371         30.736        -999.25        46.4919       39.56026        -999.25         29.072          0.227          0.238        -999.25        -999.25          0.548        -999.25          0.026       -87.2179       -83.5799        -24.527      0.1395801     0.07295565          0.023
      6033.5000         10.373         31.269        -999.25         45.875       38.81621        -999.25         28.841          0.219          0.261        -999.25        -999.25          0.647        -999.25          0.024       -88.4939       -84.8571        -23.339      0.1237491     0.05844203          0.025
      6034.0000         10.355         31.468        -999.25         43.379       35.80977        -999.25          28.62          0.218          0.266        -999.25        -999.25           0.81        -999.25          0.024       -88.9669       -85.3312        -23.396     0.05978231     0.05305455           0.03
      6034.5000          10.33         32.331        -999.25         40.252       32.04362        -999.25         29.045          0.219          0.267        -999.25        -999.25          1.006        -999.25          0.025       -89.2629       -85.6284        -23.611              0     0.04967724           0.03
      6035.0000         10.314          32.71        -999.25         37.693       28.96133        -999.25         30.048           0.22          0.265        -999.25        -999.25          1.146        -999.25          0.027       -89.6919       -86.0586        -22.875              0     0.04478862          0.029
      6035.5000         10.332         31.845        -999.25         36.649       27.70306        -999.25          31.16          0.224          0.251        -999.25        -999.25          1.118        -999.25          0.029       -90.0919       -86.4597        -23.659              0     0.04023067          0.041
      6036.0000         10.385         31.306        -999.25         36.899       28.00273        -999.25          31.45          0.226          0.249        -999.25        -999.25          0.983        -999.25           0.03       -90.3619       -86.7309        -26.683              0     0.03714882          0.058
      6036.5000         10.366         32.312        -999.25        37.4659       28.68394        -999.25          31.53          0.224          0.241        -999.25        -999.25          0.858        -999.25           0.03       -90.8329       -87.2031        -22.181              0     0.03178293          0.058
      6037.0000         10.233         33.736        -999.25         37.025       28.15178        -999.25         31.672          0.218          0.233        -999.25        -999.25          0.753        -999.25           0.03       -91.3069       -87.6782          -4.61              0     0.02638409          0.039
      6037.5000         10.169          33.71        -999.25         35.612       26.44925        -999.25         31.555          0.209          0.231        -999.25        -999.25          0.674        -999.25          0.028       -91.1699       -87.5424          11.64              0     0.02792731          0.025
      6038.0000         10.331         32.879        -999.25         34.541       25.15847        -999.25         31.465          0.202           0.23        -999.25        -999.25          0.639        -999.25          0.027       -90.4199       -86.7936         12.176              0     0.03643634          0.025
      6038.5000         10.644         32.899        -999.25         34.595       25.22216        -999.25         31.711            0.2          0.232        -999.25        -999.25          0.645        -999.25          0.027       -89.5039       -85.8788          5.703              0     0.04683182          0.038
      6039.0000          11.03         34.358        -999.25         35.324       26.09853        -999.25         32.489          0.202          0.238        -999.25        -999.25          0.673        -999.25          0.029        -88.554         -84.93          5.335              0     0.05761363          0.057
      6039.5000         11.491         37.209        -999.25         35.706       26.55712        -999.25        33.7809          0.208          0.247        -999.25        -999.25          0.706        -999.25          0.033       -87.4679       -83.8451          7.701              0     0.06994204          0.067
      6040.0000         11.895         41.026        -999.25         36.126       27.06147        -999.25        33.9059          0.218          0.256        -999.25        -999.25          0.731        -999.25          0.034        -86.054       -82.4324          17.72              0     0.08599541          0.065
      6040.5000         12.063         43.193        -999.25          37.71       28.96723        -999.25         32.931          0.229          0.262        -999.25        -999.25          0.738        -999.25          0.034          -84.2       -80.5795         44.939              0      0.1070512          0.068
