#------------------------------------------------------------------------------
# Created by    : vladimir.rabinovich
# Created on    : 09/19/2023 17:20:44
#------------------------------------------------------------------------------
~Version Information Section
VERS.           2.0     :   CWLS log ASCII Standard - VERSION 2.0
WRAP.           NO      :   One line per depth step
~Well Information Section
#MNEM       .UNIT                                         VALUE :DESCRIPTION
#------------------------------------------------------------------------------
STRT        .FT                                            2904 :START DEPTH
STOP        .FT                                           14016 :STOP DEPTH
STEP        .FT                                             0.5 :STEP      
NULL        .                                           -999.25 :NULL      
COMP        .                                          MCN CORP :COMPANY   
WELL        .                                OCS 00043 ST00BP00 :WELL      
FLD         .                          EUGENE ISLAND BLOCK 0089 :FIELD     
LOC         .                                                   :LOCATION  
CNTY        .                                     EUGENE ISLAND :LOCATION  
STAT        .                                         LOUISIANA :STATE     
CTRY        .                                     UNITED STATES :COUNTRY   
SRVC        .                                                   :SERVICE COMPANY
DATE        .                             9/13/2023 11:18:42 AM :LOG DATE  
API         .                                    17709009460000 :API NUMBER
UWI         .                                    17709009460000 :UNIQUE WELL ID
XCOORD      .                                  2058690.32320654 :SURFACE X 
YCOORD      .                                  10563305.2032801 :SURFACE Y 
LAT         .                                        29.1009424 :LATITUDE  
LON         .                                       -91.6898776 :LONGITUDE 
ELEV        .FT                                              49 :ELEVATION VALUE
ELEV_TYPE   .                                                KB :ELEVATION REFERENCE TYPE
~Curve Information Section
#MNEM       .UNIT                                      API CODE :CURVE DESCRIPTION
#------------------------------------------------------------------------------
DEPT        .FT                                                 :DEPTH     
ASN         .OHMM                                               :          
CALI        .IN                                                 :          
DT          .US/F                                               :          
GR          .GAPI                                               :          
GR_NORM     .GAPI                                               :GammaRay Normalized
ILD         .OHMM                                               :          
SP          .MV                                                 :          
SP_NORM     .MV                                                 :SP Normalized
VSH_GR      .V/V                                                :Volume of Shale from GR
VSH_SP      .V/V                                                :Volume of Shale from SP
~A        DEPTH            ASN           CALI             DT             GR        GR_NORM            ILD             SP        SP_NORM         VSH_GR         VSH_SP
# ...
      4472.0000         0.6999        12.2147       135.8452        58.2147       57.81995          0.715      -140.4419       -17.2624       0.528084      0.7120302
      4472.5000          0.734        12.5294       140.9399        60.6434       61.27617           0.82      -132.2517        -9.0744      0.6016207      0.8665208
      4473.0000          0.726         12.488       144.4419        63.9536        65.9876         0.7783       -127.572        -4.3969      0.7018639      0.9547755
      4473.5000         0.7002        12.2342       141.5144         66.925       70.21651         0.6721      -126.6177        -3.4448      0.7918407      0.9727396
      4474.0000         0.6635        12.0728       134.0896        68.4851       72.43618         0.5819      -129.2515        -6.0808      0.8390676      0.9230038
      4474.5000         0.6198        12.0173       130.5037        70.3107       75.03372         0.5011      -134.7449       -11.5764      0.8943345      0.8193132
      4475.0000         0.5712        11.9751       130.3748        71.0649       76.10598         0.4333       -141.781       -18.6147      0.9171485      0.6865151
      4475.5000         0.5229        11.9592       133.0315        69.2449       73.51299         0.3885      -149.5051        -26.341      0.8619784      0.5407358
      4476.0000         0.4827        12.0301       135.2288        67.2936       70.73321         0.3785      -157.3918       -34.2298      0.8028342      0.3918906
      4476.5000         0.4467        12.0792       139.6926        65.6592       68.40447          0.372      -161.5388        -38.379      0.7532867      0.3136037
      4477.0000         0.4223        12.0652       141.0283        65.3583       67.97449         0.3713      -165.7671       -42.6095      0.7441382       0.233783
      4477.5000          0.421        12.0198       141.6279         65.288       67.87269         0.3716      -166.1304        -42.975      0.7419721      0.2268868
      4478.0000         0.4349        11.9725       142.3081          65.05       67.53226         0.3728      -165.8782        -42.725      0.7347291      0.2316038
      4478.5000         0.4521        11.9527       143.0491        64.6523       66.96432         0.3728      -165.6199       -42.4689      0.7226452      0.2364359
      4479.0000         0.4692        11.9674       143.9993        64.6714        66.9898         0.3706      -166.8379       -43.6891      0.7231872      0.2134132
      4479.5000          0.473        11.9842       144.9524        64.7166        67.0526         0.3685      -169.3164       -46.1698      0.7245234      0.1666075
      4480.0000         0.4396        11.9721       145.1836        64.5851       66.86366         0.3621      -170.3999       -47.2555      0.7205034      0.1461226
      4480.5000         0.3898        11.9482       144.5596        63.5079       65.32838         0.3547      -170.6431       -47.5008       0.687838      0.1414943
      4481.0000         0.3504        11.9327       143.5847        62.2361       63.51592         0.3456      -170.4983       -47.3582      0.6492749      0.1441849
      4481.5000         0.3263        11.9221       142.6985        61.6863       62.73156         0.3348      -170.2297       -47.0918      0.6325864      0.1492113
      4482.0000          0.312        11.9294       142.0251        61.8208       62.92135          0.326      -169.9597        -46.824      0.6366245      0.1542641
      4482.5000          0.307        11.9674        141.613        62.4659       63.83826         0.3271      -169.6792       -46.5457      0.6561333      0.1595151
      4483.0000         0.3122        12.0548       141.8806        63.6565       65.53171         0.3283      -169.2625       -46.1312       0.692164      0.1673359
      4483.5000         0.3258        12.1365       141.3069        65.3274       67.90914         0.3367       -168.646       -45.5169      0.7427477      0.1789264
      4484.0000         0.3534        12.1673       139.9946        67.0459       70.35418         0.3453      -167.8452       -44.7183      0.7947698      0.1939943
      4484.5000         0.4038         12.134       138.6277        68.4802       72.39461          0.366       -166.124       -42.9993      0.8381832      0.2264283
      4485.0000         0.4658        12.0784       136.8372        69.2008       73.41903         0.3889       -162.064       -38.9415      0.8599793      0.3029905
      4485.5000         0.5413        12.0709       135.0471        69.1448       73.33759         0.4322      -157.0071       -33.8867      0.8582465      0.3983642
      4486.0000         0.6203        12.0957       135.7715        67.8958       71.55772         0.4786      -151.9946       -28.8764      0.8203771      0.4928981
      4486.5000         0.6551        12.0907        137.157        66.2001        69.1417          0.523      -150.8806       -27.7646      0.7689723      0.5138755
      4487.0000           0.67        12.0805        136.658        64.8629       67.23626         0.5403      -151.0051       -27.8913       0.728431      0.5114849
      4487.5000         0.6741        12.0804       138.2146        64.0105       66.02091         0.5438      -150.9275       -27.8159      0.7025726      0.5129075
      4488.0000         0.6866        12.0848       138.3643        63.4549        65.2283         0.5327      -150.4041       -27.2947      0.6857086      0.5227415
      4488.5000         0.7089        12.1272       136.3203        64.0865       66.12585         0.5204      -150.1438       -27.0366      0.7048054      0.5276113
      4489.0000         0.7403        12.1641       135.1282        62.9175       64.45988         0.5031      -151.2595       -28.1545      0.6693593      0.5065189
      4489.5000         0.7611         12.196       134.6936        59.5994       59.73394         0.4831      -152.5505       -29.4477      0.5688072      0.4821188
      4490.0000         0.7646        12.2053       134.2139        58.2785       57.85156         0.4654      -153.6047       -30.5041      0.5287566      0.4621868
      4490.5000         0.7521        12.2013       135.1497        58.4989        58.1638         0.4527       -154.157       -31.0585      0.5353999      0.4517264
      4491.0000         0.7328        12.1855       135.6875        59.8391       60.07022         0.4426      -154.1633        -31.067      0.5759622       0.451566
      4491.5000         0.7067        12.1602       138.6111        60.7578       61.37669         0.4371       -153.583       -30.4889      0.6037595      0.4624736
      4492.0000         0.6792        12.1406       139.7122        60.1976       60.57738         0.4334      -152.6467       -29.5548      0.5867528      0.4800981
      4492.5000         0.6511        12.1339       140.4897        60.2095       60.59277         0.4309      -151.7847        -28.695      0.5870801      0.4963208
      4493.0000         0.6346        12.1317       139.8398        59.6291       59.76469         0.4364      -151.0061       -27.9186      0.5694614      0.5109698
      4493.5000         0.6201        12.1206       139.0635         58.642       58.35771          0.443      -150.2996       -27.2143      0.5395258      0.5242585
      4494.0000         0.6066        12.1174       139.0032        59.0981       59.00539         0.4561      -149.6101        -26.527      0.5533063      0.5372264
      4494.5000         0.5932         12.118       138.3342        60.2155       60.59475         0.4693      -148.9294       -25.8485      0.5871223      0.5500283
      4495.0000         0.5822        12.1246       137.8655        60.0812       60.40183         0.4827      -147.4011       -24.3223      0.5830177      0.5788245
      4495.5000         0.5762        12.1324       137.7346        59.7648       59.94965         0.4934      -144.8606        -21.784      0.5733968       0.626717
      4496.0000         0.5786        12.1391       137.9585         62.137       63.32556          0.501      -141.6016       -18.5272      0.6452247       0.688166
