#------------------------------------------------------------------------------
# Created by    : vladimir.rabinovich
# Created on    : 09/19/2023 17:22:23
#------------------------------------------------------------------------------
~Version Information Section
VERS.           2.0     :   CWLS log ASCII Standard - VERSION 2.0
WRAP.           NO      :   One line per depth step
~Well Information Section
#MNEM       .UNIT                                         VALUE :DESCRIPTION
#------------------------------------------------------------------------------
STRT        .FT                                            4000 :START DEPTH
STOP        .FT                                           10100 :STOP DEPTH
STEP        .FT                                             0.5 :STEP      
NULL        .                                           -999.25 :NULL      
COMP        .                         TALOS ENERGY VENTURES LLC :COMPANY   
WELL        .                               OCS G13557 ST00BP00 :WELL      
FLD         .                           WEST CAMERON BLOCK 0118 :FIELD     
LOC         .                                                   :LOCATION  
CNTY        .                                      WEST CAMERON :LOCATION  
STAT        .                                         LOUISIANA :STATE     
CTRY        .                                     UNITED STATES :COUNTRY   
SRVC        .                                                   :SERVICE COMPANY
DATE        .                             9/13/2023 11:19:21 AM :LOG DATE  
API         .                                    17700409600000 :API NUMBER
UWI         .                                    17700409600000 :UNIQUE WELL ID
XCOORD      .                                  1437367.94342701 :SURFACE X 
YCOORD      .                                  10730631.2479363 :SURFACE Y 
LAT         .                                         29.566133 :LATITUDE  
LON         .                                        -93.638908 :LONGITUDE 
ELEV        .FT                                              97 :ELEVATION VALUE
ELEV_TYPE   .                                                KB :ELEVATION REFERENCE TYPE
~Curve Information Section
#MNEM       .UNIT                                      API CODE :CURVE DESCRIPTION
#------------------------------------------------------------------------------
DEPT        .FT                                                 :DEPTH     
CALX        .IN                                                 :          
CNC         .%                                                  :          
CSAX        .MMHO                                               :          
GR          .API                                                :          
GR_NORM     .GAPI                                               :GammaRay Normalized
GRAX        .GAPI                                               :          
PORZ        .%                                                  :          
RIPD        .OHMM                                               :          
RIPM        .OHMM                                               :          
ROPS        .M/MIN                                              :          
RSAX        .OHMM                                               :          
RSFL        .OHMM                                               :          
RSTX        .MINS                                               :          
RWAZ        .OHMM                                               :          
SP          .MV                                                 :          
SP_NORM     .MV                                                 :SP Normalized
TEN         .LBF                                                :          
VSH_GR      .V/V                                                :Volume of Shale from GR
VSH_SP      .V/V                                                :Volume of Shale from SP
ZCOR        .G/C3                                               :          
~A        DEPTH           CALX            CNC           CSAX             GR        GR_NORM           GRAX           PORZ           RIPD           RIPM           ROPS           RSAX           RSFL           RSTX           RWAZ             SP        SP_NORM            TEN         VSH_GR         VSH_SP           ZCOR
# ...
      8862.0000         11.243         26.925       3193.449         70.392       68.35818         62.663         16.754          0.722          0.652         18.496          0.315          0.936             56          0.025         -6.049       -12.0586        -14.489      0.7523018       0.878812         -0.042
      8862.5000         11.252         27.527       2907.551           71.2       69.33354         57.504         17.672          0.712          0.662          20.97          0.345          0.973             57          0.028         -5.183       -11.1843       -33.4189      0.7730541      0.8893458          -0.03
      8863.0000         11.281         29.817       2864.285         71.548       69.75504         59.051          18.59          0.692          0.608          20.97          0.349          0.929             62           0.03          -3.78        -9.7731       -70.9139      0.7820222      0.9063482          0.008
      8863.5000         11.358          34.64       3049.805        75.0959       74.02927        65.5359         19.115          0.672          0.602         37.486           0.33          0.817             63          0.031         -1.506        -7.4908        -96.693      0.8729631      0.9338458          0.042
      8864.0000         11.458         41.923       2889.492         80.887       81.00411         62.246         19.208          0.665          0.592         37.486          0.348          0.701        65.4889          0.031          1.017        -4.9596        -91.298              1      0.9643422          0.054
      8864.5000         11.573         44.314       2856.613        85.9709       87.12751         64.361         18.487          0.652          0.594        59.0099          0.351          0.634             66          0.028          3.002        -2.9663       -78.8359              1      0.9883578          0.058
      8865.0000         11.732         40.667        2571.23         88.934       90.69753        66.9449         17.982          0.638          0.594        59.0099          0.389          0.613           67.5          0.026          4.193        -1.7671       -99.6489              1              1          0.065
      8865.5000         11.908        37.8019       3776.883          89.46       91.33334        71.6439         18.013          0.622          0.594          46.95          0.265          0.612             69          0.025          4.847        -1.1048      -150.1509              1              1          0.069
      8866.0000         12.011         34.782       4562.094         88.256       89.88642         79.809         18.053          0.645          0.621          46.95          0.219          0.621             65          0.026          5.136        -0.8076      -174.5708              1              1          0.073
      8866.5000          11.98         30.503       3887.844        85.0569       86.03732        75.7169         17.155          0.655          0.691         11.735          0.269          0.667             66          0.024          4.725        -1.2103       -120.705              1              1           0.07
      8867.0000         11.807         26.772       1989.816        80.0359        79.9947         68.355         15.551          0.659          0.714         11.735          0.503          0.795             65          0.019          3.383        -2.5441         -11.03      0.9998872      0.9934446          0.052
      8867.5000          11.57         24.445       1811.973         75.507       74.54457         70.704         14.712          0.668          0.698         19.688          0.555              1             67          0.018          1.099        -4.8198        78.5239       0.883927      0.9660265          0.027
      8868.0000         11.401         24.069       1692.391         73.344       71.94302        71.6439         15.376          0.669          0.682         19.688          0.591          1.117             71          0.019         -1.937        -7.8476        93.8629      0.8285748       0.929547          0.007
      8868.5000         11.347         25.544       1550.297        72.4969       70.92565        72.1139         16.767          0.679          0.665          20.34          0.645          1.019             71          0.023         -4.636       -10.5383         39.683      0.8069288      0.8971289          0.007
      8869.0000         11.342         26.919       1453.295         71.413       69.62321        69.4509         17.831          0.678          0.643          20.34           0.69          0.875             71          0.027         -5.867       -11.7611        -45.103      0.7792174      0.8823964          0.026
      8869.5000         11.333         27.295       1476.557        71.6169       69.87122         74.464         18.678          0.636          0.623          18.69          0.678          0.792             72          0.028         -6.934       -12.8199        -98.434       0.784494      0.8696398          0.047
      8870.0000         11.365         28.956       1497.627         75.606       74.67651         78.693         19.682          0.618          0.608          18.69          0.675          0.765        73.7119           0.03         -8.216       -14.0936       -72.8379      0.8867343       0.854294          0.058
      8870.5000         11.548         32.692       1501.166        80.7549        80.8783        75.4819          20.18          0.617          0.605         42.837          0.674          0.751             74          0.032         -6.994       -12.8634          7.471              1      0.8691157          0.063
      8871.0000         11.893         34.832       1295.104        84.2419       85.07907        80.9099         19.384          0.627          0.624         42.837          0.772          0.722             73           0.03         -2.807        -8.6681         59.868              1      0.9196615          0.065
      8871.5000         12.266         33.396       1526.582        86.2839       87.54012        76.0299         17.635          0.631          0.656         34.301          0.655          0.697             76          0.024          0.936        -4.9169        35.0569              1      0.9648566          0.064
      8872.0000          12.59         33.056       1433.631         85.428       86.51216        73.2109         15.733          0.646          0.684         34.301          0.701          0.695             77           0.02          2.519        -3.3256        -36.452              1      0.9840289          0.064
      8872.5000         12.873         34.569       1150.449         81.037       81.22805        90.5969         14.146           0.68          0.713          20.35          0.872          0.713         77.955          0.016            3.2        -2.6364        -94.396              1      0.9923325          0.063
      8873.0000         13.052         35.758       1167.186        78.0359       77.61746        96.8619         13.262          0.699          0.693          20.35          0.858          0.755           78.5          0.015          3.638        -2.1901      -112.2479      0.9493077      0.9977096          0.053
      8873.5000          13.02         36.824       1306.766         79.621        79.5284       103.5969         13.465          0.693          0.653          22.97          0.765          0.834             80          0.015          3.404        -2.4159       -100.174       0.989966      0.9949892          0.036
      8874.0000         12.872         38.783       1318.566         81.776        82.1255       105.0459         14.643          0.698          0.642          22.97          0.758          0.893             82          0.018          2.525        -3.2866        -79.226              1      0.9844988          0.032
      8874.5000         12.907         41.438       1327.537        81.7109       82.04964       107.8259         16.061          0.721          0.643          11.47          0.753          0.842             83          0.023          1.864        -3.9394       -71.2859              1      0.9766337          0.049
