#------------------------------------------------------------------------------
# Created by    : vladimir.rabinovich
# Created on    : 09/19/2023 17:22:23
#------------------------------------------------------------------------------
~Version Information Section
VERS.           2.0     :   CWLS log ASCII Standard - VERSION 2.0
WRAP.           NO      :   One line per depth step
~Well Information Section
#MNEM       .UNIT                                         VALUE :DESCRIPTION
#------------------------------------------------------------------------------
STRT        .FT                                            4000 :START DEPTH
STOP        .FT                                           10100 :STOP DEPTH
STEP        .FT                                             0.5 :STEP      
NULL        .                                           -999.25 :NULL      
COMP        .                         TALOS ENERGY VENTURES LLC :COMPANY   
WELL        .                               OCS G13557 ST00BP00 :WELL      
FLD         .                           WEST CAMERON BLOCK 0118 :FIELD     
LOC         .                                                   :LOCATION  
CNTY        .                                      WEST CAMERON :LOCATION  
STAT        .                                         LOUISIANA :STATE     
CTRY        .                                     UNITED STATES :COUNTRY   
SRVC        .                                                   :SERVICE COMPANY
DATE        .                             9/13/2023 11:19:21 AM :LOG DATE  
API         .                                    17700409600000 :API NUMBER
UWI         .                                    17700409600000 :UNIQUE WELL ID
XCOORD      .                                  1437367.94342701 :SURFACE X 
YCOORD      .                                  10730631.2479363 :SURFACE Y 
LAT         .                                         29.566133 :LATITUDE  
LON         .                                        -93.638908 :LONGITUDE 
ELEV        .FT                                              97 :ELEVATION VALUE
ELEV_TYPE   .                                                KB :ELEVATION REFERENCE TYPE
~Curve Information Section
#MNEM       .UNIT                                      API CODE :CURVE DESCRIPTION
#------------------------------------------------------------------------------
DEPT        .FT                                                 :DEPTH     
CALX        .IN                                                 :          
CNC         .%                                                  :          
CSAX        .MMHO                                               :          
GR          .API                                                :          
GR_NORM     .GAPI                                               :GammaRay Normalized
GRAX        .GAPI                                               :          
PORZ        .%                                                  :          
RIPD        .OHMM                                               :          
RIPM        .OHMM                                               :          
ROPS        .M/MIN                                              :          
RSAX        .OHMM                                               :          
RSFL        .OHMM                                               :          
RSTX        .MINS                                               :          
RWAZ        .OHMM                                               :          
SP          .MV                                                 :          
SP_NORM     .MV                                                 :SP Normalized
TEN         .LBF                                                :          
VSH_GR      .V/V                                                :Volume of Shale from GR
VSH_SP      .V/V                                                :Volume of Shale from SP
ZCOR        .G/C3                                               :          
~A        DEPTH           CALX            CNC           CSAX             GR        GR_NORM           GRAX           PORZ           RIPD           RIPM           ROPS           RSAX           RSFL           RSTX           RWAZ             SP        SP_NORM            TEN         VSH_GR         VSH_SP           ZCOR
# ...
      8043.0000         10.175         32.285       4160.758         60.754       54.21684         42.511         26.231          0.211          0.253        126.011          0.242          0.357           60.5          0.019       -65.6189       -66.6803        -46.946      0.4514221      0.2207193          0.016
      8043.5000         10.162         31.831       3751.488         57.438        50.4665         37.812         28.684          0.216          0.238         106.98          0.267          0.181             62          0.024        -72.953       -74.0155        -63.537      0.3716277      0.1323433          0.018
      8044.0000         10.177         30.462       3413.406         57.251       50.25724         36.715         30.018           0.22          0.232       106.9619          0.293          0.122             63          0.027        -76.616       -77.6797          9.316      0.3671754     0.08819635          0.019
      8044.5000         10.195         30.066       3398.105         58.263       51.40493          36.48         29.803          0.219          0.244        136.303          0.294          0.109             64          0.026       -75.0389       -76.1038        114.698      0.3915943      0.1071832          0.019
      8045.0000           10.2         30.959       3346.383        58.2339       51.37438         41.571         28.965          0.214           0.25        136.303          0.299          0.124             65          0.024        -71.349       -72.4151       144.8889      0.3909442      0.1516253          0.031
      8045.5000         10.203         31.681       2949.227         59.102       52.35921         37.342         27.718          0.209          0.259       145.3889           0.34          0.196             69          0.021        -67.996       -69.0632        83.4829      0.4118981      0.1920096          0.046
      8046.0000         10.219         31.593       2779.523         61.758       55.36759         36.089         26.497          0.211          0.272        145.397          0.361          0.385             69           0.02       -63.7939       -64.8623          1.278      0.4759061      0.2426229          0.043
      8046.5000         10.239         30.887       2395.063        65.1599       59.22001         39.926         25.748          0.236          0.289         20.762          0.418          0.973             71          0.021        -57.701       -58.7706        -49.705      0.5578725      0.3160169          0.029
      8047.0000         10.254          30.59       1750.764          68.72       63.25146         41.728         25.487          0.261          0.308         20.762          0.571          1.073             71          0.022       -52.4059       -53.4766        -61.138      0.6436482         0.3798          0.021
      8047.5000         10.259         30.879       1567.951         71.142        65.9949         47.366         25.471          0.292          0.332         17.442          0.638          1.039             72          0.025        -50.907       -51.9789        -55.573      0.7020192      0.3978446          0.031
      8048.0000         10.253         30.956       1492.182        72.4609       67.48993         47.238         25.071          0.342          0.358         17.439           0.67          0.932             72          0.028        -51.188       -52.2611        -60.976      0.7338283      0.3944446          0.048
      8048.5000         10.261         30.876       1774.223         75.542       70.97941          47.21         23.658          0.379          0.384          37.67          0.564          0.809             74          0.028        -48.209       -49.2832         -73.21      0.8080725      0.4303229          0.054
      8049.0000         10.299         31.179       2604.715        79.9979       76.02467         53.671         21.431          0.394          0.414          37.67          0.394          0.723           72.5          0.023        -41.204       -42.2794       -65.7849      0.9154186       0.514706          0.043
      8049.5000         10.348         31.153       2449.797        82.5229       78.88468        41.0099         19.298          0.397          0.429         25.256          0.414          0.676        74.0869          0.019        -34.498       -35.5746       -41.9059      0.9762698      0.5954868          0.031
      8050.0000         10.375         30.552       2360.688        82.0189       78.31667         37.499         18.193          0.401          0.431         54.817          0.425          0.665             75          0.017        -30.624       -31.7017        -36.665      0.9641844      0.6421482          0.028
      8050.5000         10.375         31.493       2514.262        79.7809       75.78622         36.246         18.417          0.414          0.434        84.3779          0.398          0.688             77          0.018        -29.746       -30.8249        -51.236       0.910345       0.652712          0.029
      8051.0000         10.363         34.571       2503.809         76.396       71.95789         40.475         19.647          0.427          0.438        84.3779            0.4          0.724             77          0.021        -32.636       -33.7161        -49.736      0.8288913      0.6178783           0.03
      8051.5000         10.357         37.389        3358.98         73.141       67.52816         63.641         21.227          0.446          0.443         50.166          0.303          0.761         77.814          0.026        -37.769       -38.8503       -33.3019      0.7346417      0.5560205          0.029
      8052.0000         10.374         37.008       3717.379        70.7799         64.688        67.1019         22.714          0.449          0.449         44.976           0.27          0.816             78           0.03        -41.324       -42.4064        -35.514      0.6742128      0.5131759          0.038
      8052.5000          10.55         35.816       3802.445         69.412       63.04362         79.319         24.562          0.452          0.452         39.787          0.263          0.871             80          0.036        -41.351       -42.4346        -50.914       0.639226      0.5128362          0.068
      8053.0000         11.125         37.263       3578.457        69.6129       63.28814         73.054         26.835          0.481          0.469         39.787          0.279          0.879             79          0.046        -37.571       -38.6558       -47.7679      0.6444286      0.5583639          0.101
      8053.5000         12.079         41.449       3002.781        70.5569       64.42722         63.186         27.912          0.519          0.504          56.34          0.333          0.832             80          0.054        -30.372       -31.4579        -31.095      0.6686643      0.6450856           0.11
      8054.0000         12.991         44.509       2924.582         71.079       65.05834        66.1299         26.592          0.566           0.55          56.34          0.342           0.76             80          0.053        -22.729       -23.8161        -24.552      0.6820924      0.7371554          0.097
      8054.5000         13.479         44.838       2883.801        71.5299       65.60374        66.7889         24.177          0.631           0.59        74.7369          0.347          0.696             80          0.048        -17.572       -18.6603        -27.926      0.6936967      0.7992735          0.084
      8055.0000          13.55         45.038       2864.285         72.777       67.10775         71.174         22.485           0.66          0.621        74.7369          0.349          0.658             81          0.043        -14.493       -15.5824          -32.9      0.7256968      0.8363566          0.084
      8055.5000         13.334         44.664       2788.027        73.5809       68.07827        66.9449         21.568          0.691          0.633         72.324          0.359          0.652             82          0.041        -11.908       -12.9986        -40.336      0.7463462      0.8674868          0.088
