#------------------------------------------------------------------------------
# Created by    : vladimir.rabinovich
# Created on    : 09/19/2023 17:22:23
#------------------------------------------------------------------------------
~Version Information Section
VERS.           2.0     :   CWLS log ASCII Standard - VERSION 2.0
WRAP.           NO      :   One line per depth step
~Well Information Section
#MNEM       .UNIT                                         VALUE :DESCRIPTION
#------------------------------------------------------------------------------
STRT        .FT                                            4000 :START DEPTH
STOP        .FT                                           10100 :STOP DEPTH
STEP        .FT                                             0.5 :STEP      
NULL        .                                           -999.25 :NULL      
COMP        .                         TALOS ENERGY VENTURES LLC :COMPANY   
WELL        .                               OCS G13557 ST00BP00 :WELL      
FLD         .                           WEST CAMERON BLOCK 0118 :FIELD     
LOC         .                                                   :LOCATION  
CNTY        .                                      WEST CAMERON :LOCATION  
STAT        .                                         LOUISIANA :STATE     
CTRY        .                                     UNITED STATES :COUNTRY   
SRVC        .                                                   :SERVICE COMPANY
DATE        .                             9/13/2023 11:19:21 AM :LOG DATE  
API         .                                    17700409600000 :API NUMBER
UWI         .                                    17700409600000 :UNIQUE WELL ID
XCOORD      .                                  1437367.94342701 :SURFACE X 
YCOORD      .                                  10730631.2479363 :SURFACE Y 
LAT         .                                         29.566133 :LATITUDE  
LON         .                                        -93.638908 :LONGITUDE 
ELEV        .FT                                              97 :ELEVATION VALUE
ELEV_TYPE   .                                                KB :ELEVATION REFERENCE TYPE
~Curve Information Section
#MNEM       .UNIT                                      API CODE :CURVE DESCRIPTION
#------------------------------------------------------------------------------
DEPT        .FT                                                 :DEPTH     
CALX        .IN                                                 :          
CNC         .%                                                  :          
CSAX        .MMHO                                               :          
GR          .API                                                :          
GR_NORM     .GAPI                                               :GammaRay Normalized
GRAX        .GAPI                                               :          
PORZ        .%                                                  :          
RIPD        .OHMM                                               :          
RIPM        .OHMM                                               :          
ROPS        .M/MIN                                              :          
RSAX        .OHMM                                               :          
RSFL        .OHMM                                               :          
RSTX        .MINS                                               :          
RWAZ        .OHMM                                               :          
SP          .MV                                                 :          
SP_NORM     .MV                                                 :SP Normalized
TEN         .LBF                                                :          
VSH_GR      .V/V                                                :Volume of Shale from GR
VSH_SP      .V/V                                                :Volume of Shale from SP
ZCOR        .G/C3                                               :          
~A        DEPTH           CALX            CNC           CSAX             GR        GR_NORM           GRAX           PORZ           RIPD           RIPM           ROPS           RSAX           RSFL           RSTX           RWAZ             SP        SP_NORM            TEN         VSH_GR         VSH_SP           ZCOR
# ...
      6431.0000         10.344         34.688        -999.25         56.425       48.57543        -999.25        32.6299          0.202          0.228        -999.25        -999.25          0.759        -999.25          0.029         -84.83       -82.1225         -3.148      0.3313922     0.08951707          0.021
      6431.5000         10.394         34.516        -999.25        56.9919       49.30012        -999.25         32.402          0.205           0.23        -999.25        -999.25          0.827        -999.25          0.029       -81.5229       -78.8166         -5.544      0.3468111      0.1270841          0.021
      6432.0000         10.423         34.423        -999.25           58.4       51.10223        -999.25         31.867          0.207           0.24        -999.25        -999.25          0.849        -999.25          0.029       -79.7439       -77.0388         -7.656      0.3851539      0.1472863           0.02
      6432.5000         10.452         34.929        -999.25        60.2419       53.45997        -999.25         31.784          0.213          0.246        -999.25        -999.25           0.89        -999.25          0.029        -77.808        -75.104         -1.176      0.4353185      0.1692728          0.012
      6433.0000         10.506         35.314        -999.25         61.931         55.622        -999.25         31.815          0.219          0.246        -999.25        -999.25          0.993        -999.25           0.03       -75.3209       -72.6181          8.984      0.4813191      0.1975216         -0.009
      6433.5000         10.614         34.541        -999.25         63.652       57.82476        -999.25         31.787          0.225          0.248        -999.25        -999.25          1.073        -999.25          0.031       -73.0819       -70.3803          11.39      0.5281863      0.2229511         -0.017
      6434.0000         10.733        33.8459        -999.25         64.761       59.24378        -999.25         32.373          0.237           0.26        -999.25        -999.25          1.051        -999.25          0.034        -70.455       -67.7545          7.531      0.5583783      0.2527898         -0.003
      6434.5000         10.785         34.782        -999.25         64.725       59.19625        -999.25         31.646          0.258           0.28        -999.25        -999.25           1.01        -999.25          0.035         -66.21       -63.5107          2.589      0.5573671      0.3010148          0.011
      6435.0000         10.802         36.569        -999.25        65.2749       59.89917        -999.25         30.364          0.282          0.299        -999.25        -999.25          0.992        -999.25          0.035        -59.864       -57.1659         -6.361      0.5723228      0.3731148          0.015
      6435.5000         10.856         36.403        -999.25        67.5669        62.8334        -999.25         28.338          0.308          0.325        -999.25        -999.25          0.965        -999.25          0.033       -51.5439       -48.8469        -17.255      0.6347533      0.4676489          0.014
      6436.0000         10.918         34.559        -999.25        71.5969       67.99371        -999.25         25.882          0.367          0.356        -999.25        -999.25          0.899        -999.25          0.032       -42.1169       -39.4211        -20.901      0.7445469      0.5747602          0.018
      6436.5000         10.954        34.2679        -999.25          76.12       73.78559        -999.25         23.743          0.413          0.391        -999.25        -999.25          0.802        -999.25           0.03        -33.202       -30.5074        -17.699      0.8677785      0.6760523          0.032
      6437.0000         10.986          35.96        -999.25         78.407       76.71341        -999.25         22.709          0.457          0.419        -999.25        -999.25          0.723        -999.25           0.03        -26.294       -23.6005        -15.214      0.9300725      0.7545398          0.047
      6437.5000         11.021         38.889        -999.25        78.4249       76.73492        -999.25          22.69          0.537          0.437        -999.25        -999.25          0.696        -999.25          0.036        -21.425       -18.7327        -15.815      0.9305303      0.8098557          0.051
      6438.0000         11.038         43.139        -999.25         78.318        76.5966        -999.25         23.035          0.601          0.447        -999.25        -999.25          0.701        -999.25          0.041        -17.129       -14.4379        -16.087      0.9275872      0.8586602          0.051
      6438.5000         11.049         47.666        -999.25        78.7679       77.17144        -999.25         23.467          0.618           0.46        -999.25        -999.25          0.706        -999.25          0.044         -12.96       -10.2701        -12.855      0.9398178      0.9060216          0.053
      6439.0000         11.096         48.629        -999.25        79.6589       78.31124        -999.25         23.832          0.601          0.481        -999.25        -999.25          0.726        -999.25          0.044         -10.45        -7.7612          -2.91      0.9640689      0.9345318          0.054
      6439.5000         11.193         46.417        -999.25        81.6329       80.83817        -999.25         23.458          0.563          0.482        -999.25        -999.25          0.796        -999.25           0.04        -10.621        -7.9334          5.353              1       0.932575          0.047
      6440.0000          11.29         43.765        -999.25         82.174       81.52982        -999.25         22.965          0.513          0.465        -999.25        -999.25          0.885        -999.25          0.035        -12.298        -9.6116         -1.524              1      0.9135045          0.039
      6440.5000         11.321         41.887        -999.25        79.9109       78.62978        -999.25         22.916          0.437          0.425        -999.25        -999.25          0.894        -999.25           0.03        -14.009       -11.3237        -14.955      0.9708463      0.8940489           0.05
      6441.0000         11.272        40.3849        -999.25         78.028       76.21671        -999.25         23.917          0.345          0.354        -999.25        -999.25          0.821        -999.25          0.026        -16.626       -13.9419        -16.738      0.9195045      0.8642966          0.075
      6441.5000         11.164         39.164        -999.25        77.1089       75.03809        -999.25         26.405          0.301            0.3        -999.25        -999.25          0.756        -999.25          0.028         -23.08       -20.3971        -10.558      0.8944275       0.790942           0.08
      6442.0000         11.071         38.925        -999.25         73.428       70.32211        -999.25         29.266          0.278          0.277        -999.25        -999.25          0.713        -999.25          0.032        -33.213       -30.5312        -10.635      0.7940875      0.6757818          0.057
      6442.5000         11.061         38.864        -999.25         67.653       62.92396        -999.25         30.742          0.254          0.268        -999.25        -999.25          0.674        -999.25          0.032        -41.782       -39.1014        -16.375        0.63668      0.5783932          0.035
      6443.0000         11.064          39.15        -999.25         64.625       59.04423        -999.25         30.829          0.227          0.262        -999.25        -999.25           0.66        -999.25          0.029          -44.9       -42.2206        -20.574      0.5541325      0.5429477          0.029
      6443.5000         11.005         39.947        -999.25        64.0569       58.31505        -999.25         30.855          0.227          0.259        -999.25        -999.25          0.702        -999.25          0.029        -44.374       -41.6957        -19.749      0.5386181      0.5489125          0.034
