#------------------------------------------------------------------------------
# Created by    : vladimir.rabinovich
# Created on    : 09/19/2023 17:22:20
#------------------------------------------------------------------------------
~Version Information Section
VERS.           2.0     :   CWLS log ASCII Standard - VERSION 2.0
WRAP.           NO      :   One line per depth step
~Well Information Section
#MNEM       .UNIT                                         VALUE :DESCRIPTION
#------------------------------------------------------------------------------
STRT        .FT                                            3394 :START DEPTH
STOP        .FT                                            9102 :STOP DEPTH
STEP        .FT                                             0.5 :STEP      
NULL        .                                           -999.25 :NULL      
COMP        .                               TALOS PETROLEUM LLC :COMPANY   
WELL        .                                OCS 00299 ST00BP02 :WELL      
FLD         .                           WEST CAMERON BLOCK 0045 :FIELD     
LOC         .                                                   :LOCATION  
CNTY        .                                      WEST CAMERON :LOCATION  
STAT        .                                         LOUISIANA :STATE     
CTRY        .                                     UNITED STATES :COUNTRY   
SRVC        .                                                   :SERVICE COMPANY
DATE        .                             9/13/2023 11:19:21 AM :LOG DATE  
API         .                                    17700408910000 :API NUMBER
UWI         .                                    17700408910000 :UNIQUE WELL ID
XCOORD      .                                  1447531.51187247 :SURFACE X 
YCOORD      .                                  10768708.3799417 :SURFACE Y 
LAT         .                                         29.671026 :LATITUDE  
LON         .                                        -93.607557 :LONGITUDE 
ELEV        .FT                                              95 :ELEVATION VALUE
ELEV_TYPE   .                                                KB :ELEVATION REFERENCE TYPE
~Curve Information Section
#MNEM       .UNIT                                      API CODE :CURVE DESCRIPTION
#------------------------------------------------------------------------------
DEPT        .FT                                                 :DEPTH     
CALI        .IN                                                 :          
DPHI        .V/V                                                :          
DRHO        .G/C3                                               :          
GR          .GAPI                                               :          
GR_NORM     .GAPI                                               :GammaRay Normalized
IDPH        .OHMM                                               :          
IMPH        .OHMM                                               :          
NPOR        .V/V                                                :          
SFLU        .OHMM                                               :          
SP          .MV                                                 :          
SP_NORM     .MV                                                 :SP Normalized
TENS        .LBS                                                :          
VSH_GR      .V/V                                                :Volume of Shale from GR
VSH_SP      .V/V                                                :Volume of Shale from SP
~A        DEPTH           CALI           DPHI           DRHO             GR        GR_NORM           IDPH           IMPH           NPOR           SFLU             SP        SP_NORM           TENS         VSH_GR         VSH_SP
# ...
      6094.0000             13         0.3168         -0.013           29.8       36.93782         0.2865         0.3292         0.3612         0.3113          -66.9       -61.1857           3760     0.08378349      0.2869193
      6094.5000          13.04         0.3216         -0.016             29       35.79883         0.2787         0.3142         0.3624         0.2541          -64.5       -58.7857           3760     0.05954953      0.3158349
      6095.0000          13.04         0.3228         -0.018           28.8       35.52957         0.2711         0.3028         0.3624         0.2318          -63.3       -57.5857           3740     0.05382059      0.3302928
      6095.5000          13.08         0.3252         -0.018           28.8       35.55021         0.2637         0.2891         0.3588         0.2153          -63.3       -57.5857           3740     0.05425977      0.3302928
      6096.0000          13.08         0.3276         -0.018           28.8       35.57085         0.2565         0.2761         0.3504         0.2153          -63.6       -57.8857           3720     0.05469903      0.3266783
      6096.5000          13.04         0.3288         -0.018           29.2       36.17133         0.2472         0.2711         0.3516         0.2037          -64.5       -58.7857           3700     0.06747501      0.3158349
      6097.0000          13.04           0.33         -0.017           29.6       36.77178         0.2427         0.2637         0.3528         0.1928            -66       -60.2857           3720     0.08025068      0.2977626
      6097.5000             13         0.3312         -0.017             30       37.37225         0.2383         0.2613          0.354         0.1963          -68.7       -62.9857           3760     0.09302659      0.2652325
      6098.0000          12.92         0.3348          -0.02           29.4       36.52316         0.2383         0.2613         0.3372         0.2449          -73.2       -67.4857           3740     0.07496075      0.2110156
      6098.5000          12.88         0.3372         -0.022           28.6       35.38418          0.243          0.269         0.3216         0.3004        -77.449       -71.7347           3740     0.05072727      0.1598229
      6099.0000          12.88         0.3396         -0.025             29       35.98463         0.2459         0.2746         0.3132         0.3335       -80.8163        -75.102           3740     0.06350286       0.119253
      6099.5000           12.8         0.3432         -0.024           29.4       36.58511          0.251         0.2804         0.3348         0.3736       -83.8775       -78.1632           3740     0.07627885     0.08237108
      6100.0000          12.76         0.3468         -0.021           29.4       36.60576         0.2563         0.2862         0.3612         0.4148       -85.7143            -80           3740     0.07671835     0.06024097
      6100.5000          12.72         0.3492         -0.018           29.4        36.6264         0.2565         0.2918         0.3708         0.4862       -87.2449       -81.5306           3740     0.07715745     0.04179998
      6101.0000          12.68         0.3432         -0.014             28       34.61768         0.2565         0.2945         0.3648         0.5378       -88.4694       -82.7551           3720     0.03441864     0.02704703
      6101.5000           12.6          0.336         -0.013           25.8       31.44931         0.2541         0.2891         0.3384         0.5281       -88.7755       -83.0612           3720              0       0.023359
      6102.0000          12.52         0.3288         -0.011           24.2       29.15068         0.2518         0.2865         0.3156         0.4685       -89.0816       -83.3673           3720              0     0.01967106
      6102.5000          12.48          0.324         -0.011           24.8       30.04105         0.2427         0.2736         0.3144         0.3578       -87.8571       -82.1428           3720              0      0.0344241
      6103.0000           12.4         0.3216         -0.015           26.2       32.09107         0.2361         0.2613         0.3264         0.3201       -87.2449       -81.5306           3740              0     0.04179998
      6103.5000          12.44         0.3216         -0.018           26.8       32.98145         0.2318         0.2518         0.3336         0.3261       -87.2449       -81.5306           3780              0     0.04179998
      6104.0000          12.44         0.3216         -0.022           26.8       33.00208         0.2296         0.2472           0.33         0.3416       -88.1633        -82.449           3780  0.00004431542     0.03073497
      6104.5000          12.36         0.3216         -0.024             26        31.8631         0.2255         0.2405          0.324         0.3748       -89.0816       -83.3673           3760              0     0.01967106
      6105.0000          12.36         0.3216         -0.023           25.2       30.72411         0.2234         0.2383         0.3192         0.3679       -89.6939       -83.9796           3760              0     0.01229399
      6105.5000          12.36         0.3204         -0.022             26       31.90438         0.2213         0.2383         0.3132         0.3292       -89.3878       -83.6735           3760              0     0.01598193
      6106.0000          12.36         0.3204         -0.021           26.2       32.21495         0.2193         0.2361          0.318         0.3085       -88.7755       -83.0612           3760              0       0.023359
      6106.5000          12.36         0.3216          -0.02           25.6       31.36586         0.2193         0.2361         0.3384            0.3       -88.1633        -82.449           3740              0     0.03073497
      6107.0000          12.32         0.3216         -0.021             25       30.51677         0.2173         0.2339         0.3528         0.3056       -88.1633        -82.449           3760              0     0.03073497
      6107.5000          12.32         0.3216         -0.022             25       30.53743         0.2173         0.2318          0.354         0.3416       -89.3878       -83.6735           3780              0     0.01598193
      6108.0000          12.32         0.3216         -0.023             25       30.55807         0.2173         0.2296          0.348         0.3545          -90.3       -84.5857           3800              0    0.004991554
      6108.5000          12.32         0.3228         -0.025           24.6       29.99891          0.217         0.2272         0.3504         0.3411       -89.6939       -83.9796           3800              0     0.01229399
      6109.0000          12.32          0.324         -0.027           24.4       29.72963         0.2165         0.2267          0.354         0.3102       -88.7755       -83.0612           3780              0       0.023359
      6109.5000          12.32         0.3264         -0.028           24.8        30.3301          0.216         0.2262         0.3552         0.2573        -87.551       -81.8367           3740              0     0.03811204
      6110.0000          12.32         0.3276         -0.028           24.8       30.35074         0.2155         0.2257         0.3516         0.2407       -87.2449       -81.5306           3720              0     0.04179998
      6110.5000          12.36         0.3324         -0.027           25.8       31.82093         0.2153         0.2255         0.3444         0.2518       -87.2449       -81.5306           3680              0     0.04179998
      6111.0000          12.36         0.3348         -0.029           26.8       33.29113         0.2133         0.2255         0.3468         0.2541       -87.2449       -81.5306           3700    0.006194257     0.04179998
      6111.5000          12.36         0.3396         -0.032           27.6       34.47142         0.2153         0.2275         0.3648         0.2518       -87.2449       -81.5306           3700      0.0313069     0.04179998
