#------------------------------------------------------------------------------
# Created by    : vladimir.rabinovich
# Created on    : 09/19/2023 17:20:44
#------------------------------------------------------------------------------
~Version Information Section
VERS.           2.0     :   CWLS log ASCII Standard - VERSION 2.0
WRAP.           NO      :   One line per depth step
~Well Information Section
#MNEM       .UNIT                                         VALUE :DESCRIPTION
#------------------------------------------------------------------------------
STRT        .FT                                            2904 :START DEPTH
STOP        .FT                                           14016 :STOP DEPTH
STEP        .FT                                             0.5 :STEP      
NULL        .                                           -999.25 :NULL      
COMP        .                                          MCN CORP :COMPANY   
WELL        .                                OCS 00043 ST00BP00 :WELL      
FLD         .                          EUGENE ISLAND BLOCK 0089 :FIELD     
LOC         .                                                   :LOCATION  
CNTY        .                                     EUGENE ISLAND :LOCATION  
STAT        .                                         LOUISIANA :STATE     
CTRY        .                                     UNITED STATES :COUNTRY   
SRVC        .                                                   :SERVICE COMPANY
DATE        .                             9/13/2023 11:18:42 AM :LOG DATE  
API         .                                    17709009460000 :API NUMBER
UWI         .                                    17709009460000 :UNIQUE WELL ID
XCOORD      .                                  2058690.32320654 :SURFACE X 
YCOORD      .                                  10563305.2032801 :SURFACE Y 
LAT         .                                        29.1009424 :LATITUDE  
LON         .                                       -91.6898776 :LONGITUDE 
ELEV        .FT                                              49 :ELEVATION VALUE
ELEV_TYPE   .                                                KB :ELEVATION REFERENCE TYPE
~Curve Information Section
#MNEM       .UNIT                                      API CODE :CURVE DESCRIPTION
#------------------------------------------------------------------------------
DEPT        .FT                                                 :DEPTH     
ASN         .OHMM                                               :          
CALI        .IN                                                 :          
DT          .US/F                                               :          
GR          .GAPI                                               :          
GR_NORM     .GAPI                                               :GammaRay Normalized
ILD         .OHMM                                               :          
SP          .MV                                                 :          
SP_NORM     .MV                                                 :SP Normalized
VSH_GR      .V/V                                                :Volume of Shale from GR
VSH_SP      .V/V                                                :Volume of Shale from SP
~A        DEPTH            ASN           CALI             DT             GR        GR_NORM            ILD             SP        SP_NORM         VSH_GR         VSH_SP
# ...
      8857.5000         0.1385        11.8804       107.8506        41.3751        35.7192         0.1886       -197.666       -76.3494     0.05785532              0
      8858.0000         0.1373        11.8393       107.8289        39.7717       34.17994         0.1888      -197.3997       -76.0844     0.02510501              0
      8858.5000         0.1362        11.8117        107.745        39.3112       33.73786         0.1881      -195.1206       -73.8066      0.0156991              0
      8859.0000         0.1356         11.794       107.7119        39.8024       34.20941         0.1905      -193.7202       -72.4075     0.02573208              0
      8859.5000         0.1354        11.7884       108.0643         40.278       34.66599         0.1949      -192.7397       -71.4283     0.03544649              0
      8860.0000         0.1368        11.7884       108.5803        40.5225        34.9007         0.1986      -191.5947       -70.2845      0.0404405              0
      8860.5000         0.1395        11.7932       108.5249        41.1099       35.46461          0.201      -190.5098       -69.2009     0.05243845     0.01175151
      8861.0000         0.1433        11.7979       107.4696        41.9349       36.25661         0.2033      -190.3728       -69.0652     0.06928951     0.01374705
      8861.5000         0.1491        11.8005       106.3823        41.8582       36.18298         0.2035      -192.9414       -71.6351     0.06772289              0
      8862.0000         0.1552        11.7946        105.787        40.9466       35.30784         0.2028      -197.1406       -75.8356     0.04910295              0
      8862.5000         0.1585        11.7868       105.9858        40.0568       34.45363          0.201      -198.6216       -77.3178     0.03092827              0
      8863.0000         0.1572        11.7814       106.5498        39.4723       33.89251         0.1971      -198.7407       -77.4382     0.01898956              0
      8863.5000         0.1489        11.7782       107.1563        39.8182       34.22458         0.1932      -195.6384       -74.3372     0.02605479              0
      8864.0000          0.142        11.7953       107.5626        40.6417       35.01513         0.1908      -186.2634       -64.9635     0.04287517     0.07406616
      8864.5000         0.1561        11.8276       107.7559        41.6325        35.9663         0.1886      -182.4673       -61.1687     0.06311287       0.129872
      8865.0000          0.167        11.8428       107.6642        42.3738       36.67795         0.1868      -183.0371       -61.7398      0.0782543      0.1214735
      8865.5000         0.1669        11.8516       107.2485        42.9039       37.18685         0.1861       -191.813        -70.517     0.08908187              0
      8866.0000         0.1617        11.8468       106.7419        42.3768       36.68083         0.1854      -196.8003       -75.5055     0.07831557              0
      8866.5000         0.1538        11.8406       106.2745        40.9357       35.29738         0.1846      -198.4309       -77.1374     0.04888039              0
      8867.0000          0.147         11.851        105.947        39.0908       33.52627         0.1919      -199.1672        -77.875     0.01119727              0
      8867.5000         0.1445        11.8658       105.8073        37.7031       32.19408         0.1935      -199.5923       -78.3014              0              0
      8868.0000         0.1471        11.8788       106.3109        37.1092       31.62394          0.195      -199.9741       -78.6845              0              0
      8868.5000         0.1462        11.8786       106.7493        37.6912       32.18266         0.1963      -200.3047       -79.0164              0              0
      8869.0000         0.1396        11.8753        106.989        38.5261       32.98416         0.1976      -200.4844       -79.1973              0              0
      8869.5000         0.1318        11.8795       107.1842        38.2707       32.73898          0.199       -200.572       -79.2862              0              0
      8870.0000         0.1318        11.8901       107.3077        37.9646       32.44512         0.1981       -200.562       -79.2775              0              0
      8870.5000         0.1372        11.9072       107.0436        37.7533       32.24227         0.1952      -200.2134       -78.9302              0              0
      8871.0000         0.1388         11.922       106.6532         37.602       32.09702         0.1906      -199.5547       -78.2728              0              0
      8871.5000         0.1378        11.9351         106.16         37.585        32.0807         0.1857      -198.6316        -77.351              0              0
      8872.0000         0.1377        11.9432       105.6589        38.1584       32.63117         0.1829      -197.0815       -75.8021              0              0
      8872.5000         0.1378        11.9466        105.223        38.9503       33.39139         0.1803      -195.2759       -73.9978    0.008327484              0
      8873.0000         0.1345        11.9515       104.9084        38.4404       32.90189         0.1794      -192.9006       -71.6238              0              0
      8873.5000         0.1333        11.9618       105.0205        38.4207       32.88298         0.1787      -190.9971       -69.7216              0    0.004094068
      8874.0000         0.1338        11.9881       105.5721        39.9321       34.33392          0.182      -189.7502        -68.476     0.02838127      0.0224118
      8874.5000         0.1349        12.0117       106.2678        42.0046       36.32352         0.1851      -188.4758       -67.2029     0.07071321     0.04113377
      8875.0000         0.1372        12.0427       106.6766        44.2455       38.47478         0.1844      -187.3232       -66.0515      0.1164848      0.0580662
      8875.5000         0.1396        12.0729       106.9423        44.8037       39.01507         0.1837      -186.2319       -64.9615      0.1279802     0.07409555
      8876.0000         0.1403        12.0983       106.8016         43.133       37.41773         0.1789      -185.6223       -64.3532     0.09399422     0.08304113
      8876.5000         0.1406        12.1195       106.3621        40.8605       35.24256         0.1731      -185.1448        -63.877     0.04771399     0.09004413
      8877.0000         0.1396        12.1342       105.8479        38.3702        32.8584         0.1845      -185.0049       -63.7384              0     0.09208236
      8877.5000          0.139        12.1438       105.6578        36.5688       31.13549         0.1677      -184.8762        -63.611              0     0.09395588
      8878.0000         0.1388        12.1474       105.7722        37.3606       31.90214          0.155      -184.8274       -63.5634              0     0.09465588
      8878.5000         0.1387         12.151       105.9031        39.1739       33.64934         0.1495      -184.7881       -63.5254     0.01381578     0.09521473
      8879.0000         0.1386        12.1546       105.9363        40.6071       35.03175         0.1461      -184.7695       -63.5081     0.04322864     0.09546914
      8879.5000         0.1384        12.1578       105.7461        41.2435       35.64912         0.1431      -184.2461        -62.986     0.05636426      0.1031471
      8880.0000         0.1408        12.1597       105.4736        38.9878       33.49018         0.1349      -183.4099       -62.1511      0.0104293       0.115425
      8880.5000          0.145        12.1611       105.4933        37.1785       31.75968         0.1259      -182.1418       -60.8843              0      0.1340544
      8881.0000         0.1506         12.161       105.9298         37.226       31.81181         0.1249      -181.3213       -60.0651              0      0.1461014
      8881.5000          0.155        12.1594       106.4069        39.3877       33.89347         0.1256      -181.8022       -60.5472     0.01901002      0.1390118
