#------------------------------------------------------------------------------
# Created by    : vladimir.rabinovich
# Created on    : 09/19/2023 17:19:27
#------------------------------------------------------------------------------
~Version Information Section
VERS.           2.0     :   CWLS log ASCII Standard - VERSION 2.0
WRAP.           NO      :   One line per depth step
~Well Information Section
#MNEM       .UNIT                                         VALUE :DESCRIPTION
#------------------------------------------------------------------------------
STRT        .FT                                          4322.5 :START DEPTH
STOP        .FT                                            9954 :STOP DEPTH
STEP        .FT                                             0.5 :STEP      
NULL        .                                           -999.25 :NULL      
COMP        .                                ATP OIL & GAS CORP :COMPANY   
WELL        .                               OCS G13829 ST00BP00 :WELL      
FLD         .                           WEST CAMERON BLOCK 0092 :FIELD     
LOC         .                                                   :LOCATION  
CNTY        .                                      WEST CAMERON :LOCATION  
STAT        .                                         LOUISIANA :STATE     
CTRY        .                                     UNITED STATES :COUNTRY   
SRVC        .                                                   :SERVICE COMPANY
DATE        .                             9/13/2023 11:19:21 AM :LOG DATE  
API         .                                    17700409910000 :API NUMBER
UWI         .                                    17700409910000 :UNIQUE WELL ID
XCOORD      .                                  1447604.75856055 :SURFACE X 
YCOORD      .                                  10719416.1500606 :SURFACE Y 
LAT         .                                        29.5354331 :LATITUDE  
LON         .                                       -93.6065144 :LONGITUDE 
ELEV        .FT                                              97 :ELEVATION VALUE
ELEV_TYPE   .                                                KB :ELEVATION REFERENCE TYPE
~Curve Information Section
#MNEM       .UNIT                                      API CODE :CURVE DESCRIPTION
#------------------------------------------------------------------------------
DEPT        .FT                                                 :DEPTH     
AFCO        .MMHO                                               :          
AT10        .OHMM                                               :          
AT20        .OHMM                                               :          
AT30        .OHMM                                               :          
AT60        .OHMM                                               :          
AT90        .OHMM                                               :          
CSAX        .MMHO                                               :          
DCAL        .IN                                                 :          
DPHZ        .%                                                  :          
GR          .GAPI                                               :          
GR_NORM     .GAPI                                               :GammaRay Normalized
GRAX        .GAPI                                               :          
HDRA        .G/C3                                               :          
NPOR        .%                                                  :          
ROPS        .FT/HR                                              :          
RSAX        .OHMM                                               :          
RWA         .OHMM                                               :          
SP          .MV                                                 :          
SP_NORM     .MV                                                 :SP Normalized
TENS        .LBF                                                :          
VSH_SP      .V/V                                                :Volume of Shale from SP
~A        DEPTH           AFCO           AT10           AT20           AT30           AT60           AT90           CSAX           DCAL           DPHZ             GR        GR_NORM           GRAX           HDRA           NPOR           ROPS           RSAX            RWA             SP        SP_NORM           TENS         VSH_SP
# ...
      7760.0000       1824.684          0.479         0.5146         0.5201         0.5501         0.5304       1362.396         0.6234          24.91       110.9799       90.70475       103.9209         0.0081        41.0699         44.299          0.734         0.0432        -21.375        -0.3644           2892              1
      7760.5000       1815.879         0.4864          0.514         0.5234         0.5465         0.5267       1291.988         0.6476          24.39       105.2693       85.54947        96.7579         0.0134        42.8599          39.35          0.774         0.0415          -21.5        -0.4812           2918              1
      7761.0000       1794.484         0.5119         0.5371         0.5444         0.5698         0.5489       1494.768         0.5749          24.07       105.0396       85.34324        94.6859         0.0171        39.8199          39.35          0.669         0.0408       -22.1875        -1.1604           2925              1
      7761.5000       1783.152         0.5353         0.5639         0.5614         0.5858         0.5638       1503.758         0.5506          23.44       107.1068       87.21107         91.428         0.0244        37.1299         16.537          0.665         0.0388         -22.75        -1.7147           2915              1
      7762.0000       1771.895         0.5493         0.5706         0.5642         0.5853         0.5637       1256.281         0.5021          23.44       103.4247        83.8875        90.5819         0.0249          39.74         16.537          0.796          0.039       -22.6875         -1.644           2950              1
      7762.5000       1759.986         0.5562         0.5722         0.5615         0.5795         0.5584       1215.066         0.4778          23.94       100.8654        81.5778        84.6539         0.0196          38.21         51.785          0.823         0.0411       -23.0625        -2.0107           2902       0.999885
      7763.0000       1751.848         0.5622          0.576         0.5638          0.576         0.5561       1273.885         0.4778          24.73        95.1228       76.39362        94.6019         0.0106          37.89         51.785          0.785         0.0444       -24.1875        -3.1275           2941      0.9878764
      7763.5000       1739.215         0.5724         0.5803         0.5648         0.5717         0.5528       1291.988         0.5385          24.93        94.2024       75.56373         93.917          0.005          37.99           35.7          0.774         0.0455       -25.1875        -4.1192           2953      0.9772129
      7764.0000       1722.871          0.604         0.5953         0.5765         0.5797          0.561        1353.18         0.7932          24.22        93.9425       75.33027        94.4109         0.0047          39.21         35.684          0.739         0.0432       -27.9375         -6.861           2937      0.9477312
      7764.5000       1704.146         0.6499         0.6239            0.6         0.5966         0.5778       1295.336         1.4117          22.35        98.1431        79.1246         86.012         0.0124        37.0099         29.773          0.772         0.0368        -29.375        -8.2903           2974      0.9323624
      7765.0000       1684.035          0.673         0.6409         0.6122         0.6056         0.5871        1353.18         1.4723          21.45       100.4445       81.20396        87.1559         0.0155          39.64         29.773          0.739         0.0341        -28.375         -7.282           2959      0.9432043
      7765.5000       1664.342         0.6784         0.6348           0.61          0.597         0.5799       1432.664         1.5451          20.86       106.8639        87.0017        87.0619         0.0201          42.22         30.525          0.698         0.0326       -26.5625        -5.4613           2922      0.9627817
      7766.0000       1645.537         0.6946          0.637         0.6099         0.5953         0.5788       1470.588         0.8417          21.83         100.42       81.18422         75.391          0.014        39.6899         30.526           0.68         0.0363       -25.5625         -4.453           2880      0.9736236
      7766.5000       1627.547         0.7282         0.6622         0.6263         0.5985         0.5825       1438.848         0.8659          22.69        94.3859       75.73685         69.709         0.0091           33.1         13.126          0.695           0.04        -26.125        -5.0073           2929      0.9676635
      7767.0000       1610.014          0.797         0.7033         0.6537         0.6162         0.5998       1438.848         1.0115          22.73        78.6113       61.49399        87.5619         0.0041          29.94         13.126          0.695         0.0406       -29.0625        -7.9366           2921      0.9361656
      7767.5000       1600.148         0.8565         0.7304         0.6707         0.6215         0.6055       1449.275         0.9387          21.79        78.1138       61.04599        96.1399         0.0052        33.7999          18.04           0.69         0.0373       -34.0625       -12.9283           2943      0.8824914
      7768.0000       1611.824         0.8306         0.7144         0.6528         0.5889         0.5748       1317.521         1.1812          21.82         77.884       60.83974        94.8309         0.0064          31.87         27.842          0.759         0.0372       -39.8125       -18.6701           2909      0.8207516
      7768.5000       1636.307          0.836         0.6913         0.6557         0.5704         0.5568         1683.5         1.2298          23.68        84.5453       66.85599         93.793         0.0061        30.0999         37.645          0.594         0.0437        -48.625       -27.4744           3001      0.7260817
      7769.0000       1664.822         0.8489         0.6906         0.6609         0.5695         0.5555       1083.422         1.0478        26.0599        90.5663       72.29409         94.783         0.0043          26.82         37.645          0.923         0.0527         -48.75       -27.5911           2959      0.7248269
      7769.5000       1687.182         0.7549         0.6472         0.6351          0.539         0.5262        1116.07         1.1085          24.37       102.2809       82.87328             95          0.026        27.5299         29.773          0.896         0.0451       -40.4375       -19.2704           2943      0.8142968
      7770.0000       1680.477         0.7005         0.5982         0.6008         0.5089         0.4973       1149.424         1.1085          20.18       107.3344       87.43777         95.292         0.0501           27.9         27.166           0.87         0.0301            -36       -14.8246           2929      0.8621011
      7770.5000       1649.865         0.7564         0.6297          0.642         0.5423          0.529       1186.238         1.2783          16.62        111.937       91.59509         95.584         0.0607          23.13         24.559          0.843         0.0202       -37.1875       -16.0039           2964      0.8494204
      7771.0000       1633.693         0.8343         0.6983         0.6978         0.5933         0.5774        1223.99         1.1085          16.55       108.5098       88.50161         95.876         0.0426        27.8199         24.559          0.817         0.0202          -40.5       -19.3082           2903      0.8138903
      7771.5000       1592.053         0.8747         0.7288         0.7241         0.6422         0.6234       1265.822         1.3025          18.42       108.7395       88.71025         96.168         0.0237          31.38         17.898           0.79         0.0261          -39.5       -18.2999           2928      0.8247322
      7772.0000       1550.533         0.8791         0.7594         0.7412         0.7088         0.6862       1310.615         1.3753          18.86       104.9913       85.32697          96.46         0.0279        32.5099         22.373          0.763         0.0282       -35.9375       -14.7292           2956      0.8631269
