#------------------------------------------------------------------------------
# Created by    : vladimir.rabinovich
# Created on    : 09/19/2023 17:20:13
#------------------------------------------------------------------------------
~Version Information Section
VERS.           2.0     :   CWLS log ASCII Standard - VERSION 2.0
WRAP.           NO      :   One line per depth step
~Well Information Section
#MNEM       .UNIT                                         VALUE :DESCRIPTION
#------------------------------------------------------------------------------
STRT        .FT                                             608 :START DEPTH
STOP        .FT                                            9135 :STOP DEPTH
STEP        .FT                                             0.5 :STEP      
NULL        .                                           -999.25 :NULL      
COMP        .                             PHILLIPS PETROLEUM CO :COMPANY   
WELL        .                                OCS 00757 ST00BP00 :WELL      
FLD         .                           WEST CAMERON BLOCK 0118 :FIELD     
LOC         .                                                   :LOCATION  
CNTY        .                                      WEST CAMERON :LOCATION  
STAT        .                                         LOUISIANA :STATE     
CTRY        .                                     UNITED STATES :COUNTRY   
SRVC        .                                                   :SERVICE COMPANY
DATE        .                             9/13/2023 11:18:18 AM :LOG DATE  
API         .                                    17700400630000 :API NUMBER
UWI         .                                    17700400630000 :UNIQUE WELL ID
XCOORD      .                                  1437747.16229911 :SURFACE X 
YCOORD      .                                  10702102.5427903 :SURFACE Y 
LAT         .                                         29.487661 :LATITUDE  
LON         .                                       -93.6372228 :LONGITUDE 
ELEV        .FT                                              84 :ELEVATION VALUE
ELEV_TYPE   .                                                KB :ELEVATION REFERENCE TYPE
~Curve Information Section
#MNEM       .UNIT                                      API CODE :CURVE DESCRIPTION
#------------------------------------------------------------------------------
DEPT        .FT                                                 :DEPTH     
ASFL        .OHMM                                               :          
ASN         .OHMM                                               :          
CALI        .IN                                                 :          
DRHO        .G/CC                                               :          
GR          .GAPI                                               :          
GR_NORM     .GAPI                                               :GammaRay Normalized
ILD         .OHMM                                               :          
RHOB        .G/CC                                               :          
SP          .MV                                                 :          
SP_NORM     .MV                                                 :SP Normalized
VSH_GR      .V/V                                                :Volume of Shale from GR
VSH_SP      .V/V                                                :Volume of Shale from SP
~A        DEPTH           ASFL            ASN           CALI           DRHO             GR        GR_NORM            ILD           RHOB             SP        SP_NORM         VSH_GR         VSH_SP
# ...
      6922.0000        -999.25         1.0288        11.5602        -0.0272       112.2452       50.21312         0.2376         2.1197      -146.3506       -67.3419      0.3662367      0.2127482
      6922.5000        -999.25         1.0006        11.9436        -0.0212       115.3849       51.91861         0.2585         2.1458      -134.2046       -55.2069      0.4025236       0.358953
      6923.0000        -999.25         0.9771        12.0318        -0.0171       123.2186       56.17508         0.2904         2.1575      -123.0109       -44.0242      0.4930869      0.4936843
      6923.5000        -999.25         0.9579        11.7462         -0.019       131.0647       60.43819         0.3453         2.1681      -114.1147        -35.139      0.5837912      0.6007349
      6924.0000        -999.25         0.9425        11.4106         -0.019       138.8984       64.69466         0.4008         2.1981      -106.8977       -27.9331      0.6743546       0.687553
      6924.5000        -999.25         0.9325        11.1392        -0.0112       146.4424       68.79365         0.4559         2.2402       -98.9344       -19.9808       0.761567      0.7833638
      6925.0000        -999.25         0.9292        10.9623        -0.0011       152.7588       72.22559         0.5063         2.2602       -94.1722       -15.2296      0.8345871      0.8406072
      6925.5000        -999.25         0.9268        10.8875         0.0095       155.7566        73.8539         0.5567         2.2819       -91.5457       -12.6141       0.869232      0.8721192
      6926.0000        -999.25         0.9248        10.9158          0.021       157.5979       74.85375          0.576         2.3115       -89.3535       -10.4329      0.8905054      0.8983988
      6926.5000        -999.25         0.9228        10.9349         0.0139       158.0049       75.07407         0.5919         2.3148       -87.8586        -8.9491       0.895193      0.9162759
      6927.0000        -999.25         0.9194        10.9338         0.0093        155.917       73.93857         0.6037         2.3075       -86.6177        -7.7192      0.8710334       0.931094
      6927.5000        -999.25         0.9138        10.9182          0.006       154.8911        73.3801         0.6032         2.3002       -85.5057        -6.6182      0.8591511      0.9443591
      6928.0000        -999.25          0.909        10.8977         0.0029       157.6997       74.90571         0.6028         2.2964          -84.7        -5.8235      0.8916108      0.9539337
      6928.5000        -999.25         0.9067        10.8816         0.0005       161.5271       76.98487         0.6015         2.2954       -84.2295        -5.3641      0.9358483      0.9594687
      6929.0000        -999.25         0.9052         10.867         0.0061       164.6143       78.66177         0.5998         2.2987       -84.3839        -5.5295      0.9715271      0.9574759
      6929.5000        -999.25         0.9093        10.8529         0.0163       165.3323        79.0511          0.598         2.3019        -84.811        -5.9676      0.9798107      0.9521976
      6930.0000        -999.25         0.9134        10.8542         0.0208       164.5803       78.64166         0.5949         2.2987       -86.1305        -7.2981      0.9710992      0.9361675
      6930.5000        -999.25         0.9206        10.8555         0.0116       161.0459       76.71999         0.5914         2.2865        -88.001        -9.1796      0.9302126      0.9134988
      6931.0000        -999.25         0.9346        10.8574         0.0073       157.5115       74.79832         0.5892         2.2769       -91.0375       -12.2272       0.889326      0.8767807
      6931.5000        -999.25         0.9491        10.8653         0.0095       155.8784       73.90998         0.5918         2.2774       -92.4202       -13.6209      0.8704251      0.8599892
      6932.0000        -999.25         0.9662        10.8732         0.0106       154.2639       73.03176         0.5944         2.2754       -92.2382       -13.4499      0.8517396      0.8620494
      6932.5000        -999.25         0.9832        10.8926         0.0113       154.3779       73.09283         0.5813         2.2739       -91.9194       -13.1421       0.853039      0.8657578
      6933.0000        -999.25         0.9928         10.917         0.0121       155.6194       73.76673         0.5585          2.289       -92.7092       -13.9429      0.8673773      0.8561096
      6933.5000        -999.25         1.0019        10.9615         0.0093       155.4575       73.67782         0.5337         2.3001       -96.0575       -17.3023      0.8654855       0.815635
      6934.0000        -999.25         1.0073        11.0149         0.0064       151.7534       71.66398          0.505         2.3092      -100.9277       -22.1835      0.8226379      0.7568253
      6934.5000        -999.25         1.0103        11.0216         0.0005       144.3574       67.64369         0.4763         2.3083      -106.9714       -28.2382      0.7370998      0.6838771
      6935.0000        -999.25         1.0124        11.0298        -0.0049       142.1509       66.44373          0.449         2.2752      -110.1626       -31.4404      0.7115687      0.6452964
      6935.5000        -999.25         1.0127        11.0389        -0.0097       140.4067       65.49497         0.4218         2.2413      -116.7855       -38.0744      0.6913824      0.5653687
      6936.0000        -999.25         1.0129        11.0825        -0.0144       136.6716       63.46428            0.4         2.2152      -125.1219       -46.4218      0.6481761      0.4647976
      6936.5000        -999.25         1.0107        11.1509        -0.0184       131.3423        60.5672         0.3892          2.198      -128.9426       -50.2535      0.5865362      0.4186325
      6937.0000        -999.25         1.0062        11.1871        -0.0224       125.4331       57.35493         0.3795         2.1669      -123.3447       -44.6666        0.51819      0.4859446
      6937.5000        -999.25         0.9959        11.1962        -0.0253       121.4854       55.20871         0.3974         2.1233      -107.1825       -28.5154      0.4725257      0.6805373
      6938.0000        -999.25         0.9819        11.2221        -0.0176       122.2688       55.63358         0.4152         2.1013       -95.0265       -16.3705      0.4815655      0.8268614
      6938.5000        -999.25         0.9685        11.3946        -0.0004       132.2983       61.08339         0.4476         2.1369       -87.3333        -8.6883      0.5975189      0.9194181
      6939.0000        -999.25         0.9614        11.5194         0.0133       141.5571       66.11429         0.4873         2.1798       -82.7576        -4.1236      0.7045593      0.9744145
      6939.5000        -999.25         0.9606        11.2673         0.0237        147.522       69.35515         0.5273         2.2265       -80.7888        -2.1658      0.7735138      0.9980024
      6940.0000        -999.25         0.9766         11.079         0.0299       152.2776       71.93875         0.5829         2.2902       -80.3605        -1.7486      0.8284841              1
      6940.5000        -999.25         0.9988        10.9852         0.0326       155.3125       73.58728         0.6385           2.32       -82.9982        -4.3973      0.8635591      0.9711168
      6941.0000        -999.25         1.0225         10.942         0.0315       155.2322       73.54272          0.687         2.3378       -86.9994        -8.4095       0.862611      0.9227771
      6941.5000        -999.25         1.0414        10.9433         0.0275       149.0515       70.18295          0.728         2.3378       -90.8289         -12.25      0.7911265       0.876506
      6942.0000        -999.25         1.0581        10.9446         0.0236       140.7922       65.69354         0.7661         2.3226       -94.4423       -15.8744      0.6956073      0.8328385
