#------------------------------------------------------------------------------
# Created by    : vladimir.rabinovich
# Created on    : 09/19/2023 17:20:42
#------------------------------------------------------------------------------
~Version Information Section
VERS.           2.0     :   CWLS log ASCII Standard - VERSION 2.0
WRAP.           NO      :   One line per depth step
~Well Information Section
#MNEM       .UNIT                                         VALUE :DESCRIPTION
#------------------------------------------------------------------------------
STRT        .FT                                             202 :START DEPTH
STOP        .FT                                            9625 :STOP DEPTH
STEP        .FT                                             0.5 :STEP      
NULL        .                                           -999.25 :NULL      
COMP        .                           GENERAL AMERICAN OIL CO :COMPANY   
WELL        .                               OCS G01862 ST00BP00 :WELL      
FLD         .                           WEST CAMERON BLOCK 0045 :FIELD     
LOC         .                                                   :LOCATION  
CNTY        .                                      WEST CAMERON :LOCATION  
STAT        .                                         LOUISIANA :STATE     
CTRY        .                                     UNITED STATES :COUNTRY   
SRVC        .                                                   :SERVICE COMPANY
DATE        .                             9/13/2023 11:18:18 AM :LOG DATE  
API         .                                    17700004050000 :API NUMBER
UWI         .                                    17700004050000 :UNIQUE WELL ID
XCOORD      .                                  1441793.49938464 :SURFACE X 
YCOORD      .                                  10754125.7201806 :SURFACE Y 
LAT         .                                        29.6308281 :LATITUDE  
LON         .                                       -93.6253819 :LONGITUDE 
ELEV        .FT                                              70 :ELEVATION VALUE
ELEV_TYPE   .                                                KB :ELEVATION REFERENCE TYPE
~Curve Information Section
#MNEM       .UNIT                                      API CODE :CURVE DESCRIPTION
#------------------------------------------------------------------------------
DEPT        .FT                                                 :DEPTH     
ASN         .OHMM                                               :          
CALI        .IN                                                 :          
CALI_1      .IN                                                 :          
DRHO        .G/C3                                               :          
DT          .US/F                                               :          
GR          .GAPI                                               :          
GR_NORM     .GAPI                                               :GammaRay Normalized
ILD         .OHMM                                               :          
RHOB        .G/C3                                               :          
SP          .MV                                                 :          
SP_NORM     .MV                                                 :SP Normalized
VSH_GR      .V/V                                                :Volume of Shale from GR
VSH_SP      .V/V                                                :Volume of Shale from SP
~A        DEPTH            ASN           CALI         CALI_1           DRHO             DT             GR        GR_NORM            ILD           RHOB             SP        SP_NORM         VSH_GR         VSH_SP
# ...
      2577.0000         0.6246        15.0792         7.4518         0.0942       151.6389         38.075       38.18588         0.3539         2.0796      -130.1658       -67.3102      0.1103378     0.03898256
      2577.5000          0.617         15.147         7.4218         0.0915       150.9377        37.5328       37.48378         0.3495           2.08      -130.2527       -67.3952     0.09539966     0.03775069
      2578.0000         0.6007        15.1703         7.4205         0.0856       149.9644        36.9625       36.74536         0.3457         2.0904      -130.2437       -67.3844     0.07968854     0.03790725
      2578.5000         0.5902        15.1599         7.4255         0.0812       149.9675        37.1193       36.94678         0.3431         2.0763      -129.9419       -67.0807     0.08397399     0.04230864
      2579.0000         0.5863        14.9694         7.4283           0.08       150.7285        37.9769       38.05428         0.3484          2.063      -129.4519       -66.5888      0.1075379      0.0494377
      2579.5000         0.5759         14.775         7.3954         0.1007       150.3269        38.8351       39.16256         0.3562         2.0735      -129.2473       -66.3824      0.1311182     0.05242898
      2580.0000         0.5582         15.075         7.3708          0.129       151.2844        39.3824       39.86892         0.3484         2.0766      -128.9619       -66.0951      0.1461472     0.05659275
      2580.5000         0.5351        15.4645          7.365         0.1443       153.0352        39.0007       39.37431         0.3406         2.0598      -129.3418       -66.4731      0.1356235     0.05111451
      2581.0000         0.5263        15.5268         7.3916          0.128       154.1187        39.2905       39.74779         0.3468          2.041      -128.8071       -65.9365        0.14357      0.0588913
      2581.5000         0.5219        15.3736         7.4336         0.1195       154.2292        40.3929       41.17176         0.3618         2.0466       -128.384       -65.5116      0.1738672     0.06504932
      2582.0000         0.5173         15.337         7.4839         0.1567       152.8782         39.884       40.51271         0.3769         2.0875      -127.9966       -65.1223      0.1598448     0.07069132
      2582.5000         0.5122        15.4332         7.5376         0.1982       151.1621         39.312       39.77209          0.384          2.107      -127.6685       -64.7923      0.1440871     0.07547395
      2583.0000         0.5036        15.6014         7.5534         0.1943       151.3589        39.8625       40.48259         0.3838         2.0752      -127.5806       -64.7026       0.159204     0.07677393
      2583.5000         0.4942        15.6333          7.555         0.1772       152.9897        40.4501       41.24104         0.3817         2.0346      -127.5724       -64.6925      0.1753413     0.07692033
      2584.0000         0.4841        15.5999         7.5511         0.1655       153.2268        40.9652       41.90578         0.3729         2.0221      -127.8534       -64.9716      0.1894848     0.07287531
      2584.5000          0.479        15.3309         7.5448         0.1692       152.6069        41.1241       42.11004         0.3642         2.0285      -128.2573       -65.3736      0.1938307     0.06704933
      2585.0000         0.4756        15.1568         7.5205         0.1737       152.6594        41.2608       42.28546         0.3608         2.0383      -128.8804       -65.9949       0.197563     0.05804488
      2585.5000         0.4746        15.1507         7.5064         0.1785       153.1042        41.2522       42.27319         0.3579         2.0481      -129.3484        -66.461      0.1973018     0.05128988
      2586.0000         0.4699        15.3114         7.5187         0.1928       154.7373        41.4011       42.46452         0.3547         2.0431      -129.4543        -66.565      0.2013727     0.04978257
      2586.5000         0.4569        15.4492         7.5341         0.1852       158.5266        38.5684       38.80136          0.346         2.0034      -128.8071        -65.916      0.1234332      0.0591884
      2587.0000         0.4399        15.5384         7.5536         0.1711       160.0793        36.2629       35.81975         0.3374         1.9974      -126.2192       -63.3262     0.05999472     0.09672176
      2587.5000          0.452        15.5369         7.5762         0.1479       158.3245        36.4718       36.08864         0.3287         2.0185      -122.2366       -59.3417     0.06571579      0.1544681
      2588.0000         0.4653        15.3328         7.5589         0.0785       162.4473        39.1678       39.57275         0.3294         2.0532      -119.3384       -56.4416      0.1398457      0.1964985
      2588.5000         0.4771        15.2599         7.5367         0.0623       162.8645         41.133       42.11211         0.3323         2.0796      -118.2865       -55.3879      0.1938746      0.2117696
      2589.0000         0.4851         15.008         7.5105         0.0531       163.5066        42.0703       43.32265         0.3357         2.0993      -120.2388       -57.3383      0.2196308      0.1835029
      2589.5000           0.49         14.621         7.5093         0.0449        164.614        41.7896        42.9586         0.3402          2.125      -125.8416       -62.9392      0.2118852      0.1023304
      2590.0000         0.4917        14.3086         7.5182         0.0615       161.6357        39.3729       39.83324         0.3447         2.1414      -126.9989       -64.0947      0.1453882     0.08558401
      2590.5000         0.4911        14.3337         7.5424         0.0751       163.3076        37.9767       38.02713         0.3492         2.1133      -127.9493       -65.0432      0.1069602     0.07183772
      2591.0000          0.491        14.5948         7.5634         0.0865       160.8533        38.2086       38.32575         0.3442         2.1218      -128.8782       -65.9702      0.1133139      0.0584029
      2591.5000         0.4905         14.934         7.5679         0.0984       158.1233        38.7924       39.07917         0.3387         2.1249      -129.5151       -66.6052      0.1293441     0.04919998
      2592.0000         0.4901          14.94         7.5569         0.1086       151.4756        39.4091       39.87525         0.3332         2.1369      -129.9575       -67.0458       0.146282      0.0428145
      2592.5000         0.4901        14.8894         7.5403         0.0996       148.5562        40.2477       40.95819         0.3295         2.1522      -129.8291       -66.9155      0.1693232     0.04470294
      2593.0000         0.4898          14.99         7.5139         0.0894       149.3469        40.9095       41.81257         0.3259         2.1249      -129.7297       -66.8142      0.1875015     0.04617099
      2593.5000         0.4855        15.1743         7.4917         0.0793       153.0706        41.3584       42.39173         0.3222         2.0984       -129.675       -66.7576      0.1998241     0.04699132
      2594.0000         0.4746        15.3352         7.5143         0.0697       150.5471        41.7079       42.84238         0.3177          2.098      -129.4915       -66.5723      0.2094124     0.04967676
      2594.5000         0.4639        15.3575         7.6113         0.0809       151.0139        42.1432       43.40395         0.3127         2.1057      -129.0205       -66.0994      0.2213607     0.05653039
      2595.0000         0.4591         15.323         7.6328         0.0899       151.9304        42.5987       43.99164         0.3076         2.1061      -128.0898       -65.1668      0.2338647     0.07004636
      2595.5000         0.4603        15.3623         7.6322         0.0777       154.6226        41.4559       42.51312         0.3043         2.0929      -127.3369        -64.412      0.2024068     0.08098547
