#------------------------------------------------------------------------------
# Created by    : vladimir.rabinovich
# Created on    : 09/19/2023 17:20:59
#------------------------------------------------------------------------------
~Version Information Section
VERS.           2.0     :   CWLS log ASCII Standard - VERSION 2.0
WRAP.           NO      :   One line per depth step
~Well Information Section
#MNEM       .UNIT                                         VALUE :DESCRIPTION
#------------------------------------------------------------------------------
STRT        .FT                                            4010 :START DEPTH
STOP        .FT                                           10351 :STOP DEPTH
STEP        .FT                                             0.5 :STEP      
NULL        .                                           -999.25 :NULL      
COMP        .                         TALOS ENERGY VENTURES LLC :COMPANY   
WELL        .                               OCS G13557 ST00BP00 :WELL      
FLD         .                           WEST CAMERON BLOCK 0118 :FIELD     
LOC         .                                                   :LOCATION  
CNTY        .                                      WEST CAMERON :LOCATION  
STAT        .                                         LOUISIANA :STATE     
CTRY        .                                     UNITED STATES :COUNTRY   
SRVC        .                                                   :SERVICE COMPANY
DATE        .                             9/13/2023 11:19:21 AM :LOG DATE  
API         .                                    17700409470000 :API NUMBER
UWI         .                                    17700409470000 :UNIQUE WELL ID
XCOORD      .                                  1434760.35260149 :SURFACE X 
YCOORD      .                                  10716448.9068769 :SURFACE Y 
LAT         .                                        29.5270802 :LATITUDE  
LON         .                                       -93.6468641 :LONGITUDE 
ELEV        .FT                                             100 :ELEVATION VALUE
ELEV_TYPE   .                                                KB :ELEVATION REFERENCE TYPE
~Curve Information Section
#MNEM       .UNIT                                      API CODE :CURVE DESCRIPTION
#------------------------------------------------------------------------------
DEPT        .FT                                                 :DEPTH     
AT10        .OHMM                                               :          
AT20        .OHMM                                               :          
AT30        .OHMM                                               :          
AT60        .OHMM                                               :          
AT90        .OHMM                                               :          
CALI        .IN                                                 :          
DPHI        .%                                                  :          
DRHO        .G/C3                                               :          
DTLF        .US/F                                               :          
DTLN        .US/F                                               :          
GR          .GAPI                                               :          
GR_NORM     .GAPI                                               :GammaRay Normalized
NPOR        .%                                                  :          
RHOB        .G/C3                                               :          
SP          .MV                                                 :          
SP_NORM     .MV                                                 :SP Normalized
TENS        .LBF                                                :          
VSH_GR      .V/V                                                :Volume of Shale from GR
VSH_SP      .V/V                                                :Volume of Shale from SP
~A        DEPTH           AT10           AT20           AT30           AT60           AT90           CALI           DPHI           DRHO           DTLF           DTLN             GR        GR_NORM           NPOR           RHOB             SP        SP_NORM           TENS         VSH_GR         VSH_SP
      4010.0000         1.6615         0.6923         0.6792         0.5152         0.3792        13.4125        35.7643        -0.0028       217.8999          106.6        41.3288        66.5329        39.6111         2.0599        -999.25        -999.25           1635      0.7134659        -999.25
      4010.5000         0.8215         0.8497         0.5335         0.3445         0.3593        13.6418        33.1255         0.0186       217.8999       104.3999        42.3629        66.7766         37.895         2.1034        -999.25        -999.25           1640      0.7186511        -999.25
      4011.0000         0.3509         0.4588         0.2417         0.1299         0.1152        13.6671         31.726         0.0043       209.8999       160.8999        44.1942        67.8176        38.4941         2.1265        -999.25        -999.25           1640      0.7407999        -999.25
      4011.5000         0.2172           0.31         0.1306         0.1256          0.109        13.7719         32.173        -0.0098            170       164.5999        45.7092        68.5422           39.5         2.1191        -999.25        -999.25           1640       0.756217        -999.25
      4012.0000         0.2399         0.2883         0.1497         0.2723         0.1799        13.7633        32.5052        -0.0233       169.7998       164.0999        46.7043        68.7469        41.1558         2.1137        -999.25        -999.25           1640      0.7605724        -999.25
      4012.5000         0.3248         0.2887         0.2274         0.7123         0.3771        13.6938        32.2798        -0.0276       171.0999       163.7998        50.3531        71.6054        43.2375         2.1174        -999.25        -999.25           1630      0.8213915        -999.25
      4013.0000         0.4635         0.3046         0.3475         1.4368         0.4697        13.3633        32.3458        -0.0307          123.7       137.7998        58.5651         79.027        44.6725         2.1163        -999.25        -999.25           1630      0.9792979        -999.25
      4013.5000         0.6308         0.3297         0.4557         0.8553         0.3937        13.0848        32.7144        -0.0325          136.2       140.3999        61.7068        81.3784        44.5176         2.1102        -999.25        -999.25           1630              1        -999.25
      4014.0000         0.7849          0.366         0.5332         0.6898         0.3849        13.1558         32.514        -0.0316       139.5999       140.7998        63.2581        82.1393        44.4554         2.1135        -999.25        -999.25           1630              1        -999.25
      4014.5000         0.8605          0.408         0.5725         0.6259         0.3972        13.2368        32.0591        -0.0301            138       139.5999        59.7595        77.8504        43.4449          2.121        -999.25        -999.25           1680      0.9542639        -999.25
      4015.0000         0.8424         0.4552         0.5714         0.5513         0.4097        13.1306        32.5399        -0.0285       135.8999       135.7998        59.7595          77.06        42.3624         2.1131        -999.25        -999.25           1680      0.9374468        -999.25
      4015.5000         0.7863          0.503         0.5484         0.4946         0.4235        12.6453        32.7667        -0.0229       134.2998          131.7        57.6553        74.1654        41.7816         2.1093        -999.25        -999.25           1680      0.8758595        -999.25
      4016.0000         0.7097         0.5153         0.5124         0.4524          0.425        12.5381        32.8452         -0.019            130          132.2        52.4308        68.1506        42.0932         2.1081        -999.25        -999.25           1680       0.747885        -999.25
      4016.5000         0.6331         0.4937         0.4772         0.4296         0.4176          12.29        32.8088        -0.0137       129.2998       129.0999        45.9351        60.8645        41.7056         2.1086        -999.25        -999.25           1680      0.5928617        -999.25
      4017.0000         0.6068         0.4888         0.4636         0.4331         0.4194        11.0235         32.545        -0.0091       124.7999          127.2         46.488        60.6271         42.551          2.113        -999.25        -999.25           1695      0.5878107        -999.25
      4017.5000         0.6492         0.5238         0.4815         0.4537         0.4346        11.8596        32.3475        -0.0064          122.1            124        52.2065        65.5552        43.7258         2.1163        -999.25        -999.25           1695      0.6926638        -999.25
      4018.0000          0.739         0.5873         0.5234         0.4764         0.4538        12.7912        35.4955        -0.0048          123.6       122.7999        55.5282        68.0866        43.6044         2.0643        -999.25        -999.25           1695      0.7465234        -999.25
      4018.5000         0.8186         0.6459         0.5653          0.494         0.4725        11.9632        41.3412        -0.0082       132.8999          134.2        53.4598        65.2278        44.7751         1.9679        -999.25        -999.25           1695      0.6856979        -999.25
      4019.0000         0.8293         0.6564         0.5834         0.5026         0.4845        11.8005        44.3658        -0.0149            146       146.3999        53.4598        64.4374        47.3298          1.918        -999.25        -999.25           1725      0.6688809        -999.25
      4019.5000         0.7888         0.6411         0.5803         0.5041         0.4928        12.3457        45.1216        -0.0155       150.0999          153.2        53.7104        63.8977        48.0869         1.9055        -999.25        -999.25           1725      0.6573979        -999.25
      4020.0000         0.7675         0.6398         0.5771         0.5101          0.503        11.2976        45.6652        -0.0195          152.7       153.8999        57.3302        66.7271        47.5979         1.8965        -999.25        -999.25           1725      0.7175978        -999.25
      4020.5000          0.776         0.6264         0.5774          0.521         0.5139         11.733        42.3996        -0.0189       148.7998       148.0999        60.4482        69.0548        47.1978         1.9504        -999.25        -999.25           1725      0.7671235        -999.25
      4021.0000           0.77         0.6071         0.5691          0.528          0.525        14.2418        36.2798        -0.0129       138.3999            144        64.1471        71.9633        44.5669         2.0514        -999.25        -999.25           1605      0.8290064        -999.25
      4021.5000         0.7567         0.6034         0.5554         0.5205         0.5114        16.8709        33.3021        -0.0143          136.7            139        69.2668        76.2926        40.7527         2.1005        -999.25        -999.25           1605      0.9211192        -999.25
      4022.0000         0.7783         0.6072         0.5524         0.5148         0.5096        18.7251        32.4997        -0.0179       137.2998            140        68.4283        74.6638        38.7689         2.1137        -999.25        -999.25           1605      0.8864639        -999.25
      4022.5000         0.8327         0.6178         0.5602         0.5105         0.5032          18.32        31.6388        -0.0213       135.5999       137.0999        71.2511        76.6962        37.7247          2.128        -999.25        -999.25           1605      0.9297063        -999.25
      4023.0000         0.8835         0.6292         0.5691          0.511         0.5053        10.5082        31.0488        -0.0195       133.3999       135.5999        73.1122         77.767        37.6512         2.1377        -999.25        -999.25           1605      0.9524893        -999.25
