#------------------------------------------------------------------------------
# Created by    : vladimir.rabinovich
# Created on    : 09/19/2023 17:22:20
#------------------------------------------------------------------------------
~Version Information Section
VERS.           2.0     :   CWLS log ASCII Standard - VERSION 2.0
WRAP.           NO      :   One line per depth step
~Well Information Section
#MNEM       .UNIT                                         VALUE :DESCRIPTION
#------------------------------------------------------------------------------
STRT        .FT                                            3394 :START DEPTH
STOP        .FT                                            9102 :STOP DEPTH
STEP        .FT                                             0.5 :STEP      
NULL        .                                           -999.25 :NULL      
COMP        .                               TALOS PETROLEUM LLC :COMPANY   
WELL        .                                OCS 00299 ST00BP02 :WELL      
FLD         .                           WEST CAMERON BLOCK 0045 :FIELD     
LOC         .                                                   :LOCATION  
CNTY        .                                      WEST CAMERON :LOCATION  
STAT        .                                         LOUISIANA :STATE     
CTRY        .                                     UNITED STATES :COUNTRY   
SRVC        .                                                   :SERVICE COMPANY
DATE        .                             9/13/2023 11:19:21 AM :LOG DATE  
API         .                                    17700408910000 :API NUMBER
UWI         .                                    17700408910000 :UNIQUE WELL ID
XCOORD      .                                  1447531.51187247 :SURFACE X 
YCOORD      .                                  10768708.3799417 :SURFACE Y 
LAT         .                                         29.671026 :LATITUDE  
LON         .                                        -93.607557 :LONGITUDE 
ELEV        .FT                                              95 :ELEVATION VALUE
ELEV_TYPE   .                                                KB :ELEVATION REFERENCE TYPE
~Curve Information Section
#MNEM       .UNIT                                      API CODE :CURVE DESCRIPTION
#------------------------------------------------------------------------------
DEPT        .FT                                                 :DEPTH     
CALI        .IN                                                 :          
DPHI        .V/V                                                :          
DRHO        .G/C3                                               :          
GR          .GAPI                                               :          
GR_NORM     .GAPI                                               :GammaRay Normalized
IDPH        .OHMM                                               :          
IMPH        .OHMM                                               :          
NPOR        .V/V                                                :          
SFLU        .OHMM                                               :          
SP          .MV                                                 :          
SP_NORM     .MV                                                 :SP Normalized
TENS        .LBS                                                :          
VSH_GR      .V/V                                                :Volume of Shale from GR
VSH_SP      .V/V                                                :Volume of Shale from SP
~A        DEPTH           CALI           DPHI           DRHO             GR        GR_NORM           IDPH           IMPH           NPOR           SFLU             SP        SP_NORM           TENS         VSH_GR         VSH_SP
# ...
      6472.0000          13.12         0.2364         -0.028        46.7347       52.02413         0.4113         0.5629         0.2988         1.0968          -59.1       -53.3857           3920      0.4047687      0.3808952
      6472.5000          13.16         0.2484         -0.031        44.6939       49.06068         0.3963         0.5186         0.3084         0.9905          -61.8       -56.0857           3900      0.3417167       0.348365
      6473.0000          13.12         0.2748         -0.032           39.6       41.67163         0.3679         0.4556         0.3108         0.6735          -66.6       -60.8857           3880      0.1845027      0.2905337
      6473.5000          13.12         0.2952         -0.033           34.6       34.41867          0.348         0.4075         0.3096         0.4773          -71.1       -65.3857           3880     0.03018448      0.2363169
      6474.0000          13.12         0.3072         -0.033           32.8       31.80428         0.3322         0.3545         0.3072         0.3056       -75.3061       -69.5918           3900              0       0.185641
      6474.5000          13.12         0.2976         -0.031           32.8       31.79908         0.3172         0.3322         0.3204         0.2711       -76.8367       -71.1224           3920              0         0.1672
      6475.0000          13.16         0.2736         -0.026           33.6       32.95352         0.3028         0.3261         0.3096          0.348       -76.5306       -70.8163           3900              0       0.170888
      6475.5000           13.2          0.228         -0.018           34.2       33.81804         0.2918         0.3261         0.2388         0.4862       -78.0612       -72.3469           3920     0.01740508       0.152447
      6476.0000           13.2         0.1616          -0.01           34.6       34.39266         0.2865         0.3261         0.1629          0.772       -81.1225       -75.4082           3940     0.02963103      0.1155638
      6476.5000          13.16         0.1567         -0.005           34.8       34.67736         0.2865         0.3231         0.1763         0.7517       -83.5714       -77.8571           3980      0.0356886     0.08605902
      6477.0000          13.08         0.2196         -0.016           35.2       35.25199         0.2972         0.3201          0.228         0.4729        -85.102       -79.3877           3980     0.04791463     0.06761803
      6477.5000          13.04         0.2328         -0.019           36.2       36.69633         0.2839         0.3172         0.2076         0.3748       -85.4082       -79.6939           3980     0.07864542      0.0639289
      6478.0000          13.04          0.234          -0.02           37.8        39.0104         0.2686         0.3172         0.1531          0.439       -83.8775       -78.1632           3920      0.1278809     0.08237108
      6478.5000          13.12         0.2472         -0.022           36.6       37.26574         0.2565         0.3056         0.1518         0.3714       -83.5714       -77.8571           3900     0.09076049     0.08605902
      6479.0000          13.28         0.2664         -0.027           34.4       34.07153         0.2518         0.2891         0.1932         0.2518       -83.8775       -78.1632           3880      0.0227985     0.08237108
      6479.5000          13.28         0.2832         -0.029           33.4       32.61678         0.2427         0.2711         0.2328         0.2296       -84.7959       -79.0816           3880              0     0.07130606
      6480.0000          13.24         0.3012         -0.028           33.4       32.61158         0.2383         0.2541         0.2748         0.2565       -86.3265       -80.6122           3900              0     0.05286508
      6480.5000           13.2         0.3036         -0.027             34        33.4761         0.2339         0.2449          0.288         0.3448       -87.8571       -82.1428           3900     0.01012989      0.0344241
      6481.0000           13.2          0.294         -0.029           34.8       34.63054         0.2318         0.2449         0.2712         0.4599       -89.0816       -83.3673           3880     0.03469224     0.01967106
      6481.5000           13.2         0.2904         -0.032           35.4       35.49507         0.2275         0.2449         0.2472            0.5            -90       -84.2857           3900     0.05308663    0.008606049
      6482.0000           13.2         0.2904         -0.034           34.8       34.62012         0.2275         0.2427         0.2484         0.4037          -90.6       -84.8857           3940     0.03447074    0.001377152
      6482.5000          13.12         0.2952         -0.034             33       32.00574         0.2255         0.2405         0.2724         0.3142          -90.6       -84.8857           3960              0    0.001377152
      6483.0000          12.92         0.3048         -0.034             31       29.10144         0.2255         0.2383         0.2856         0.2427       -89.0816       -83.3673           3940              0     0.01967106
      6483.5000          12.84          0.312         -0.032             29       26.19714         0.2255         0.2339         0.2892         0.2094       -87.2449       -81.5306           3920              0     0.04179998
      6484.0000          12.88         0.3048          -0.03           27.8       24.45248         0.2275         0.2318         0.2868         0.2255        -85.102       -79.3877           3880              0     0.06761803
      6484.5000             13         0.3036         -0.025             28       24.73718         0.2318         0.2296         0.2796         0.2296       -81.7347       -76.0204           3880              0      0.1081879
      6485.0000          13.08         0.3024          -0.02           29.8       27.34117         0.2495         0.2405         0.2772         0.2234       -78.6735       -72.9592           3880              0      0.1450699
      6485.5000           13.2         0.3012         -0.011             32       30.52497         0.2661         0.2541         0.2976         0.2213          -72.9       -67.1857           3900              0      0.2146301
      6486.0000          13.28            0.3          0.002           39.4       41.24643         0.3028         0.2736         0.3396         0.2427          -65.4       -59.6857           3920       0.175456      0.3049916
      6486.5000           13.6         0.2844          0.017           50.4       57.18627          0.348         0.3172         0.4164         0.2945          -54.3       -48.5857           3940      0.5146015      0.4387265
      6487.0000          13.88         0.2664          0.033           57.2       67.03801         0.4349          0.389         0.4512          0.389          -41.7       -35.9857           3940      0.7242129      0.5905337
      6487.5000          14.16         0.2532          0.041           62.6       74.86035         0.5281         0.4729         0.4584         0.5092          -28.2       -22.4857           3920      0.8906458      0.7531843
      6488.0000          14.36         0.2508          0.027           64.8       78.04418         0.5733         0.5428         0.4212         0.5578          -20.1       -14.3857           3920      0.9583868      0.8507747
      6488.5000          14.44         0.2568          0.013           64.8       78.03897         0.6236            0.6         0.3984         0.6058       -13.7755        -8.0612           3920       0.958276      0.9269735
      6489.0000          14.44         0.2724          0.003           64.6       77.74384         0.6735         0.6296         0.4056         0.6543        -12.551        -6.8367           3920      0.9519967      0.9417265
      6489.5000          14.44          0.282         -0.001           64.2       77.15882         0.7063         0.6607         0.4176         0.6801       -11.6327        -5.9184           3920      0.9395494      0.9527904
