#------------------------------------------------------------------------------
# Created by    : vladimir.rabinovich
# Created on    : 09/19/2023 17:20:59
#------------------------------------------------------------------------------
~Version Information Section
VERS.           2.0     :   CWLS log ASCII Standard - VERSION 2.0
WRAP.           NO      :   One line per depth step
~Well Information Section
#MNEM       .UNIT                                         VALUE :DESCRIPTION
#------------------------------------------------------------------------------
STRT        .FT                                            4010 :START DEPTH
STOP        .FT                                           10351 :STOP DEPTH
STEP        .FT                                             0.5 :STEP      
NULL        .                                           -999.25 :NULL      
COMP        .                         TALOS ENERGY VENTURES LLC :COMPANY   
WELL        .                               OCS G13557 ST00BP00 :WELL      
FLD         .                           WEST CAMERON BLOCK 0118 :FIELD     
LOC         .                                                   :LOCATION  
CNTY        .                                      WEST CAMERON :LOCATION  
STAT        .                                         LOUISIANA :STATE     
CTRY        .                                     UNITED STATES :COUNTRY   
SRVC        .                                                   :SERVICE COMPANY
DATE        .                             9/13/2023 11:19:21 AM :LOG DATE  
API         .                                    17700409470000 :API NUMBER
UWI         .                                    17700409470000 :UNIQUE WELL ID
XCOORD      .                                  1434760.35260149 :SURFACE X 
YCOORD      .                                  10716448.9068769 :SURFACE Y 
LAT         .                                        29.5270802 :LATITUDE  
LON         .                                       -93.6468641 :LONGITUDE 
ELEV        .FT                                             100 :ELEVATION VALUE
ELEV_TYPE   .                                                KB :ELEVATION REFERENCE TYPE
~Curve Information Section
#MNEM       .UNIT                                      API CODE :CURVE DESCRIPTION
#------------------------------------------------------------------------------
DEPT        .FT                                                 :DEPTH     
AT10        .OHMM                                               :          
AT20        .OHMM                                               :          
AT30        .OHMM                                               :          
AT60        .OHMM                                               :          
AT90        .OHMM                                               :          
CALI        .IN                                                 :          
DPHI        .%                                                  :          
DRHO        .G/C3                                               :          
DTLF        .US/F                                               :          
DTLN        .US/F                                               :          
GR          .GAPI                                               :          
GR_NORM     .GAPI                                               :GammaRay Normalized
NPOR        .%                                                  :          
RHOB        .G/C3                                               :          
SP          .MV                                                 :          
SP_NORM     .MV                                                 :SP Normalized
TENS        .LBF                                                :          
VSH_GR      .V/V                                                :Volume of Shale from GR
VSH_SP      .V/V                                                :Volume of Shale from SP
~A        DEPTH           AT10           AT20           AT30           AT60           AT90           CALI           DPHI           DRHO           DTLF           DTLN             GR        GR_NORM           NPOR           RHOB             SP        SP_NORM           TENS         VSH_GR         VSH_SP
# ...
      5279.0000         0.3698         0.2456         0.2319         0.2321         0.2354         9.6828        33.2939        -0.0245          114.1          115.6         53.451        45.7584         34.783         2.1007        -999.25        -999.25           1995      0.2714553        -999.25
      5279.5000          0.367         0.2474         0.2349         0.2363         0.2395         9.6986         33.259        -0.0244       115.2999          116.6        54.7046        47.0085        35.8633         2.1012        -999.25        -999.25           1995      0.2980532        -999.25
      5280.0000         0.3697         0.2526          0.242          0.243         0.2459         9.6986        32.6976        -0.0245          116.7          116.1        56.5486         48.849        36.7336         2.1105        -999.25        -999.25           1995      0.3372127        -999.25
      5280.5000         0.3902         0.2674         0.2566         0.2558          0.258         9.7137        31.1828        -0.0192       116.2999       116.2999        56.3337        48.6306         35.935         2.1355        -999.25        -999.25           2010       0.332566        -999.25
      5281.0000         0.4417         0.2975         0.2825         0.2793         0.2799         9.7296        28.8168        -0.0148          113.5          112.7        55.3017        47.5951        34.5741         2.1745        -999.25        -999.25           2010      0.3105341        -999.25
      5281.5000         0.5145         0.3399         0.3177         0.3118         0.3096         9.7226         27.131        -0.0114       109.7999       109.2999        59.1799        51.4698        34.5442         2.2023        -999.25        -999.25           2010      0.3929744        -999.25
      5282.0000         0.5712         0.3805         0.3501         0.3376         0.3329          9.734        25.8413          -0.01          107.7          107.2        62.0239        54.3104        34.3818         2.2236        -999.25        -999.25           2010      0.4534127        -999.25
      5282.5000         0.5648         0.3954         0.3604         0.3394         0.3349           9.72        25.4396        -0.0074       108.8999       108.8999         67.651         59.934        33.7985         2.2302        -999.25        -999.25           1965      0.5730638        -999.25
      5283.0000         0.4867          0.369         0.3433         0.3204         0.3185          9.734        26.0757        -0.0046       110.8999          112.1        67.3467        59.6262        34.2405         2.2197        -999.25        -999.25           1965      0.5665149        -999.25
      5283.5000         0.4078         0.3243         0.3194         0.3007         0.3014         9.7226        26.7397        -0.0031          114.1       115.8999        61.4001        53.6761        36.0419         2.2088        -999.25        -999.25           1965      0.4399171        -999.25
      5284.0000         0.3757         0.3086          0.311         0.2989         0.3004         9.7385        26.9391        -0.0005          117.6       119.2999        66.7107        58.9832        37.2527         2.2055        -999.25        -999.25           1965       0.552834        -999.25
      5284.5000         0.3939         0.3345         0.3268         0.3244          0.324         9.7473         27.441        -0.0035          118.6          121.1        73.4788        65.7478        38.4736         2.1972        -999.25        -999.25           2055      0.6967618        -999.25
      5285.0000         0.4437         0.3787         0.3602         0.3677         0.3623         9.7933        28.3594        -0.0058       129.7998          121.7         83.045        75.3106        40.0526         2.1821        -999.25        -999.25           2055      0.9002255        -999.25
      5285.5000         0.4759         0.4005         0.3797         0.3818         0.3737         9.8403         28.729        -0.0067          124.6       124.3999        77.5739         69.836        39.4722          2.176        -999.25        -999.25           2055      0.7837446        -999.25
      5286.0000         0.4411         0.3651         0.3534         0.3386          0.335         9.8508          29.95        -0.0089       122.2999          124.7        67.4518        59.7104        38.3259         2.1558        -999.25        -999.25           1930      0.5683064        -999.25
      5286.5000         0.3612         0.2965         0.2998         0.2817         0.2833         9.8625        31.8203        -0.0142       120.7999       121.2999        54.5243        46.7794        37.0436          2.125        -999.25        -999.25           1930      0.2931787        -999.25
      5287.0000         0.2972          0.253         0.2568         0.2467         0.2512         9.8508        32.7696         -0.017       119.8999            108        50.3876        42.6392        35.4951         2.1093        -999.25        -999.25           1930      0.2050893        -999.25
      5287.5000         0.2751         0.2386         0.2397         0.2401         0.2455         9.8625        31.5686        -0.0112          116.6       119.2999        48.3235        40.5717        33.6462         2.1291        -999.25        -999.25           1930         0.1611        -999.25
      5288.0000         0.2915         0.2507         0.2494         0.2616         0.2664         9.8625        29.7856         0.0029          116.2          116.2        55.1393         47.384        35.5587         2.1585        -999.25        -999.25           2080      0.3060425        -999.25
      5288.5000          0.351         0.2989         0.2903         0.3181         0.3193         9.8861        27.5751         0.0077       115.3999       115.7999        60.3102        52.5514        37.1531          2.195        -999.25        -999.25           2080      0.4159872        -999.25
      5289.0000          0.469         0.3926         0.3752         0.4207         0.4112        10.0795        24.3947         0.0165          114.7       114.8999        70.1143         62.352        37.8855         2.2475        -999.25        -999.25           2080      0.6245106        -999.25
      5289.5000         0.6317         0.5168         0.5055         0.5449         0.5168         10.284        21.0229         0.0318       115.2999       113.3999        81.3969        73.6311        37.0295         2.3031        -999.25        -999.25           2080      0.8644916        -999.25
      5290.0000         0.7678         0.6384         0.6334         0.6176         0.5787        10.4015         18.999         0.0348       112.2999          112.6        86.7021        78.9328         36.576         2.3365        -999.25        -999.25           2000      0.9772936        -999.25
      5290.5000         0.8276         0.7161         0.7045         0.6331         0.5968        10.3149        17.6275         0.0414          109.2          107.1        87.2743        79.5016        35.1119         2.3591        -999.25        -999.25           2000      0.9893958        -999.25
      5291.0000         0.8252         0.7347         0.7229         0.6339         0.6044        10.2832        18.9494         0.0215       108.8999       107.3999        82.6301        74.8539        35.2859         2.3373        -999.25        -999.25           2000      0.8905085        -999.25
      5291.5000         0.7799         0.7151         0.7074         0.6291         0.6067        10.2603        20.4592         0.0057       115.3999          114.6        81.4021        73.6224        35.9985         2.3124        -999.25        -999.25           2000      0.8643063        -999.25
      5292.0000         0.7129         0.6716          0.674         0.6159          0.599        10.4078        21.2303         0.0052          118.5          118.2         86.056        78.2728        37.5331         2.2997        -999.25        -999.25           2040       0.963251        -999.25
