#------------------------------------------------------------------------------
# Created by    : vladimir.rabinovich
# Created on    : 09/19/2023 17:19:27
#------------------------------------------------------------------------------
~Version Information Section
VERS.           2.0     :   CWLS log ASCII Standard - VERSION 2.0
WRAP.           NO      :   One line per depth step
~Well Information Section
#MNEM       .UNIT                                         VALUE :DESCRIPTION
#------------------------------------------------------------------------------
STRT        .FT                                          4322.5 :START DEPTH
STOP        .FT                                            9954 :STOP DEPTH
STEP        .FT                                             0.5 :STEP      
NULL        .                                           -999.25 :NULL      
COMP        .                                ATP OIL & GAS CORP :COMPANY   
WELL        .                               OCS G13829 ST00BP00 :WELL      
FLD         .                           WEST CAMERON BLOCK 0092 :FIELD     
LOC         .                                                   :LOCATION  
CNTY        .                                      WEST CAMERON :LOCATION  
STAT        .                                         LOUISIANA :STATE     
CTRY        .                                     UNITED STATES :COUNTRY   
SRVC        .                                                   :SERVICE COMPANY
DATE        .                             9/13/2023 11:19:21 AM :LOG DATE  
API         .                                    17700409910000 :API NUMBER
UWI         .                                    17700409910000 :UNIQUE WELL ID
XCOORD      .                                  1447604.75856055 :SURFACE X 
YCOORD      .                                  10719416.1500606 :SURFACE Y 
LAT         .                                        29.5354331 :LATITUDE  
LON         .                                       -93.6065144 :LONGITUDE 
ELEV        .FT                                              97 :ELEVATION VALUE
ELEV_TYPE   .                                                KB :ELEVATION REFERENCE TYPE
~Curve Information Section
#MNEM       .UNIT                                      API CODE :CURVE DESCRIPTION
#------------------------------------------------------------------------------
DEPT        .FT                                                 :DEPTH     
AFCO        .MMHO                                               :          
AT10        .OHMM                                               :          
AT20        .OHMM                                               :          
AT30        .OHMM                                               :          
AT60        .OHMM                                               :          
AT90        .OHMM                                               :          
CSAX        .MMHO                                               :          
DCAL        .IN                                                 :          
DPHZ        .%                                                  :          
GR          .GAPI                                               :          
GR_NORM     .GAPI                                               :GammaRay Normalized
GRAX        .GAPI                                               :          
HDRA        .G/C3                                               :          
NPOR        .%                                                  :          
ROPS        .FT/HR                                              :          
RSAX        .OHMM                                               :          
RWA         .OHMM                                               :          
SP          .MV                                                 :          
SP_NORM     .MV                                                 :SP Normalized
TENS        .LBF                                                :          
VSH_SP      .V/V                                                :Volume of Shale from SP
~A        DEPTH           AFCO           AT10           AT20           AT30           AT60           AT90           CSAX           DCAL           DPHZ             GR        GR_NORM           GRAX           HDRA           NPOR           ROPS           RSAX            RWA             SP        SP_NORM           TENS         VSH_SP
# ...
      4847.5000       1530.785         1.0997         0.8651         0.8078         0.9164         0.8951        -999.25         0.3566          11.35        61.4817       50.48941        -999.25         0.0496          24.71        -999.25        -999.25         0.0097       -63.5625        -5.1127           2022       0.954225
      4848.0000       1621.611         0.7135         0.6132         0.5981         0.6552         0.6428        -999.25         0.2353          15.91        73.6923       59.26784        -999.25         0.0421        38.5199        -999.25        -999.25         0.0189        -64.375         -5.932           1982      0.9421765
      4848.5000       1700.918           0.55         0.4977         0.4916         0.5416         0.5333        -999.25         0.2353          22.57        86.2308       68.28233        -999.25         0.0277        42.4899        -999.25        -999.25         0.0383       -66.0625        -7.6263           1964      0.9172603
      4849.0000        1757.58          0.552         0.4978         0.4897         0.5387         0.5284        -999.25          0.114           26.6        90.5868       71.40541        -999.25         0.0191        40.3499        -999.25        -999.25         0.0526        -72.125       -13.6956           1992      0.8280059
      4849.5000        1738.59         0.6688         0.5809         0.5528         0.6023         0.5848        -999.25         0.1868          27.65        81.1752       64.61581        -999.25         0.0126          37.67        -999.25        -999.25         0.0575        -81.875       -23.4524           2027      0.6845235
      4850.0000       1659.938         0.7871         0.6528          0.608         0.6484         0.6234        -999.25          0.308             26        71.3929       57.55943        -999.25         0.0182        31.4299        -999.25        -999.25         0.0523          -81.5       -23.0842           2017      0.6899382
      4850.5000       1570.941         0.8456         0.6751         0.6222         0.6522         0.6226        -999.25         0.4051          24.14        65.4648       53.27792        -999.25         0.0245        31.7599        -999.25        -999.25         0.0467          -77.5        -19.091           2010      0.7486618
      4851.0000       1499.705         0.9174         0.7062         0.6468         0.6707         0.6342        -999.25         0.5021          22.14        66.1479       53.75658        -999.25         0.0323          32.65        -999.25        -999.25         0.0402       -74.6875       -16.2854           2018      0.7899206
      4851.5000       1465.158          1.024         0.7586         0.6791         0.6899         0.6456        -999.25         0.5263           21.2        62.8293       51.35398        -999.25         0.0302          32.84        -999.25        -999.25         0.0372       -74.5625       -16.1672           1989      0.7916588
      4852.0000       1472.379         1.0765         0.8011         0.7026         0.7037         0.6515        -999.25         0.5506          21.02        64.4431       52.50272        -999.25         0.0243          32.71        -999.25        -999.25          0.036        -82.125       -23.7365           2013      0.6803456
      4852.5000       1522.623         1.1156         0.7752         0.6664         0.6519         0.6011        -999.25         0.5627          21.21        67.1184       54.41571        -999.25         0.0243          30.72        -999.25        -999.25         0.0353        -81.625       -23.2433           2024      0.6875985
      4853.0000       1612.258         1.1361         0.7263         0.6239         0.5932         0.5453        -999.25         0.4536          21.76         75.896       60.72234        -999.25          0.027          29.31        -999.25        -999.25          0.035         -86.25       -27.8751           2017      0.6194838
      4853.5000       1774.063         1.1053         0.7031         0.5676         0.5334         0.4928        -999.25         0.4293          23.37        79.1078       63.02163        -999.25         0.0228          28.88        -999.25        -999.25         0.0372       -91.3125       -32.9444           2032      0.5449353
      4854.0000       1961.141         1.0254         0.6361          0.503         0.4585         0.4176        -999.25         0.3323          25.09        76.1602       60.88611        -999.25         0.0215          28.05        -999.25        -999.25         0.0392       -97.5625       -39.2012           2031      0.4529235
      4854.5000       2153.281         0.8959         0.5564         0.4669         0.4245         0.3855        -999.25         0.3687        26.9699        70.1992       56.58099        -999.25          0.023          33.28        -999.25        -999.25         0.0414      -100.3125        -41.958           2046      0.4123824
      4855.0000       2400.426          0.779         0.4931         0.4293          0.378         0.3442        -999.25         0.4051        28.0599        69.0941       55.77209        -999.25         0.0332        40.4999        -999.25        -999.25         0.0401         -99.25       -40.9024           2045      0.4279059
      4855.5000       2671.422         0.6893         0.4356          0.388         0.3506         0.3175        -999.25         0.1989          28.78        66.1506       53.63955        -999.25         0.0387          41.99        -999.25        -999.25         0.0381      -108.8125       -50.4717           2029      0.2871809
      4856.0000       2961.469         0.6378         0.3926         0.3589         0.3265         0.2947        -999.25          0.211          30.17          64.12       52.16432        -999.25         0.0318          39.95        -999.25        -999.25         0.0378        -118.75        -60.416           1994      0.1409412
      4856.5000        3356.93         0.6084         0.3813         0.3219         0.2994         0.2679        -999.25         0.2595        31.9899        59.9083       49.11872        -999.25         0.0186        36.7999        -999.25        -999.25         0.0379       -115.125       -56.7978           2031        0.19415
      4857.0000       3740.281         0.5014         0.3385         0.2804         0.2627         0.2385        -999.25         0.2353        34.1699        56.6288       46.74426        -999.25         0.0039        32.9799        -999.25        -999.25         0.0395      -120.5625       -62.2421           2011      0.1140868
      4857.5000       4101.953         0.3748         0.2678         0.2457         0.2386          0.217        -999.25          0.211          35.35        50.8644       42.58073        -999.25        -0.0005          32.96        -999.25        -999.25         0.0388      -124.6875       -66.3739           2027     0.05332498
      4858.0000       4496.617         0.2982         0.2199         0.2112         0.2096         0.1922        -999.25         0.1625        36.1799        43.2599       37.09222        -999.25        -0.0014           30.2        -999.25        -999.25         0.0374         -126.5       -68.1932           2031      0.0265706
      4858.5000       4756.633         0.2735         0.2038         0.1991         0.2044         0.1867        -999.25         0.1868        36.7499        43.7829       37.45558        -999.25        -0.0019          37.41        -999.25        -999.25         0.0366           -126          -67.7           2013     0.03382358
      4859.0000       4916.195         0.2817         0.2076         0.2005         0.2076         0.1879        -999.25         0.2595        37.2599        46.5341        39.4232        -999.25        -0.0012        39.7899        -999.25        -999.25         0.0363      -125.1875       -66.8943           2036     0.04567203
      4859.5000       4994.516         0.2917         0.2125         0.2033         0.2098         0.1883        -999.25         0.2353          37.99        52.5338       43.72986        -999.25        -0.0002        38.1199        -999.25        -999.25          0.037       -124.875       -66.5887           2019     0.05016619
