#------------------------------------------------------------------------------
# Created by    : vladimir.rabinovich
# Created on    : 09/19/2023 17:21:07
#------------------------------------------------------------------------------
~Version Information Section
VERS.           2.0     :   CWLS log ASCII Standard - VERSION 2.0
WRAP.           NO      :   One line per depth step
~Well Information Section
#MNEM       .UNIT                                         VALUE :DESCRIPTION
#------------------------------------------------------------------------------
STRT        .FT                                            3871 :START DEPTH
STOP        .FT                                           10481 :STOP DEPTH
STEP        .FT                                             0.5 :STEP      
NULL        .                                           -999.25 :NULL      
COMP        .                               TALOS PETROLEUM LLC :COMPANY   
WELL        .                                OCS 00300 ST00BP00 :WELL      
FLD         .                           WEST CAMERON BLOCK 0045 :FIELD     
LOC         .                                                   :LOCATION  
CNTY        .                                      WEST CAMERON :LOCATION  
STAT        .                                         LOUISIANA :STATE     
CTRY        .                                     UNITED STATES :COUNTRY   
SRVC        .                                                   :SERVICE COMPANY
DATE        .                             9/13/2023 11:18:36 AM :LOG DATE  
API         .                                    17700410010000 :API NUMBER
UWI         .                                    17700410010000 :UNIQUE WELL ID
XCOORD      .                                  1453780.44334001 :SURFACE X 
YCOORD      .                                   10773222.791693 :SURFACE Y 
LAT         .                                         29.683533 :LATITUDE  
LON         .                                        -93.587947 :LONGITUDE 
ELEV        .FT                                              92 :ELEVATION VALUE
ELEV_TYPE   .                                                KB :ELEVATION REFERENCE TYPE
~Curve Information Section
#MNEM       .UNIT                                      API CODE :CURVE DESCRIPTION
#------------------------------------------------------------------------------
DEPT        .FT                                                 :DEPTH     
ATR         .OHMM                                               :          
CATR        .MMHO                                               :          
DCAL        .IN                                                 :          
DRHB        .G/C3                                               :          
GR          .GAPI                                               :          
GR_NORM     .GAPI                                               :GammaRay Normalized
PSR         .OHMM                                               :          
RHOB        .G/C3                                               :          
ROP5        .F/HR                                               :          
TNPH        .%                                                  :          
VSH_GR      .V/V                                                :Volume of Shale from GR
~A        DEPTH            ATR           CATR           DCAL           DRHB             GR        GR_NORM            PSR           RHOB           ROP5           TNPH         VSH_GR
# ...
      9991.0000           2.32       431.0337           0.21           0.03        64.4199       47.12142           3.68           2.26          34.35             23      0.3004558
      9991.5000              2            500              0           0.03          66.22       49.05294           3.35           2.28          41.86             23       0.341552
      9992.0000           1.82       549.4502           0.05           0.04        70.5599       53.70842              2           2.32          41.86             25      0.4406046
      9992.5000           1.48       675.6758           0.07           0.06          74.48       57.91378           1.35           2.36          42.45             26      0.5300805
      9993.0000            1.2        833.333            0.2           0.07        77.7599       61.43256           1.12           2.38          44.45             28       0.604948
      9993.5000           1.09       917.4307           0.25           0.09        76.1899       59.74934           0.97           2.37             47             29       0.569135
      9994.0000           0.99       1010.101           0.31           0.09        78.3999       62.12062            0.8           2.36          50.28             30      0.6195876
      9994.5000           0.92       1086.957           0.29           0.11          79.23       63.01171           0.78           2.35          52.79             33      0.6385471
      9995.0000           0.91         1098.9           0.27           0.12        88.1799       72.61195           0.73           2.35          55.39             36      0.8428074
      9995.5000            0.9       1111.109           0.27           0.13          92.24       76.96729           0.76           2.33          55.39             41      0.9354743
      9996.0000           0.92       1086.957           0.29           0.11        89.0599       73.55724           0.73           2.31        67.4199             39      0.8629199
      9996.5000           1.01       990.0986           0.27           0.08        73.6499       57.02982           0.79           2.26        64.0599             35      0.5112727
      9997.0000           1.15       869.5645           0.12           0.05           58.8       41.10306           1.02           2.24          64.99             30      0.1724056
      9997.5000           1.38       724.6377           0.15           0.04          55.47       37.53212           1.92           2.26          80.73             26       0.096428
      9998.0000           1.53       653.5947           0.17           0.04           62.8       45.39475           2.45           2.33          58.25             25      0.2637181
      9998.5000           1.63       613.4961            0.2           0.05        74.2899       57.71931           1.83           2.34          58.25             26      0.5259427
      9999.0000           1.64       609.7559           0.17           0.05        72.1299       55.40328           1.36           2.31          52.17             27      0.4766655
      9999.5000           1.78       561.7979           0.18           0.05        66.0399       48.87222           1.46           2.27        46.6299             27      0.3377069
     10000.0000           1.88       531.9141           0.22           0.03          55.34       37.39662           2.16           2.23        46.6299             27     0.09354506
     10000.5000              2            500           0.26           0.01          54.83       36.85032           2.32            2.2          43.27             25     0.08192176
     10001.0000           2.09       478.4688           0.22           0.01          55.15       37.19444           2.59           2.18          35.86             24      0.0892433
     10001.5000           2.09       478.4688           0.23           0.03          56.54       38.68602           2.81            2.2          35.86             24      0.1209791
     10002.0000           1.96       510.2036           0.21           0.05          61.33       43.82436           2.48           2.25          35.79             25      0.2303054
     10002.5000           1.84       543.4775            0.2           0.07        66.4099       49.27371           2.14           2.33        36.4399             25      0.3462491
     10003.0000           1.66       602.4092           0.12           0.08        71.7999       55.05558           1.43           2.35             40             26      0.4692676
     10003.5000           1.52       657.8945              0           0.07        71.1599       54.37003           1.27           2.32          43.58             27      0.4546815
     10004.0000           1.39       719.4238           0.21           0.06          69.74       52.84789           1.37           2.31           45.8             30      0.4222955
     10004.5000            1.3       769.2305            0.3           0.07          73.83        57.2354           1.34           2.34          46.04             31      0.5156469
     10005.0000            1.2        833.333           0.32           0.09        80.1899       64.05766           1.08            2.4          44.78             33      0.6608014
     10005.5000            1.1       909.0908           0.32           0.09          87.75       72.16718           0.99           2.44          47.87             30      0.8333442
     10006.0000           1.05       952.3809           0.37           0.07          89.09       73.60515              1           2.45          54.22             30      0.8639393
     10006.5000           1.04       961.5381            0.4           0.07        90.7999       75.43995           1.02           2.45          53.89             28      0.9029776
     10007.0000              1           1000           0.35            0.1        90.1599       74.75424           0.99           2.45          52.02             29      0.8883881
     10007.5000           0.98       1020.407           0.28            0.1        89.2899       73.82198           0.98            2.4             50             29      0.8685529
     10008.0000           0.98       1020.407           0.28            0.1           89.1       73.61909           0.99           2.39          47.24             30      0.8642359
     10008.5000           0.97       1030.928           0.34           0.09          93.48       78.31767           0.98           2.38          43.48             29      0.9642056
     10009.0000           0.97       1030.928           0.38           0.09          94.08       78.96191           0.97           2.42          39.22             28      0.9779131
     10009.5000           0.96       1041.666           0.39           0.09        93.7999       78.66228           0.97           2.44          37.34             28      0.9715378
     10010.0000           0.96       1041.666           0.39           0.09        90.3899       75.00558           0.97           2.44          35.43             28      0.8937357
     10010.5000           0.96       1041.666           0.35           0.09          89.46       74.00897           0.96           2.45           33.9             28      0.8725313
     10011.0000           0.96       1041.666           0.29           0.08        90.0599       74.65322           0.96           2.43          32.85             28      0.8862388
     10011.5000           0.97       1030.928            0.2           0.09        88.3999       72.87364           0.97           2.43          32.43             27      0.8483754
     10012.0000           0.97       1030.928           0.18            0.1        92.4199        77.1861           0.97           2.44          32.43             27      0.9401297
     10012.5000           0.98       1020.407           0.16           0.11        94.8799       79.82533           0.96           2.45          32.03             28      0.9962837
     10013.0000           0.98       1020.407            0.2            0.1        95.1899       80.15873           0.97           2.45          31.09             28              1
