#------------------------------------------------------------------------------
# Created by    : vladimir.rabinovich
# Created on    : 09/19/2023 17:22:04
#------------------------------------------------------------------------------
~Version Information Section
VERS.           2.0     :   CWLS log ASCII Standard - VERSION 2.0
WRAP.           NO      :   One line per depth step
~Well Information Section
#MNEM       .UNIT                                         VALUE :DESCRIPTION
#------------------------------------------------------------------------------
STRT        .FT                                           911.5 :START DEPTH
STOP        .FT                                           12432 :STOP DEPTH
STEP        .FT                                             0.5 :STEP      
NULL        .                                           -999.25 :NULL      
COMP        .                                    EXXON CO U S A :COMPANY   
WELL        .                               OCS G03260 ST00BP00 :WELL      
FLD         .                                           WILDCAT :FIELD     
LOC         .                                                   :LOCATION  
CNTY        .                                      WEST CAMERON :LOCATION  
STAT        .                                         LOUISIANA :STATE     
CTRY        .                                     UNITED STATES :COUNTRY   
SRVC        .                                                   :SERVICE COMPANY
DATE        .                             9/13/2023 11:18:18 AM :LOG DATE  
API         .                                    17700402650000 :API NUMBER
UWI         .                                    17700402650000 :UNIQUE WELL ID
XCOORD      .                                  1465533.33943019 :SURFACE X 
YCOORD      .                                  10722576.3450242 :SURFACE Y 
LAT         .                                        29.5443718 :LATITUDE  
LON         .                                       -93.5501671 :LONGITUDE 
ELEV        .FT                                              99 :ELEVATION VALUE
ELEV_TYPE   .                                                KB :ELEVATION REFERENCE TYPE
~Curve Information Section
#MNEM       .UNIT                                      API CODE :CURVE DESCRIPTION
#------------------------------------------------------------------------------
DEPT        .FT                                                 :DEPTH     
CALI        .IN                                                 :          
DRHO        .G/CC                                               :          
GR          .GAPI                                               :          
GR_NORM     .GAPI                                               :GammaRay Normalized
ILD         .OHMM                                               :          
RHOB        .G/CC                                               :          
VSH_GR      .V/V                                                :Volume of Shale from GR
~A        DEPTH           CALI           DRHO             GR        GR_NORM            ILD           RHOB         VSH_GR
# ...
      3658.5000        18.0002        -0.0377         30.002        49.1625         0.5645         1.8816      0.3438829
      3659.0000        17.2312        -0.0285        29.8115       48.83794         0.5655         1.8327      0.3369775
      3659.5000        17.5213        -0.0211        29.5861       48.45407          0.567         1.8101      0.3288099
      3660.0000        18.3935        -0.0159        29.7579       48.74532         0.5685         1.7942      0.3350068
      3660.5000        18.7584        -0.0177        30.2457       49.57338          0.571         1.7827      0.3526251
      3661.0000        19.6127        -0.0227        30.7783       50.47758         0.5799         1.7896      0.3718635
      3661.5000        18.5215        -0.0275        31.1203       51.05806         0.5888          1.805       0.384214
      3662.0000        18.7043        -0.0286        31.0032       50.85822         0.5976         1.8392      0.3799621
      3662.5000        17.0012        -0.0156        31.1985       51.18924         0.6086         1.9141      0.3870052
      3663.0000        15.1418         0.0043        32.1581       52.81903         0.6202          1.954      0.4216814
      3663.5000        14.9085         0.0204        32.4534       53.32015         0.6319         1.9476      0.4323437
      3664.0000        15.1224         0.0156        32.1241       52.75974         0.6424         1.9305      0.4204199
      3664.5000        16.0461         0.0416        32.1787       52.85166         0.6441         1.9421      0.4223757
      3665.0000         16.878         0.0587        33.0648       54.35672         0.6458         1.9072      0.4543982
      3665.5000        17.5978         0.0525        33.3558       54.85037         0.6475         1.8548      0.4649015
      3666.0000        19.0847         0.0185        32.3274       53.10197         0.6493         1.8066      0.4277015
      3666.5000        19.8957         -0.005        31.1294       51.06554          0.651         1.7729      0.3843731
      3667.0000        20.1948        -0.0171         29.987       49.12342         0.6472         1.7483      0.3430514
      3667.5000        20.0718        -0.0481        28.9427       47.34799         0.6433        -999.25      0.3052764
      3668.0000        19.4854        -0.0739        27.8984       45.57274         0.6394        -999.25      0.2675052
      3668.5000        19.1266        -0.0965        26.8542       43.79751         0.6354        -999.25      0.2297342
      3669.0000        18.8359        -0.1121        26.0159       42.37214         0.6314        -999.25      0.1994073
      3669.5000        -999.25        -0.0948        25.4552       41.41866         0.6261        -999.25      0.1791203
      3670.0000        -999.25        -0.0694        25.0607       40.74744         0.6207        -999.25      0.1648392
      3670.5000        20.6053        -0.0575        24.7379       40.19807         0.6154        -999.25      0.1531503
      3671.0000        21.0857        -0.0508        24.5193        39.8259         0.6101        -999.25      0.1452319
      3671.5000        21.2855        -0.0601        24.4893       39.77409         0.6148        -999.25      0.1441296
      3672.0000        21.3732        -0.0719        24.6947       40.12226         0.6227        -999.25      0.1515375
      3672.5000        21.3857        -0.0747        25.2225       41.01832         0.6306        -999.25      0.1706025
      3673.0000        21.3925        -0.0868         26.009       42.35412         0.6384        -999.25      0.1990238
      3673.5000        21.3955        -0.0963        26.7082       43.54142         0.6638        -999.25      0.2242855
      3674.0000        21.4012          -0.09         27.079       44.17065         0.6897        -999.25      0.2376735
      3674.5000        21.3944        -0.0702        28.0306       45.78703         0.7157         1.7495      0.2720644
      3675.0000        21.3836        -0.0325        29.2747       47.90026         0.7385         1.8515      0.3170268
      3675.5000        21.1917        -0.0173        30.4535       49.90255         0.7561         1.9217      0.3596286
      3676.0000        17.9178        -0.0063        30.7662       50.43324         0.7383         1.9497      0.3709199
      3676.5000        17.7853        -0.0072        30.3587       49.73993         0.7206         1.9592      0.3561686
      3677.0000        18.1756        -0.0085         30.825       50.53145         0.7028         1.9934      0.3730095
      3677.5000        18.1113         0.0305        32.2532        52.9577         0.6788         2.0645      0.4246318
      3678.0000        17.8352         0.0794        32.8965       54.05001         0.6547         2.0893      0.4478725
      3678.5000        17.6674         0.0729        32.8458       53.96301         0.6305         2.0245      0.4460216
      3679.0000         17.161         0.0372        32.2505       52.95072         0.6063         1.9877      0.4244834
      3679.5000        16.1695         0.0481        31.7107        52.0326         0.5822         2.0297      0.4049489
      3680.0000        16.9753         0.0801        31.6011        51.8455         0.5727         2.0293      0.4009682
      3680.5000        17.7227         0.0849        31.7722       52.13541         0.5713         1.9791      0.4071364
      3681.0000        19.0536         0.0896        32.0643        52.6311         0.5699         1.9845      0.4176829
      3681.5000        17.8577         0.0862        32.2693        52.9786         0.5685          1.966      0.4250766
      3682.0000        16.4691         0.0549        32.1225        52.7283          0.567         1.9434       0.419751
      3682.5000        16.0146         0.0231        31.9464       52.42837         0.5705         1.9231      0.4133695
      3683.0000        16.6586        -0.0002        32.0769       52.64927         0.5783         1.8496      0.4180695
      3683.5000        17.7069        -0.0222        31.3208       51.36359         0.5862        -999.25      0.3907148
      3684.0000        21.0584         -0.055        30.2251         49.501          0.594        -999.25       0.351085
      3684.5000        21.3921        -0.0258        28.7531       46.99878         0.6018        -999.25      0.2978464
      3685.0000        21.3816        -0.0003        27.6371       45.10154         0.6097         1.7776      0.2574795
      3685.5000        21.3336         0.0179        27.3403        44.5965         0.6175         1.8238      0.2467341
      3686.0000        21.0265          0.017        27.6278       45.08421         0.6253         1.8575      0.2571109
      3686.5000        21.2542        -0.0161        27.4391        44.7627         0.6332         1.8337      0.2502702
      3687.0000         21.365        -0.0527        25.8906       42.13066         0.6341         1.7971      0.1942695
      3687.5000        21.3898        -0.0888        23.9539       38.83881         0.6346        -999.25        0.12423
      3688.0000        21.3902        -0.1217        22.3074       36.04006          0.635        -999.25     0.06468209
      3688.5000        21.3851        -0.1211        21.0884       33.96778         0.6355         1.7517     0.02059117
      3689.0000        21.3777        -0.1112        20.1333        32.3441          0.636         1.7683              0
      3689.5000        21.3747         -0.114        19.3241       30.96818         0.6364         1.7579              0
      3690.0000        21.3717        -0.1214        18.7732        30.0312         0.6369        -999.25              0
      3690.5000        21.3687        -0.1247        18.3569        29.3231         0.6331        -999.25              0
      3691.0000        21.3656        -0.1198        18.1473       28.96609         0.6267         1.7724              0
      3691.5000         21.359        -0.1121        18.3121       29.24528         0.6204         1.7636              0
