#------------------------------------------------------------------------------
# Created by    : vladimir.rabinovich
# Created on    : 09/19/2023 17:19:27
#------------------------------------------------------------------------------
~Version Information Section
VERS.           2.0     :   CWLS log ASCII Standard - VERSION 2.0
WRAP.           NO      :   One line per depth step
~Well Information Section
#MNEM       .UNIT                                         VALUE :DESCRIPTION
#------------------------------------------------------------------------------
STRT        .FT                                          4322.5 :START DEPTH
STOP        .FT                                            9954 :STOP DEPTH
STEP        .FT                                             0.5 :STEP      
NULL        .                                           -999.25 :NULL      
COMP        .                                ATP OIL & GAS CORP :COMPANY   
WELL        .                               OCS G13829 ST00BP00 :WELL      
FLD         .                           WEST CAMERON BLOCK 0092 :FIELD     
LOC         .                                                   :LOCATION  
CNTY        .                                      WEST CAMERON :LOCATION  
STAT        .                                         LOUISIANA :STATE     
CTRY        .                                     UNITED STATES :COUNTRY   
SRVC        .                                                   :SERVICE COMPANY
DATE        .                             9/13/2023 11:19:21 AM :LOG DATE  
API         .                                    17700409910000 :API NUMBER
UWI         .                                    17700409910000 :UNIQUE WELL ID
XCOORD      .                                  1447604.75856055 :SURFACE X 
YCOORD      .                                  10719416.1500606 :SURFACE Y 
LAT         .                                        29.5354331 :LATITUDE  
LON         .                                       -93.6065144 :LONGITUDE 
ELEV        .FT                                              97 :ELEVATION VALUE
ELEV_TYPE   .                                                KB :ELEVATION REFERENCE TYPE
~Curve Information Section
#MNEM       .UNIT                                      API CODE :CURVE DESCRIPTION
#------------------------------------------------------------------------------
DEPT        .FT                                                 :DEPTH     
AFCO        .MMHO                                               :          
AT10        .OHMM                                               :          
AT20        .OHMM                                               :          
AT30        .OHMM                                               :          
AT60        .OHMM                                               :          
AT90        .OHMM                                               :          
CSAX        .MMHO                                               :          
DCAL        .IN                                                 :          
DPHZ        .%                                                  :          
GR          .GAPI                                               :          
GR_NORM     .GAPI                                               :GammaRay Normalized
GRAX        .GAPI                                               :          
HDRA        .G/C3                                               :          
NPOR        .%                                                  :          
ROPS        .FT/HR                                              :          
RSAX        .OHMM                                               :          
RWA         .OHMM                                               :          
SP          .MV                                                 :          
SP_NORM     .MV                                                 :SP Normalized
TENS        .LBF                                                :          
VSH_SP      .V/V                                                :Volume of Shale from SP
~A        DEPTH           AFCO           AT10           AT20           AT30           AT60           AT90           CSAX           DCAL           DPHZ             GR        GR_NORM           GRAX           HDRA           NPOR           ROPS           RSAX            RWA             SP        SP_NORM           TENS         VSH_SP
# ...
      5947.5000       3119.895         0.6411         0.3919         0.3528         0.2716         0.2687        -999.25         1.4481           28.4        35.0422        27.0405        -999.25         0.0334          27.95        -999.25        -999.25         0.0344           -119       -78.2077           2356      0.1340034
      5948.0000       3498.438         0.5174         0.3296          0.307         0.2387         0.2362        -999.25         1.4238        32.0999        31.3368        24.2652        -999.25         0.0146          28.28        -999.25        -999.25         0.0399       -122.375        -81.587           2341      0.0956023
      5948.5000        3743.07         0.4732         0.3107         0.2862         0.2304         0.2276        -999.25         1.4481        33.8799        28.7349        22.3175        -999.25         0.0027        31.5699        -999.25        -999.25         0.0419      -122.4375       -81.6539           2343     0.09484205
      5949.0000       3840.098         0.4569         0.2978         0.2727         0.2266         0.2235        -999.25         1.4723        33.8799        28.6318         22.244        -999.25         0.0024          34.41        -999.25        -999.25         0.0408      -122.5625       -81.7833           2354     0.09337156
      5949.5000       3817.953         0.4602         0.2945         0.2729         0.2306         0.2274        -999.25         1.4723          33.66        23.5629        18.4461        -999.25         0.0028        35.4999        -999.25        -999.25         0.0404       -121.625       -80.8501           2333      0.1039762
      5950.0000       3662.348         0.4612         0.2977         0.2785          0.242         0.2383        -999.25         1.5451        33.1299        24.5928        19.2223        -999.25         0.0037           31.3        -999.25        -999.25         0.0407      -114.9375        -74.167           2362      0.1799204
      5950.5000        3379.77         0.4983         0.3124         0.2929         0.2599         0.2558        -999.25         1.6179          32.55        28.7353        22.3329        -999.25         0.0042          29.65        -999.25        -999.25         0.0424      -102.6875       -61.9214           2354       0.319075
      5951.0000       2997.469         0.6201         0.3766         0.3592         0.3357         0.3286        -999.25         2.0787          30.58        39.2233        30.2027        -999.25         0.0122        32.6799        -999.25        -999.25         0.0417       -81.9375       -41.1757           2322      0.5548216
      5951.5000       2602.543         0.8416         0.4994          0.462         0.4229         0.4129        -999.25         2.4426          26.89        51.0601        39.0841        -999.25         0.0326        37.4799        -999.25        -999.25         0.0364       -68.4375       -27.6801           2336      0.7081807
      5952.0000       2229.727         1.0915         0.5951         0.5436         0.5249         0.5105        -999.25         2.4183          23.27        60.9141        46.4783        -999.25          0.052        35.3799        -999.25        -999.25         0.0311          -68.5        -27.747           2317      0.7074205
      5952.5000       1929.121         1.1898         0.6748         0.6269         0.6366         0.6174        -999.25         2.4668           21.8        68.0038        51.7994        -999.25           0.06        35.0599        -999.25        -999.25         0.0311       -70.5625       -29.8138           2327      0.6839341
      5953.0000       1695.889         1.1972         0.7351          0.674         0.7162         0.6925        -999.25         2.4668          22.43        67.4786        51.4093        -999.25         0.0537        31.2599        -999.25        -999.25         0.0375          -70.5       -29.7557           2332      0.6845943
      5953.5000       1539.029         1.2671         0.7999         0.7445         0.8084         0.7786        -999.25         2.5396          22.87        66.3302        50.5517        -999.25         0.0524        31.7599        -999.25        -999.25          0.043        -71.125       -30.3851           2331      0.6774421
      5954.0000       1463.418          1.466          0.919         0.8412         0.9072         0.8691        -999.25         2.5153           22.5        63.4892        48.4248        -999.25         0.0597          32.08        -999.25        -999.25         0.0436        -68.625       -27.8894           2336      0.7058023
      5954.5000       1448.492         1.3114         0.9007         0.8285         0.8813         0.8439        -999.25         2.5396          22.25        65.0164        49.5739        -999.25          0.068          33.58        -999.25        -999.25         0.0429       -63.1875       -22.4563           2369      0.7675421
      5955.0000       1475.154         1.0377         0.7741         0.7318         0.7704         0.7398        -999.25         2.5638          22.16        67.3574        51.3335        -999.25         0.0729          37.89        -999.25        -999.25         0.0417       -56.3125       -15.5857           2354      0.8456171
      5955.5000       1516.609         0.9427         0.7266         0.6844         0.6901         0.6638        -999.25         2.6124          21.57        67.2628        51.2663        -999.25         0.0757        35.4399        -999.25        -999.25         0.0382        -56.625       -15.9025           2355      0.8420171
      5956.0000       1560.396         0.9067         0.7184          0.671         0.6454          0.621        -999.25         2.6609          21.06         67.886        51.7375        -999.25          0.074          34.58        -999.25        -999.25         0.0352       -58.9375       -18.2194           2366      0.8156886
      5956.5000       1595.816         0.8587          0.691         0.6502          0.604         0.5814        -999.25         2.7094           20.5        68.3014        52.0528        -999.25          0.076          33.74        -999.25        -999.25         0.0323       -61.4375       -20.7238           2334      0.7872295
      5957.0000       1632.338         0.8575         0.6865         0.6474         0.5823         0.5605        -999.25         2.7336          20.83        69.1362        52.6827        -999.25         0.0755        33.2599        -999.25        -999.25         0.0327       -64.8125       -24.1031           2331      0.7488284
      5957.5000       1651.037         0.9184         0.7215         0.6782          0.593         0.5698        -999.25         2.7821          21.28        67.0309        51.1075        -999.25         0.0782        34.4299        -999.25        -999.25         0.0339       -70.1875       -29.4825           2325      0.6876988
      5958.0000       1673.172         0.9918         0.7626         0.7104          0.596          0.571        -999.25         2.7821          22.95        68.4092         52.145        -999.25         0.0752          29.44        -999.25        -999.25         0.0393        -73.625       -32.9244           2319      0.6485863
      5958.5000       1690.357         1.0168         0.7698         0.7171         0.5903         0.5673        -999.25         2.7094          24.63        67.0962         51.164        -999.25         0.0721        32.4199        -999.25        -999.25         0.0453       -73.8125       -33.1162           2321      0.6464068
      5959.0000       1690.863         0.9473         0.7262         0.6718          0.584         0.5616        -999.25         2.6851          25.47        72.2466        55.0306        -999.25         0.0705          29.59        -999.25        -999.25         0.0487        -68.375       -27.6831           2329      0.7081466
      5959.5000       1689.309         0.8229         0.6538         0.6247         0.5667         0.5466        -999.25         2.6245          24.42        75.3671        57.3747        -999.25         0.0684          33.67        -999.25        -999.25         0.0446       -58.6875            -18           2326      0.8181818
