#------------------------------------------------------------------------------
# Created by    : vladimir.rabinovich
# Created on    : 09/19/2023 17:20:43
#------------------------------------------------------------------------------
~Version Information Section
VERS.           2.0     :   CWLS log ASCII Standard - VERSION 2.0
WRAP.           NO      :   One line per depth step
~Well Information Section
#MNEM       .UNIT                                         VALUE :DESCRIPTION
#------------------------------------------------------------------------------
STRT        .FT                                             451 :START DEPTH
STOP        .FT                                           17302 :STOP DEPTH
STEP        .FT                                             0.5 :STEP      
NULL        .                                           -999.25 :NULL      
COMP        .                                  W&T OFFSHORE INC :COMPANY   
WELL        .                                OCS 00334 ST00BP00 :WELL      
FLD         .                             SHIP SHOAL BLOCK 0032 :FIELD     
LOC         .                                                   :LOCATION  
CNTY        .                                        SHIP SHOAL :LOCATION  
STAT        .                                         LOUISIANA :STATE     
CTRY        .                                     UNITED STATES :COUNTRY   
SRVC        .                                                   :SERVICE COMPANY
DATE        .                             9/13/2023 11:18:42 AM :LOG DATE  
API         .                                    17711008030000 :API NUMBER
UWI         .                                    17711008030000 :UNIQUE WELL ID
XCOORD      .                                  2185983.65749983 :SURFACE X 
YCOORD      .                                   10573932.603619 :SURFACE Y 
LAT         .                                         29.125681 :LATITUDE  
LON         .                                       -91.2908142 :LONGITUDE 
ELEV        .FT                                              61 :ELEVATION VALUE
ELEV_TYPE   .                                                KB :ELEVATION REFERENCE TYPE
~Curve Information Section
#MNEM       .UNIT                                      API CODE :CURVE DESCRIPTION
#------------------------------------------------------------------------------
DEPT        .FT                                                 :DEPTH     
ASN         .OHMM                                               :          
CILD        .MMHO                                               :          
ILD         .OHMM                                               :          
SP          .MV                                                 :          
SP_NORM     .MV                                                 :SP Normalized
VSH_SP      .V/V                                                :Volume of Shale from SP
~A        DEPTH            ASN           CILD            ILD             SP        SP_NORM         VSH_SP
# ...
      7177.0000         0.6633       1554.498         0.5707      -121.1708        2.31041              1
      7177.5000         0.6561       1549.193         0.5875      -121.8015       1.674408              1
      7178.0000          0.649       1548.059         0.5885      -123.1968      0.2738037              1
      7178.5000         0.6486       1546.924         0.5896      -125.3168      -1.851501      0.9782176
      7179.0000         0.6518       1547.924         0.5906      -127.6544      -4.194405      0.9506541
      7179.5000          0.655       1549.549         0.5917      -127.3156      -3.860901      0.9545776
      7180.0000         0.6479       1562.174         0.5927      -124.6266      -1.177208      0.9861505
      7180.5000         0.6366       1577.355         0.5937      -122.1801       1.263992              1
      7181.0000         0.6253       1613.164         0.5853      -120.2604       3.178391              1
      7181.5000         0.6143       1653.041         0.5563      -120.0703        3.36319              1
      7182.0000         0.6054       1692.867         0.5273      -120.4274       3.000786              1
      7182.5000         0.5965       1754.037         0.4983      -120.7849       2.637985              1
      7183.0000         0.5875       1819.494         0.4662      -121.5195       1.898079              1
      7183.5000         0.5786       1947.551          0.433      -122.8418      0.5704803              1
      7184.0000         0.5697       2120.066         0.3997      -125.0768      -1.669823       0.980355
      7184.5000         0.5722       2292.777         0.3665      -128.0625      -4.660828      0.9451667
      7185.0000         0.6201       2393.922         0.3333      -130.9617      -7.565331      0.9109961
      7185.5000         0.6407       2471.605         0.3001      -133.7446      -10.35353      0.8781937
      7186.0000         0.6614       2559.734         0.2669      -137.3984      -14.01264      0.8351454
      7186.5000         0.6821       2648.754         0.2499      -148.5303      -25.14984      0.7041195
      7187.0000         0.7027       2758.473         0.2366       -159.197      -35.82185      0.5785665
      7187.5000         0.7234       2896.289         0.2233      -163.4321      -40.06224      0.5286795
      7188.0000         0.7332       3029.965           0.21      -165.5806      -42.21604      0.5033407
      7188.5000         0.6982       3162.063         0.1966      -166.8682      -43.50894      0.4881301
      7189.0000          0.666       3398.262         0.1833      -169.8291      -46.47515      0.4532335
      7189.5000         0.6339        3649.84           0.17      -174.7222      -51.37355      0.3956053
      7190.0000         0.6018       4143.523         0.1567      -177.8489      -54.50556      0.3587581
      7190.5000         0.5791       4456.617         0.1492      -185.1514      -61.81335      0.2727841
      7191.0000         0.5594       4944.789         0.1439      -200.3872      -77.05447     0.09347687
      7191.5000         0.5396       5152.203         0.1386       -201.509      -78.18156     0.08021689
      7192.0000         0.5198       5025.227         0.1333      -202.4194      -79.09727     0.06944392
      7192.5000            0.5       4865.328          0.128      -203.1763      -79.85947     0.06047687
      7193.0000         0.4909        4726.82         0.1227      -203.4893      -80.17777     0.05673209
      7193.5000         0.5073       4616.805         0.1174      -201.7676      -78.46136     0.07692512
      7194.0000         0.5244        4518.57         0.1169      -200.3452      -77.04427     0.09359679
      7194.5000         0.5414        4461.25         0.1175      -199.5671      -76.27147      0.1026886
      7195.0000         0.5553       4459.969         0.1181      -198.7878      -75.49747      0.1117944
      7195.5000         0.5357       4550.367         0.1188      -197.4619      -74.17688      0.1273308
      7196.0000         0.5193       4656.734         0.1194      -195.9172      -72.63749      0.1454413
      7196.5000         0.5028       4740.625          0.129      -194.0693      -70.79489      0.1671189
      7197.0000         0.4863       4792.672         0.1478      -192.2214      -68.95229      0.1887966
      7197.5000         0.4698        4675.07         0.1665      -190.9783      -67.71449      0.2033589
      7198.0000         0.4533       4496.438         0.2056       -189.708      -66.44949      0.2182413
      7198.5000         0.4368       4318.008         0.2811      -188.1025      -64.84929      0.2370672
      7199.0000         0.4346           4162         0.3566      -176.2954      -53.04749      0.3759119
      7199.5000           0.45       4021.375         0.4322      -164.1841       -40.9415      0.5183353
      7200.0000          0.489       3880.625         0.5051      -156.1099       -32.8726      0.6132635
      7200.5000         0.5281       3561.906         0.5445      -117.9784       5.253593              1
      7201.0000         0.5585       3163.641         0.5839      -117.1547       6.071991              1
      7201.5000         0.5649       1557.566         0.6233      -116.6274       6.593987              1
      7202.0000         0.5714       1438.875         0.6423      -116.2706       6.945488              1
      7202.5000         0.5778       1364.002         0.6502      -115.9135       7.297287              1
      7203.0000         0.5878       1351.385         0.6582        -115.53       7.675484              1
      7203.5000         0.6006       1370.016         0.6653      -115.3203       7.879883              1
      7204.0000         0.6133       1388.648         0.6654      -116.2592       6.935677              1
      7204.5000         0.6261       1407.279         0.6656      -117.2325       5.957077              1
      7205.0000         0.6388        1425.91         0.6657      -118.4546       4.729675              1
      7205.5000         0.6517       1440.637         0.6658       -119.835       3.343971              1
      7206.0000         0.6653       1452.576          0.666      -122.1157       1.057968              1
      7206.5000         0.6789       1464.529         0.6555      -124.1639     -0.9955368      0.9882878
      7207.0000         0.6758       1475.645           0.63      -125.3489      -2.185837      0.9742843
      7207.5000         0.6636       1485.602         0.6045      -122.0564       1.101364              1
      7208.0000         0.6518       1495.559          0.579       -120.911       2.241455              1
      7208.5000         0.6463       1505.516          0.551       -119.449       3.698158              1
      7209.0000         0.6408       1574.916         0.5158      -119.3649       3.776955              1
      7209.5000         0.6353       1714.309         0.4806      -121.8955       1.241051              1
      7210.0000         0.6297       1853.504         0.4455      -131.2932      -8.161949      0.9039771
      7210.5000         0.6332       1992.898         0.4103      -142.2173      -19.09135      0.7753958
      7211.0000          0.646       2132.094         0.3752      -149.2527      -26.13206       0.692564
      7211.5000         0.6589       2271.484         0.3412      -151.7856      -28.67026      0.6627029
      7212.0000         0.6718        2851.93         0.3191      -153.6509      -30.54086      0.6406958
      7212.5000         0.6835       3016.855         0.2971      -155.6323      -32.52756      0.6173229
      7213.0000         0.6738       3124.207          0.275      -158.5093      -35.40986      0.5834134
      7213.5000          0.664       3208.594          0.253      -161.3862      -38.29207      0.5495051
      7214.0000         0.6542        3283.02         0.2309      -164.4216      -41.33277      0.5137321
      7214.5000         0.6468       3186.707         0.2457      -168.9287      -45.84517      0.4606451
