#------------------------------------------------------------------------------
# Created by    : vladimir.rabinovich
# Created on    : 09/19/2023 17:20:43
#------------------------------------------------------------------------------
~Version Information Section
VERS.           2.0     :   CWLS log ASCII Standard - VERSION 2.0
WRAP.           NO      :   One line per depth step
~Well Information Section
#MNEM       .UNIT                                         VALUE :DESCRIPTION
#------------------------------------------------------------------------------
STRT        .FT                                             451 :START DEPTH
STOP        .FT                                           17302 :STOP DEPTH
STEP        .FT                                             0.5 :STEP      
NULL        .                                           -999.25 :NULL      
COMP        .                                  W&T OFFSHORE INC :COMPANY   
WELL        .                                OCS 00334 ST00BP00 :WELL      
FLD         .                             SHIP SHOAL BLOCK 0032 :FIELD     
LOC         .                                                   :LOCATION  
CNTY        .                                        SHIP SHOAL :LOCATION  
STAT        .                                         LOUISIANA :STATE     
CTRY        .                                     UNITED STATES :COUNTRY   
SRVC        .                                                   :SERVICE COMPANY
DATE        .                             9/13/2023 11:18:42 AM :LOG DATE  
API         .                                    17711008030000 :API NUMBER
UWI         .                                    17711008030000 :UNIQUE WELL ID
XCOORD      .                                  2185983.65749983 :SURFACE X 
YCOORD      .                                   10573932.603619 :SURFACE Y 
LAT         .                                         29.125681 :LATITUDE  
LON         .                                       -91.2908142 :LONGITUDE 
ELEV        .FT                                              61 :ELEVATION VALUE
ELEV_TYPE   .                                                KB :ELEVATION REFERENCE TYPE
~Curve Information Section
#MNEM       .UNIT                                      API CODE :CURVE DESCRIPTION
#------------------------------------------------------------------------------
DEPT        .FT                                                 :DEPTH     
ASN         .OHMM                                               :          
CILD        .MMHO                                               :          
ILD         .OHMM                                               :          
SP          .MV                                                 :          
SP_NORM     .MV                                                 :SP Normalized
VSH_SP      .V/V                                                :Volume of Shale from SP
~A        DEPTH            ASN           CILD            ILD             SP        SP_NORM         VSH_SP
# ...
      1553.0000         0.8451       2173.227         0.4054      -174.7708      -18.13022      0.1099871
      1553.5000         0.8413       2195.371         0.3919      -175.3611      -18.72314     0.07510915
      1554.0000         0.8374       2189.996         0.3844      -175.9236      -19.28828     0.04186563
      1554.5000         0.8392       2157.188         0.3768      -175.9204       -19.2877     0.04189974
      1555.0000         0.8425       2124.387         0.3692       -174.958      -18.32793     0.09835726
      1555.5000         0.8398       2091.586         0.3617      -173.8728      -17.24538      0.1620367
      1556.0000         0.8295       2057.418         0.3541      -172.8467      -16.22189      0.2222416
      1556.5000         0.8193       2017.791         0.3575      -172.1526      -15.53043      0.2629161
      1557.0000          0.809       1978.152         0.3635      -171.4583      -14.83876      0.3036023
      1557.5000         0.7987       1938.525         0.3695      -170.7639      -14.14699      0.3442948
      1558.0000          0.786       1898.898         0.3755        -169.79       -13.1757      0.4014291
      1558.5000         0.7691        1859.26         0.3827      -168.0767      -11.46506      0.5020555
      1559.0000         0.7522       1823.971         0.3927       -166.364      -9.754974      0.6026486
      1559.5000         0.7341       1795.266         0.4026      -164.7324      -8.126007      0.6984702
      1560.0000         0.7121       1766.555         0.4125      -163.1619      -6.558136      0.7906979
      1560.5000          0.721       1737.842         0.4225      -163.1111      -6.509964      0.7935315
      1561.0000         0.7636       1709.131         0.4324      -163.4465      -6.847992      0.7736475
      1561.5000         0.7947        1680.42         0.4421      -163.9958      -7.399933      0.7411804
      1562.0000         0.8249       1661.635          0.448      -164.5449       -7.95166      0.7087259
      1562.5000         0.8551       1649.643         0.4539      -165.0937      -8.503082      0.6762893
      1563.0000         0.8701       1637.652         0.4598      -165.6428      -9.054825      0.6438338
      1563.5000         0.8852        1625.66         0.4657      -166.2014      -9.616043       0.610821
      1564.0000         0.9001       1613.672         0.4716      -167.2913      -10.70857      0.5465546
      1564.5000         0.9131        1642.65         0.4765      -168.3806      -11.80051      0.4823231
      1565.0000         0.9261       1673.551         0.4781        -169.47      -12.89253      0.4180863
      1565.5000         0.9211       1694.293         0.4797      -170.5693      -13.99446       0.353267
      1566.0000         0.9013       1715.035         0.4813      -169.4568       -12.8846      0.4185531
      1566.5000         0.8804       1735.775         0.4829      -167.2998      -10.73022      0.5452809
      1567.0000         0.8578       1756.518         0.4811      -166.6956      -10.12865      0.5806679
      1567.5000         0.8352        1777.26          0.478      -166.0916      -9.527283      0.6160422
      1568.0000         0.8126       1746.158          0.475      -165.4873      -8.925613      0.6514345
      1568.5000         0.7828       1714.447         0.4719      -164.8831      -8.324036      0.6868215
      1569.0000         0.7455       1684.791         0.4711      -164.2354       -7.67897      0.7247664
      1569.5000         0.7959        1676.76         0.4716      -163.5483      -6.994492      0.7650299
      1570.0000         0.8463       1668.729         0.4721      -164.0847      -7.533524      0.7333221
      1570.5000         0.8628       1660.697         0.4726      -164.6938      -8.145264      0.6973374
      1571.0000         0.8792       1652.664          0.473       -165.303       -8.75708      0.6613482
      1571.5000         0.8734       1644.633         0.4735      -165.9119      -9.368607      0.6253761
      1572.0000         0.8401         1636.6         0.4763      -166.5701      -10.02945       0.586503
      1572.5000         0.8082       1628.568         0.4826      -166.7456      -10.20758      0.5760247
      1573.0000         0.7876        1620.26         0.4889      -165.6938      -9.158401      0.6377411
      1573.5000         0.7671       1611.438         0.4951      -165.5898      -9.057037      0.6437037
      1574.0000         0.7658       1602.617         0.5014      -165.5608       -9.03067      0.6452547
      1574.5000         0.7714       1588.914         0.5077      -165.5977       -9.07019        0.64293
      1575.0000         0.7795        1572.49          0.514      -165.4653       -8.94043      0.6505629
      1575.5000         0.7875       1556.064         0.5203      -164.8967      -8.374451      0.6838558
      1576.0000         0.7757       1539.635         0.5266      -164.3281      -7.808472      0.7171487
      1576.5000         0.7535       1523.209         0.5331      -164.0083      -7.491318      0.7358049
      1577.0000         0.7457       1539.521         0.5404      -163.8809      -7.366547      0.7431443
      1577.5000         0.7482       1555.854         0.5477      -163.7534      -7.241669      0.7504901
      1578.0000         0.7591       1577.529         0.5551       -163.626      -7.116913      0.7578287
      1578.5000         0.7701       1612.219         0.5624      -163.4983      -6.991837      0.7651861
      1579.0000         0.7811       1646.906         0.5697      -164.4861      -7.982254      0.7069262
      1579.5000          0.792       1681.596         0.5605      -165.3989       -8.89769      0.6530771
      1580.0000          0.803       1716.271         0.5505      -166.3115      -9.812912      0.5992405
      1580.5000         0.8138       1750.961         0.5405      -167.0911      -10.59514      0.5532271
      1581.0000         0.8232       1788.496         0.5305      -167.7761      -11.28278      0.5127779
      1581.5000         0.8283       1827.355         0.5205      -168.4612       -11.9705      0.4723232
      1582.0000         0.8251       1866.201         0.5106      -169.3423      -12.85423      0.4203393
      1582.5000          0.822       1905.061         0.5006      -170.4478      -13.96237      0.3551546
      1583.0000         0.8193       1936.799         0.4868       -171.603      -15.12019      0.2870474
      1583.5000         0.8303       1966.928         0.4717      -172.8638      -16.38362      0.2127282
      1584.0000         0.8413       1997.049         0.4565      -173.9221      -17.44456      0.1503197
      1584.5000         0.8509       2025.871         0.4413      -174.8232      -18.34828     0.09715989
      1585.0000         0.8345       2046.613         0.4262      -175.1948       -18.7225     0.07514685
      1585.5000         0.8202       2067.348          0.411      -173.8689      -17.39925      0.1529855
      1586.0000         0.8114       2039.373         0.3959       -172.895      -16.42798      0.2101189
      1586.5000         0.8068       1999.592         0.3919      -172.6375       -16.1731       0.225112
      1587.0000         0.8053       1969.025          0.389      -172.3799      -15.91814      0.2401096
      1587.5000         0.8038       1938.451         0.3862      -172.1223      -15.66316      0.2551081
      1588.0000         0.8041       1907.883         0.3958      -171.7024      -15.24588      0.2796541
      1588.5000         0.8066       1884.078         0.4058      -171.2397      -14.78583       0.306716
      1589.0000         0.8102       1870.383         0.4157      -170.7773      -14.32605      0.3337618
      1589.5000         0.8159       1956.123         0.4256      -170.3628      -13.91417        0.35799
      1590.0000         0.8216       2041.119         0.4356      -169.9548      -13.50882      0.3818341
      1590.5000         0.8202        2126.09         0.4338       -170.627      -14.18364      0.3421389
