#------------------------------------------------------------------------------
# Created by    : vladimir.rabinovich
# Created on    : 09/19/2023 17:20:43
#------------------------------------------------------------------------------
~Version Information Section
VERS.           2.0     :   CWLS log ASCII Standard - VERSION 2.0
WRAP.           NO      :   One line per depth step
~Well Information Section
#MNEM       .UNIT                                         VALUE :DESCRIPTION
#------------------------------------------------------------------------------
STRT        .FT                                             451 :START DEPTH
STOP        .FT                                           17302 :STOP DEPTH
STEP        .FT                                             0.5 :STEP      
NULL        .                                           -999.25 :NULL      
COMP        .                                  W&T OFFSHORE INC :COMPANY   
WELL        .                                OCS 00334 ST00BP00 :WELL      
FLD         .                             SHIP SHOAL BLOCK 0032 :FIELD     
LOC         .                                                   :LOCATION  
CNTY        .                                        SHIP SHOAL :LOCATION  
STAT        .                                         LOUISIANA :STATE     
CTRY        .                                     UNITED STATES :COUNTRY   
SRVC        .                                                   :SERVICE COMPANY
DATE        .                             9/13/2023 11:18:42 AM :LOG DATE  
API         .                                    17711008030000 :API NUMBER
UWI         .                                    17711008030000 :UNIQUE WELL ID
XCOORD      .                                  2185983.65749983 :SURFACE X 
YCOORD      .                                   10573932.603619 :SURFACE Y 
LAT         .                                         29.125681 :LATITUDE  
LON         .                                       -91.2908142 :LONGITUDE 
ELEV        .FT                                              61 :ELEVATION VALUE
ELEV_TYPE   .                                                KB :ELEVATION REFERENCE TYPE
~Curve Information Section
#MNEM       .UNIT                                      API CODE :CURVE DESCRIPTION
#------------------------------------------------------------------------------
DEPT        .FT                                                 :DEPTH     
ASN         .OHMM                                               :          
CILD        .MMHO                                               :          
ILD         .OHMM                                               :          
SP          .MV                                                 :          
SP_NORM     .MV                                                 :SP Normalized
VSH_SP      .V/V                                                :Volume of Shale from SP
~A        DEPTH            ASN           CILD            ILD             SP        SP_NORM         VSH_SP
# ...
      2693.0000         0.5921       1827.742         0.4472      -151.1863      -5.067444      0.9070472
      2693.5000         0.5943       1822.467         0.4495      -151.5391      -5.425293      0.8962032
      2694.0000         0.5964       1817.195         0.4519      -151.8918      -5.783066      0.8853617
      2694.5000         0.5986        1811.92         0.4542      -152.2449       -6.14122      0.8745085
      2695.0000         0.6007       1806.648         0.4566      -152.5979      -6.499268      0.8636585
      2695.5000         0.6029       1801.373          0.459      -152.9507      -6.857117      0.8528147
      2696.0000         0.6033       1796.102         0.4613      -153.3037      -7.215164      0.8419647
      2696.5000         0.6036       1790.826         0.4703      -153.6567      -7.573212      0.8311148
      2697.0000         0.6038       1779.357         0.4822      -153.9194      -7.840988      0.8230004
      2697.5000         0.6041       1766.555          0.494      -153.9819      -7.908539      0.8209534
      2698.0000         0.6044       1753.752         0.5059      -154.0442      -7.975891      0.8189124
      2698.5000         0.6056       1740.949         0.5177      -154.1064      -8.043137      0.8168746
      2699.0000         0.6074       1728.152         0.5296      -154.1687      -8.110489      0.8148336
      2699.5000         0.6091        1715.35         0.5373      -154.1787      -8.125549      0.8143773
      2700.0000         0.6109       1702.547         0.5439      -153.9978      -7.949707      0.8197058
      2700.5000         0.6103       1687.938         0.5505      -153.8169      -7.773849      0.8250349
      2701.0000         0.6086       1672.443         0.5571      -153.6362      -7.598206      0.8303574
      2701.5000         0.6069       1674.949         0.5629      -153.5354      -7.502457      0.8332589
      2702.0000         0.6032       1793.285         0.5587      -153.6282      -7.599701      0.8303121
      2702.5000         0.5965       1932.584         0.5512      -153.9678      -7.943542      0.8198926
      2703.0000         0.5897           2140         0.5224      -155.7559      -9.735886      0.7655792
      2703.5000          0.583       2345.234         0.4936      -157.6348      -11.61902      0.7085146
      2704.0000         0.5762       2544.828         0.4648      -159.8445      -13.83296      0.6414254
      2704.5000         0.5667       2732.145          0.436       -162.053       -16.0457      0.5743727
      2705.0000         0.5524       2912.531         0.4037      -164.0376      -18.03455      0.5141047
      2705.5000         0.6187       3079.848         0.3708       -165.823      -19.82419      0.4598731
      2706.0000         0.6265       3199.445         0.3379      -167.6086      -21.61403      0.4056355
      2706.5000         0.6343       3307.336         0.3051      -169.8406      -23.85028      0.3378703
      2707.0000         0.6406        3382.68         0.2793      -172.4324      -26.44632      0.2592025
      2707.5000         0.6438       3458.023         0.2627      -173.5164      -27.53456      0.2262254
      2708.0000         0.6469       3332.906         0.2461      -174.5144       -28.5368      0.1958544
      2708.5000         0.6411       3202.168         0.2401      -175.1074      -29.13405      0.1777561
      2709.0000         0.6332       3040.148          0.255      -175.5745      -29.60538      0.1634734
      2709.5000         0.6253       2856.297         0.2698      -172.6365      -26.67163      0.2523748
      2710.0000         0.6123       2760.559         0.2826      -169.6985      -23.73787      0.3412767
      2710.5000         0.5972       2693.758         0.2927      -167.4937      -21.53731      0.4079604
      2711.0000         0.5831        2641.16         0.3028      -166.2336      -20.28145      0.4460167
      2711.5000         0.5794        2588.59         0.3129      -164.9736       -19.0257      0.4840698
      2712.0000         0.6168       2553.602         0.3229      -164.1733      -18.22963       0.508193
      2712.5000         0.6347       2521.586          0.333      -163.6865      -17.74707      0.5228161
      2713.0000         0.6444       2489.559         0.3431       -163.979      -18.04382      0.5138235
      2713.5000         0.6463       2482.875         0.3532       -164.272      -18.34106      0.5048162
      2714.0000         0.6483       2524.086         0.3633      -164.5647        -18.638      0.4958182
      2714.5000         0.6502       2565.297         0.3734      -164.4778      -18.55534      0.4983229
      2715.0000         0.6521       2605.086         0.3695      -164.3865      -18.46829      0.5009608
      2715.5000         0.6532       2640.961          0.361      -163.7061      -17.79213      0.5214506
      2716.0000         0.6537       2676.852         0.3525      -162.9124      -17.00267      0.5453736
      2716.5000         0.6543       2712.727          0.344      -162.1184      -16.21291      0.5693059
      2717.0000         0.6548       2748.605         0.3355      -161.5229      -15.62166      0.5872225
      2717.5000          0.656        2784.48          0.327      -162.6384      -16.74139      0.5532911
      2718.0000         0.6577       2810.469         0.3184      -163.7537      -17.86093      0.5193657
      2718.5000         0.6514       2664.375         0.3099      -164.8691      -18.98058      0.4854371
      2719.0000         0.6411        2560.77         0.3094      -165.9844      -20.10013      0.4515113
      2719.5000         0.6306        2457.16         0.3108      -165.7463      -19.86627      0.4585978
      2720.0000         0.6201       2353.551         0.3122      -163.1028      -17.22701      0.5385756
      2720.5000         0.6091       2327.512         0.3136      -160.4578      -14.58624      0.6185987
      2721.0000         0.6379       2305.508         0.3149      -159.2454       -13.3781      0.6552092
      2721.5000         0.6438       2283.492         0.3212      -158.2517      -12.38863      0.6851931
      2722.0000         0.6497       2262.973          0.335      -157.2583      -11.39948      0.7151674
      2722.5000         0.6527       2243.285         0.3488      -156.2869      -10.43231      0.7444754
      2723.0000         0.6322       2223.582         0.3626      -155.4749      -9.624557      0.7689528
      2723.5000         0.6049       2203.883         0.3765      -154.6626      -8.816498      0.7934394
      2724.0000         0.5935       2174.762         0.3903      -153.8506      -8.008743      0.8179169
      2724.5000          0.582       2145.098         0.4041      -153.0386      -7.200989      0.8423943
      2725.0000         0.5757       2115.434         0.4179      -152.2271      -6.393723      0.8668569
      2725.5000         0.6033        2085.77         0.4272      -151.4653      -5.636169      0.8898131
      2726.0000          0.631       2044.336         0.4311      -150.7039      -4.879013      0.9127572
      2726.5000         0.6449       1989.166          0.435      -150.3074      -4.486755      0.9246438
      2727.0000         0.6553       1933.996         0.4389       -151.042      -5.225601      0.9022545
      2727.5000         0.6657       1882.648         0.4427      -152.8921      -7.079941      0.8460624
      2728.0000         0.6619       1856.352         0.4466      -154.7271      -8.919174       0.790328
      2728.5000         0.6518       1830.053         0.4505       -155.114      -9.310318      0.7784752
      2729.0000         0.6417       1803.768         0.4622      -153.3997      -7.600266       0.830295
      2729.5000         0.6316        1890.26         0.4825      -151.6938      -5.898605      0.8818604
      2730.0000         0.6255       2001.293         0.5027      -150.2915      -4.500549      0.9242258
      2730.5000         0.6217       2266.922         0.4839      -153.2092      -7.422485      0.8356823
