#------------------------------------------------------------------------------
# Created by    : vladimir.rabinovich
# Created on    : 09/19/2023 17:20:43
#------------------------------------------------------------------------------
~Version Information Section
VERS.           2.0     :   CWLS log ASCII Standard - VERSION 2.0
WRAP.           NO      :   One line per depth step
~Well Information Section
#MNEM       .UNIT                                         VALUE :DESCRIPTION
#------------------------------------------------------------------------------
STRT        .FT                                             451 :START DEPTH
STOP        .FT                                           17302 :STOP DEPTH
STEP        .FT                                             0.5 :STEP      
NULL        .                                           -999.25 :NULL      
COMP        .                                  W&T OFFSHORE INC :COMPANY   
WELL        .                                OCS 00334 ST00BP00 :WELL      
FLD         .                             SHIP SHOAL BLOCK 0032 :FIELD     
LOC         .                                                   :LOCATION  
CNTY        .                                        SHIP SHOAL :LOCATION  
STAT        .                                         LOUISIANA :STATE     
CTRY        .                                     UNITED STATES :COUNTRY   
SRVC        .                                                   :SERVICE COMPANY
DATE        .                             9/13/2023 11:18:42 AM :LOG DATE  
API         .                                    17711008030000 :API NUMBER
UWI         .                                    17711008030000 :UNIQUE WELL ID
XCOORD      .                                  2185983.65749983 :SURFACE X 
YCOORD      .                                   10573932.603619 :SURFACE Y 
LAT         .                                         29.125681 :LATITUDE  
LON         .                                       -91.2908142 :LONGITUDE 
ELEV        .FT                                              61 :ELEVATION VALUE
ELEV_TYPE   .                                                KB :ELEVATION REFERENCE TYPE
~Curve Information Section
#MNEM       .UNIT                                      API CODE :CURVE DESCRIPTION
#------------------------------------------------------------------------------
DEPT        .FT                                                 :DEPTH     
ASN         .OHMM                                               :          
CILD        .MMHO                                               :          
ILD         .OHMM                                               :          
SP          .MV                                                 :          
SP_NORM     .MV                                                 :SP Normalized
VSH_SP      .V/V                                                :Volume of Shale from SP
~A        DEPTH            ASN           CILD            ILD             SP        SP_NORM         VSH_SP
# ...
     16145.0000         1.2723       1233.756          0.769       -59.7341      -15.28965      0.8201217
     16145.5000         1.2613       1315.186         0.7665       -65.7084      -21.26395      0.7498358
     16146.0000         1.2421       1264.611         0.7945       -72.3533      -27.90886      0.6716605
     16146.5000         1.2271        1230.01         0.8288       -78.0745      -33.63005      0.6043523
     16147.0000         1.2138       1195.406         0.8636       -76.5026      -32.05816      0.6228452
     16147.5000         1.2027       1170.465         0.8944       -72.9343      -28.48986      0.6648252
     16148.0000         1.1963       1151.043         0.9156       -69.9471      -25.50265      0.6999688
     16148.5000         1.3083       1131.623         0.9368       -66.8407      -22.39625      0.7365147
     16149.0000         1.3693       1112.203         0.9144        -65.403      -20.95855      0.7534288
     16149.5000         1.4861         1091.4         0.9188       -66.9934      -22.54895      0.7347182
     16150.0000         1.5494       1070.305         0.9461       -68.5839      -24.13945      0.7160064
     16150.5000         1.5627       1049.207         0.9734       -70.1781      -25.73365      0.6972511
     16151.0000         1.5214       1024.463         1.0004        -71.776      -27.33155      0.6784523
     16151.5000         1.4803       997.3535         1.0218       -73.5154      -29.07096      0.6579887
     16152.0000         1.4511       970.1445         1.0431       -75.8322      -31.38775      0.6307323
     16152.5000         1.4174       942.8369         1.0634       -78.8789      -34.43445      0.5948888
     16153.0000         1.3931       915.4307         1.0831       -74.5135      -30.06905      0.6462465
     16153.5000         1.3689       890.0459         1.1028       -69.2693      -24.82486      0.7079428
     16154.0000         1.3273       874.7646         1.1252       -66.6173      -22.17286      0.7391429
     16154.5000         1.3106       859.4844         1.1482       -62.2817      -17.83725        0.79015
     16155.0000         1.3097       844.2041         1.1722       -57.6705      -13.22606      0.8443993
     16155.5000         1.3122       829.8604         1.1978       -55.4283      -10.98385      0.8707782
     16156.0000         1.3147       817.1924         1.2265       -54.0297      -9.585255      0.8872323
     16156.5000         1.3172       804.5244         1.2599        -53.322      -8.877552      0.8955582
     16157.0000         1.3219       791.8809         1.2932        -52.605      -8.160553      0.9039935
     16157.5000         1.3273       780.3965         1.3259       -51.8768      -7.432354      0.9125605
     16158.0000         1.3327       769.3057         1.3501       -51.3125      -6.868053      0.9191993
     16158.5000         1.3381       758.2148         1.3676       -50.8246      -6.380154      0.9249394
     16159.0000         1.3478       747.5439         1.3846       -50.4856      -6.041153      0.9289276
     16159.5000         1.3578       737.7344         1.4015       -50.3073      -5.862854      0.9310253
     16160.0000          1.369       727.9004         1.4184       -50.2985      -5.854053      0.9311288
     16160.5000         1.3827       718.0918         1.4328       -50.4767      -6.032253      0.9290323
     16161.0000          1.393       709.8604         1.4469       -50.8488      -6.404354      0.9246547
     16161.5000         1.4019       704.7334         1.4599       -51.4429      -6.998455      0.9176652
     16162.0000         1.4126       699.6074         1.4656       -52.1226      -7.678154      0.9096688
     16162.5000         1.4242       694.4932         1.4713       -53.0575      -8.613052        0.89867
     16163.0000         1.4287       689.3672          1.477       -53.9943      -9.549854      0.8876488
     16163.5000         1.4208       686.3174         1.4827       -55.0447      -10.60025      0.8752911
     16164.0000          1.413       683.9941         1.4867       -56.2142      -11.76975      0.8615323
     16164.5000         1.4054       681.6777         1.4905       -57.6054      -13.16095      0.8451653
     16165.0000         1.3979       679.3545         1.4943       -58.4602      -14.01575      0.8351088
     16165.5000         1.3922       677.0381         1.4981       -58.6092      -14.16475      0.8333558
     16166.0000         1.3873       675.2422         1.5029       -57.6892      -13.24475      0.8441793
     16166.5000         1.3824       674.5195         1.5082       -56.7711      -12.32665      0.8549806
     16167.0000         1.3777       673.7959         1.5134       -56.2719      -11.82745      0.8608535
     16167.5000         1.3734       673.0713         1.5187       -55.8752      -11.43075      0.8655206
     16168.0000         1.3687       672.3477         1.5205        -55.801      -11.35655      0.8663935
     16168.5000         1.3639        671.624         1.5218       -55.7267      -11.28225      0.8672676
     16169.0000         1.3527       670.8994         1.5231       -55.6522      -11.20775      0.8681441
     16169.5000         1.3299       671.9639         1.5245       -55.1657      -10.72125      0.8738676
     16170.0000         1.2961        673.166         1.5259       -54.5101      -10.06565      0.8815805
     16170.5000         1.2777       674.3643         1.5273       -53.6144      -9.169952      0.8921182
     16171.0000         1.2679       675.5625         1.5259       -52.7186      -8.274155       0.902657
     16171.5000         1.2596       677.1338          1.523       -52.3424      -7.897953      0.9070829
     16172.0000         1.2543       678.7266           1.52       -51.9662      -7.521755      0.9115087
     16172.5000         1.2496       680.3193         1.5164         -51.59      -7.145554      0.9159347
     16173.0000         1.2458        681.915         1.5128        -51.272      -6.827553      0.9196758
     16173.5000         1.2423       684.4873         1.5092       -50.6607      -6.216255      0.9268676
     16174.0000         1.2369       687.1367         1.4987       -49.4111      -4.966652      0.9415688
     16174.5000         1.2284       689.7803         1.4835       -48.9641      -4.519653      0.9468276
     16175.0000         1.2171       704.8076         1.4558       -48.5171      -4.072655      0.9520864
     16175.5000         1.1911       720.6299         1.4273       -48.2568      -3.812355      0.9551488
     16176.0000         1.1517       741.0859         1.3988       -48.0446      -3.600155      0.9576452
     16176.5000         1.1196       765.6338         1.3531       -47.8318      -3.387352      0.9601488
     16177.0000         1.0956       789.0967         1.2994       -47.8159      -3.371452      0.9603359
     16177.5000         1.0747       810.6367         1.2168       -47.8018      -3.357353      0.9605017
     16178.0000         1.0537       832.1279         1.1719       -47.7876      -3.343155      0.9606687
     16178.5000          1.037       850.7598         1.1465       -47.7734      -3.328953      0.9608359
     16179.0000         1.0245        867.125          1.127       -47.7559      -3.311455      0.9610417
     16179.5000         1.0184       883.4893         1.1218       -47.7373      -3.292854      0.9612606
     16180.0000         1.0157       891.5732         1.1212       -47.7187      -3.274254      0.9614794
     16180.5000         1.0154       893.5635         1.1205       -47.5422      -3.097752      0.9635559
     16181.0000         1.0169       895.5537         1.1199       -47.2442      -2.799755      0.9670617
     16181.5000         1.0197       897.5439         1.1192       -46.9471      -2.502655       0.970557
     16182.0000         1.0226       899.5283         1.1206       -46.6054      -2.160954       0.974577
     16182.5000         1.0254       901.5176         1.1261       -46.1892      -1.744755      0.9794735
