#------------------------------------------------------------------------------
# Created by    : vladimir.rabinovich
# Created on    : 09/19/2023 17:20:43
#------------------------------------------------------------------------------
~Version Information Section
VERS.           2.0     :   CWLS log ASCII Standard - VERSION 2.0
WRAP.           NO      :   One line per depth step
~Well Information Section
#MNEM       .UNIT                                         VALUE :DESCRIPTION
#------------------------------------------------------------------------------
STRT        .FT                                             451 :START DEPTH
STOP        .FT                                           17302 :STOP DEPTH
STEP        .FT                                             0.5 :STEP      
NULL        .                                           -999.25 :NULL      
COMP        .                                  W&T OFFSHORE INC :COMPANY   
WELL        .                                OCS 00334 ST00BP00 :WELL      
FLD         .                             SHIP SHOAL BLOCK 0032 :FIELD     
LOC         .                                                   :LOCATION  
CNTY        .                                        SHIP SHOAL :LOCATION  
STAT        .                                         LOUISIANA :STATE     
CTRY        .                                     UNITED STATES :COUNTRY   
SRVC        .                                                   :SERVICE COMPANY
DATE        .                             9/13/2023 11:18:42 AM :LOG DATE  
API         .                                    17711008030000 :API NUMBER
UWI         .                                    17711008030000 :UNIQUE WELL ID
XCOORD      .                                  2185983.65749983 :SURFACE X 
YCOORD      .                                   10573932.603619 :SURFACE Y 
LAT         .                                         29.125681 :LATITUDE  
LON         .                                       -91.2908142 :LONGITUDE 
ELEV        .FT                                              61 :ELEVATION VALUE
ELEV_TYPE   .                                                KB :ELEVATION REFERENCE TYPE
~Curve Information Section
#MNEM       .UNIT                                      API CODE :CURVE DESCRIPTION
#------------------------------------------------------------------------------
DEPT        .FT                                                 :DEPTH     
ASN         .OHMM                                               :          
CILD        .MMHO                                               :          
ILD         .OHMM                                               :          
SP          .MV                                                 :          
SP_NORM     .MV                                                 :SP Normalized
VSH_SP      .V/V                                                :Volume of Shale from SP
~A        DEPTH            ASN           CILD            ILD             SP        SP_NORM         VSH_SP
# ...
      3795.0000         0.5055       3953.047         0.1945      -175.9485      -35.40051              0
      3795.5000         0.5017       3962.172         0.1883      -175.9907       -35.4505              0
      3796.0000          0.498       3971.297          0.182       -176.033      -35.50058              0
      3796.5000         0.4942        3980.43         0.1757      -176.0752      -35.55055              0
      3797.0000         0.4904       3989.555         0.1694      -176.1172      -35.60034              0
      3797.5000          0.486       3998.688         0.1632      -176.2175      -35.70842              0
      3798.0000         0.4797       4004.402         0.1569      -176.4502       -35.9489              0
      3798.5000         0.4735       4009.441         0.1506      -176.6829      -36.18939              0
      3799.0000         0.4672       4014.484         0.1493      -176.9153      -36.42957              0
      3799.5000          0.461       4019.523         0.1489      -177.1479      -36.66995              0
      3800.0000         0.4547       4024.563         0.1485      -177.2676      -36.79742              0
      3800.5000         0.4485       4076.543         0.1481      -177.0142      -36.55182              0
      3801.0000         0.4414       4138.594         0.1477      -176.7607      -36.30609              0
      3801.5000         0.4334       4177.648         0.1473      -176.5073      -36.06049              0
      3802.0000         0.4255        4216.68         0.1469      -176.2539      -35.81488              0
      3802.5000         0.4175       4248.539         0.1465      -176.0005      -35.56926              0
      3803.0000         0.4096       4271.828         0.1461      -175.7471      -35.32364              0
      3803.5000         0.4051       4284.648         0.1457      -175.5845      -35.16882              0
      3804.0000          0.409       4297.477         0.1453      -175.4409        -35.033              0
      3804.5000         0.4173       4311.258         0.1449      -175.2974      -34.89728    0.003112793
      3805.0000         0.4255       4332.875         0.1445      -175.1538      -34.76146    0.007228504
      3805.5000         0.4281         4354.5         0.1441      -175.0103      -34.62575     0.01134098
      3806.0000         0.4279       4329.375         0.1438      -174.8613      -34.48453     0.01562038
      3806.5000         0.4276       4293.805         0.1447      -174.5349      -34.16591     0.02527549
      3807.0000         0.4388       4230.594         0.1457      -174.2083      -33.84709     0.03493661
      3807.5000         0.4628       4166.188         0.1467      -173.9443       -33.5909      0.0427001
      3808.0000         0.4868       4100.352         0.1477      -173.8782      -33.53258     0.04446735
      3808.5000         0.4971       4045.852         0.1487      -173.8123      -33.47446     0.04622858
      3809.0000         0.5065       4001.621         0.1497      -173.1675      -32.83743     0.06553233
      3809.5000         0.5137       3967.664         0.1507      -172.4702      -32.14792     0.08642671
      3810.0000         0.5098       3943.055         0.1517      -172.7158      -32.40131      0.0787483
      3810.5000         0.5059       3931.781         0.1527      -172.9524      -32.64568     0.07134316
      3811.0000         0.5021       3928.754         0.1537       -173.178      -32.87906     0.06427094
      3811.5000         0.4924       3946.996         0.1546      -173.4033      -33.11215     0.05720751
      3812.0000         0.4718       4011.598         0.1556      -173.6292      -33.34583     0.05012651
      3812.5000         0.4513       4115.055         0.1566      -173.8545      -33.57892     0.04306308
      3813.0000         0.4328       4140.117         0.1576      -174.0693       -33.8015     0.03631823
      3813.5000         0.4192       4163.805         0.1582      -173.5798      -33.31979     0.05091534
      3814.0000         0.4057         4187.5         0.1587      -173.0908      -32.83858     0.06549766
      3814.5000         0.3921       4211.648         0.1593      -172.5852      -32.34076     0.08058305
      3815.0000         0.3786        4236.25         0.1598       -172.137      -31.90033     0.09392941
      3815.5000         0.3701       4267.922         0.1603      -173.0476      -32.81873     0.06609923
      3816.0000         0.3629       4329.156         0.1608       -173.959       -33.7379     0.03824546
      3816.5000         0.3556       4363.594         0.1614      -174.4717      -34.25838     0.02247342
      3817.0000         0.3484       4382.516         0.1619      -174.3726      -34.16707     0.02524035
      3817.5000         0.3443       4396.188         0.1624       -174.219      -34.02124     0.02965939
      3818.0000         0.3456       4409.867         0.1629       -174.051      -33.86102     0.03451446
      3818.5000         0.3468       4423.555         0.1634      -173.8833      -33.70111     0.03936028
      3819.0000          0.348       4444.094         0.1639      -173.7156       -33.5412      0.0442061
      3819.5000         0.3493       4468.703         0.1644      -173.5479      -33.38127     0.04905238
      3820.0000         0.3494        4495.75         0.1649      -173.6453      -33.48647     0.04586468
      3820.5000         0.3493       4470.578         0.1654      -173.9202      -33.76915     0.03729849
      3821.0000         0.3491       4346.727         0.1659      -174.1951      -34.05183      0.0287323
      3821.5000         0.3489       4249.258         0.1664        -174.47      -34.33452     0.02016611
      3822.0000         0.3534       4151.789         0.1669      -175.0669      -34.93919    0.001842614
      3822.5000         0.3611        4083.82         0.1674      -175.9053      -35.78539              0
      3823.0000         0.3688       4034.469         0.1679      -176.7437      -36.63156              0
      3823.5000         0.3774       3972.738         0.1684      -177.5022      -37.39784              0
      3824.0000         0.3865       3954.805         0.1689      -178.1174      -38.02083              0
      3824.5000         0.3956       3942.398         0.1694      -176.0259       -35.9371              0
      3825.0000         0.4048       3969.371         0.1699      -173.0779      -32.99689     0.06070039
      3825.5000         0.4122       4048.527         0.1704      -170.1746      -30.10138       0.148443
      3826.0000         0.4177       4209.406         0.1709      -168.4705      -28.40508      0.1998462
      3826.5000         0.4192       4303.266         0.1715      -168.0012      -27.94356      0.2138316
      3827.0000         0.4098       4385.336          0.172      -168.8755      -28.82564      0.1871019
      3827.5000         0.4004       4434.398         0.1725      -169.7502      -29.70811      0.1603602
      3828.0000          0.391       4469.891         0.1731      -170.6233        -30.589      0.1336665
      3828.5000         0.3951       4109.117         0.1736      -171.4907      -31.46419      0.1071458
      3829.0000         0.4179       4028.008         0.1741      -172.3589      -32.34016     0.08060109
      3829.5000         0.4406       3957.195         0.1746      -172.9468      -32.93584      0.0625504
      3830.0000         0.4498       3932.184         0.1744       -172.145      -32.14183      0.0866112
      3830.5000         0.4574       3924.914         0.1738      -171.3437      -31.34831      0.1106572
      3831.0000         0.4649       3937.219         0.1731       -170.832      -30.84439      0.1259276
      3831.5000         0.4649       4211.883         0.1724      -170.3943      -30.41447      0.1389553
      3832.0000         0.4479       4323.656         0.1718      -172.4114      -32.43936     0.07759511
      3832.5000         0.4291       4435.336         0.1711      -173.1521      -33.18785     0.05491361
