#------------------------------------------------------------------------------
# Created by    : vladimir.rabinovich
# Created on    : 09/19/2023 17:20:43
#------------------------------------------------------------------------------
~Version Information Section
VERS.           2.0     :   CWLS log ASCII Standard - VERSION 2.0
WRAP.           NO      :   One line per depth step
~Well Information Section
#MNEM       .UNIT                                         VALUE :DESCRIPTION
#------------------------------------------------------------------------------
STRT        .FT                                             451 :START DEPTH
STOP        .FT                                           17302 :STOP DEPTH
STEP        .FT                                             0.5 :STEP      
NULL        .                                           -999.25 :NULL      
COMP        .                                  W&T OFFSHORE INC :COMPANY   
WELL        .                                OCS 00334 ST00BP00 :WELL      
FLD         .                             SHIP SHOAL BLOCK 0032 :FIELD     
LOC         .                                                   :LOCATION  
CNTY        .                                        SHIP SHOAL :LOCATION  
STAT        .                                         LOUISIANA :STATE     
CTRY        .                                     UNITED STATES :COUNTRY   
SRVC        .                                                   :SERVICE COMPANY
DATE        .                             9/13/2023 11:18:42 AM :LOG DATE  
API         .                                    17711008030000 :API NUMBER
UWI         .                                    17711008030000 :UNIQUE WELL ID
XCOORD      .                                  2185983.65749983 :SURFACE X 
YCOORD      .                                   10573932.603619 :SURFACE Y 
LAT         .                                         29.125681 :LATITUDE  
LON         .                                       -91.2908142 :LONGITUDE 
ELEV        .FT                                              61 :ELEVATION VALUE
ELEV_TYPE   .                                                KB :ELEVATION REFERENCE TYPE
~Curve Information Section
#MNEM       .UNIT                                      API CODE :CURVE DESCRIPTION
#------------------------------------------------------------------------------
DEPT        .FT                                                 :DEPTH     
ASN         .OHMM                                               :          
CILD        .MMHO                                               :          
ILD         .OHMM                                               :          
SP          .MV                                                 :          
SP_NORM     .MV                                                 :SP Normalized
VSH_SP      .V/V                                                :Volume of Shale from SP
~A        DEPTH            ASN           CILD            ILD             SP        SP_NORM         VSH_SP
# ...
     11661.0000         0.8832       1193.512          0.845       -86.5685     -0.1069183      0.9987422
     11661.5000         0.8839       1207.645          0.839       -86.2943      0.1615295              1
     11662.0000         0.8908       1221.777          0.833       -86.0195      0.4305649              1
     11662.5000         0.8952       1235.887         0.8271       -85.7454      0.6989136              1
     11663.0000         0.8855       1249.105          0.822       -85.4713      0.9672623              1
     11663.5000         0.8768       1243.889          0.821       -85.1971        1.23571              1
     11664.0000          0.869       1238.674           0.82        -84.923       1.504059              1
     11664.5000          0.867       1233.443          0.819       -84.7911       1.630196              1
     11665.0000         0.8779       1228.227          0.818        -84.704        1.71154              1
     11665.5000         0.8887       1223.012          0.817       -84.6168       1.792992              1
     11666.0000         0.8996       1217.795          0.816       -84.5298       1.874237              1
     11666.5000         0.9105       1212.564          0.815       -84.4426       1.955688              1
     11667.0000         0.9125        1207.35          0.814       -84.3553       2.037231              1
     11667.5000         0.9122       1202.133          0.813       -84.0746       2.312172              1
     11668.0000         0.9119        1199.26          0.812       -83.7336       2.647423              1
     11668.5000         0.9117        1196.73         0.8144       -83.3921        2.98317              1
     11669.0000         0.9114       1194.197         0.8176       -83.0504       3.319115              1
     11669.5000         0.9132       1191.662         0.8208       -82.7095       3.654259              1
     11670.0000         0.9194       1189.127          0.824       -82.3679       3.990112              1
     11670.5000         0.9256       1186.594         0.8271       -82.0004       4.351852              1
     11671.0000         0.9318       1184.059         0.8303       -81.6272       4.719299              1
     11671.5000         0.9381       1180.957         0.8335        -81.254       5.086746              1
     11672.0000         0.9443       1175.951         0.8367       -81.2961       5.038895              1
     11672.5000         0.9446       1170.957         0.8399       -81.6538       4.675438              1
     11673.0000         0.9446       1165.949         0.8431       -82.0115       4.311981              1
     11673.5000         0.9446       1161.127         0.8544       -82.3691       3.948624              1
     11674.0000         0.9446       1156.355         0.8749        -82.824       3.487976              1
     11674.5000         0.9447        1141.42         0.8956       -83.5913        2.71492              1
     11675.0000         0.9471       1109.701         0.9162       -84.3574       1.943069              1
     11675.5000         0.9754       1077.982         0.9368       -85.1248       1.169914              1
     11676.0000         1.0036       1046.314         0.9574       -85.8921      0.3968582              1
     11676.5000         1.0319       1014.596          0.978       -86.9243      -0.641098      0.9924577
     11677.0000         1.0602        982.877         0.9979       -88.8748      -2.597351      0.9694429
     11677.5000         1.0884       963.1201         1.0179       -90.8302      -4.558502      0.9463705
     11678.0000         1.1166       951.6016         1.0378       -92.5308      -6.264854      0.9262958
     11678.5000         1.1423       940.1084         1.0577       -93.5654      -7.305214      0.9140563
     11679.0000         1.1669       928.5898         1.0776       -94.6001      -8.345665      0.9018157
     11679.5000         1.1916       917.0713         1.0968       -90.2981      -4.049423      0.9523597
     11680.0000         1.1511       932.1172          1.111       -88.8525      -2.609573      0.9692991
     11680.5000         1.0782       954.3643         1.1251        -87.407      -1.169823      0.9862374
     11681.0000         1.0052       975.0332         1.1383       -85.9589       0.272522              1
     11681.5000         0.9969       995.7021         1.1158       -84.5133       1.712364              1
     11682.0000         0.9901       1016.371         1.0932       -83.9143       2.305611              1
     11682.5000         0.9834        1036.99         1.0707       -83.9391       2.275055              1
     11683.0000         0.9767        1057.66         1.0482       -85.0159       1.192505              1
     11683.5000         0.9766       1055.662         1.0257       -86.5826     -0.3799515        0.99553
     11684.0000         0.9784       1039.531         1.0032       -88.7064      -2.509499      0.9704765
     11684.5000         0.9893         1023.4         0.9821       -90.8253      -4.634163      0.9454805
     11685.0000         1.0055       1007.269          0.984       -92.9491       -6.76371       0.920427
     11685.5000         1.0217       985.1953         0.9859        -94.709      -8.529366      0.8996545
     11686.0000         1.0319       996.6396         0.9878       -95.2598      -9.085922      0.8931068
     11686.5000         1.0093       1026.533         0.9897       -95.8105      -9.642372      0.8865603
     11687.0000         0.9881        1056.08         0.9805       -96.3612      -10.19883      0.8800138
     11687.5000          0.967       1085.678         0.9628       -96.4045      -10.24789      0.8794366
     11688.0000         0.9459       1115.275          0.945        -95.006      -8.855133       0.895822
     11688.5000         0.9185       1144.873         0.9272       -93.6075      -7.462387      0.9122072
     11689.0000         0.8878       1174.471         0.9083       -91.3798       -5.24044      0.9383478
     11689.5000          0.857       1180.908         0.8885       -89.0233      -2.889694      0.9660036
     11690.0000         0.8263        1170.08         0.8688       -86.6669     -0.5390549      0.9936582
     11690.5000         0.7963       1154.615         0.8491       -84.9441       1.177994              1
     11691.0000          0.871        1139.15         0.8462       -85.1718      0.9445419              1
     11691.5000         0.9186       1123.686         0.8658       -87.5431       -1.43251       0.983147
     11692.0000         0.9396       1108.223         0.8854          -89.6      -3.495163      0.9588804
     11692.5000         0.9402       1092.758         0.9051       -91.2634      -5.164314      0.9392434
     11693.0000         0.9409       1082.049         0.9166       -92.9293      -6.835976      0.9195768
     11693.5000         0.9452       1082.662         0.9148       -94.5927      -8.505127      0.8999397
     11694.0000           0.95       1083.273          0.913        -96.256      -10.17418      0.8803038
     11694.5000         0.9549       1096.432         0.9113       -97.1261      -11.05003      0.8699996
     11695.0000         0.9609       1110.541         0.9026       -97.5878      -11.51749      0.8645002
     11695.5000         0.9676       1124.648         0.8747       -98.0494      -11.98485      0.8590018
     11696.0000         0.9744       1138.756         0.8467       -98.5122       -12.4534      0.8534894
     11696.5000         0.9668       1168.502         0.8188       -98.8513      -12.79826      0.8494323
     11697.0000         0.9472       1205.104         0.7908       -98.2164      -12.16911      0.8568341
     11697.5000         0.9278       1289.654         0.7615       -97.0432      -11.00166      0.8705688
     11698.0000         0.9082       1385.945         0.7132       -93.9392      -7.903412      0.9070187
     11698.5000          0.891       1482.236         0.6648      -101.9095      -15.87947      0.8131827
