#------------------------------------------------------------------------------
# Created by    : vladimir.rabinovich
# Created on    : 09/19/2023 17:20:43
#------------------------------------------------------------------------------
~Version Information Section
VERS.           2.0     :   CWLS log ASCII Standard - VERSION 2.0
WRAP.           NO      :   One line per depth step
~Well Information Section
#MNEM       .UNIT                                         VALUE :DESCRIPTION
#------------------------------------------------------------------------------
STRT        .FT                                             451 :START DEPTH
STOP        .FT                                           17302 :STOP DEPTH
STEP        .FT                                             0.5 :STEP      
NULL        .                                           -999.25 :NULL      
COMP        .                                  W&T OFFSHORE INC :COMPANY   
WELL        .                                OCS 00334 ST00BP00 :WELL      
FLD         .                             SHIP SHOAL BLOCK 0032 :FIELD     
LOC         .                                                   :LOCATION  
CNTY        .                                        SHIP SHOAL :LOCATION  
STAT        .                                         LOUISIANA :STATE     
CTRY        .                                     UNITED STATES :COUNTRY   
SRVC        .                                                   :SERVICE COMPANY
DATE        .                             9/13/2023 11:18:42 AM :LOG DATE  
API         .                                    17711008030000 :API NUMBER
UWI         .                                    17711008030000 :UNIQUE WELL ID
XCOORD      .                                  2185983.65749983 :SURFACE X 
YCOORD      .                                   10573932.603619 :SURFACE Y 
LAT         .                                         29.125681 :LATITUDE  
LON         .                                       -91.2908142 :LONGITUDE 
ELEV        .FT                                              61 :ELEVATION VALUE
ELEV_TYPE   .                                                KB :ELEVATION REFERENCE TYPE
~Curve Information Section
#MNEM       .UNIT                                      API CODE :CURVE DESCRIPTION
#------------------------------------------------------------------------------
DEPT        .FT                                                 :DEPTH     
ASN         .OHMM                                               :          
CILD        .MMHO                                               :          
ILD         .OHMM                                               :          
SP          .MV                                                 :          
SP_NORM     .MV                                                 :SP Normalized
VSH_SP      .V/V                                                :Volume of Shale from SP
~A        DEPTH            ASN           CILD            ILD             SP        SP_NORM         VSH_SP
# ...
      8279.0000         0.6291       5874.398         0.1293      -213.6367      -100.4011              0
      8279.5000         0.6218       5942.617         0.1285      -214.4709      -101.2375              0
      8280.0000         0.5617       5745.258         0.1277      -212.1328      -98.90163              0
      8280.5000          0.499       5296.914         0.1269      -209.2244      -95.99546              0
      8281.0000          0.464       5081.219         0.1285      -205.3069       -92.0802              0
      8281.5000         0.4416       4850.148         0.1335      -201.1416      -87.91714              0
      8282.0000         0.4276       4594.234         0.1385      -196.3215      -83.09927     0.02236149
      8282.5000         0.4136       4249.398         0.1436      -192.2454      -79.02541     0.07028925
      8283.0000         0.4009       4223.125         0.1486      -190.0906      -76.87285     0.09561355
      8283.5000         0.4244       4196.852         0.1536      -186.7361      -73.52058       0.135052
      8284.0000         0.4537       4165.211         0.1587      -183.1953      -69.98201      0.1766822
      8284.5000         0.4831        4132.43         0.1608       -180.354      -67.14295      0.2100829
      8285.0000         0.5124       4099.656         0.1598      -177.5374      -64.32858      0.2431931
      8285.5000         0.5228       4066.879         0.1588      -175.2761      -62.06951      0.2697704
      8286.0000          0.531       4034.938         0.1578      -178.3853      -65.18095      0.2331652
      8286.5000         0.5392       4003.738         0.1584      -181.5737      -68.37159      0.1956284
      8287.0000           0.53       3979.281         0.1701      -184.8516      -71.65172      0.1570386
      8287.5000         0.4864       3957.281         0.1818      -180.7456      -67.54797       0.205318
      8288.0000         0.4427       3935.281         0.1935      -174.3091      -61.11369      0.2810154
      8288.5000         0.4766       3913.281         0.2052      -168.9038      -55.71062      0.3445809
      8289.0000         0.5137       3164.035         0.2232      -165.5007      -52.30977       0.384591
      8289.5000         0.5509       2873.223         0.2431      -166.2595      -53.07081      0.3756376
      8290.0000         0.5828       2713.719          0.263      -163.8259      -50.63943      0.4042419
      8290.5000         0.5928       2633.473         0.2828      -159.8242      -46.63998      0.4512944
      8291.0000         0.6028       2581.867         0.3028      -155.1182       -41.9362      0.5066329
      8291.5000         0.6091        2732.25         0.3296      -150.5759      -37.39614      0.5600454
      8292.0000         0.6146       2923.496         0.3182      -148.7583      -35.58078      0.5814026
      8292.5000         0.6202       3114.746         0.3068      -153.2634      -40.08811      0.5283751
      8293.0000         0.6257       3309.145         0.2954      -159.0852      -45.91216       0.459857
      8293.5000         0.6294       3604.492          0.284      -167.2971      -54.12629      0.3632201
      8294.0000         0.6279       3854.691         0.2733      -178.7917      -65.62312      0.2279633
      8294.5000         0.6242         4013.5         0.2632      -189.2253      -76.05895      0.1051888
      8295.0000         0.5967       4378.539         0.2531      -193.1775       -80.0134     0.05866592
      8295.5000         0.5693       4900.625          0.243      -194.9578      -81.79591     0.03769513
      8296.0000         0.5429       5032.125         0.2329      -195.9993      -82.83965     0.02541585
      8296.5000         0.5245       5124.352         0.2228      -196.1599      -83.00249     0.02350015
      8297.0000         0.5113       5167.328         0.2128      -196.1238      -82.96862     0.02389858
      8297.5000         0.5311       5210.266         0.2027      -196.1658      -83.01286     0.02337808
      8298.0000         0.5509       5253.242         0.1923        -196.26      -83.10929     0.02224363
      8298.5000         0.5706       5296.227         0.1818      -198.0894      -84.94093   0.0006949032
      8299.0000         0.5904       5339.109         0.1714      -200.2612      -87.11497              0
      8299.5000         0.5997       5379.375          0.161      -202.3193      -89.17531              0
      8300.0000         0.6061       5419.602         0.1506      -204.0078      -90.86604              0
      8300.5000         0.6108       5231.852         0.1401      -205.6963      -92.55678              0
      8301.0000         0.6148       5031.242         0.1387      -207.4431      -94.30581              0
      8301.5000         0.6226       4965.195         0.1394      -206.4177      -93.28264              0
      8302.0000         0.6341       4899.141         0.1401      -204.3821      -91.24928              0
      8302.5000         0.6457       4965.484         0.1408      -202.3489      -89.21832              0
      8303.0000         0.6577       5113.953         0.1413      -200.3135      -87.18516              0
      8303.5000         0.6725       5240.328         0.1411       -198.615      -85.48889              0
      8304.0000         0.6312       5356.852         0.1409      -197.6628      -84.53892      0.0054245
      8304.5000         0.5733       5473.375         0.1407      -196.7095      -83.58786     0.01661341
      8305.0000         0.5279       5589.898         0.1406      -195.7573      -82.63789     0.02778958
      8305.5000         0.4986       5706.422         0.1338      -194.1494      -81.03223     0.04667969
      8306.0000         0.4694       5822.945         0.1266      -191.1096      -77.99467     0.08241569
      8306.5000         0.4292       5930.102         0.1195      -188.0649      -74.95219      0.1182095
      8307.0000         0.3876       5965.195         0.1123      -184.8616      -71.75114       0.155869
      8307.5000         0.3606        5107.25         0.1238      -181.6382      -68.52997      0.1937651
      8308.0000         0.4454        4071.25         0.1616      -178.4944       -65.3884      0.2307246
      8308.5000          0.514       4024.313         0.1994      -175.5735      -62.46974      0.2650619
      8309.0000         0.5656       3977.313         0.2371      -170.3716      -57.27007      0.3262344
      8309.5000         0.6172       3930.375         0.2338      -162.2192       -49.1199      0.4221188
      8310.0000          0.668       3536.273         0.2861       -151.042      -37.94495      0.5535887
      8310.5000         0.6716       2524.297         0.3346      -142.2151      -29.12029      0.6574084
      8311.0000         0.6616       2487.574          0.379       -139.959      -26.86642      0.6839245
      8311.5000         0.6514       2450.902           0.39       -137.801      -24.71064      0.7092866
      8312.0000         0.6403       2443.605          0.388      -137.2996      -24.21149       0.715159
      8312.5000         0.6292       2595.422         0.3767      -136.7981      -23.71221      0.7210328
      8313.0000         0.6181       2731.363         0.3578      -136.2966      -23.21295      0.7269065
      8313.5000         0.6071       2805.102         0.3389      -135.7952      -22.71378       0.732779
      8314.0000          0.596       2878.938          0.326      -135.4241      -22.34492      0.7371185
      8314.5000         0.5849       2952.676         0.3172      -135.2642      -22.18726      0.7389734
      8315.0000         0.5738       3026.414         0.3084      -135.8369      -22.76219      0.7322095
      8315.5000         0.5627       3085.172         0.2996      -137.0901      -24.01763      0.7174397
      8316.0000         0.5564       3112.328         0.2909      -137.5767      -24.50647      0.7116886
      8316.5000         0.5585       3139.488         0.2821      -137.0752      -24.00719      0.7175624
