#------------------------------------------------------------------------------
# Created by    : vladimir.rabinovich
# Created on    : 09/19/2023 17:20:43
#------------------------------------------------------------------------------
~Version Information Section
VERS.           2.0     :   CWLS log ASCII Standard - VERSION 2.0
WRAP.           NO      :   One line per depth step
~Well Information Section
#MNEM       .UNIT                                         VALUE :DESCRIPTION
#------------------------------------------------------------------------------
STRT        .FT                                             451 :START DEPTH
STOP        .FT                                           17302 :STOP DEPTH
STEP        .FT                                             0.5 :STEP      
NULL        .                                           -999.25 :NULL      
COMP        .                                  W&T OFFSHORE INC :COMPANY   
WELL        .                                OCS 00334 ST00BP00 :WELL      
FLD         .                             SHIP SHOAL BLOCK 0032 :FIELD     
LOC         .                                                   :LOCATION  
CNTY        .                                        SHIP SHOAL :LOCATION  
STAT        .                                         LOUISIANA :STATE     
CTRY        .                                     UNITED STATES :COUNTRY   
SRVC        .                                                   :SERVICE COMPANY
DATE        .                             9/13/2023 11:18:42 AM :LOG DATE  
API         .                                    17711008030000 :API NUMBER
UWI         .                                    17711008030000 :UNIQUE WELL ID
XCOORD      .                                  2185983.65749983 :SURFACE X 
YCOORD      .                                   10573932.603619 :SURFACE Y 
LAT         .                                         29.125681 :LATITUDE  
LON         .                                       -91.2908142 :LONGITUDE 
ELEV        .FT                                              61 :ELEVATION VALUE
ELEV_TYPE   .                                                KB :ELEVATION REFERENCE TYPE
~Curve Information Section
#MNEM       .UNIT                                      API CODE :CURVE DESCRIPTION
#------------------------------------------------------------------------------
DEPT        .FT                                                 :DEPTH     
ASN         .OHMM                                               :          
CILD        .MMHO                                               :          
ILD         .OHMM                                               :          
SP          .MV                                                 :          
SP_NORM     .MV                                                 :SP Normalized
VSH_SP      .V/V                                                :Volume of Shale from SP
~A        DEPTH            ASN           CILD            ILD             SP        SP_NORM         VSH_SP
# ...
      6037.0000         1.0268       2697.355         0.3666       -208.291      -80.43131     0.05374926
      6037.5000         1.0894       2841.086         0.3403      -207.9839      -80.12196     0.05738866
      6038.0000         1.2264       2947.648          0.314      -207.8022      -79.93801     0.05955281
      6038.5000         1.2836       3054.313          0.291      -207.6711      -79.80466     0.06112168
      6039.0000         1.2896       3132.293         0.2765        -207.54       -79.6713     0.06269065
      6039.5000         1.2941       3209.578         0.2621       -207.417      -79.54606     0.06416401
      6040.0000         1.2903       3286.867         0.2476      -209.7551       -81.8819     0.03668357
      6040.5000         1.2277       3364.055         0.2331       -211.751      -83.87556     0.01322874
      6041.0000         1.2009       3452.875         0.2187      -212.8457        -84.968   0.0003764433
      6041.5000         1.1847         3548.5         0.2116      -213.9392      -86.05923              0
      6042.0000          1.172       3644.219         0.2054      -215.0325      -87.15029              0
      6042.5000         1.1593        3745.66         0.1992       -216.126      -88.24155              0
      6043.0000          1.118         4087.5          0.193      -216.7397      -88.85299              0
      6043.5000         1.0786       4683.352         0.1868      -216.4744      -88.58543              0
      6044.0000          1.053       4961.547         0.1806       -216.209      -88.31778              0
      6044.5000         1.0274       5067.719         0.1751      -215.9604      -88.06693              0
      6045.0000         1.0139       5115.203         0.1698      -215.7212      -87.82549              0
      6045.5000         1.0014       5135.734         0.1645      -215.4822      -87.58421              0
      6046.0000         0.9889       5156.289         0.1592      -215.2434      -87.34316              0
      6046.5000         0.9823       5174.805         0.1539      -215.4839      -87.58142              0
      6047.0000          0.985       5175.719         0.1486      -215.7563      -87.85157              0
      6047.5000         0.9878       5176.633         0.1433      -216.0283      -88.12132              0
      6048.0000         0.9905       5177.547          0.138       -216.259      -88.34976              0
      6048.5000          0.987       5178.453         0.1327      -216.4766       -88.5651              0
      6049.0000         0.9826       5088.219         0.1302      -216.6941      -88.78036              0
      6049.5000         0.9781       5020.891         0.1308      -216.9119       -88.9959              0
      6050.0000         0.9648       4953.563         0.1315      -217.1296      -89.21134              0
      6050.5000         0.9502       4886.281         0.1321      -217.3472       -89.4267              0
      6051.0000         0.9356        4830.43         0.1327      -217.5649      -89.64214              0
      6051.5000         0.9209       4787.945         0.1333      -217.7825      -89.85749              0
      6052.0000         0.9437       4745.406          0.134      -218.0002      -90.07294              0
      6052.5000         0.9851       4702.922         0.1346      -218.2178      -90.28829              0
      6053.0000         1.0228       4665.555         0.1352      -218.4355      -90.50374              0
      6053.5000         1.0416       4636.992         0.1358      -218.6531      -90.71909              0
      6054.0000         1.0604        4608.43         0.1363      -218.8083      -90.87203              0
      6054.5000         1.0629       4874.594         0.1362      -218.9553      -91.01678              0
      6055.0000         1.0162       5020.297         0.1362      -219.1023      -91.16152              0
      6055.5000         0.9766       5130.711         0.1361      -219.2495      -91.30647              0
      6056.0000         0.9432       5226.039         0.1361      -219.3967      -91.45142              0
      6056.5000         0.9172       5251.984          0.136      -219.5437      -91.59617              0
      6057.0000          0.917       5271.875          0.136      -219.6909      -91.74112              0
      6057.5000         0.9167       5291.789         0.1359      -219.8379      -91.88587              0
      6058.0000         0.9241        5311.68         0.1359      -219.9851      -92.03082              0
      6058.5000         0.9328       5331.492         0.1358      -220.1321      -92.17555              0
      6059.0000         0.9281       5188.578         0.1357      -220.2793       -92.3205              0
      6059.5000         0.9017        5136.43         0.1357      -220.4016      -92.44055              0
      6060.0000         0.8735       5084.273         0.1356      -220.4448      -92.48149              0
      6060.5000         0.9184       5041.914         0.1356      -220.4878      -92.52224              0
      6061.0000         0.9332        5089.75         0.1356      -220.5308        -92.563              0
      6061.5000         0.9468       5147.219         0.1355       -220.574      -92.60395              0
      6062.0000         0.9605       5186.359         0.1355      -220.6169      -92.64458              0
      6062.5000         0.9719       5225.547         0.1355      -220.6602      -92.68564              0
      6063.0000         0.9506        5264.68         0.1355      -220.7031      -92.72628              0
      6063.5000         0.9332       5303.867         0.1355      -220.7463      -92.76724              0
      6064.0000         0.9241           5343         0.1354      -220.7483      -92.76698              0
      6064.5000         0.9149       5366.195         0.1354      -220.7212      -92.73763              0
      6065.0000         0.9058       5388.469         0.1354      -220.6941      -92.70828              0
      6065.5000         0.8967        5410.75         0.1354       -220.667      -92.67893              0
      6066.0000         0.8924       5432.758         0.1354      -220.6399      -92.64956              0
      6066.5000         0.8952       5399.664         0.1353      -220.6128      -92.62021              0
      6067.0000         0.8979       5368.188         0.1353      -220.5859      -92.59107              0
      6067.5000         0.9007       5343.789         0.1353      -220.5588      -92.56172              0
      6068.0000         0.9012       5319.391         0.1353      -220.5317      -92.53236              0
      6068.5000         0.8968       5294.969         0.1354      -220.5046      -92.50301              0
      6069.0000         0.8925        5270.57         0.1359      -220.5049      -92.50105              0
      6069.5000         0.8881       5247.008         0.1364      -220.5129      -92.50679              0
      6070.0000         0.8823       5227.219         0.1369      -220.5208      -92.51245              0
      6070.5000         0.8764        5207.43         0.1375      -220.5286      -92.51799              0
      6071.0000         0.8705       5187.641          0.138      -220.5364      -92.52356              0
      6071.5000         0.8646       5165.703         0.1385      -220.5442       -92.5291              0
      6072.0000         0.8587       5137.289          0.139      -220.5522      -92.53484              0
      6072.5000         0.8574       5108.852         0.1395      -220.5911      -92.57149              0
      6073.0000         0.8616       5079.492           0.14      -220.6958      -92.67393              0
      6073.5000         0.8657       5043.461         0.1405      -220.8003      -92.77617              0
      6074.0000         0.8815       5043.711          0.141       -220.905      -92.87863              0
      6074.5000         0.9011       5079.148         0.1416      -221.0095      -92.98088              0
