#------------------------------------------------------------------------------
# Created by    : vladimir.rabinovich
# Created on    : 09/19/2023 17:20:43
#------------------------------------------------------------------------------
~Version Information Section
VERS.           2.0     :   CWLS log ASCII Standard - VERSION 2.0
WRAP.           NO      :   One line per depth step
~Well Information Section
#MNEM       .UNIT                                         VALUE :DESCRIPTION
#------------------------------------------------------------------------------
STRT        .FT                                             451 :START DEPTH
STOP        .FT                                           17302 :STOP DEPTH
STEP        .FT                                             0.5 :STEP      
NULL        .                                           -999.25 :NULL      
COMP        .                                  W&T OFFSHORE INC :COMPANY   
WELL        .                                OCS 00334 ST00BP00 :WELL      
FLD         .                             SHIP SHOAL BLOCK 0032 :FIELD     
LOC         .                                                   :LOCATION  
CNTY        .                                        SHIP SHOAL :LOCATION  
STAT        .                                         LOUISIANA :STATE     
CTRY        .                                     UNITED STATES :COUNTRY   
SRVC        .                                                   :SERVICE COMPANY
DATE        .                             9/13/2023 11:18:42 AM :LOG DATE  
API         .                                    17711008030000 :API NUMBER
UWI         .                                    17711008030000 :UNIQUE WELL ID
XCOORD      .                                  2185983.65749983 :SURFACE X 
YCOORD      .                                   10573932.603619 :SURFACE Y 
LAT         .                                         29.125681 :LATITUDE  
LON         .                                       -91.2908142 :LONGITUDE 
ELEV        .FT                                              61 :ELEVATION VALUE
ELEV_TYPE   .                                                KB :ELEVATION REFERENCE TYPE
~Curve Information Section
#MNEM       .UNIT                                      API CODE :CURVE DESCRIPTION
#------------------------------------------------------------------------------
DEPT        .FT                                                 :DEPTH     
ASN         .OHMM                                               :          
CILD        .MMHO                                               :          
ILD         .OHMM                                               :          
SP          .MV                                                 :          
SP_NORM     .MV                                                 :SP Normalized
VSH_SP      .V/V                                                :Volume of Shale from SP
~A        DEPTH            ASN           CILD            ILD             SP        SP_NORM         VSH_SP
# ...
     12763.0000         1.0487       1077.688         0.8461       -68.6023       1.169258              1
     12763.5000          1.053       1064.813         0.8496       -67.2384       2.523277              1
     12764.0000         1.0621       1051.938         0.8531       -65.8745       3.877296              1
     12764.5000         1.0735       1043.109         0.8567       -65.1864       4.555511              1
     12765.0000         1.0875       1044.148         0.8602       -64.9606       4.771423              1
     12765.5000         1.0956       1045.186         0.8637       -64.7346       4.987549              1
     12766.0000         1.0874       1046.225         0.8685       -64.8981       4.814156              1
     12766.5000         1.0785       1047.264         0.8735       -65.1511       4.551277              1
     12767.0000         1.0789       1048.303         0.8784       -65.4042         4.2883              1
     12767.5000         1.0834       1049.338         0.8833       -65.6573       4.025307              1
     12768.0000         1.0891       1050.377         0.8882         -65.76       3.912727              1
     12768.5000         1.1009       1051.416         0.8931       -65.6366       4.026245              1
     12769.0000         1.0939       1052.451          0.898       -65.5128        4.14016              1
     12769.5000         1.1232        1053.49         0.9029       -65.3894       4.253677              1
     12770.0000         1.1189       1054.305         0.9073       -65.8064       3.826797              1
     12770.5000         1.0968       1050.754         0.9064       -66.5614       3.061913              1
     12771.0000         1.0882       1047.201         0.9055       -67.3164       2.297028              1
     12771.5000          1.083       1043.656         0.9046       -68.0713       1.532249              1
     12772.0000           1.08       1040.104         0.9037       -68.8263      0.7673569              1
     12772.5000          1.077       1036.553         0.9024       -69.5813    0.002479553              1
     12773.0000         1.0709           1033         0.9009         -69.21      0.3638916              1
     12773.5000         1.0396       1030.061         0.8994       -68.7607      0.8033142              1
     12774.0000         1.0219       1040.023         0.8978       -68.3114       1.242722              1
     12774.5000         1.0059       1049.965         0.8963       -67.8634        1.68084              1
     12775.0000         0.9791       1059.928         0.8948       -67.6642       1.870163              1
     12775.5000         0.9801       1069.869         0.8933       -68.5132       1.011276              1
     12776.0000         0.9901       1079.832         0.8918       -69.3646      0.1499939              1
     12776.5000         0.9981       1089.773         0.8846       -70.2136     -0.7088928      0.9916601
     12777.0000         0.9867       1099.736         0.8763       -71.6964      -2.201576      0.9740991
     12777.5000         0.9736       1109.678          0.868       -73.4043      -3.919357      0.9538899
     12778.0000         0.9606       1119.641         0.8596       -75.1073       -5.63224      0.9337384
     12778.5000         0.9476       1128.545         0.8513       -76.8152      -7.350029      0.9135291
     12779.0000         0.9362         1137.4          0.843       -78.5083      -9.053009       0.893494
     12779.5000         0.9266       1146.254         0.8347       -80.1371      -10.69169      0.8742154
     12780.0000         0.9171       1155.109         0.8263       -81.7708      -12.33527      0.8548791
     12780.5000          0.911       1163.963         0.8216       -77.6816      -8.255959      0.9028711
     12781.0000         0.9051       1172.818         0.8179       -75.0529      -5.637146      0.9336807
     12781.5000         0.8991       1181.648         0.8142       -72.4291      -3.023224      0.9644327
     12782.0000         0.8916       1190.502         0.8105       -69.8003     -0.4043121      0.9952434
     12782.5000         0.8836       1199.357         0.8068       -67.1765        2.20961              1
     12783.0000         0.8742       1208.213         0.8031        -66.528       2.848228              1
     12783.5000         0.8669       1217.066         0.7993       -66.2761        3.09024              1
     12784.0000         0.8716       1221.623         0.7969       -66.0243       3.332161              1
     12784.5000         0.8759       1223.887         0.7969       -65.7725       3.574074              1
     12785.0000         0.8793       1226.156         0.7969       -65.5205       3.816193              1
     12785.5000         0.8836       1228.418         0.7969       -65.2687       4.058105              1
     12786.0000          0.888       1230.682         0.7969       -64.9878       4.329124              1
     12786.5000         0.8943       1232.951         0.7969       -64.6332       4.673836              1
     12787.0000         0.9007       1232.754         0.7969        -64.278       5.019157              1
     12787.5000         0.9073       1223.898         0.7909       -63.9228       5.364479              1
     12788.0000         0.8939       1215.045         0.7824       -63.5682        5.70919              1
     12788.5000         0.8817       1207.275         0.7739        -63.213       6.054508              1
     12789.0000         0.8633       1233.271         0.7654       -63.0988       6.158821              1
     12789.5000         0.8555       1259.268         0.7569       -63.0703       6.177441              1
     12790.0000         0.8509       1284.229         0.7484       -63.1022       6.135654              1
     12790.5000         0.8476       1304.107         0.7359       -63.4983       5.729675              1
     12791.0000         0.8443       1324.037         0.7212       -63.8937       5.324387              1
     12791.5000          0.841       1343.916         0.7065       -64.2891       4.919106              1
     12792.0000         0.8375       1363.846         0.6918       -64.6852       4.513123              1
     12792.5000          0.833       1383.725         0.6772       -65.0806       4.107841              1
     12793.0000         0.8286       1403.654         0.6903        -65.476        3.70256              1
     12793.5000         0.8244       1415.049         0.7094       -65.7805       3.388168              1
     12794.0000         0.8205       1394.924         0.7286       -65.2632       3.895592              1
     12794.5000         0.8288       1367.348         0.7477       -64.7471       4.401802              1
     12795.0000         0.8382       1339.822         0.7668       -64.2297       4.909325              1
     12795.5000         0.8522       1312.248         0.7859       -63.7124       5.416737              1
     12796.0000         0.8704       1284.723         0.8024       -63.1951       5.924156              1
     12796.5000         0.8893       1257.146         0.8096        -62.679       6.430374              1
     12797.0000         0.9054       1229.621         0.8168       -62.5125       6.586987              1
     12797.5000         0.9191       1202.047          0.824        -62.908       6.181606              1
     12798.0000         0.9328        1174.52         0.8312       -63.3033       5.776421              1
     12798.5000         0.9456       1165.518         0.8384       -63.6988        5.37104              1
     12799.0000         0.9543        1156.59         0.8456       -64.4141       4.645851              1
     12799.5000         0.9631       1147.686         0.8528       -65.3844       3.665672              1
     12800.0000         0.9731       1138.756           0.86       -66.3547       2.685493              1
     12800.5000         0.9778       1129.854         0.8672       -67.3251         1.7052              1
