#------------------------------------------------------------------------------
# Created by    : vladimir.rabinovich
# Created on    : 09/19/2023 17:20:43
#------------------------------------------------------------------------------
~Version Information Section
VERS.           2.0     :   CWLS log ASCII Standard - VERSION 2.0
WRAP.           NO      :   One line per depth step
~Well Information Section
#MNEM       .UNIT                                         VALUE :DESCRIPTION
#------------------------------------------------------------------------------
STRT        .FT                                             451 :START DEPTH
STOP        .FT                                           17302 :STOP DEPTH
STEP        .FT                                             0.5 :STEP      
NULL        .                                           -999.25 :NULL      
COMP        .                                  W&T OFFSHORE INC :COMPANY   
WELL        .                                OCS 00334 ST00BP00 :WELL      
FLD         .                             SHIP SHOAL BLOCK 0032 :FIELD     
LOC         .                                                   :LOCATION  
CNTY        .                                        SHIP SHOAL :LOCATION  
STAT        .                                         LOUISIANA :STATE     
CTRY        .                                     UNITED STATES :COUNTRY   
SRVC        .                                                   :SERVICE COMPANY
DATE        .                             9/13/2023 11:18:42 AM :LOG DATE  
API         .                                    17711008030000 :API NUMBER
UWI         .                                    17711008030000 :UNIQUE WELL ID
XCOORD      .                                  2185983.65749983 :SURFACE X 
YCOORD      .                                   10573932.603619 :SURFACE Y 
LAT         .                                         29.125681 :LATITUDE  
LON         .                                       -91.2908142 :LONGITUDE 
ELEV        .FT                                              61 :ELEVATION VALUE
ELEV_TYPE   .                                                KB :ELEVATION REFERENCE TYPE
~Curve Information Section
#MNEM       .UNIT                                      API CODE :CURVE DESCRIPTION
#------------------------------------------------------------------------------
DEPT        .FT                                                 :DEPTH     
ASN         .OHMM                                               :          
CILD        .MMHO                                               :          
ILD         .OHMM                                               :          
SP          .MV                                                 :          
SP_NORM     .MV                                                 :SP Normalized
VSH_SP      .V/V                                                :Volume of Shale from SP
~A        DEPTH            ASN           CILD            ILD             SP        SP_NORM         VSH_SP
# ...
      9419.0000         0.4766           5882         0.1139      -208.6775      -100.5381              0
      9419.5000         0.4177       5985.586         0.1132      -209.1738      -101.0366              0
      9420.0000          0.387       6091.156         0.1105      -208.2642      -100.1292              0
      9420.5000         0.3628       6188.727         0.1077      -207.1343      -99.00156              0
      9421.0000         0.3588       6268.836         0.1054      -206.2283      -98.09781              0
      9421.5000         0.3547       6330.992         0.1038      -205.3235      -97.19524              0
      9422.0000         0.3521       6364.188         0.1022      -204.8508      -96.72478              0
      9422.5000         0.3621       6397.336         0.1059      -206.1033      -97.97952              0
      9423.0000         0.3722       4478.875         0.1158      -207.2048      -99.08325              0
      9423.5000         0.3822        4383.57         0.1419      -208.3088      -100.1895              0
      9424.0000         0.3735       4298.133         0.1678      -206.2864      -98.16933              0
      9424.5000          0.351       4222.266         0.1934      -183.8308      -75.71594      0.1092242
      9425.0000         0.3284       4146.398         0.2095      -175.8901      -67.77749      0.2026178
      9425.5000         0.3104       4068.164         0.2109      -170.8208      -62.71042      0.2622304
      9426.0000         0.2988       4018.441          0.184       -165.989      -57.88085      0.3190488
      9426.5000         0.2871       4093.125         0.1514      -163.9692      -55.86328      0.3427849
      9427.0000         0.2754       4518.539         0.1284      -179.6526      -71.54893      0.1582479
      9427.5000         0.2637       4992.102         0.1174      -194.5264      -86.42496              0
      9428.0000          0.252        5394.82         0.1087      -196.6577      -88.55849              0
      9428.5000         0.2422       5545.969         0.1058      -198.7888      -90.69183              0
      9429.0000          0.236       5654.586         0.1029      -200.9202      -92.82546              0
      9429.5000         0.2299       5722.961         0.1246      -202.8879      -94.79539              0
      9430.0000         0.2237        5791.43           0.17      -189.8506      -81.76034     0.03811367
      9430.5000         0.2176       4020.688         0.2283      -166.7612      -58.67317      0.3097274
      9431.0000         0.2697       3996.156         0.2906      -154.8354      -46.74961      0.4500046
      9431.5000         0.2795       3971.625         0.2872      -152.8254      -44.74184      0.4736255
      9432.0000         0.2893       3947.063         0.2764      -163.9097      -55.82838      0.3431956
      9432.5000          0.299       3922.531          0.264       -178.645      -70.56592      0.1698127
      9433.0000         0.3122       3788.473         0.2515      -180.6526      -72.57575      0.1461676
      9433.5000         0.3532        3428.57           0.24      -164.9988      -56.92418      0.3303038
      9434.0000         0.3832       3337.805          0.244      -177.5535      -69.48112      0.1825751
      9434.5000         0.3938       3247.234         0.2561       -180.061      -71.99086      0.1530487
      9435.0000         0.3663       3183.602         0.2629      -182.1897      -74.12179       0.127979
      9435.5000         0.3324       3127.168         0.2697      -184.1155      -76.04982      0.1052962
      9436.0000         0.3119       3194.156         0.2486      -185.7244      -77.66096     0.08634168
      9436.5000          0.387       3285.711         0.2206      -187.3977       -79.3365     0.06662939
      9437.0000         0.4198       3447.117         0.2023      -170.8406      -62.78164      0.2613925
      9437.5000         0.4527        3616.02         0.1844      -155.1125      -47.05577      0.4464027
      9438.0000         0.4679       3790.055         0.1877      -152.0137      -43.95921      0.4828329
      9438.5000         0.4761       3998.016         0.1911      -159.2363      -51.18404      0.3978349
      9439.0000         0.4844       4095.293         0.1848      -179.7119      -71.66187      0.1569191
      9439.5000         0.4926       4262.422         0.1741      -194.0686      -86.02081              0
      9440.0000         0.3707       4489.727         0.1634      -201.2666      -93.22105              0
      9440.5000         0.3609        4692.57         0.1513      -205.6331      -97.58978              0
      9441.0000         0.3728       4863.844         0.1366      -208.9004      -100.8593              0
      9441.5000         0.3847       5035.313         0.1235      -201.1775      -93.13865              0
      9442.0000         0.3965       5274.656         0.1167      -189.3357      -81.29907     0.04354033
      9442.5000         0.4084       5522.484           0.11      -194.3062      -86.27181              0
      9443.0000         0.4156       5691.586         0.1032      -196.1899      -88.15775              0
      9443.5000         0.4209       5806.227         0.0977       -198.071      -90.04108              0
      9444.0000         0.4261       5921.063         0.1041      -199.5637      -91.53603              0
      9444.5000         0.4198       6196.914         0.1105      -200.2444      -92.21896              0
      9445.0000         0.4045       6301.297         0.1169      -200.9238      -92.90059              0
      9445.5000         0.3949       6191.391         0.1298      -201.6033      -93.58233              0
      9446.0000         0.3941       6081.484         0.1526      -202.2827      -94.26396              0
      9446.5000         0.3933       5971.773         0.1772      -202.9634      -94.94689              0
      9447.0000         0.3904       5878.055         0.2023      -202.3867      -94.37244              0
      9447.5000         0.3815       5799.719         0.2243      -191.4744      -83.46236     0.01808983
      9448.0000         0.3725       5721.281         0.2463      -179.9792      -71.96941      0.1533011
      9448.5000         0.3636       5642.945         0.2674      -174.2268      -66.21925      0.2209501
      9449.0000         0.4206       5584.242         0.2502      -168.4841      -60.47878       0.288485
      9449.5000         0.4889       5539.359         0.2118      -163.6277      -55.62461      0.3455928
      9450.0000         0.5135       5494.469          0.174      -160.0928      -52.09195      0.3871535
      9450.5000         0.5258       5449.578         0.1454      -165.9692      -57.97057      0.3179933
      9451.0000         0.5378       5405.328         0.1294       -190.311      -82.31462     0.03159269
      9451.5000         0.5491       5366.609         0.1203      -193.0735      -85.07935              0
      9452.0000         0.5604       5396.992         0.1187      -195.8359      -87.84399              0
      9452.5000         0.5727       5632.586         0.1171      -197.9497      -89.96003              0
      9453.0000         0.5876       5790.047          0.115      -199.7319      -91.74446              0
      9453.5000         0.6024       5779.391         0.1124      -200.9226       -92.9374              0
      9454.0000         0.5971       5620.352         0.1099       -202.113      -94.13004              0
      9454.5000         0.5853       5472.414         0.1081      -203.3037      -95.32296              0
      9455.0000         0.5734       5439.461         0.1071      -204.4312       -96.4527              0
      9455.5000         0.5621       5406.461         0.1061      -205.3608      -97.38453              0
      9456.0000         0.5524       5438.727         0.1051      -206.2903      -98.31627              0
      9456.5000         0.5427       5508.477          0.104      -207.2209       -99.2491              0
