#------------------------------------------------------------------------------
# Created by    : vladimir.rabinovich
# Created on    : 09/19/2023 17:20:43
#------------------------------------------------------------------------------
~Version Information Section
VERS.           2.0     :   CWLS log ASCII Standard - VERSION 2.0
WRAP.           NO      :   One line per depth step
~Well Information Section
#MNEM       .UNIT                                         VALUE :DESCRIPTION
#------------------------------------------------------------------------------
STRT        .FT                                             451 :START DEPTH
STOP        .FT                                           17302 :STOP DEPTH
STEP        .FT                                             0.5 :STEP      
NULL        .                                           -999.25 :NULL      
COMP        .                                  W&T OFFSHORE INC :COMPANY   
WELL        .                                OCS 00334 ST00BP00 :WELL      
FLD         .                             SHIP SHOAL BLOCK 0032 :FIELD     
LOC         .                                                   :LOCATION  
CNTY        .                                        SHIP SHOAL :LOCATION  
STAT        .                                         LOUISIANA :STATE     
CTRY        .                                     UNITED STATES :COUNTRY   
SRVC        .                                                   :SERVICE COMPANY
DATE        .                             9/13/2023 11:18:42 AM :LOG DATE  
API         .                                    17711008030000 :API NUMBER
UWI         .                                    17711008030000 :UNIQUE WELL ID
XCOORD      .                                  2185983.65749983 :SURFACE X 
YCOORD      .                                   10573932.603619 :SURFACE Y 
LAT         .                                         29.125681 :LATITUDE  
LON         .                                       -91.2908142 :LONGITUDE 
ELEV        .FT                                              61 :ELEVATION VALUE
ELEV_TYPE   .                                                KB :ELEVATION REFERENCE TYPE
~Curve Information Section
#MNEM       .UNIT                                      API CODE :CURVE DESCRIPTION
#------------------------------------------------------------------------------
DEPT        .FT                                                 :DEPTH     
ASN         .OHMM                                               :          
CILD        .MMHO                                               :          
ILD         .OHMM                                               :          
SP          .MV                                                 :          
SP_NORM     .MV                                                 :SP Normalized
VSH_SP      .V/V                                                :Volume of Shale from SP
~A        DEPTH            ASN           CILD            ILD             SP        SP_NORM         VSH_SP
# ...
     15005.0000         1.2327       599.4971         1.5313       -47.4145       1.169918              1
     15005.5000         1.2411       598.1758         1.5358        -47.378       1.196106              1
     15006.0000         1.2518       603.0039           1.53       -47.3901       1.173691              1
     15006.5000         1.2568       607.8184         1.5242       -47.4866       1.066872              1
     15007.0000          1.245       613.6709         1.5146       -47.5831      0.9600563              1
     15007.5000         1.2327       623.7461         1.5038       -47.6796       0.853241              1
     15008.0000         1.2218       633.8447         1.4931       -47.7758      0.7467232              1
     15008.5000         1.2183       643.9199         1.4823       -47.8686      0.6436081              1
     15009.0000         1.2208       654.0195         1.4715       -47.9558       0.546093              1
     15009.5000         1.2287       662.7734         1.4607       -48.0433      0.4482727              1
     15010.0000         1.2167       668.1064         1.4578       -48.1306      0.3506584              1
     15010.5000          1.201       673.4404         1.4561       -48.2181      0.2528419              1
     15011.0000         1.1915       678.7744         1.4544       -48.2867      0.1739235              1
     15011.5000         1.1846       684.1074         1.4527       -48.3537     0.09661102              1
     15012.0000         1.1779       682.3174         1.4529       -48.4207     0.01929474              1
     15012.5000         1.1738       677.9961         1.4656       -48.5249    -0.09522247      0.9988797
     15013.0000         1.1833       673.6631         1.4783       -48.6941     -0.2747383      0.9967678
     15013.5000         1.2019       661.1064         1.4996       -48.8635     -0.4544525      0.9946535
     15014.0000         1.2209          641.5         1.5213        -49.033     -0.6342735       0.992538
     15014.5000         1.2403       621.8936         1.5551       -49.3479     -0.9594879      0.9887119
     15015.0000         1.2598       599.6211         1.5926       -49.7524      -1.374302      0.9838318
     15015.5000         1.2796       577.0508         1.5778       -50.1558      -1.788021      0.9789644
     15016.0000         1.3005       554.5313         1.8052       -50.6741      -2.316635      0.9727455
     15016.5000         1.3224       532.8008         1.9634       -51.2469       -2.89975      0.9658853
     15017.0000         1.3425       511.0718          2.019         -51.91       -3.57317      0.9579627
     15017.5000         1.3623       499.4414         2.0624       -52.7636      -4.437084       0.947799
     15018.0000         1.3835       490.3789         2.0795        -53.981      -5.664799      0.9333553
     15018.5000         1.4052       485.6191         2.0911       -55.7822      -7.476318      0.9120433
     15019.0000         1.4268       487.7305         2.0952       -57.5786      -9.283035      0.8907878
     15019.5000         1.4258       489.8604         2.0902       -59.1918      -10.90655      0.8716877
     15020.0000         1.4125       499.7129         2.0554       -60.7605      -12.48557       0.853111
     15020.5000         1.3959       509.5654         2.0163       -60.7481      -12.48348      0.8531355
     15021.0000          1.378        519.418         1.9173        -59.511       -11.2567      0.8675683
     15021.5000         1.3595       529.5664         1.7824       -58.2936      -10.04961      0.8817692
     15022.0000         1.3392       540.5791         1.7197       -57.1085      -8.874832      0.8955902
     15022.5000         1.3223       551.5684          1.688       -56.1361      -7.912746      0.9069089
     15023.0000         1.3067       562.5811         1.6689       -55.1637      -6.950665      0.9182275
     15023.5000         1.3046       556.1611         1.6611       -54.6478       -6.44508      0.9241756
     15024.0000         1.3213       548.4072         1.6533       -54.1567      -5.964294      0.9298318
     15024.5000         1.3381       542.0859         1.6641       -53.7001      -5.518013      0.9350822
     15025.0000          1.351       535.8877         1.6755       -53.3005      -5.128727       0.939662
     15025.5000         1.3628       529.6895         1.6866       -52.9009      -4.739445      0.9442418
     15026.0000          1.374       523.4922         1.6966       -52.5524       -4.40126      0.9482205
     15026.5000         1.3847       517.2939         1.7066       -52.4095      -4.268677      0.9497803
     15027.0000         1.3961        512.751         1.7166       -52.2663      -4.135792      0.9513437
     15027.5000         1.4074       508.3555         1.7275       -52.2092      -4.089012       0.951894
     15028.0000         1.4187       503.9478         1.7415       -52.2668      -4.156925       0.951095
     15028.5000           1.43       499.5522         1.7556       -52.3242       -4.22464      0.9502984
     15029.0000         1.4414       507.0962         1.7697       -52.6882      -4.598961      0.9458946
     15029.5000         1.4483       519.3193         1.7874       -53.2016      -5.122673      0.9397333
     15030.0000         1.4546       531.5176         1.8057       -55.0845      -7.015888      0.9174601
     15030.5000         1.4623       543.4687         1.8154       -58.0091      -9.950809      0.8829316
     15031.0000         1.4717        554.334         1.8154       -60.0133      -11.96532      0.8592315
     15031.5000          1.491       565.1738         1.8138        -62.015      -13.97734      0.8355607
     15032.0000         1.4811       576.0137         1.8083       -62.9428      -14.91545       0.824524
     15032.5000         1.4529       581.9277         1.8028       -63.3981      -15.38107      0.8190462
     15033.0000          1.437       585.2373         1.7973       -63.3369      -15.33018      0.8196449
     15033.5000         1.4159       588.5518         1.7917       -63.1036       -15.1072      0.8222682
     15034.0000         1.3866       591.8604         1.7915       -62.6286      -14.64252      0.8277351
     15034.5000         1.3781       589.0273         1.7915       -61.7131      -13.73734      0.8383843
     15035.0000         1.3784       583.5088         1.7985       -60.7952      -12.82975      0.8490617
     15035.5000          1.384       577.9893         1.8347       -59.9131      -11.95797       0.859318
     15036.0000         1.3896       565.3965         1.8853        -59.224      -11.27918      0.8673037
     15036.5000         1.3955       551.9385          1.923       -58.5336       -10.5991      0.8753047
     15037.0000         1.4027       538.4805         1.9517       -57.7914      -9.867218      0.8839151
     15037.5000         1.4099       529.0234         1.9763       -56.8016      -8.887733      0.8954384
     15038.0000         1.4157       520.1836         1.9999        -55.812      -7.908447      0.9069594
     15038.5000         1.4215       511.3682         2.0145       -55.1946      -7.301365      0.9141016
     15039.0000         1.4158       502.5527         2.0172       -54.6874      -6.804482      0.9199473
     15039.5000         1.4066       501.1699         1.9969       -54.1653      -6.292694      0.9259683
     15040.0000         1.3967       508.9482         1.9648       -53.6346      -5.772316      0.9320904
     15040.5000         1.3858       516.7266          1.926       -53.1026      -5.250629      0.9382279
     15041.0000          1.375       524.5293          1.864          -52.7      -4.858345       0.942843
     15041.5000         1.3617       532.3076         1.7974       -52.3801      -4.548763      0.9464852
     15042.0000         1.3476       541.5918         1.7666       -52.0603      -4.239277      0.9501262
     15042.5000         1.3295            551         1.7852       -51.7405      -3.929794      0.9537671
