#------------------------------------------------------------------------------
# Created by    : vladimir.rabinovich
# Created on    : 09/19/2023 17:20:43
#------------------------------------------------------------------------------
~Version Information Section
VERS.           2.0     :   CWLS log ASCII Standard - VERSION 2.0
WRAP.           NO      :   One line per depth step
~Well Information Section
#MNEM       .UNIT                                         VALUE :DESCRIPTION
#------------------------------------------------------------------------------
STRT        .FT                                             451 :START DEPTH
STOP        .FT                                           17302 :STOP DEPTH
STEP        .FT                                             0.5 :STEP      
NULL        .                                           -999.25 :NULL      
COMP        .                                  W&T OFFSHORE INC :COMPANY   
WELL        .                                OCS 00334 ST00BP00 :WELL      
FLD         .                             SHIP SHOAL BLOCK 0032 :FIELD     
LOC         .                                                   :LOCATION  
CNTY        .                                        SHIP SHOAL :LOCATION  
STAT        .                                         LOUISIANA :STATE     
CTRY        .                                     UNITED STATES :COUNTRY   
SRVC        .                                                   :SERVICE COMPANY
DATE        .                             9/13/2023 11:18:42 AM :LOG DATE  
API         .                                    17711008030000 :API NUMBER
UWI         .                                    17711008030000 :UNIQUE WELL ID
XCOORD      .                                  2185983.65749983 :SURFACE X 
YCOORD      .                                   10573932.603619 :SURFACE Y 
LAT         .                                         29.125681 :LATITUDE  
LON         .                                       -91.2908142 :LONGITUDE 
ELEV        .FT                                              61 :ELEVATION VALUE
ELEV_TYPE   .                                                KB :ELEVATION REFERENCE TYPE
~Curve Information Section
#MNEM       .UNIT                                      API CODE :CURVE DESCRIPTION
#------------------------------------------------------------------------------
DEPT        .FT                                                 :DEPTH     
ASN         .OHMM                                               :          
CILD        .MMHO                                               :          
ILD         .OHMM                                               :          
SP          .MV                                                 :          
SP_NORM     .MV                                                 :SP Normalized
VSH_SP      .V/V                                                :Volume of Shale from SP
~A        DEPTH            ASN           CILD            ILD             SP        SP_NORM         VSH_SP
# ...
     13903.0000         1.3151       723.1348         1.3954       -60.7328      -4.354408      0.9487717
     13903.5000         1.3522       715.5049         1.4049       -60.6196      -4.231834      0.9502137
     13904.0000         1.3667        707.875          1.412       -60.4751      -4.077961       0.952024
     13904.5000         1.3608       700.2451         1.4168       -60.2586      -3.852085      0.9546813
     13905.0000         1.3542       694.1514         1.4217       -60.0421      -3.626213      0.9573387
     13905.5000         1.3456         691.54         1.4241       -59.7526      -3.327343      0.9608548
     13906.0000         1.3399       688.9355         1.4237       -59.3889      -2.954269      0.9652439
     13906.5000         1.3368       686.3242         1.4234       -59.0252      -2.581196       0.969633
     13907.0000         1.3379         685.54          1.423       -58.6615      -2.208122      0.9740221
     13907.5000         1.3399       689.6387         1.4223       -58.1864      -1.723648      0.9797218
     13908.0000         1.3432       693.7256         1.4156        -57.652      -1.179874      0.9861192
     13908.5000         1.3372       698.0469          1.409       -57.1163        -0.6348      0.9925318
     13909.0000         1.3301       704.9492         1.4023       -56.5596     -0.0687294      0.9991914
     13909.5000         1.3058       711.8506         1.3957       -56.0338      0.4664459              1
     13910.0000         1.2818        718.752         1.3855       -55.6218      0.8878174              1
     13910.5000         1.2615       726.3203         1.3735       -55.2098       1.309193              1
     13911.0000         1.2458       739.4082         1.3614       -54.8208       1.707565              1
     13911.5000         1.2355       752.5195         1.3476       -54.4694        2.06834              1
     13912.0000         1.2321       765.6074         1.3286       -54.1181       2.429012              1
     13912.5000         1.2302       778.6455         1.3095       -53.8286       2.727882              1
     13913.0000         1.2266       791.6582         1.2903       -53.5422       3.023659              1
     13913.5000         1.2218       804.6465         1.2684       -53.0573       3.517933              1
     13914.0000         1.2139       814.5986         1.2466       -52.4139       4.170708              1
     13914.5000         1.2038       822.6973         1.2303       -52.2854       4.308578              1
     13915.0000         1.1932       830.7969         1.2201       -52.3453       4.258053              1
     13915.5000         1.1811        834.834         1.2098       -52.4051       4.207623              1
     13916.0000         1.1659       838.1309         1.2117        -52.465       4.157097              1
     13916.5000         1.1618       835.2168         1.2192       -52.5383        4.09317              1
     13917.0000         1.1697       831.2168         1.2267        -52.705       3.935844              1
     13917.5000         1.1776       827.2168         1.2347       -52.8716       3.778618              1
     13918.0000          1.191       818.5488         1.2429       -53.1017       3.557892              1
     13918.5000         1.2081       803.3379         1.2511        -53.776       2.892963              1
     13919.0000         1.2278         785.46         1.2591       -54.5134       2.164936              1
     13919.5000         1.2477       767.9531         1.2665       -55.3793       1.308411              1
     13920.0000         1.2653       756.7178          1.274       -56.1934       0.503685              1
     13920.5000         1.2871       747.8037         1.2841       -57.0025     -0.2960396      0.9965172
     13921.0000         1.3232        744.624         1.2985       -58.0812      -1.365368      0.9839368
     13921.5000         1.3154       742.3467         1.3127       -58.9497      -2.224495      0.9738294
     13922.0000         1.3075       740.7734         1.3255       -59.3889      -2.654324      0.9687726
     13922.5000         1.3007       741.4326         1.3286       -59.8268      -3.082851      0.9637312
     13923.0000          1.294       742.0928         1.3317       -60.2116      -3.458275      0.9593144
     13923.5000         1.2895       744.6924         1.3348       -60.5964      -3.833702      0.9548976
     13924.0000          1.297       753.7051         1.3324       -60.9811      -4.209026      0.9504821
     13924.5000         1.3273       762.6934         1.3276       -61.4141      -4.632656      0.9454982
     13925.0000         1.3475       771.7061         1.2849       -62.0055      -5.214684      0.9386508
     13925.5000         1.3735       780.7197          1.216       -62.5968      -5.796612      0.9318045
     13926.0000         1.3914       789.7324         1.1272       -63.4851      -6.675533      0.9214643
     13926.5000          1.389       808.1777         1.0476       -64.3386      -7.519661      0.9115334
     13927.0000         1.3595        827.834         0.9492       -65.0908      -8.262486      0.9027943
     13927.5000         1.2998         865.96         0.8585       -65.8505      -9.012817      0.8939669
     13928.0000         1.1887        909.123         0.7782       -67.1123      -10.26524      0.8792325
     13928.5000          1.271       1043.156         0.7214       -69.0027      -12.14627      0.8571027
     13929.0000         1.3692       1266.777          0.675       -86.8719       -30.0061      0.6469871
     13929.5000         1.4787       1362.783         0.6416       -95.3834      -38.50822      0.5469621
     13930.0000         1.5334       1430.146         0.6082       -101.777      -44.89245      0.4718536
     13930.5000         1.5854       1475.186         0.5909      -107.1116      -50.21768      0.4092038
     13931.0000         2.2095        1511.83         0.5814      -110.4122       -53.5089      0.3704835
     13931.5000         2.1986       1534.104         0.5748      -113.1538      -56.24113      0.3383396
     13932.0000         2.1693       1494.545          0.606      -113.4011      -56.47906      0.3355405
     13932.5000         2.0982       1448.912         0.6373      -111.0951      -54.16368      0.3627802
     13933.0000         1.9246       1405.256         0.7008      -108.1705      -51.22971      0.3972975
     13933.5000          1.602       1360.709         0.7718      -105.1915      -48.24133      0.4324549
     13934.0000         1.3787       1315.076         0.8677      -101.6781      -44.71856      0.4738992
     13934.5000         1.2862        1262.43         0.9541       -97.3629      -40.39399      0.5247766
     13935.0000         1.2476       1185.783         1.0253       -91.7809      -34.80262      0.5905575
     13935.5000         1.2144       1115.063         1.0847       -86.1593      -29.17164      0.6568042
     13936.0000         1.1816       1017.871          1.119       -77.8458      -20.84877      0.7547203
     13936.5000         1.1493       937.8662         1.1481       -70.8188       -13.8124      0.8375012
     13937.0000         1.1447       877.6152         1.1624       -68.5104      -11.49462      0.8647692
     13937.5000         1.1443       835.6367         1.1766       -67.7681      -10.74295      0.8736124
     13938.0000         1.1454       814.2529          1.191       -69.0126      -11.97808      0.8590814
     13938.5000         1.1468       834.0566         1.2033       -70.2596       -13.2157      0.8445212
     13939.0000         1.1507       842.5752         1.2083       -71.6229      -14.56963      0.8285926
     13939.5000         1.1553       851.0947         1.2133       -73.0852      -16.02255      0.8114994
     13940.0000         1.1609       859.6133         1.2183       -74.0824      -17.01038      0.7998779
     13940.5000         1.1665       867.3135         1.2233       -74.5426      -17.46121       0.794574
