#------------------------------------------------------------------------------
# Created by    : vladimir.rabinovich
# Created on    : 09/19/2023 17:20:43
#------------------------------------------------------------------------------
~Version Information Section
VERS.           2.0     :   CWLS log ASCII Standard - VERSION 2.0
WRAP.           NO      :   One line per depth step
~Well Information Section
#MNEM       .UNIT                                         VALUE :DESCRIPTION
#------------------------------------------------------------------------------
STRT        .FT                                             451 :START DEPTH
STOP        .FT                                           17302 :STOP DEPTH
STEP        .FT                                             0.5 :STEP      
NULL        .                                           -999.25 :NULL      
COMP        .                                  W&T OFFSHORE INC :COMPANY   
WELL        .                                OCS 00334 ST00BP00 :WELL      
FLD         .                             SHIP SHOAL BLOCK 0032 :FIELD     
LOC         .                                                   :LOCATION  
CNTY        .                                        SHIP SHOAL :LOCATION  
STAT        .                                         LOUISIANA :STATE     
CTRY        .                                     UNITED STATES :COUNTRY   
SRVC        .                                                   :SERVICE COMPANY
DATE        .                             9/13/2023 11:18:42 AM :LOG DATE  
API         .                                    17711008030000 :API NUMBER
UWI         .                                    17711008030000 :UNIQUE WELL ID
XCOORD      .                                  2185983.65749983 :SURFACE X 
YCOORD      .                                   10573932.603619 :SURFACE Y 
LAT         .                                         29.125681 :LATITUDE  
LON         .                                       -91.2908142 :LONGITUDE 
ELEV        .FT                                              61 :ELEVATION VALUE
ELEV_TYPE   .                                                KB :ELEVATION REFERENCE TYPE
~Curve Information Section
#MNEM       .UNIT                                      API CODE :CURVE DESCRIPTION
#------------------------------------------------------------------------------
DEPT        .FT                                                 :DEPTH     
ASN         .OHMM                                               :          
CILD        .MMHO                                               :          
ILD         .OHMM                                               :          
SP          .MV                                                 :          
SP_NORM     .MV                                                 :SP Normalized
VSH_SP      .V/V                                                :Volume of Shale from SP
~A        DEPTH            ASN           CILD            ILD             SP        SP_NORM         VSH_SP
# ...
      4935.0000         0.5098       3353.902         0.3951      -141.0042      -13.19628      0.7396213
      4935.5000         0.5268       3144.316         0.4394      -139.9082      -12.11014      0.7648805
      4936.0000         0.5437       2934.734         0.4763      -138.8235      -11.03529      0.7898771
      4936.5000         0.5599       2725.152         0.5017      -137.8267      -10.04834      0.8128293
      4937.0000         0.5731        2515.57         0.5271      -136.9553       -9.18679      0.8328654
      4937.5000         0.5838       1621.963         0.5525      -137.0183      -9.259628      0.8311715
      4938.0000         0.5851       1583.344         0.5505      -136.8269      -9.078087      0.8353933
      4938.5000         0.5904       1563.074         0.5425      -136.0854      -8.346436      0.8524085
      4939.0000         0.6011       1610.898         0.5345      -135.0542      -7.325081      0.8761609
      4939.5000         0.6097       1662.307         0.5044      -133.9966      -6.277328      0.9005272
      4940.0000         0.6154       1752.756         0.4698      -133.1016      -5.392181      0.9211121
      4940.5000         0.6211       1856.855         0.4353      -132.5474      -4.847832      0.9337714
      4941.0000         0.6231       1941.045         0.4008      -132.5957      -4.905991      0.9324188
      4941.5000         0.6143         2017.1         0.3718      -134.2749      -6.595039      0.8931386
      4942.0000         0.6065       2078.711         0.3598       -136.365      -8.694992      0.8443025
      4942.5000            0.6       2125.289         0.3478      -139.9131      -12.25294      0.7615596
      4943.0000         0.5934       2171.918         0.3508       -142.033      -14.38269      0.7120305
      4943.5000         0.5868       2123.813         0.3972      -143.3237      -15.68324      0.6817852
      4944.0000         0.5903       1831.027         0.4359      -142.7644      -15.13379       0.694563
      4944.5000         0.6175       1692.227         0.4657      -140.5925      -12.97173      0.7448434
      4945.0000         0.6466       1597.688         0.4955      -140.2324      -12.62149      0.7529886
      4945.5000         0.6683       1565.094         0.5253      -139.8723      -12.27123      0.7611341
      4946.0000         0.6745       1545.637          0.553      -139.5518      -11.96059      0.7683585
      4946.5000         0.6806        1526.18         0.5622      -139.5488      -11.96743      0.7681993
      4947.0000         0.6867       1507.229         0.5715      -139.4434      -11.87189      0.7704212
      4947.5000         0.6929       1489.717         0.5778      -138.5085      -10.94683      0.7919342
      4948.0000         0.6953       1486.711         0.5628      -137.5745      -10.02267      0.8134262
      4948.5000         0.6949       1521.189         0.5479      -136.6404      -9.098427      0.8349203
      4949.0000          0.687       1554.387         0.5329      -135.4998      -7.967682      0.8612167
      4949.5000         0.6767       1587.016         0.5295      -134.3406      -6.818336      0.8879457
      4950.0000         0.6665       1619.621         0.5268      -133.1826      -5.670189      0.9146467
      4950.5000         0.6563       1652.229         0.5242      -132.1897      -4.687134      0.9375085
      4951.0000         0.6491       1657.279         0.5215        -131.26      -3.767281      0.9589005
      4951.5000         0.6419       1598.648         0.5243      -131.1497       -3.66684      0.9612363
      4952.0000         0.6639       1561.213         0.5369       -131.104      -3.630989        0.96207
      4952.5000         0.6867       1523.801         0.5495      -130.9475      -3.484329      0.9654807
      4953.0000         0.7031       1486.391         0.5621      -130.0171      -2.563789      0.9868886
      4953.5000         0.7103       1448.955         0.5747      -129.0867      -1.643234              1
      4954.0000         0.7175       1422.412         0.5873      -128.2529     -0.8192825              1
      4954.5000         0.7247       1396.436         0.5999      -127.8914     -0.4676361              1
      4955.0000          0.729       1370.436         0.6182       -128.387     -0.9730759              1
      4955.5000          0.724       1344.434          0.638      -128.8496      -1.445526              1
      4956.0000         0.7197       1319.494         0.6579      -129.3123      -1.918083              1
      4956.5000         0.7157       1295.982         0.6777      -129.7751      -2.390732      0.9909132
      4957.0000         0.7118       1272.471         0.6976      -129.4709      -2.096382      0.9977586
      4957.5000         0.7146       1248.959         0.7174      -127.5905     -0.2258301              1
      4958.0000         0.7185       1226.877         0.7373      -126.3197       1.035118              1
      4958.5000         0.7225       1206.605         0.7571      -125.0936       2.251373              1
      4959.0000         0.7111       1238.953         0.7209      -124.0863       3.248817              1
      4959.5000         0.6744       1597.787         0.5965      -123.5081       3.817162              1
      4960.0000         0.6284       2055.594         0.4686      -124.9523       2.363113              1
      4960.5000         0.5896       2513.402         0.3694      -130.2632      -2.957634      0.9777294
      4961.0000           0.56       2735.996         0.3077      -135.5791      -8.283386      0.8538747
      4961.5000         0.5309       2917.188          0.246       -140.947      -13.66114      0.7288107
      4962.0000         0.5038       3109.617          0.186      -144.9116      -17.63559      0.6363816
      4962.5000         0.4791           4003          0.173      -148.9854      -21.71923      0.5414132
      4963.0000         0.4637       4203.953           0.16      -151.0483      -23.79198      0.4932098
      4963.5000         0.4482       4336.641         0.1471      -152.9897      -25.74323      0.4478318
      4964.0000         0.4382       4465.688         0.1366      -154.5283      -27.29169      0.4118212
      4964.5000         0.5016       4121.047         0.1739      -155.4612      -28.23443       0.389897
      4965.0000         0.5241       4041.313         0.2112       -156.554      -29.33708      0.3642539
      4965.5000         0.5465        3977.75         0.2485      -158.0762      -30.86913      0.3286248
      4966.0000          0.569       3914.188         0.3455      -154.3684      -27.17117      0.4146239
      4966.5000         0.5925       3850.625          0.451      -149.8755      -22.68813      0.5188806
      4967.0000         0.6262       3359.617         0.5564      -145.3828      -18.20528      0.6231331
      4967.5000         0.6599       2322.551         0.6119      -138.5891      -11.42142      0.7808971
      4968.0000         0.6941       1285.482         0.6627      -132.3931      -5.235275      0.9247611
      4968.5000         0.7192       1190.551         0.7135      -131.6895      -4.541527      0.9408947
      4969.0000         0.7289       1128.789         0.7643      -130.9866       -3.84848      0.9570121
      4969.5000         0.7386       1082.998         0.7809       -130.283      -3.154739      0.9731456
      4970.0000         0.7202       1047.139         0.7958      -129.9036      -2.785179        0.98174
      4970.5000         0.6826       1281.934         0.8107       -129.647      -2.538437      0.9874782
      4971.0000         0.6504       1382.191         0.7667      -129.3904      -2.291679      0.9932168
      4971.5000         0.6223       1493.389         0.7051      -129.1536      -2.064728      0.9984947
      4972.0000          0.596       1612.869         0.5826      -129.0513      -1.972282              1
      4972.5000           0.58        1732.35         0.4586      -128.9492      -1.880035              1
