#------------------------------------------------------------------------------
# Created by    : vladimir.rabinovich
# Created on    : 09/19/2023 17:20:43
#------------------------------------------------------------------------------
~Version Information Section
VERS.           2.0     :   CWLS log ASCII Standard - VERSION 2.0
WRAP.           NO      :   One line per depth step
~Well Information Section
#MNEM       .UNIT                                         VALUE :DESCRIPTION
#------------------------------------------------------------------------------
STRT        .FT                                             451 :START DEPTH
STOP        .FT                                           17302 :STOP DEPTH
STEP        .FT                                             0.5 :STEP      
NULL        .                                           -999.25 :NULL      
COMP        .                                  W&T OFFSHORE INC :COMPANY   
WELL        .                                OCS 00334 ST00BP00 :WELL      
FLD         .                             SHIP SHOAL BLOCK 0032 :FIELD     
LOC         .                                                   :LOCATION  
CNTY        .                                        SHIP SHOAL :LOCATION  
STAT        .                                         LOUISIANA :STATE     
CTRY        .                                     UNITED STATES :COUNTRY   
SRVC        .                                                   :SERVICE COMPANY
DATE        .                             9/13/2023 11:18:42 AM :LOG DATE  
API         .                                    17711008030000 :API NUMBER
UWI         .                                    17711008030000 :UNIQUE WELL ID
XCOORD      .                                  2185983.65749983 :SURFACE X 
YCOORD      .                                   10573932.603619 :SURFACE Y 
LAT         .                                         29.125681 :LATITUDE  
LON         .                                       -91.2908142 :LONGITUDE 
ELEV        .FT                                              61 :ELEVATION VALUE
ELEV_TYPE   .                                                KB :ELEVATION REFERENCE TYPE
~Curve Information Section
#MNEM       .UNIT                                      API CODE :CURVE DESCRIPTION
#------------------------------------------------------------------------------
DEPT        .FT                                                 :DEPTH     
ASN         .OHMM                                               :          
CILD        .MMHO                                               :          
ILD         .OHMM                                               :          
SP          .MV                                                 :          
SP_NORM     .MV                                                 :SP Normalized
VSH_SP      .V/V                                                :Volume of Shale from SP
~A        DEPTH            ASN           CILD            ILD             SP        SP_NORM         VSH_SP
# ...
     17247.0000         1.3091       816.5586         1.3492       -45.4743      -1.029854       0.987884
     17247.5000         1.3063       815.4063         1.3466       -45.4138     -0.9693527      0.9885958
     17248.0000         1.3028       815.9404          1.344       -45.3533     -0.9088516      0.9893076
     17248.5000         1.2992       817.0654         1.3414       -45.2928     -0.8483543      0.9900194
     17249.0000         1.2956       818.1934         1.3388       -45.2323     -0.7878532      0.9907311
     17249.5000          1.292       819.3184         1.3362       -45.0953     -0.6508522      0.9923429
     17250.0000         1.2886       820.4473         1.3344       -44.9503     -0.5058517      0.9940488
     17250.5000         1.2851       821.5723         1.3335       -44.8051     -0.3606529       0.995757
     17251.0000         1.2816       824.1865         1.3327         -44.66     -0.2155533      0.9974641
     17251.5000         1.2784       826.9375         1.3318       -44.5266    -0.08215332      0.9990335
     17252.0000         1.2752       829.6885         1.3309        -44.406     0.03844833              1
     17252.5000          1.272       832.4395           1.33       -44.2855       0.158947              1
     17253.0000         1.2688       835.1895         1.3289        -44.165      0.2794456              1
     17253.5000         1.2743       837.9404         1.3275       -44.0444      0.4000473              1
     17254.0000         1.2816       840.1533          1.326       -43.9561      0.4883461              1
     17254.5000         1.2895       841.8223         1.3246       -43.8887       0.555748              1
     17255.0000         1.2973       843.4912         1.3231       -43.8215      0.6229477              1
     17255.5000         1.3059        845.167         1.3217       -43.8076      0.6368484              1
     17256.0000         1.3139       846.8359         1.3203        -44.043      0.4014473              1
     17256.5000         1.3132       848.5049         1.3211       -44.2468      0.1976471              1
     17257.0000         1.3044       848.3936          1.322        -44.264      0.1804466              1
     17257.5000          1.297        847.417         1.3229       -44.2813       0.163147              1
     17258.0000         1.2979       846.4404         1.3238       -44.2985      0.1459465              1
     17258.5000         1.2988         845.46         1.3247       -44.3199      0.1245461              1
     17259.0000         1.2998       844.4834         1.3256        -44.351     0.09344482              1
     17259.5000         1.3043       843.5068         1.3266       -44.3821     0.06234741              1
     17260.0000         1.3098       839.7021         1.3327       -44.4133       0.031147              1
     17260.5000         1.3144       832.4326         1.3391       -44.4337       0.010746              1
     17261.0000         1.3174       825.1631         1.3454       -44.4237     0.02074814              1
     17261.5000         1.3225       817.8936         1.3561       -44.4138     0.03064728              1
     17262.0000         1.3309        810.624         1.3669       -44.4038      0.0406456              1
     17262.5000         1.3479       803.3545         1.3777       -44.3939     0.05054474              1
     17263.0000         1.3899       794.6016         1.3939       -44.3863     0.05814743              1
     17263.5000         1.4361       785.5273         1.4117       -44.3881     0.05634689              1
     17264.0000         1.4322       776.4531         1.4293       -44.3899     0.05454636              1
     17264.5000         1.4218       767.3779         1.4448       -44.3917     0.05274582              1
     17265.0000         1.4094       762.8164         1.4593       -44.3934     0.05104828              1
     17265.5000         1.3964       758.2422         1.4669       -44.3878     0.05664825              1
     17266.0000         1.3803        753.668         1.4741       -44.3763     0.06814575              1
     17266.5000         1.3733       749.0811         1.4778       -44.3647     0.07974625              1
     17267.0000         1.3847       744.5068         1.4813       -44.3531     0.09134674              1
     17267.5000         1.4036       740.4609         1.4827       -44.3356      0.1088448              1
     17268.0000         1.4307       738.9746         1.4841       -44.2683      0.1761475              1
     17268.5000         1.4597       737.4902         1.4854       -44.2011      0.2433472              1
     17269.0000         1.4863       736.0039         1.4867       -44.1339      0.3105469              1
     17269.5000         1.4825       734.5176         1.4879       -43.9767      0.4677467              1
     17270.0000         1.4546       733.0342         1.4877       -43.7751      0.6693459              1
     17270.5000         1.4263       731.5469         1.4875       -43.5767      0.8677483              1
     17271.0000         1.3877       732.0166         1.4871       -43.4478      0.9966469              1
     17271.5000         1.3738       732.5996         1.4855       -43.3711       1.073345              1
     17272.0000         1.3791       733.1816         1.4839       -43.4745      0.9699478              1
     17272.5000         1.3843       733.7646         1.4832       -43.5778      0.8666458              1
     17273.0000         1.3896       734.3486         1.4851       -43.6812      0.7632484              1
     17273.5000         1.4007       735.2842         1.4869       -43.7846      0.6598473              1
     17274.0000         1.4329        738.832         1.4888        -43.888      0.5564461              1
     17274.5000         1.4601       742.3682         1.4889        -43.927      0.5174484              1
     17275.0000         1.4704        745.916         1.4871       -43.9637      0.4807472              1
     17275.5000         1.4592       750.8369         1.4849       -44.0004       0.444046              1
     17276.0000         1.4471       757.1172         1.4771       -44.0371      0.4073448              1
     17276.5000          1.435       763.3975         1.4692       -44.0737      0.3707466              1
     17277.0000         1.4284       769.6533         1.4614       -44.1105      0.3339462              1
     17277.5000         1.4226       773.4111         1.4548       -44.1472       0.297245              1
     17278.0000         1.4173       776.0762         1.4499       -44.1838      0.2606468              1
     17278.5000         1.4123       778.7461          1.445       -44.1909      0.2535477              1
     17279.0000          1.404       781.4102         1.4401       -44.1642      0.2802467              1
     17279.5000         1.3917       784.0742         1.4369       -44.1376      0.3068466              1
     17280.0000         1.3917       781.1504           1.44        -44.111      0.3334465              1
     17280.5000         1.3956       777.4668          1.443       -44.0844      0.3600464              1
     17281.0000         1.4047       773.7705         1.4461       -44.0578      0.3866463              1
     17281.5000         1.4139       769.9248         1.4522       -44.0322      0.4122467              1
     17282.0000         1.4201       763.5957         1.4604       -44.0105      0.4339447              1
     17282.5000         1.4256       757.2656         1.4686       -43.9888      0.4556465              1
     17283.0000         1.4319       750.9111         1.4764        -43.967      0.4774475              1
     17283.5000         1.4393       744.5811         1.4841       -43.9454      0.4990463              1
     17284.0000         1.4503       741.3916         1.4917       -43.9285      0.5159454              1
     17284.5000         1.4665       738.8076         1.4969       -43.9404      0.5040474              1
