#------------------------------------------------------------------------------
# Created by    : vladimir.rabinovich
# Created on    : 09/19/2023 17:20:43
#------------------------------------------------------------------------------
~Version Information Section
VERS.           2.0     :   CWLS log ASCII Standard - VERSION 2.0
WRAP.           NO      :   One line per depth step
~Well Information Section
#MNEM       .UNIT                                         VALUE :DESCRIPTION
#------------------------------------------------------------------------------
STRT        .FT                                             451 :START DEPTH
STOP        .FT                                           17302 :STOP DEPTH
STEP        .FT                                             0.5 :STEP      
NULL        .                                           -999.25 :NULL      
COMP        .                                  W&T OFFSHORE INC :COMPANY   
WELL        .                                OCS 00334 ST00BP00 :WELL      
FLD         .                             SHIP SHOAL BLOCK 0032 :FIELD     
LOC         .                                                   :LOCATION  
CNTY        .                                        SHIP SHOAL :LOCATION  
STAT        .                                         LOUISIANA :STATE     
CTRY        .                                     UNITED STATES :COUNTRY   
SRVC        .                                                   :SERVICE COMPANY
DATE        .                             9/13/2023 11:18:42 AM :LOG DATE  
API         .                                    17711008030000 :API NUMBER
UWI         .                                    17711008030000 :UNIQUE WELL ID
XCOORD      .                                  2185983.65749983 :SURFACE X 
YCOORD      .                                   10573932.603619 :SURFACE Y 
LAT         .                                         29.125681 :LATITUDE  
LON         .                                       -91.2908142 :LONGITUDE 
ELEV        .FT                                              61 :ELEVATION VALUE
ELEV_TYPE   .                                                KB :ELEVATION REFERENCE TYPE
~Curve Information Section
#MNEM       .UNIT                                      API CODE :CURVE DESCRIPTION
#------------------------------------------------------------------------------
DEPT        .FT                                                 :DEPTH     
ASN         .OHMM                                               :          
CILD        .MMHO                                               :          
ILD         .OHMM                                               :          
SP          .MV                                                 :          
SP_NORM     .MV                                                 :SP Normalized
VSH_SP      .V/V                                                :Volume of Shale from SP
~A        DEPTH            ASN           CILD            ILD             SP        SP_NORM         VSH_SP
# ...
     10521.0000         0.6271       1754.336         0.5317       -87.4738       12.88716              1
     10521.5000         0.6191       1785.363         0.5296       -85.6643       14.69031              1
     10522.0000         0.6337       1816.393         0.5294       -86.2485       14.09976              1
     10522.5000         0.6478       1808.895         0.5314       -90.3451       9.996803              1
     10523.0000         0.6617       1788.471         0.5335       -94.7313       5.604256              1
     10523.5000         0.6755           1768         0.5355       -98.6472       1.681999              1
     10524.0000         0.6654       1747.578         0.5393      -102.1125       -1.78965      0.9789453
     10524.5000         0.6505       1732.803         0.5504       -104.266      -3.949501      0.9535353
     10525.0000         0.6419        1719.41          0.556       -101.568      -1.257851      0.9852018
     10525.5000         0.6394       1706.018          0.553       -98.8699       1.433891              1
     10526.0000         0.6369       1693.563         0.5499        -96.167       4.130447              1
     10526.5000         0.6343       1751.277         0.5247       -93.4689       6.822189              1
     10527.0000         0.6318       1821.029         0.4981        -91.251       9.033745              1
     10527.5000         0.6279       1923.041         0.4715       -89.7609       10.51749              1
     10528.0000         0.6231       2025.252          0.445       -93.0481       7.223938              1
     10528.5000         0.6183       2127.164         0.4185       -97.6323       2.633392              1
     10529.0000         0.6274       2203.133         0.3946      -102.2166       -1.95726      0.9769734
     10529.5000         0.6535           2279         0.3826      -105.0482      -4.795212      0.9435858
     10530.0000         0.6625       2354.969         0.3706      -107.8453      -7.598663      0.9106039
     10530.5000          0.671       2421.266         0.3585      -110.6423      -10.40202      0.8776233
     10531.0000         0.6605        2393.84         0.3545      -111.9722      -11.73827      0.8619028
     10531.5000         0.6499       2232.336         0.3683      -110.3453      -10.11771      0.8809681
     10532.0000         0.6394       2159.523         0.3822      -105.3551      -5.133873      0.9396015
     10532.5000         0.6288       2086.715          0.396       -100.365      -0.150116      0.9982339
     10533.0000         0.6352       2013.906         0.4098         -99.36       0.848526              1
     10533.5000         0.6445       1989.865         0.4237       -98.5148       1.687378              1
     10534.0000         0.6538       1991.371         0.4375       -97.6694       2.526421              1
     10534.5000         0.6518       1996.309         0.4463       -96.8582       3.331276              1
     10535.0000         0.6483       2003.275         0.4525       -97.1533       3.029823              1
     10535.5000         0.6447       1986.873         0.4587       -97.4479       2.728874              1
     10536.0000         0.6402       1931.922         0.4649        -97.743       2.427422              1
     10536.5000         0.6357       1876.869         0.4711       -98.0382        2.12587              1
     10537.0000         0.6311       1821.916         0.4774       -97.4974       2.660316              1
     10537.5000         0.6372        1771.65         0.4836       -96.6434       3.507965              1
     10538.0000         0.6472       1738.748         0.4898       -95.7894       4.355614              1
     10538.5000         0.6572       1705.895          0.497       -94.9354       5.203262              1
     10539.0000         0.6672       1672.992         0.5095       -94.0815       6.050812              1
     10539.5000         0.6755       1640.139         0.5218       -93.2275        6.89846              1
     10540.0000         0.6809       1637.281         0.5343       -92.3501       7.769516              1
     10540.5000         0.6862       1636.695         0.5467        -91.402       8.711258              1
     10541.0000         0.6916       1636.111         0.5591       -90.4528       9.654114              1
     10541.5000         0.6812       1635.525         0.5715       -89.5035       10.59705              1
     10542.0000         0.6704       1634.941          0.576       -89.7163       10.37791              1
     10542.5000         0.6606        1633.75         0.5774       -92.4293       7.658554              1
     10543.0000         0.6656       1622.922         0.5789       -95.5828       4.498703              1
     10543.5000         0.6705       1612.096         0.5803       -98.7561       1.319046              1
     10544.0000         0.6755       1601.242         0.5817      -101.9244      -1.855598      0.9781694
     10544.5000         0.6805       1590.414         0.5831      -103.7635       -3.70105      0.9564582
     10545.0000         0.6855       1579.563         0.5845      -105.2141      -5.158005      0.9393176
     10545.5000         0.6905       1568.586          0.586       -104.974      -4.924255      0.9420676
     10546.0000         0.6941       1555.588         0.5874      -102.4541      -2.410706      0.9716387
     10546.5000         0.6974        1542.59         0.5902       -99.9418     0.09523773              1
     10547.0000         0.7007       1529.566         0.5992       -99.1385      0.8921967              1
     10547.5000         0.7041       1516.568         0.6082        -98.334       1.690338              1
     10548.0000         0.7074        1503.57         0.6171       -97.5308        2.48719              1
     10548.5000         0.7107       1490.549         0.6261       -97.1533       2.858337              1
     10549.0000         0.7125       1486.873         0.6351       -97.9689       2.036385              1
     10549.5000         0.7133       1493.188          0.644       -98.9343       1.064629              1
     10550.0000          0.714       1499.514          0.653       -99.9343     0.05828094              1
     10550.5000         0.7148       1505.828         0.6608      -100.9368     -0.9505692      0.9888169
     10551.0000         0.7144       1512.143          0.659      -101.9368      -1.956917      0.9769775
     10551.5000         0.7119       1518.455         0.6572      -102.9393      -2.965775      0.9651085
     10552.0000         0.7093       1524.783         0.6555      -103.9393      -3.972122      0.9532691
     10552.5000         0.7068       1520.664         0.6537      -103.9121      -3.951271      0.9535145
     10553.0000         0.7109       1507.566         0.6519      -103.4659      -3.511421      0.9586892
     10553.5000         0.7181       1494.469         0.6502      -103.0192      -3.071075      0.9638697
     10554.0000         0.7252       1481.373         0.6484       -102.573      -2.631226      0.9690444
     10554.5000         0.7324       1468.301         0.6466      -102.1268      -2.191376      0.9742191
     10555.0000         0.7396       1455.203         0.6511      -101.2833      -1.354233      0.9840679
     10555.5000         0.7467       1442.107         0.6556      -100.4083     -0.4855804      0.9942873
     10556.0000         0.7539       1435.742         0.6601       -99.5333      0.3830643              1
     10556.5000         0.7564       1431.477         0.6646       -98.6583       1.251717              1
     10557.0000         0.7569       1427.209         0.6691       -97.7833       2.120361              1
     10557.5000         0.7575       1422.941         0.6753       -97.0166       2.880714              1
     10558.0000         0.7581       1418.682          0.683       -96.6205       3.270462              1
     10558.5000         0.7569       1414.414         0.6907       -96.7833       3.101311              1
