#------------------------------------------------------------------------------
# Created by    : vladimir.rabinovich
# Created on    : 09/19/2023 17:20:43
#------------------------------------------------------------------------------
~Version Information Section
VERS.           2.0     :   CWLS log ASCII Standard - VERSION 2.0
WRAP.           NO      :   One line per depth step
~Well Information Section
#MNEM       .UNIT                                         VALUE :DESCRIPTION
#------------------------------------------------------------------------------
STRT        .FT                                             451 :START DEPTH
STOP        .FT                                           17302 :STOP DEPTH
STEP        .FT                                             0.5 :STEP      
NULL        .                                           -999.25 :NULL      
COMP        .                                  W&T OFFSHORE INC :COMPANY   
WELL        .                                OCS 00334 ST00BP00 :WELL      
FLD         .                             SHIP SHOAL BLOCK 0032 :FIELD     
LOC         .                                                   :LOCATION  
CNTY        .                                        SHIP SHOAL :LOCATION  
STAT        .                                         LOUISIANA :STATE     
CTRY        .                                     UNITED STATES :COUNTRY   
SRVC        .                                                   :SERVICE COMPANY
DATE        .                             9/13/2023 11:18:42 AM :LOG DATE  
API         .                                    17711008030000 :API NUMBER
UWI         .                                    17711008030000 :UNIQUE WELL ID
XCOORD      .                                  2185983.65749983 :SURFACE X 
YCOORD      .                                   10573932.603619 :SURFACE Y 
LAT         .                                         29.125681 :LATITUDE  
LON         .                                       -91.2908142 :LONGITUDE 
ELEV        .FT                                              61 :ELEVATION VALUE
ELEV_TYPE   .                                                KB :ELEVATION REFERENCE TYPE
~Curve Information Section
#MNEM       .UNIT                                      API CODE :CURVE DESCRIPTION
#------------------------------------------------------------------------------
DEPT        .FT                                                 :DEPTH     
ASN         .OHMM                                               :          
CILD        .MMHO                                               :          
ILD         .OHMM                                               :          
SP          .MV                                                 :          
SP_NORM     .MV                                                 :SP Normalized
VSH_SP      .V/V                                                :Volume of Shale from SP
~A        DEPTH            ASN           CILD            ILD             SP        SP_NORM         VSH_SP
       451.0000         1.3077        -2.9312         6.7577       -99.8778      -1.465103              1
       451.5000         1.2645        -4.1738         6.3845       -99.9075      -1.494804              1
       452.0000         1.3355        -6.3386         6.2851       -99.9371      -1.524406              1
       452.5000         1.4514        -8.5042         6.6531      -100.4219      -2.009201              1
       453.0000         1.4988       -10.6689         7.0211      -102.0043      -3.591606      0.9651996
       453.5000         1.5956       -12.8342         7.6805      -119.7942      0.5388031              1
       454.0000         1.7851         2.3916         8.2952      -153.1643      -5.590103       0.847641
       454.5000         1.9289        944.123         8.6924      -160.0386      -3.145554       0.991438
       455.0000         1.9653        1091.49         8.9354      -164.2722      -5.487411      0.8536817
       455.5000         1.9949       1196.525         9.1587      -167.3828      -6.706253      0.7819851
       456.0000         2.0238       1247.789         9.2374      -169.6421      -7.073807      0.7603643
       456.5000         2.0528        255.636         9.3161      -171.0371      -6.577042      0.7895858
       457.0000         2.0818       207.7146         4.1691      -172.4258      -6.074005      0.8191762
       457.5000         2.1107       151.0098         3.6223      -173.5874      -5.343857      0.8621261
       458.0000         2.1739        84.5608         3.2605      -174.8037      -4.668396       0.901859
       458.5000         2.3383        87.6963         3.0475       -176.384      -4.596344      0.9060974
       459.0000          2.409       180.0801         2.9259      -177.5898      -4.667084      0.9019362
       459.5000         2.4713       265.3477         2.8534       -178.572      -4.514252      0.9109263
       460.0000         2.5178       326.4707         2.8052      -179.1453      -3.952484      0.9439715
       460.5000         2.5523       377.6221         2.9037      -179.7185      -3.390656      0.9770203
       461.0000          2.586       364.5029         2.9909      -180.2913        -2.8284              1
       461.5000         2.6082       351.3843          3.078      -180.6023      -2.004333              1
       462.0000         2.6304       347.9624         3.1652      -180.9133      -1.180298              1
       462.5000         2.6564       345.4839         3.1759      -181.1621     -0.2940369              1
       463.0000         2.6837       343.0054         3.1521      -181.2334     -0.6961212              1
       463.5000          2.711       340.5264         3.1165      -181.3044       -1.21553              1
       464.0000         2.7448       338.0483         3.0808      -181.3757       -1.73526              1
       464.5000         2.7795       331.5757         3.5288      -181.4468      -2.254761              1
       465.0000         2.8354       324.5508         3.6488      -181.5442      -2.800583              1
       465.5000         2.8914       317.5269         3.7688      -181.3899      -3.094681      0.9944305
       466.0000          2.916       310.5024         3.8858      -181.0024      -3.155609      0.9908465
       466.5000         2.9328       300.1523         3.9661      -180.5151       -3.11673      0.9931335
       467.0000         2.8817       284.6738         4.0464      -180.0281       -3.07814      0.9954035
       467.5000         2.8305       269.1963         4.1158      -179.4668      -2.965256              1
       468.0000         2.7904       253.6064         4.0253      -178.8618       -2.80867              1
       468.5000         2.7521       240.6338         3.2562      -178.3123      -2.707581              1
       469.0000         2.7302       289.5762         2.8533      -177.9045      -2.748184              1
       469.5000         2.7124       330.9072         2.6084      -177.4971      -2.789215              1
       470.0000         2.6945       372.2354         2.4159      -177.1775      -2.583191              1
       470.5000         2.6768       406.8516         2.2688      -176.1082      -1.525452              1
       471.0000         2.6637       433.0088         2.1968      -176.0469      -1.475723              1
       471.5000         2.6506        459.166         2.1467      -176.0376      -1.477982              1
       472.0000         2.6375       485.3252         2.0996      -176.0286       -1.48056              1
       472.5000         2.6255       503.6709         2.0546      -176.0193      -1.482834              1
       473.0000         2.6415       515.9023         2.2914      -175.9302      -1.405304              1
       473.5000         2.6726       488.4761         2.5588      -175.8123      -1.298965              1
       474.0000         2.7076       460.5786         2.6992      -175.6943      -1.192535              1
       474.5000         2.7426       432.6812         2.8396      -175.5764      -1.086197              1
       475.0000         2.7706       404.9868         2.9799      -175.5974      -1.118759              1
       475.5000         2.7946       392.6143         3.1085      -175.8057      -1.338638              1
       476.0000         2.8187       380.2417         3.2284      -176.0039      -1.548416              1
       476.5000         2.8396       367.8691         3.3484       -176.134      -1.690079              1
       477.0000         2.8553       355.4966         3.4338      -176.2642      -1.831848              1
       477.5000         2.8709       342.9331         3.4955      -176.3911      -1.970306              1
       478.0000          2.887       329.9043         3.5573      -176.4607      -2.051468              1
       478.5000          2.906        316.875         3.6169      -176.5576      -2.159943              1
       479.0000          2.925       303.8457         3.6551      -176.7139      -2.327805              1
       479.5000         2.9421       290.8164         3.6105      -177.0288      -2.654282              1
       480.0000         2.9539       291.4336         3.4961      -177.3875      -3.024551      0.9985558
       480.5000         2.9428       302.6313         3.3805      -177.7444      -3.393021      0.9768811
       481.0000         2.9317       313.8291          3.265      -178.0454      -3.705582      0.9584952
       481.5000         2.9207       325.0264         3.1495      -178.3022      -3.973953      0.9427086
       482.0000         2.9123       336.1196         3.0483      -178.5171      -4.200424      0.9293868
       482.5000         2.9064       342.1172         2.9862      -178.2761      -3.970978      0.9428837
       483.0000         2.9006       348.1147         2.9242      -178.0354      -3.741852      0.9563617
       483.5000         2.8959       354.1123         2.8621      -177.7944      -3.512436      0.9698567
       484.0000         2.9017       360.1099            2.8      -177.4739      -3.203506       0.988029
       484.5000         2.9075       366.1074         2.7585      -176.9897      -2.730865              1
       485.0000         2.9165       372.1045          2.729      -176.5056      -2.258331              1
       485.5000         2.9295       378.1021         2.6995      -176.0217      -1.785995              1
       486.0000          2.944       379.5649         2.7404      -175.5842      -1.360062              1
       486.5000         2.9613       377.6772         2.9585      -175.1516     -0.9390259              1
       487.0000         2.9787       375.7891         3.2655      -174.7192     -0.5181885              1
       487.5000         3.0106       371.9307         3.5725      -174.3401     -0.1506805              1
       488.0000         3.0451       363.1953         4.3584      -173.9775      0.2003632              1
       488.5000         3.0824       354.4595         5.2309      -173.7065      0.4597931              1
