#------------------------------------------------------------------------------
# Created by    : vladimir.rabinovich
# Created on    : 09/19/2023 17:20:50
#------------------------------------------------------------------------------
~Version Information Section
VERS.           2.0     :   CWLS log ASCII Standard - VERSION 2.0
WRAP.           NO      :   One line per depth step
~Well Information Section
#MNEM       .UNIT                                         VALUE :DESCRIPTION
#------------------------------------------------------------------------------
STRT        .FT                                            2540 :START DEPTH
STOP        .FT                                            8943 :STOP DEPTH
STEP        .FT                                             0.5 :STEP      
NULL        .                                           -999.25 :NULL      
COMP        .                                 MECOM ENERGY CORP :COMPANY   
WELL        .                                          SL 00783 :WELL      
FLD         .                                           WILDCAT :FIELD     
LOC         .                                                   :LOCATION  
CNTY        .                                       SABINE PASS :LOCATION  
STAT        .                                         LOUISIANA :STATE     
CTRY        .                                     UNITED STATES :COUNTRY   
SRVC        .                                                   :SERVICE COMPANY
DATE        .                             9/13/2023 11:18:59 AM :LOG DATE  
API         .                                    17731000010000 :API NUMBER
UWI         .                                    17731000010000 :UNIQUE WELL ID
XCOORD      .                                  1377176.19909999 :SURFACE X 
YCOORD      .                                  10775304.6885056 :SURFACE Y 
LAT         .                                         29.687969 :LATITUDE  
LON         .                                        -93.829297 :LONGITUDE 
ELEV        .FT                                              11 :ELEVATION VALUE
ELEV_TYPE   .                                                KB :ELEVATION REFERENCE TYPE
~Curve Information Section
#MNEM       .UNIT                                      API CODE :CURVE DESCRIPTION
#------------------------------------------------------------------------------
DEPT        .FT                                                 :DEPTH     
ASN         .OHMM                                               :          
LAT         .OHMM                                               :          
LN          .OHMM                                               :          
SP          .MV                                                 :          
SP_NORM     .MV                                                 :SP Normalized
VSH_SP      .V/V                                                :Volume of Shale from SP
~A        DEPTH            ASN            LAT             LN             SP        SP_NORM         VSH_SP
# ...
      5504.0000         0.7568         0.5845         0.7612       -38.5289       2.832981              1
      5504.5000          0.751         0.6238         0.7612       -38.7228       2.637741              1
      5505.0000         0.7455         0.6631         0.7635       -38.9167       2.442501              1
      5505.5000         0.7405         0.7035         0.7658       -39.1078       2.250061              1
      5506.0000         0.7362         0.7443          0.768       -39.2738       2.082722              1
      5506.5000         0.7398         0.7851         0.7703       -39.4398       1.915379              1
      5507.0000         0.7435         0.7947         0.7726       -39.6058       1.748039              1
      5507.5000         0.7455         0.7937         0.7768       -39.7719       1.580601              1
      5508.0000         0.7456         0.7927          0.792       -39.9378       1.413361              1
      5508.5000         0.7457         0.7917         0.8071       -39.9433       1.406521              1
      5509.0000         0.7458         0.7805         0.8223       -39.9078       1.440681              1
      5509.5000         0.7459         0.7692         0.8375       -39.8723       1.474842              1
      5510.0000          0.746         0.7579         0.8527       -39.8326       1.513203              1
      5510.5000         0.7461         0.7467         0.8662       -39.6797       1.664761              1
      5511.0000         0.7462         0.7354         0.8769       -39.5269       1.816219              1
      5511.5000         0.7522         0.7234         0.8875       -39.3741       1.967682              1
      5512.0000         0.7587         0.7107         0.8981       -39.2213       2.119144              1
      5512.5000         0.7641         0.6979         0.9087       -39.2032       2.135899              1
      5513.0000         0.7676         0.6852         0.9184       -39.2062       2.131561              1
      5513.5000          0.771         0.6724         0.9234        -39.209       2.127422              1
      5514.0000         0.7752         0.6597         0.9285       -39.2119       2.123184              1
      5514.5000         0.7814         0.6489         0.9336       -39.2345       2.099239              1
      5515.0000         0.7875         0.6451         0.9386        -39.397       1.935402              1
      5515.5000         0.7936         0.6413         0.9437       -39.5594       1.771664              1
      5516.0000         0.7997         0.6374         0.9488       -39.7219       1.607822              1
      5516.5000         0.8057         0.6336          0.949       -39.8843        1.44408              1
      5517.0000         0.8054         0.6298         0.9462       -39.9948       1.332241              1
      5517.5000          0.802         0.6333         0.9434       -40.0709       1.254803              1
      5518.0000         0.7987         0.6439         0.9406        -40.147       1.177364              1
      5518.5000         0.7955         0.6545         0.9379        -40.223       1.100021              1
      5519.0000         0.7923         0.6651         0.9323       -40.0605       1.261181              1
      5519.5000         0.7936         0.6921         0.9236       -39.7739       1.546444              1
      5520.0000         0.7982         0.7248         0.9149       -39.4873       1.831699              1
      5520.5000         0.8037         0.7576         0.9062       -39.2007       2.116962              1
      5521.0000         0.8107         0.7793         0.8991       -39.0128       2.303524              1
      5521.5000         0.8176         0.7912         0.8926       -38.8735       2.441483              1
      5522.0000         0.8135         0.8031         0.8862       -38.7341        2.57954              1
      5522.5000         0.8075         0.8149         0.8806       -38.5947       2.717602              1
      5523.0000         0.8007         0.8198         0.8766       -38.4841       2.826862              1
      5523.5000         0.7938         0.8189         0.8727       -38.6202       2.689423              1
      5524.0000          0.787         0.8181         0.8687       -38.7563       2.551979              1
      5524.5000         0.7801         0.8172         0.8648       -38.8926       2.414341              1
      5525.0000         0.7835         0.8149         0.8683       -39.0287       2.276901              1
      5525.5000         0.7881         0.8068         0.8736       -39.3782       1.926064              1
      5526.0000         0.7928         0.7988         0.8789         -39.79        1.51292              1
      5526.5000         0.8052         0.7908         0.8842       -40.2018       1.099781              1
      5527.0000         0.8187         0.7827         0.8886       -40.6296      0.6706429              1
      5527.5000         0.8327         0.7747         0.8925       -41.2761     0.02280426              1
      5528.0000         0.8784          0.768         0.8964       -41.9221     -0.6245384              1
      5528.5000         0.9228          0.764         0.9003        -42.488      -1.191776              1
      5529.0000         0.9486           0.76         0.9042       -43.0483      -1.753418              1
      5529.5000         0.9522         0.7561         0.9016        -43.608      -2.314457      0.9834496
      5530.0000         0.9321         0.7521         0.8981       -44.0345      -2.742298      0.9609317
      5530.5000          0.915         0.7481         0.8945       -44.4335      -3.142635      0.9398613
      5531.0000         0.8986         0.7522          0.891       -44.7664      -3.476875      0.9222697
      5531.5000         0.8859         0.7583         0.8875       -44.4891      -3.200916      0.9367939
      5532.0000         0.8746         0.7643         0.8839       -44.2117      -2.924858      0.9513233
      5532.5000         0.8655         0.7704         0.8804       -43.9344      -2.648895      0.9658476
      5533.0000         0.8581         0.7768         0.8751       -43.6571      -2.372936      0.9803718
      5533.5000         0.8506         0.7896         0.8691       -43.3798      -2.096977      0.9948959
      5534.0000         0.8443         0.8024         0.8632       -43.1024      -1.820919              1
      5534.5000          0.838         0.8152         0.8573       -42.8609      -1.580757              1
      5535.0000         0.8324         0.8279         0.8513       -42.6222      -1.343395              1
      5535.5000         0.8347         0.8398         0.8454       -42.3835      -1.106037              1
      5536.0000         0.8553         0.8516         0.8395       -42.5833      -1.307178              1
      5536.5000         0.8748         0.8635          0.834       -42.8158      -1.541016              1
      5537.0000         0.8763         0.8743         0.8292       -43.0486      -1.775154              1
      5537.5000         0.8719         0.8755         0.8243       -43.4948      -2.222698       0.988279
      5538.0000          0.868         0.8766         0.8195       -43.9976      -2.726837      0.9617454
      5538.5000         0.8684         0.8777         0.8147       -44.5009      -3.231476      0.9351855
      5539.0000         0.8687         0.8713         0.8099       -45.0037      -3.735615      0.9086518
      5539.5000         0.8755         0.8644          0.805       -45.5527      -4.285957      0.8796865
      5540.0000         0.8751         0.8574         0.7982       -46.2009      -4.935497      0.8455002
      5540.5000         0.8582         0.8505         0.7905       -46.8497      -5.585636      0.8112823
      5541.0000         0.8408         0.8463         0.7829       -47.3939      -6.131176      0.7825697
      5541.5000         0.8121         0.8521         0.7752       -47.7896      -6.528217      0.7616728
